uniorb/output/strategy_2/Drop/Drop_KinoSat_110805.txt

KinoSat_110805
-------------------------
    Access    *     Start Time (UTCG)     *     Stop Time (UTCG)  *   Duration (s)        *       Station  *  Data (Mbytes)
         1   01 Jun 2027 03:35:22.423   01 Jun 2027 03:35:43.744            21.321               Magadan2           666.281
         2   01 Jun 2027 03:35:49.668   01 Jun 2027 03:36:28.683            39.015                Anadyr1          1219.219
         3   01 Jun 2027 03:36:31.282   01 Jun 2027 03:37:46.269            74.987               Magadan2          2343.344
         4   01 Jun 2027 03:37:46.269   01 Jun 2027 03:38:04.186            17.917               Magadan1           559.906
         5   01 Jun 2027 03:38:04.186   01 Jun 2027 03:38:29.226            25.040               Magadan2           782.500
         6   01 Jun 2027 03:40:48.867   01 Jun 2027 03:41:13.471            24.604               Magadan2           768.875
         7   01 Jun 2027 04:23:17.898   01 Jun 2027 04:24:20.021            62.123            RioGallegos          1941.344
         8   01 Jun 2027 05:13:20.536   01 Jun 2027 05:13:23.623             3.087                Irkutsk            96.469
         9   01 Jun 2027 05:14:31.723   01 Jun 2027 05:15:27.486            55.763                Irkutsk          1742.594
        10   01 Jun 2027 05:15:34.321   01 Jun 2027 05:16:04.857            30.536                Anadyr2           954.250
        11   01 Jun 2027 05:16:04.857   01 Jun 2027 05:16:30.320            25.463                Anadyr1           795.719
        12   01 Jun 2027 06:48:12.711   01 Jun 2027 06:48:34.599            21.888                Irkutsk           684.000
        13   01 Jun 2027 06:49:12.117   01 Jun 2027 06:49:36.121            24.004               Magadan2           750.125
        14   01 Jun 2027 06:50:02.873   01 Jun 2027 06:51:23.605            80.732                Irkutsk          2522.875
        15   01 Jun 2027 06:51:38.676   01 Jun 2027 06:52:53.941            75.265               Magadan2          2352.031
        16   01 Jun 2027 06:53:13.866   01 Jun 2027 06:53:47.781            33.915              Murmansk2          1059.844
        17   01 Jun 2027 06:53:47.781   01 Jun 2027 06:54:53.910            66.129              Murmansk1          2066.531
        18   01 Jun 2027 06:57:12.121   01 Jun 2027 06:57:28.582            16.461                Norilsk           514.406
        19   01 Jun 2027 06:57:37.658   01 Jun 2027 06:57:46.877             9.219                Norilsk           288.094
        20   01 Jun 2027 07:28:15.144   01 Jun 2027 07:28:15.678             0.534            RioGallegos            16.687
        21   01 Jun 2027 07:28:45.035   01 Jun 2027 07:30:02.259            77.224            RioGallegos          2413.250
        22   01 Jun 2027 07:33:23.412   01 Jun 2027 07:33:43.247            19.835            RioGallegos           619.844
        23   01 Jun 2027 07:35:34.873   01 Jun 2027 07:36:03.240            28.367            RioGallegos           886.469
        24   01 Jun 2027 07:36:18.398   01 Jun 2027 07:37:02.301            43.903            RioGallegos          1371.969
        25   01 Jun 2027 08:03:22.131   01 Jun 2027 08:04:39.339            77.208                Sumatra          2412.750
        26   01 Jun 2027 08:06:07.677   01 Jun 2027 08:07:06.725            59.048                Sumatra          1845.250
        27   01 Jun 2027 08:15:09.606   01 Jun 2027 08:16:58.552           108.946                  Delhi          3404.562
        28   01 Jun 2027 08:19:50.781   01 Jun 2027 08:22:01.181           130.400                  Delhi          4075.000
        29   01 Jun 2027 08:24:12.412   01 Jun 2027 08:24:39.200            26.788                Novosib           837.125
        30   01 Jun 2027 08:25:50.364   01 Jun 2027 08:26:40.023            49.659                Irkutsk          1551.844
        31   01 Jun 2027 08:27:48.854   01 Jun 2027 08:29:26.889            98.035                Irkutsk          3063.594
        32   01 Jun 2027 08:29:32.957   01 Jun 2027 08:31:59.870           146.913              Murmansk1          4591.031
        33   01 Jun 2027 08:32:09.899   01 Jun 2027 08:32:21.949            12.050                Norilsk           376.563
        34   01 Jun 2027 08:32:58.838   01 Jun 2027 08:33:27.823            28.985                Norilsk           905.781
        35   01 Jun 2027 09:06:45.796   01 Jun 2027 09:07:31.419            45.623            RioGallegos          1425.719
        36   01 Jun 2027 09:08:49.655   01 Jun 2027 09:09:19.572            29.917            RioGallegos           934.906
        37   01 Jun 2027 09:41:04.718   01 Jun 2027 09:42:55.088           110.370                Sumatra          3449.063
        38   01 Jun 2027 09:47:21.103   01 Jun 2027 09:47:24.539             3.436                  Delhi           107.375
        39   01 Jun 2027 09:50:33.272   01 Jun 2027 09:50:56.502            23.230                  Delhi           725.937
        40   01 Jun 2027 09:51:21.082   01 Jun 2027 09:51:49.255            28.173                  Delhi           880.406
        41   01 Jun 2027 09:59:12.803   01 Jun 2027 09:59:29.328            16.525                 Moscow           516.406
        42   01 Jun 2027 10:03:44.764   01 Jun 2027 10:08:31.590           286.826                Norilsk          8963.312
        43   01 Jun 2027 10:08:36.658   01 Jun 2027 10:09:02.245            25.587              Murmansk1           799.594
        44   01 Jun 2027 10:11:05.526   01 Jun 2027 10:11:56.407            50.881              Murmansk2          1590.031
        45   01 Jun 2027 11:26:52.481   01 Jun 2027 11:29:48.650           176.169                  Delhi          5505.281
        46   01 Jun 2027 11:35:50.145   01 Jun 2027 11:36:20.154            30.009                 Moscow           937.781
        47   01 Jun 2027 11:36:25.971   01 Jun 2027 11:36:37.116            11.145              Murmansk2           348.281
        48   01 Jun 2027 11:36:37.116   01 Jun 2027 11:37:26.442            49.326              Murmansk1          1541.438
        49   01 Jun 2027 11:37:38.308   01 Jun 2027 11:41:52.061           253.753              Murmansk1          7929.781
        50   01 Jun 2027 11:41:54.544   01 Jun 2027 11:42:02.898             8.354                 Moscow           261.063
        51   01 Jun 2027 11:42:09.889   01 Jun 2027 11:43:51.810           101.921                 Moscow          3185.031
        52   01 Jun 2027 12:47:36.372   01 Jun 2027 12:50:12.123           155.751               CapeTown          4867.219
        53   01 Jun 2027 12:53:23.030   01 Jun 2027 12:53:51.119            28.089               CapeTown           877.781
        54   01 Jun 2027 13:08:23.500   01 Jun 2027 13:09:12.012            48.512                 Moscow          1516.000
        55   01 Jun 2027 13:11:47.258   01 Jun 2027 13:14:30.937           163.679              Murmansk1          5114.969
        56   01 Jun 2027 13:18:08.500   01 Jun 2027 13:18:29.059            20.559              Murmansk2           642.469
        57   01 Jun 2027 13:18:41.312   01 Jun 2027 13:19:14.988            33.676              Murmansk2          1052.375
        58   01 Jun 2027 13:26:35.360   01 Jun 2027 13:30:22.183           226.823                Anadyr1          7088.219
        59   01 Jun 2027 13:30:24.390   01 Jun 2027 13:33:29.037           184.647                Anadyr2          5770.219
        60   01 Jun 2027 14:53:47.686   01 Jun 2027 14:54:35.310            47.624              Murmansk1          1488.250
        61   01 Jun 2027 15:01:51.102   01 Jun 2027 15:04:09.538           138.436                Anadyr2          4326.125
        62   01 Jun 2027 15:04:26.058   01 Jun 2027 15:05:05.210            39.152                Anadyr2          1223.500
        63   01 Jun 2027 15:06:17.956   01 Jun 2027 15:10:50.430           272.474               Magadan1          8514.813
        64   01 Jun 2027 16:37:43.205   01 Jun 2027 16:40:16.252           153.047                Anadyr2          4782.719
        65   01 Jun 2027 16:41:10.787   01 Jun 2027 16:44:14.073           183.286               Magadan1          5727.688
        66   01 Jun 2027 16:48:28.177   01 Jun 2027 16:50:41.744           133.567               Magadan1          4173.969
        67   01 Jun 2027 18:13:36.814   01 Jun 2027 18:15:10.452            93.638                Anadyr2          2926.187
        68   01 Jun 2027 18:15:20.989   01 Jun 2027 18:15:57.643            36.654                Anadyr1          1145.437
        69   01 Jun 2027 18:16:03.423   01 Jun 2027 18:17:25.888            82.465               Magadan2          2577.031
        70   01 Jun 2027 18:17:26.560   01 Jun 2027 18:19:55.865           149.305                Norilsk          4665.781
        71   01 Jun 2027 18:23:18.543   01 Jun 2027 18:25:21.945           123.402                Irkutsk          3856.312
        72   01 Jun 2027 19:07:58.102   01 Jun 2027 19:08:30.211            32.109            RioGallegos          1003.406
        73   01 Jun 2027 19:09:06.443   01 Jun 2027 19:10:41.826            95.383            RioGallegos          2980.719
        74   01 Jun 2027 19:51:58.314   01 Jun 2027 19:53:17.585            79.271               Magadan1          2477.219
        75   01 Jun 2027 19:53:17.585   01 Jun 2027 19:53:44.323            26.738               Magadan2           835.562
        76   01 Jun 2027 19:54:36.137   01 Jun 2027 19:55:24.519            48.382               Magadan1          1511.937
        77   01 Jun 2027 19:55:35.429   01 Jun 2027 19:55:40.094             4.665                Irkutsk           145.781
        78   01 Jun 2027 19:56:31.318   01 Jun 2027 19:57:01.650            30.332                Norilsk           947.875
        79   01 Jun 2027 19:57:11.962   01 Jun 2027 20:01:23.686           251.724                Novosib          7866.375
        80   01 Jun 2027 20:03:04.959   01 Jun 2027 20:03:39.643            34.684                Novosib          1083.875
        81   01 Jun 2027 20:09:17.303   01 Jun 2027 20:10:29.021            71.718                Sumatra          2241.188
        82   01 Jun 2027 20:12:13.244   01 Jun 2027 20:12:35.029            21.785                Sumatra           680.781
        83   01 Jun 2027 20:18:47.131   01 Jun 2027 20:19:42.909            55.778                Sumatra          1743.062
        84   01 Jun 2027 21:29:42.773   01 Jun 2027 21:29:48.660             5.887                Norilsk           183.969
        85   01 Jun 2027 21:30:13.852   01 Jun 2027 21:30:36.621            22.769                Norilsk           711.531
        86   01 Jun 2027 21:31:18.585   01 Jun 2027 21:31:38.316            19.731                Irkutsk           616.594
        87   01 Jun 2027 21:31:48.802   01 Jun 2027 21:33:26.442            97.640                Novosib          3051.250
        88   01 Jun 2027 21:35:45.692   01 Jun 2027 21:37:13.562            87.870                Novosib          2745.937
        89   01 Jun 2027 21:39:02.512   01 Jun 2027 21:41:08.284           125.772                  Delhi          3930.375
        90   01 Jun 2027 21:42:30.459   01 Jun 2027 21:42:47.659            17.200                  Delhi           537.500
        91   01 Jun 2027 21:49:01.695   01 Jun 2027 21:50:01.483            59.788                  Delhi          1868.375
        92   01 Jun 2027 23:00:13.269   01 Jun 2027 23:00:20.891             7.622                Anadyr1           238.187
        93   01 Jun 2027 23:01:10.305   01 Jun 2027 23:02:28.997            78.692                Anadyr1          2459.125
        94   01 Jun 2027 23:03:21.536   01 Jun 2027 23:05:21.423           119.887               Magadan1          3746.469
        95   01 Jun 2027 23:05:45.474   01 Jun 2027 23:10:34.549           289.075              Murmansk1          9033.594
        96   01 Jun 2027 23:11:45.162   01 Jun 2027 23:12:51.788            66.626                 Moscow          2082.062
        97   01 Jun 2027 23:14:06.087   01 Jun 2027 23:14:49.857            43.770                 Moscow          1367.813
        98   01 Jun 2027 23:16:39.223   01 Jun 2027 23:17:33.178            53.955                 Moscow          1686.094
        99   02 Jun 2027 00:35:08.298   02 Jun 2027 00:35:39.435            31.137                Anadyr2           973.031
       100   02 Jun 2027 00:36:14.773   02 Jun 2027 00:36:26.007            11.234                Anadyr2           351.062
       101   02 Jun 2027 00:36:26.007   02 Jun 2027 00:36:47.469            21.462                Anadyr1           670.688
       102   02 Jun 2027 00:36:48.868   02 Jun 2027 00:37:38.080            49.212               Magadan1          1537.875
       103   02 Jun 2027 00:38:05.648   02 Jun 2027 00:38:11.577             5.929               Magadan2           185.281
       104   02 Jun 2027 00:39:20.984   02 Jun 2027 00:39:24.463             3.479               Magadan2           108.719
       105   02 Jun 2027 00:40:07.504   02 Jun 2027 00:40:36.863            29.359               Magadan2           917.469
       106   02 Jun 2027 00:40:39.639   02 Jun 2027 00:40:50.144            10.505                Norilsk           328.281
       107   02 Jun 2027 00:40:57.200   02 Jun 2027 00:41:30.111            32.911               Magadan1          1028.469
       108   02 Jun 2027 00:41:32.969   02 Jun 2027 00:43:05.714            92.745              Murmansk1          2898.281
       109   02 Jun 2027 00:43:58.793   02 Jun 2027 00:44:24.015            25.222              Murmansk2           788.187
       110   02 Jun 2027 00:44:52.364   02 Jun 2027 00:45:38.415            46.051                 Moscow          1439.094
       111   02 Jun 2027 00:47:32.824   02 Jun 2027 00:47:42.757             9.933                 Moscow           310.406
       112   02 Jun 2027 00:48:08.681   02 Jun 2027 00:48:15.542             6.861                 Moscow           214.406
       113   02 Jun 2027 00:48:58.105   02 Jun 2027 00:49:43.241            45.136                 Moscow          1410.500
       114   02 Jun 2027 00:52:54.022   02 Jun 2027 00:53:21.781            27.759              Murmansk2           867.469
       115   02 Jun 2027 00:56:17.642   02 Jun 2027 00:57:26.686            69.044                 Moscow          2157.625
       116   02 Jun 2027 01:12:50.873   02 Jun 2027 01:13:26.379            35.506               CapeTown          1109.563
       117   02 Jun 2027 01:16:04.633   02 Jun 2027 01:16:23.935            19.302               CapeTown           603.188
       118   02 Jun 2027 01:18:27.664   02 Jun 2027 01:20:06.522            98.858               CapeTown          3089.312
       119   02 Jun 2027 02:07:35.188   02 Jun 2027 02:07:58.676            23.488               Magadan1           734.000
       120   02 Jun 2027 02:08:35.068   02 Jun 2027 02:09:40.729            65.661               Magadan2          2051.906
       121   02 Jun 2027 02:14:28.248   02 Jun 2027 02:14:47.722            19.474                Norilsk           608.562
       122   02 Jun 2027 02:15:51.698   02 Jun 2027 02:16:15.362            23.664               Magadan2           739.500
       123   02 Jun 2027 02:16:33.405   02 Jun 2027 02:16:56.835            23.430                Norilsk           732.187
       124   02 Jun 2027 02:17:31.094   02 Jun 2027 02:17:41.984            10.890              Murmansk1           340.313
       125   02 Jun 2027 02:17:41.984   02 Jun 2027 02:18:25.059            43.075              Murmansk2          1346.094
       126   02 Jun 2027 02:19:28.839   02 Jun 2027 02:19:55.293            26.454              Murmansk1           826.687
       127   02 Jun 2027 02:20:52.595   02 Jun 2027 02:21:35.693            43.098              Murmansk1          1346.812
       128   02 Jun 2027 02:24:58.785   02 Jun 2027 02:25:04.544             5.759              Murmansk1           179.969
       129   02 Jun 2027 02:25:35.093   02 Jun 2027 02:25:57.244            22.151              Murmansk2           692.219
       130   02 Jun 2027 02:27:03.850   02 Jun 2027 02:27:14.309            10.459                 Moscow           326.844
       131   02 Jun 2027 02:28:21.206   02 Jun 2027 02:28:31.506            10.300              Murmansk2           321.875
       132   02 Jun 2027 02:28:47.100   02 Jun 2027 02:28:51.262             4.162              Murmansk2           130.063
       133   02 Jun 2027 02:28:58.757   02 Jun 2027 02:29:26.527            27.770              Murmansk1           867.812
       134   02 Jun 2027 02:31:49.399   02 Jun 2027 02:32:48.509            59.110                 Moscow          1847.187
       135   02 Jun 2027 02:52:17.529   02 Jun 2027 02:52:28.041            10.512               CapeTown           328.500
       136   02 Jun 2027 02:53:05.532   02 Jun 2027 02:54:59.578           114.046               CapeTown          3563.937
       137   02 Jun 2027 03:46:23.140   02 Jun 2027 03:47:01.448            38.308               Magadan1          1197.125
       138   02 Jun 2027 03:48:43.586   02 Jun 2027 03:50:04.952            81.366                Anadyr2          2542.688
       139   02 Jun 2027 03:50:04.952   02 Jun 2027 03:50:21.382            16.430                Anadyr1           513.437
       140   02 Jun 2027 03:50:28.018   02 Jun 2027 03:50:28.934             0.916               Magadan1            28.625
       141   02 Jun 2027 03:50:33.699   02 Jun 2027 03:51:52.612            78.913                Anadyr2          2466.031
       142   02 Jun 2027 03:52:14.606   02 Jun 2027 03:52:49.199            34.593                Anadyr1          1081.031
       143   02 Jun 2027 03:52:49.199   02 Jun 2027 03:53:49.974            60.775                Anadyr2          1899.219
       144   02 Jun 2027 03:53:49.974   02 Jun 2027 03:54:12.343            22.369                Anadyr1           699.031
       145   02 Jun 2027 05:22:56.568   02 Jun 2027 05:23:22.226            25.658                Irkutsk           801.812
       146   02 Jun 2027 05:24:40.145   02 Jun 2027 05:26:20.837           100.692               Magadan1          3146.625
       147   02 Jun 2027 05:26:39.730   02 Jun 2027 05:28:15.768            96.038                Anadyr1          3001.188
       148   02 Jun 2027 05:28:47.947   02 Jun 2027 05:29:22.983            35.036               Magadan2          1094.875
       149   02 Jun 2027 06:12:39.762   02 Jun 2027 06:12:48.345             8.583            RioGallegos           268.219
       150   02 Jun 2027 06:59:17.263   02 Jun 2027 06:59:46.744            29.481                Novosib           921.281
       151   02 Jun 2027 07:00:15.087   02 Jun 2027 07:00:37.534            22.447                Irkutsk           701.469
       152   02 Jun 2027 07:02:07.515   02 Jun 2027 07:03:18.405            70.890               Magadan2          2215.313
       153   02 Jun 2027 07:03:41.482   02 Jun 2027 07:04:38.404            56.922               Magadan2          1778.813
       154   02 Jun 2027 07:04:44.737   02 Jun 2027 07:04:44.772             0.035                Novosib             1.094
       155   02 Jun 2027 07:04:45.516   02 Jun 2027 07:05:52.438            66.922              Murmansk2          2091.313
       156   02 Jun 2027 07:06:02.565   02 Jun 2027 07:06:04.361             1.796                Norilsk            56.125
       157   02 Jun 2027 07:07:40.530   02 Jun 2027 07:08:31.186            50.656                Norilsk          1583.000
       158   02 Jun 2027 07:10:25.534   02 Jun 2027 07:10:52.000            26.466              Murmansk2           827.063
       159   02 Jun 2027 07:40:20.938   02 Jun 2027 07:40:43.945            23.007            RioGallegos           718.969
       160   02 Jun 2027 07:40:58.072   02 Jun 2027 07:41:53.896            55.824            RioGallegos          1744.500
       161   02 Jun 2027 07:45:21.331   02 Jun 2027 07:45:46.138            24.807            RioGallegos           775.219
       162   02 Jun 2027 07:47:57.829   02 Jun 2027 07:48:03.177             5.348            RioGallegos           167.125
       163   02 Jun 2027 07:50:37.067   02 Jun 2027 07:50:45.409             8.342            RioGallegos           260.687
       164   02 Jun 2027 08:15:13.942   02 Jun 2027 08:16:16.743            62.801                Sumatra          1962.531
       165   02 Jun 2027 08:17:54.947   02 Jun 2027 08:18:33.117            38.170                Sumatra          1192.813
       166   02 Jun 2027 08:19:30.108   02 Jun 2027 08:20:45.820            75.712                Sumatra          2366.000
       167   02 Jun 2027 08:26:10.170   02 Jun 2027 08:28:31.246           141.076                  Delhi          4408.625
       168   02 Jun 2027 08:30:18.896   02 Jun 2027 08:31:59.677           100.781                  Delhi          3149.406
       169   02 Jun 2027 08:37:22.630   02 Jun 2027 08:37:51.982            29.352                Norilsk           917.250
       170   02 Jun 2027 08:37:58.113   02 Jun 2027 08:38:40.386            42.273              Murmansk2          1321.031
       171   02 Jun 2027 08:38:40.386   02 Jun 2027 08:38:45.235             4.849              Murmansk1           151.531
       172   02 Jun 2027 08:38:56.505   02 Jun 2027 08:39:10.384            13.879                Irkutsk           433.719
       173   02 Jun 2027 08:39:13.878   02 Jun 2027 08:40:35.247            81.369              Murmansk2          2542.781
       174   02 Jun 2027 08:40:41.797   02 Jun 2027 08:41:23.496            41.699                Irkutsk          1303.094
       175   02 Jun 2027 08:41:34.109   02 Jun 2027 08:42:58.219            84.110              Murmansk1          2628.438
       176   02 Jun 2027 09:20:09.401   02 Jun 2027 09:20:45.376            35.975            RioGallegos          1124.219
       177   02 Jun 2027 09:54:18.653   02 Jun 2027 09:55:31.598            72.945                Sumatra          2279.531
       178   02 Jun 2027 09:57:34.317   02 Jun 2027 09:57:50.934            16.617                Sumatra           519.281
       179   02 Jun 2027 09:59:22.718   02 Jun 2027 10:00:04.354            41.636                  Delhi          1301.125
       180   02 Jun 2027 10:03:39.519   02 Jun 2027 10:04:08.367            28.848                  Delhi           901.500
       181   02 Jun 2027 10:13:29.087   02 Jun 2027 10:13:42.137            13.050                Irkutsk           407.812
       182   02 Jun 2027 10:13:50.811   02 Jun 2027 10:14:26.428            35.617                 Moscow          1113.031
       183   02 Jun 2027 10:14:34.321   02 Jun 2027 10:14:59.343            25.022                Norilsk           781.938
       184   02 Jun 2027 10:15:12.186   02 Jun 2027 10:15:44.061            31.875              Murmansk1           996.094
       185   02 Jun 2027 10:15:56.101   02 Jun 2027 10:16:25.366            29.265                Novosib           914.531
       186   02 Jun 2027 10:16:27.122   02 Jun 2027 10:16:36.921             9.799                 Moscow           306.219
       187   02 Jun 2027 10:16:40.964   02 Jun 2027 10:16:47.940             6.976                Novosib           218.000
       188   02 Jun 2027 10:16:56.110   02 Jun 2027 10:17:08.611            12.501                Norilsk           390.656
       189   02 Jun 2027 10:17:24.034   02 Jun 2027 10:17:41.189            17.155                 Moscow           536.094
       190   02 Jun 2027 10:19:34.536   02 Jun 2027 10:19:44.440             9.904                 Moscow           309.500
       191   02 Jun 2027 11:45:52.988   02 Jun 2027 11:46:14.016            21.028                 Moscow           657.125
       192   02 Jun 2027 11:47:04.054   02 Jun 2027 11:47:13.898             9.844                 Moscow           307.625
       193   02 Jun 2027 11:47:15.693   02 Jun 2027 11:48:05.404            49.711              Murmansk2          1553.469
       194   02 Jun 2027 11:48:14.788   02 Jun 2027 11:48:49.108            34.320              Murmansk2          1072.500
       195   02 Jun 2027 11:48:58.270   02 Jun 2027 11:49:28.109            29.839              Murmansk1           932.469
       196   02 Jun 2027 11:49:35.929   02 Jun 2027 11:49:43.262             7.333                 Moscow           229.156
       197   02 Jun 2027 11:49:52.478   02 Jun 2027 11:49:59.375             6.897                Novosib           215.531
       198   02 Jun 2027 11:50:02.425   02 Jun 2027 11:51:15.099            72.674                 Moscow          2271.062
       199   02 Jun 2027 11:51:25.567   02 Jun 2027 11:52:31.344            65.777              Murmansk1          2055.531
       200   02 Jun 2027 11:52:31.976   02 Jun 2027 11:52:43.813            11.837                 Moscow           369.906
       201   02 Jun 2027 11:52:45.308   02 Jun 2027 11:53:23.379            38.071              Murmansk1          1189.719
       202   02 Jun 2027 11:53:25.382   02 Jun 2027 11:53:53.518            28.136              Murmansk2           879.250
       203   02 Jun 2027 11:54:00.377   02 Jun 2027 11:54:45.170            44.793                 Moscow          1399.781
       204   02 Jun 2027 11:56:04.270   02 Jun 2027 11:56:11.496             7.226              Murmansk1           225.813
       205   02 Jun 2027 12:58:54.557   02 Jun 2027 13:01:56.550           181.993               CapeTown          5687.281
       206   02 Jun 2027 13:05:36.932   02 Jun 2027 13:06:19.761            42.829               CapeTown          1338.406
       207   02 Jun 2027 13:24:01.627   02 Jun 2027 13:27:27.705           206.078              Murmansk2          6439.938
       208   02 Jun 2027 13:28:10.710   02 Jun 2027 13:28:13.459             2.749              Murmansk2            85.906
       209   02 Jun 2027 13:29:01.950   02 Jun 2027 13:29:03.435             1.485              Murmansk1            46.406
       210   02 Jun 2027 13:30:27.239   02 Jun 2027 13:30:42.358            15.119              Murmansk1           472.469
       211   02 Jun 2027 13:31:55.342   02 Jun 2027 13:32:01.769             6.427              Murmansk1           200.844
       212   02 Jun 2027 13:32:40.784   02 Jun 2027 13:33:42.070            61.286              Murmansk2          1915.187
       213   02 Jun 2027 13:38:26.251   02 Jun 2027 13:42:00.883           214.632                Anadyr1          6707.250
       214   02 Jun 2027 13:43:55.550   02 Jun 2027 13:44:21.593            26.043                Anadyr1           813.844
       215   02 Jun 2027 13:45:30.292   02 Jun 2027 13:46:27.033            56.741                Anadyr2          1773.156
       216   02 Jun 2027 15:03:01.503   02 Jun 2027 15:03:58.661            57.158              Murmansk2          1786.188
       217   02 Jun 2027 15:07:55.259   02 Jun 2027 15:08:10.086            14.827              Murmansk2           463.344
       218   02 Jun 2027 15:09:40.297   02 Jun 2027 15:09:56.038            15.741              Murmansk2           491.906
       219   02 Jun 2027 15:11:37.087   02 Jun 2027 15:11:52.697            15.610              Murmansk1           487.813
       220   02 Jun 2027 15:13:51.132   02 Jun 2027 15:15:37.075           105.943                Anadyr2          3310.719
       221   02 Jun 2027 15:16:21.422   02 Jun 2027 15:16:38.903            17.481                Anadyr2           546.281
       222   02 Jun 2027 15:17:04.631   02 Jun 2027 15:17:53.079            48.448                Anadyr2          1514.000
       223   02 Jun 2027 15:18:56.905   02 Jun 2027 15:23:44.261           287.356               Magadan1          8979.875
       224   02 Jun 2027 16:50:54.305   02 Jun 2027 16:51:16.148            21.843                Anadyr1           682.594
       225   02 Jun 2027 16:52:09.507   02 Jun 2027 16:54:10.539           121.032               Magadan2          3782.250
       226   02 Jun 2027 16:54:12.303   02 Jun 2027 16:54:28.317            16.014               Magadan1           500.437
       227   02 Jun 2027 16:55:09.480   02 Jun 2027 16:55:18.836             9.356               Magadan1           292.375
       228   02 Jun 2027 16:59:50.352   02 Jun 2027 17:00:10.987            20.635               Magadan2           644.844
       229   02 Jun 2027 17:03:11.240   02 Jun 2027 17:03:48.984            37.744               Magadan2          1179.500
       230   02 Jun 2027 18:25:36.986   02 Jun 2027 18:29:32.299           235.313                Anadyr1          7353.531
       231   02 Jun 2027 18:30:07.620   02 Jun 2027 18:31:52.992           105.372                Norilsk          3292.875
       232   02 Jun 2027 18:33:18.757   02 Jun 2027 18:33:53.512            34.755                Norilsk          1086.094
       233   02 Jun 2027 18:34:20.241   02 Jun 2027 18:36:35.797           135.556                Irkutsk          4236.125
       234   02 Jun 2027 18:39:15.269   02 Jun 2027 18:39:21.316             6.047                Irkutsk           188.969
       235   02 Jun 2027 19:19:49.676   02 Jun 2027 19:21:34.981           105.305            RioGallegos          3290.781
       236   02 Jun 2027 20:03:29.590   02 Jun 2027 20:04:57.076            87.486                Norilsk          2733.938
       237   02 Jun 2027 20:06:50.450   02 Jun 2027 20:07:40.811            50.361                Norilsk          1573.781
       238   02 Jun 2027 20:08:44.027   02 Jun 2027 20:13:17.603           273.576                Novosib          8549.250
       239   02 Jun 2027 20:13:42.693   02 Jun 2027 20:15:09.425            86.732                Novosib          2710.375
       240   02 Jun 2027 20:22:02.261   02 Jun 2027 20:22:59.242            56.981                Sumatra          1780.656
       241   02 Jun 2027 21:41:03.184   02 Jun 2027 21:41:28.015            24.831               Magadan2           775.969
       242   02 Jun 2027 21:42:47.418   02 Jun 2027 21:43:00.693            13.275                Norilsk           414.844
       243   02 Jun 2027 21:43:21.265   02 Jun 2027 21:44:26.869            65.604                Novosib          2050.125
       244   02 Jun 2027 21:44:34.970   02 Jun 2027 21:44:39.809             4.839              Murmansk1           151.219
       245   02 Jun 2027 21:45:24.597   02 Jun 2027 21:46:09.055            44.458                Novosib          1389.312
       246   02 Jun 2027 21:50:51.178   02 Jun 2027 21:54:20.267           209.089                  Delhi          6534.031
       247   02 Jun 2027 22:02:26.979   02 Jun 2027 22:02:45.627            18.648                  Delhi           582.750
       248   02 Jun 2027 23:15:06.117   02 Jun 2027 23:15:43.468            37.351               Magadan2          1167.219
       249   02 Jun 2027 23:16:06.515   02 Jun 2027 23:16:52.887            46.372               Magadan1          1449.125
       250   02 Jun 2027 23:17:29.572   02 Jun 2027 23:17:31.387             1.815               Magadan1            56.719
       251   02 Jun 2027 23:17:43.989   02 Jun 2027 23:19:40.234           116.245              Murmansk1          3632.656
       252   02 Jun 2027 23:19:42.532   02 Jun 2027 23:23:00.451           197.919              Murmansk2          6184.969
       253   02 Jun 2027 23:23:47.562   02 Jun 2027 23:26:39.090           171.528                 Moscow          5360.250
       254   02 Jun 2027 23:50:06.196   02 Jun 2027 23:51:08.158            61.962               CapeTown          1936.312
       255   03 Jun 2027 00:48:19.797   03 Jun 2027 00:48:26.528             6.731               Magadan1           210.344
       256   03 Jun 2027 00:49:11.250   03 Jun 2027 00:49:20.058             8.808               Magadan2           275.250
       257   03 Jun 2027 00:50:49.537   03 Jun 2027 00:52:08.958            79.421               Magadan2          2481.906
       258   03 Jun 2027 00:53:34.507   03 Jun 2027 00:53:50.800            16.293              Murmansk1           509.156
       259   03 Jun 2027 00:53:50.800   03 Jun 2027 00:55:01.293            70.493              Murmansk2          2202.906
       260   03 Jun 2027 00:55:31.162   03 Jun 2027 00:56:02.456            31.294              Murmansk2           977.938
       261   03 Jun 2027 00:58:44.582   03 Jun 2027 00:58:51.944             7.362                 Moscow           230.062
       262   03 Jun 2027 01:00:04.165   03 Jun 2027 01:00:13.564             9.399                 Moscow           293.719
       263   03 Jun 2027 01:02:14.690   03 Jun 2027 01:02:28.001            13.311                 Moscow           415.969
       264   03 Jun 2027 01:04:57.677   03 Jun 2027 01:05:00.580             2.903                 Moscow            90.719
       265   03 Jun 2027 01:06:25.218   03 Jun 2027 01:08:14.268           109.050                 Moscow          3407.813
       266   03 Jun 2027 01:29:05.155   03 Jun 2027 01:29:54.584            49.429               CapeTown          1544.656
       267   03 Jun 2027 02:17:25.119   03 Jun 2027 02:17:35.041             9.922                Anadyr2           310.062
       268   03 Jun 2027 02:17:44.218   03 Jun 2027 02:18:23.974            39.756                Anadyr1          1242.375
       269   03 Jun 2027 02:19:13.078   03 Jun 2027 02:20:17.146            64.068               Magadan2          2002.125
       270   03 Jun 2027 02:21:36.347   03 Jun 2027 02:22:40.488            64.141               Magadan2          2004.406
       271   03 Jun 2027 02:28:10.397   03 Jun 2027 02:28:32.189            21.792                Norilsk           681.000
       272   03 Jun 2027 02:29:32.479   03 Jun 2027 02:30:51.158            78.679              Murmansk2          2458.719
       273   03 Jun 2027 02:31:11.911   03 Jun 2027 02:31:22.945            11.034              Murmansk2           344.812
       274   03 Jun 2027 02:32:41.496   03 Jun 2027 02:33:30.540            49.044              Murmansk1          1532.625
       275   03 Jun 2027 02:39:02.335   03 Jun 2027 02:39:12.569            10.234                 Moscow           319.813
       276   03 Jun 2027 02:39:57.046   03 Jun 2027 02:41:20.060            83.014                 Moscow          2594.187
       277   03 Jun 2027 03:02:49.555   03 Jun 2027 03:03:02.062            12.507               CapeTown           390.844
       278   03 Jun 2027 03:04:11.020   03 Jun 2027 03:04:55.378            44.358               CapeTown          1386.188
       279   03 Jun 2027 03:58:20.902   03 Jun 2027 03:58:54.466            33.564               Magadan1          1048.875
       280   03 Jun 2027 04:00:03.429   03 Jun 2027 04:00:42.001            38.572                Anadyr2          1205.375
       281   03 Jun 2027 04:00:54.146   03 Jun 2027 04:01:47.324            53.178               Magadan2          1661.813
       282   03 Jun 2027 04:02:06.143   03 Jun 2027 04:02:40.123            33.980                Anadyr2          1061.875
       283   03 Jun 2027 04:02:40.123   03 Jun 2027 04:04:14.839            94.716                Anadyr1          2959.875
       284   03 Jun 2027 04:04:33.759   03 Jun 2027 04:05:58.356            84.597               Magadan2          2643.656
       285   03 Jun 2027 04:50:14.157   03 Jun 2027 04:52:00.623           106.466            RioGallegos          3327.062
       286   03 Jun 2027 05:35:47.562   03 Jun 2027 05:36:11.643            24.081               Magadan2           752.531
       287   03 Jun 2027 05:36:11.643   03 Jun 2027 05:37:37.047            85.404               Magadan1          2668.875
       288   03 Jun 2027 05:37:39.497   03 Jun 2027 05:37:47.479             7.982               Magadan1           249.438
       289   03 Jun 2027 05:37:54.421   03 Jun 2027 05:41:18.826           204.405                Anadyr1          6387.656
       290   03 Jun 2027 05:41:25.704   03 Jun 2027 05:41:45.804            20.100               Magadan1           628.125
       291   03 Jun 2027 05:41:48.910   03 Jun 2027 05:41:51.791             2.881                Norilsk            90.031
       292   03 Jun 2027 06:56:00.661   03 Jun 2027 06:57:41.873           101.212                Sumatra          3162.875
       293   03 Jun 2027 06:59:50.063   03 Jun 2027 07:00:10.631            20.568                Sumatra           642.750
       294   03 Jun 2027 07:11:56.382   03 Jun 2027 07:12:16.670            20.288                Irkutsk           634.000
       295   03 Jun 2027 07:12:19.375   03 Jun 2027 07:12:25.548             6.173                Novosib           192.906
       296   03 Jun 2027 07:12:28.414   03 Jun 2027 07:12:40.716            12.302               Magadan2           384.437
       297   03 Jun 2027 07:12:56.010   03 Jun 2027 07:14:18.236            82.226                Novosib          2569.562
       298   03 Jun 2027 07:14:20.448   03 Jun 2027 07:14:30.700            10.252                Irkutsk           320.375
       299   03 Jun 2027 07:14:40.530   03 Jun 2027 07:14:42.909             2.379                Norilsk            74.344
       300   03 Jun 2027 07:15:01.058   03 Jun 2027 07:15:14.134            13.076                Irkutsk           408.625
       301   03 Jun 2027 07:15:16.332   03 Jun 2027 07:15:32.068            15.736               Magadan2           491.750
       302   03 Jun 2027 07:15:35.872   03 Jun 2027 07:16:23.725            47.853              Murmansk1          1495.406
       303   03 Jun 2027 07:16:29.382   03 Jun 2027 07:17:08.803            39.421                Irkutsk          1231.906
       304   03 Jun 2027 07:17:25.303   03 Jun 2027 07:17:38.125            12.822                Novosib           400.687
       305   03 Jun 2027 07:17:40.513   03 Jun 2027 07:17:45.747             5.234              Murmansk1           163.563
       306   03 Jun 2027 07:17:45.747   03 Jun 2027 07:18:03.428            17.681              Murmansk2           552.531
       307   03 Jun 2027 07:18:30.715   03 Jun 2027 07:18:32.355             1.640              Murmansk1            51.250
       308   03 Jun 2027 07:21:44.804   03 Jun 2027 07:22:18.315            33.511              Murmansk2          1047.219
       309   03 Jun 2027 07:52:30.310   03 Jun 2027 07:53:18.353            48.043            RioGallegos          1501.344
       310   03 Jun 2027 08:01:04.990   03 Jun 2027 08:02:15.018            70.028            RioGallegos          2188.375
       311   03 Jun 2027 08:27:11.455   03 Jun 2027 08:27:31.310            19.855                Sumatra           620.469
       312   03 Jun 2027 08:35:40.809   03 Jun 2027 08:36:46.190            65.381                Sumatra          2043.156
       313   03 Jun 2027 08:37:25.240   03 Jun 2027 08:38:57.679            92.439                  Delhi          2888.719
       314   03 Jun 2027 08:42:33.760   03 Jun 2027 08:43:50.881            77.121                  Delhi          2410.031
       315   03 Jun 2027 08:48:06.883   03 Jun 2027 08:48:28.347            21.464                Novosib           670.750
       316   03 Jun 2027 08:48:30.462   03 Jun 2027 08:49:44.392            73.930                Novosib          2310.313
       317   03 Jun 2027 08:49:48.436   03 Jun 2027 08:50:41.663            53.227              Murmansk1          1663.344
       318   03 Jun 2027 08:50:50.785   03 Jun 2027 08:51:13.265            22.480                Irkutsk           702.500
       319   03 Jun 2027 08:51:17.243   03 Jun 2027 08:51:51.971            34.728                Irkutsk          1085.250
       320   03 Jun 2027 08:51:54.559   03 Jun 2027 08:52:07.180            12.621              Murmansk1           394.406
       321   03 Jun 2027 08:52:15.119   03 Jun 2027 08:52:22.053             6.934                 Moscow           216.687
       322   03 Jun 2027 08:52:22.705   03 Jun 2027 08:52:54.549            31.844                Norilsk           995.125
       323   03 Jun 2027 08:53:12.134   03 Jun 2027 08:53:18.029             5.895                Norilsk           184.219
       324   03 Jun 2027 08:53:20.529   03 Jun 2027 08:54:12.038            51.509                 Moscow          1609.656
       325   03 Jun 2027 08:54:50.418   03 Jun 2027 08:54:56.737             6.319                 Moscow           197.469
       326   03 Jun 2027 08:55:15.374   03 Jun 2027 08:55:34.322            18.948                 Moscow           592.125
       327   03 Jun 2027 09:32:37.361   03 Jun 2027 09:33:02.432            25.071            RioGallegos           783.469
       328   03 Jun 2027 09:35:47.091   03 Jun 2027 09:35:57.811            10.720            RioGallegos           335.000
       329   03 Jun 2027 10:11:29.794   03 Jun 2027 10:12:59.400            89.606                  Delhi          2800.187
       330   03 Jun 2027 10:15:53.142   03 Jun 2027 10:16:07.822            14.680                  Delhi           458.750
       331   03 Jun 2027 10:19:54.278   03 Jun 2027 10:20:06.642            12.364                  Delhi           386.375
       332   03 Jun 2027 10:21:09.219   03 Jun 2027 10:21:14.107             4.888                  Delhi           152.750
       333   03 Jun 2027 10:25:30.825   03 Jun 2027 10:26:12.346            41.521              Murmansk1          1297.531
       334   03 Jun 2027 10:26:28.771   03 Jun 2027 10:27:01.418            32.647              Murmansk1          1020.219
       335   03 Jun 2027 10:27:05.466   03 Jun 2027 10:27:39.375            33.909              Murmansk1          1059.656
       336   03 Jun 2027 10:27:44.877   03 Jun 2027 10:28:08.412            23.535                Novosib           735.469
       337   03 Jun 2027 10:28:11.967   03 Jun 2027 10:28:25.870            13.903              Murmansk2           434.469
       338   03 Jun 2027 10:28:29.603   03 Jun 2027 10:28:48.383            18.780                 Moscow           586.875
       339   03 Jun 2027 10:29:01.177   03 Jun 2027 10:29:27.976            26.799              Murmansk2           837.469
       340   03 Jun 2027 10:29:57.204   03 Jun 2027 10:30:20.354            23.150                 Moscow           723.437
       341   03 Jun 2027 11:58:41.073   03 Jun 2027 11:59:05.962            24.889                 Moscow           777.781
       342   03 Jun 2027 11:59:14.143   03 Jun 2027 12:00:14.781            60.638              Murmansk2          1894.938
       343   03 Jun 2027 12:00:16.410   03 Jun 2027 12:00:17.971             1.561              Murmansk2            48.781
       344   03 Jun 2027 12:00:30.150   03 Jun 2027 12:00:46.654            16.504                 Moscow           515.750
       345   03 Jun 2027 12:01:09.161   03 Jun 2027 12:01:20.436            11.275              Murmansk2           352.344
       346   03 Jun 2027 12:01:28.311   03 Jun 2027 12:01:51.708            23.397                 Moscow           731.156
       347   03 Jun 2027 12:03:01.545   03 Jun 2027 12:03:16.745            15.200              Murmansk2           475.000
       348   03 Jun 2027 12:03:26.614   03 Jun 2027 12:04:17.334            50.720                Norilsk          1585.000
       349   03 Jun 2027 12:04:35.423   03 Jun 2027 12:05:05.022            29.599                Norilsk           924.969
       350   03 Jun 2027 12:06:02.406   03 Jun 2027 12:06:05.008             2.602              Murmansk1            81.313
       351   03 Jun 2027 12:06:17.679   03 Jun 2027 12:06:46.852            29.173              Murmansk2           911.656
       352   03 Jun 2027 12:08:24.100   03 Jun 2027 12:08:51.558            27.458              Murmansk1           858.063
       353   03 Jun 2027 12:11:05.562   03 Jun 2027 12:11:53.888            48.326              Murmansk2          1510.188
       354   03 Jun 2027 13:10:25.418   03 Jun 2027 13:11:48.021            82.603               CapeTown          2581.344
       355   03 Jun 2027 13:12:42.012   03 Jun 2027 13:13:45.496            63.484               CapeTown          1983.875
       356   03 Jun 2027 13:15:34.361   03 Jun 2027 13:17:10.667            96.306               CapeTown          3009.562
       357   03 Jun 2027 13:36:18.000   03 Jun 2027 13:37:07.598            49.598              Murmansk1          1549.938
       358   03 Jun 2027 13:37:22.399   03 Jun 2027 13:38:05.421            43.022              Murmansk1          1344.437
       359   03 Jun 2027 13:42:25.929   03 Jun 2027 13:42:43.131            17.202              Murmansk1           537.563
       360   03 Jun 2027 13:43:20.583   03 Jun 2027 13:43:22.339             1.756              Murmansk2            54.875
       361   03 Jun 2027 13:43:56.164   03 Jun 2027 13:44:03.443             7.279              Murmansk2           227.469
       362   03 Jun 2027 13:45:36.842   03 Jun 2027 13:46:06.730            29.888              Murmansk2           934.000
       363   03 Jun 2027 13:46:06.730   03 Jun 2027 13:46:07.071             0.341              Murmansk1            10.656
       364   03 Jun 2027 13:46:07.602   03 Jun 2027 13:46:56.341            48.739              Murmansk2          1523.094
       365   03 Jun 2027 13:50:19.632   03 Jun 2027 13:53:03.811           164.179                Anadyr2          5130.594
       366   03 Jun 2027 13:53:13.096   03 Jun 2027 13:53:48.529            35.433                Anadyr1          1107.281
       367   03 Jun 2027 15:15:38.112   03 Jun 2027 15:17:51.207           133.095              Murmansk1          4159.219
       368   03 Jun 2027 15:25:51.521   03 Jun 2027 15:26:27.355            35.834                Anadyr1          1119.813
       369   03 Jun 2027 15:26:55.265   03 Jun 2027 15:27:31.013            35.748                Anadyr2          1117.125
       370   03 Jun 2027 15:28:03.999   03 Jun 2027 15:28:19.952            15.953                Anadyr1           498.531
       371   03 Jun 2027 15:28:39.104   03 Jun 2027 15:28:45.964             6.860                Anadyr1           214.375
       372   03 Jun 2027 15:28:48.752   03 Jun 2027 15:29:07.835            19.083                Anadyr1           596.344
       373   03 Jun 2027 15:29:18.403   03 Jun 2027 15:34:15.004           296.601               Magadan1          9268.781
       374   03 Jun 2027 15:35:46.634   03 Jun 2027 15:35:51.949             5.315               Magadan1           166.094
       375   03 Jun 2027 17:01:45.944   03 Jun 2027 17:02:08.618            22.674                Anadyr2           708.563
       376   03 Jun 2027 17:02:55.736   03 Jun 2027 17:03:00.227             4.491                Anadyr1           140.344
       377   03 Jun 2027 17:03:07.024   03 Jun 2027 17:03:17.615            10.591                Anadyr1           330.969
       378   03 Jun 2027 17:04:07.834   03 Jun 2027 17:06:14.741           126.907               Magadan2          3965.844
       379   03 Jun 2027 17:11:26.121   03 Jun 2027 17:11:40.712            14.591               Magadan1           455.969
       380   03 Jun 2027 17:15:24.868   03 Jun 2027 17:15:32.094             7.226               Magadan1           225.812
       381   03 Jun 2027 17:15:49.465   03 Jun 2027 17:16:30.272            40.807               Magadan2          1275.219
       382   03 Jun 2027 18:37:36.798   03 Jun 2027 18:39:12.816            96.018                Anadyr2          3000.562
       383   03 Jun 2027 18:39:22.548   03 Jun 2027 18:41:03.935           101.387                Anadyr1          3168.344
       384   03 Jun 2027 18:41:08.575   03 Jun 2027 18:42:34.356            85.781               Magadan1          2680.656
       385   03 Jun 2027 18:42:45.178   03 Jun 2027 18:44:24.425            99.247                Norilsk          3101.469
       386   03 Jun 2027 18:45:12.703   03 Jun 2027 18:49:17.915           245.212                Irkutsk          7662.875
       387   03 Jun 2027 18:49:51.127   03 Jun 2027 18:51:16.587            85.460                Irkutsk          2670.625
       388   03 Jun 2027 19:01:02.793   03 Jun 2027 19:02:34.058            91.265                Sumatra          2852.031
       389   03 Jun 2027 19:03:33.716   03 Jun 2027 19:04:01.031            27.315                Sumatra           853.594
       390   03 Jun 2027 19:05:52.001   03 Jun 2027 19:06:04.923            12.922                Sumatra           403.813
       391   03 Jun 2027 20:20:24.611   03 Jun 2027 20:22:18.101           113.490                Novosib          3546.562
       392   03 Jun 2027 20:25:08.829   03 Jun 2027 20:26:45.802            96.973                Novosib          3030.406
       393   03 Jun 2027 20:37:55.233   03 Jun 2027 20:38:50.877            55.644                Sumatra          1738.875
       394   03 Jun 2027 20:41:46.454   03 Jun 2027 20:42:19.917            33.463                Sumatra          1045.719
       395   03 Jun 2027 21:52:04.731   03 Jun 2027 21:52:59.232            54.501               Magadan1          1703.156
       396   03 Jun 2027 21:54:56.178   03 Jun 2027 21:58:31.906           215.728              Murmansk2          6741.500
       397   03 Jun 2027 22:02:43.988   03 Jun 2027 22:04:09.215            85.227                  Delhi          2663.344
       398   03 Jun 2027 22:08:11.077   03 Jun 2027 22:08:36.159            25.082                  Delhi           783.812
       399   03 Jun 2027 23:26:46.370   03 Jun 2027 23:27:36.808            50.438               Magadan1          1576.188
       400   03 Jun 2027 23:28:09.168   03 Jun 2027 23:29:00.640            51.472               Magadan1          1608.500
       401   03 Jun 2027 23:29:31.565   03 Jun 2027 23:29:57.550            25.985               Magadan1           812.031
       402   03 Jun 2027 23:30:00.083   03 Jun 2027 23:31:32.797            92.714              Murmansk2          2897.312
       403   03 Jun 2027 23:32:30.503   03 Jun 2027 23:34:27.660           117.157              Murmansk1          3661.156
       404   03 Jun 2027 23:34:33.360   03 Jun 2027 23:37:24.852           171.492                 Moscow          5359.125
       405   03 Jun 2027 23:39:27.702   03 Jun 2027 23:40:43.853            76.151                 Moscow          2379.719
       406   04 Jun 2027 00:00:42.998   04 Jun 2027 00:02:32.136           109.138               CapeTown          3410.562
       407   04 Jun 2027 00:07:34.547   04 Jun 2027 00:07:40.290             5.743               CapeTown           179.469
       408   04 Jun 2027 01:05:36.135   04 Jun 2027 01:07:07.123            90.988              Murmansk1          2843.375
       409   04 Jun 2027 01:07:51.856   04 Jun 2027 01:08:05.223            13.367              Murmansk2           417.719
       410   04 Jun 2027 01:08:13.950   04 Jun 2027 01:09:57.483           103.533                Novosib          3235.406
       411   04 Jun 2027 01:32:45.067   04 Jun 2027 01:33:32.641            47.574               CapeTown          1486.688
       412   04 Jun 2027 01:34:18.631   04 Jun 2027 01:35:38.390            79.759               CapeTown          2492.469
       413   04 Jun 2027 02:29:26.341   04 Jun 2027 02:30:20.992            54.651                Anadyr1          1707.844
       414   04 Jun 2027 02:30:20.992   04 Jun 2027 02:30:24.726             3.734                Anadyr2           116.687
       415   04 Jun 2027 02:30:45.316   04 Jun 2027 02:31:00.808            15.492                Anadyr2           484.125
       416   04 Jun 2027 02:31:19.659   04 Jun 2027 02:31:45.126            25.467               Magadan1           795.844
       417   04 Jun 2027 02:31:50.459   04 Jun 2027 02:32:19.875            29.416               Magadan2           919.250
       418   04 Jun 2027 02:32:36.483   04 Jun 2027 02:33:04.572            28.089               Magadan2           877.781
       419   04 Jun 2027 02:35:46.328   04 Jun 2027 02:35:58.911            12.583               Magadan1           393.219
       420   04 Jun 2027 02:37:05.393   04 Jun 2027 02:37:12.870             7.477               Magadan1           233.656
       421   04 Jun 2027 02:38:31.526   04 Jun 2027 02:38:47.313            15.787                Norilsk           493.344
       422   04 Jun 2027 02:40:34.236   04 Jun 2027 02:40:58.445            24.209                Norilsk           756.531
       423   04 Jun 2027 02:41:33.710   04 Jun 2027 02:41:53.857            20.147              Murmansk2           629.594
       424   04 Jun 2027 02:42:07.195   04 Jun 2027 02:42:27.816            20.621              Murmansk1           644.406
       425   04 Jun 2027 02:42:45.261   04 Jun 2027 02:43:11.107            25.846              Murmansk1           807.687
       426   04 Jun 2027 02:44:40.177   04 Jun 2027 02:44:53.529            13.352              Murmansk1           417.250
       427   04 Jun 2027 02:44:54.246   04 Jun 2027 02:45:39.123            44.877                 Moscow          1402.406
       428   04 Jun 2027 02:48:07.276   04 Jun 2027 02:49:02.331            55.055                 Moscow          1720.469
       429   04 Jun 2027 03:11:12.295   04 Jun 2027 03:11:30.524            18.229               CapeTown           569.656
       430   04 Jun 2027 03:13:14.798   04 Jun 2027 03:13:32.234            17.436               CapeTown           544.875
       431   04 Jun 2027 03:15:09.916   04 Jun 2027 03:15:17.546             7.630               CapeTown           238.438
       432   04 Jun 2027 03:16:40.900   04 Jun 2027 03:18:21.263           100.363               CapeTown          3136.344
       433   04 Jun 2027 04:12:39.596   04 Jun 2027 04:13:54.501            74.905                Anadyr1          2340.781
       434   04 Jun 2027 04:14:36.716   04 Jun 2027 04:15:02.513            25.797                Anadyr1           806.156
       435   04 Jun 2027 04:15:30.089   04 Jun 2027 04:15:31.308             1.219               Magadan2            38.094
       436   04 Jun 2027 04:15:31.308   04 Jun 2027 04:15:36.536             5.228               Magadan1           163.375
       437   04 Jun 2027 04:15:36.536   04 Jun 2027 04:17:07.120            90.584               Magadan2          2830.750
       438   04 Jun 2027 04:17:07.120   04 Jun 2027 04:18:00.030            52.910               Magadan1          1653.438
       439   04 Jun 2027 04:18:04.677   04 Jun 2027 04:18:11.239             6.562                Anadyr2           205.062
       440   04 Jun 2027 04:56:31.241   04 Jun 2027 04:58:53.891           142.650            RioGallegos          4457.813
       441   04 Jun 2027 05:47:28.293   04 Jun 2027 05:48:04.054            35.761                Irkutsk          1117.531
       442   04 Jun 2027 05:48:06.561   04 Jun 2027 05:49:15.542            68.981               Magadan2          2155.656
       443   04 Jun 2027 05:49:36.747   04 Jun 2027 05:51:42.622           125.875                Anadyr1          3933.594
       444   04 Jun 2027 05:51:58.252   04 Jun 2027 05:53:14.194            75.942                Irkutsk          2373.187
       445   04 Jun 2027 05:53:28.295   04 Jun 2027 05:53:43.335            15.040               Magadan1           470.000
       446   04 Jun 2027 05:53:46.001   04 Jun 2027 05:54:06.943            20.942                Novosib           654.438
       447   04 Jun 2027 06:31:33.481   04 Jun 2027 06:32:01.083            27.602            RioGallegos           862.562
       448   04 Jun 2027 07:06:21.763   04 Jun 2027 07:08:20.232           118.469                Sumatra          3702.156
       449   04 Jun 2027 07:22:57.032   04 Jun 2027 07:23:32.252            35.220               Magadan2          1100.625
       450   04 Jun 2027 07:23:58.366   04 Jun 2027 07:24:09.377            11.011               Magadan1           344.094
       451   04 Jun 2027 07:24:57.434   04 Jun 2027 07:26:21.738            84.304                Novosib          2634.500
       452   04 Jun 2027 07:26:43.836   04 Jun 2027 07:26:51.881             8.045                Irkutsk           251.406
       453   04 Jun 2027 07:27:11.522   04 Jun 2027 07:28:14.205            62.683              Murmansk1          1958.844
       454   04 Jun 2027 07:28:26.882   04 Jun 2027 07:28:27.108             0.226                Irkutsk             7.062
       455   04 Jun 2027 07:28:50.307   04 Jun 2027 07:29:42.139            51.832                Irkutsk          1619.750
       456   04 Jun 2027 07:31:57.457   04 Jun 2027 07:32:18.664            21.207              Murmansk1           662.719
       457   04 Jun 2027 08:04:43.470   04 Jun 2027 08:05:25.062            41.592            RioGallegos          1299.750
       458   04 Jun 2027 08:13:32.735   04 Jun 2027 08:14:31.400            58.665            RioGallegos          1833.281
       459   04 Jun 2027 08:43:13.383   04 Jun 2027 08:44:07.462            54.079                Sumatra          1689.969
       460   04 Jun 2027 08:48:50.326   04 Jun 2027 08:49:34.645            44.319                  Delhi          1384.969
       461   04 Jun 2027 08:51:14.189   04 Jun 2027 08:51:55.956            41.767                  Delhi          1305.219
       462   04 Jun 2027 08:53:39.429   04 Jun 2027 08:54:20.955            41.526                  Delhi          1297.687
       463   04 Jun 2027 08:59:57.583   04 Jun 2027 09:01:09.189            71.606                Irkutsk          2237.687
       464   04 Jun 2027 09:01:33.540   04 Jun 2027 09:01:54.344            20.804                 Moscow           650.125
       465   04 Jun 2027 09:02:31.092   04 Jun 2027 09:02:33.420             2.328                Norilsk            72.750
       466   04 Jun 2027 09:02:36.486   04 Jun 2027 09:03:04.759            28.273                Novosib           883.531
       467   04 Jun 2027 09:03:06.158   04 Jun 2027 09:03:45.275            39.117              Murmansk2          1222.406
       468   04 Jun 2027 09:03:46.670   04 Jun 2027 09:03:47.221             0.551                 Moscow            17.219
       469   04 Jun 2027 09:03:52.296   04 Jun 2027 09:04:04.569            12.273                Novosib           383.531
       470   04 Jun 2027 09:04:04.954   04 Jun 2027 09:05:17.245            72.291                 Moscow          2259.094
       471   04 Jun 2027 09:05:36.844   04 Jun 2027 09:06:04.408            27.564              Murmansk1           861.375
       472   04 Jun 2027 09:06:23.858   04 Jun 2027 09:06:30.867             7.009                 Moscow           219.031
       473   04 Jun 2027 09:46:09.365   04 Jun 2027 09:47:45.945            96.580            RioGallegos          3018.125
       474   04 Jun 2027 10:23:42.689   04 Jun 2027 10:25:08.376            85.687                  Delhi          2677.719
       475   04 Jun 2027 10:36:34.711   04 Jun 2027 10:37:01.897            27.186                 Moscow           849.562
       476   04 Jun 2027 10:37:04.939   04 Jun 2027 10:37:26.483            21.544                Novosib           673.250
       477   04 Jun 2027 10:37:33.430   04 Jun 2027 10:37:54.080            20.650              Murmansk2           645.312
       478   04 Jun 2027 10:37:54.080   04 Jun 2027 10:38:01.359             7.279              Murmansk1           227.469
       479   04 Jun 2027 10:38:18.340   04 Jun 2027 10:38:42.010            23.670              Murmansk2           739.687
       480   04 Jun 2027 10:38:42.010   04 Jun 2027 10:38:43.091             1.081              Murmansk1            33.781
       481   04 Jun 2027 10:38:48.567   04 Jun 2027 10:38:50.269             1.702                Novosib            53.187
       482   04 Jun 2027 10:38:59.500   04 Jun 2027 10:39:17.449            17.949              Murmansk1           560.906
