uniorb/output/strategy_2/Drop/Drop_KinoSat_110506.txt

KinoSat_110506
-------------------------
    Access    *     Start Time (UTCG)     *     Stop Time (UTCG)  *   Duration (s)        *       Station  *  Data (Mbytes)
         1   01 Jun 2027 03:37:09.537   01 Jun 2027 03:38:33.833            84.296                Irkutsk          6632.500
         2   01 Jun 2027 03:38:36.549   01 Jun 2027 03:38:50.012            13.463                Anadyr2          1358.000
         3   01 Jun 2027 03:38:52.013   01 Jun 2027 03:39:10.202            18.189                Anadyr2          1000.500
         4   01 Jun 2027 03:39:21.527   01 Jun 2027 03:40:48.867            87.340               Magadan2          5662.500
         5   01 Jun 2027 03:40:52.790   01 Jun 2027 03:41:43.973            51.183                Anadyr2          1961.500
         6   01 Jun 2027 03:41:48.622   01 Jun 2027 03:42:12.223            23.601                Anadyr1          2324.500
         7   01 Jun 2027 03:42:16.178   01 Jun 2027 03:42:48.276            32.098               Magadan2          1977.500
         8   01 Jun 2027 03:42:53.647   01 Jun 2027 03:43:21.746            28.099                Norilsk          2685.500
         9   01 Jun 2027 05:13:31.014   01 Jun 2027 05:14:52.724            81.710               Magadan2          2527.500
        10   01 Jun 2027 05:14:54.290   01 Jun 2027 05:15:06.708            12.418               Magadan1           783.000
        11   01 Jun 2027 05:15:07.418   01 Jun 2027 05:15:35.585            28.167                Norilsk           355.000
        12   01 Jun 2027 05:15:45.480   01 Jun 2027 05:17:20.155            94.675               Magadan2          4947.500
        13   01 Jun 2027 05:17:20.478   01 Jun 2027 05:17:27.956             7.478               Magadan2           161.500
        14   01 Jun 2027 05:17:31.225   01 Jun 2027 05:17:32.970             1.745                Norilsk           218.125
        15   01 Jun 2027 05:17:35.254   01 Jun 2027 05:17:41.177             5.923                Norilsk           740.375
        16   01 Jun 2027 05:17:48.287   01 Jun 2027 05:19:19.434            91.147               Magadan1          5373.000
        17   01 Jun 2027 05:19:21.967   01 Jun 2027 05:19:48.049            26.082               Magadan2          1266.500
        18   01 Jun 2027 05:19:51.797   01 Jun 2027 05:20:06.502            14.705               Magadan2          1838.125
        19   01 Jun 2027 05:20:09.635   01 Jun 2027 05:20:40.918            31.283              Murmansk1          1602.375
        20   01 Jun 2027 05:20:42.853   01 Jun 2027 05:20:53.702            10.849                Norilsk           967.500
        21   01 Jun 2027 05:20:55.928   01 Jun 2027 05:21:32.171            36.243                Norilsk          1113.000
        22   01 Jun 2027 06:50:32.777   01 Jun 2027 06:51:15.253            42.476                Novosib           952.000
        23   01 Jun 2027 06:51:23.605   01 Jun 2027 06:52:31.023            67.418                Irkutsk          4176.000
        24   01 Jun 2027 06:52:51.605   01 Jun 2027 06:53:57.446            65.841                Novosib          8230.125
        25   01 Jun 2027 06:54:06.926   01 Jun 2027 06:55:16.770            69.844                Norilsk          6800.875
        26   01 Jun 2027 06:55:19.550   01 Jun 2027 06:55:27.535             7.985              Murmansk1           998.125
        27   01 Jun 2027 06:55:27.535   01 Jun 2027 06:56:15.577            48.042              Murmansk2           391.875
        28   01 Jun 2027 06:56:21.743   01 Jun 2027 06:57:01.579            39.836              Murmansk2          2860.500
        29   01 Jun 2027 08:28:30.790   01 Jun 2027 08:29:01.564            30.774                Norilsk          2862.500
        30   01 Jun 2027 08:29:08.337   01 Jun 2027 08:30:26.266            77.929                Norilsk          3386.500
        31   01 Jun 2027 08:30:35.080   01 Jun 2027 08:31:53.693            78.613                Novosib          4407.000
        32   01 Jun 2027 08:31:56.805   01 Jun 2027 08:32:16.988            20.183                 Moscow          1556.000
        33   01 Jun 2027 08:32:21.949   01 Jun 2027 08:32:44.283            22.334                Norilsk          2480.500
        34   01 Jun 2027 10:02:01.743   01 Jun 2027 10:02:24.340            22.597                 Moscow          2824.625
        35   01 Jun 2027 10:02:32.639   01 Jun 2027 10:05:30.275           177.636              Murmansk1         15515.875
        36   01 Jun 2027 10:05:30.480   01 Jun 2027 10:05:48.156            17.676              Murmansk1           102.500
        37   01 Jun 2027 10:05:54.094   01 Jun 2027 10:06:47.120            53.026              Murmansk2          2969.000
        38   01 Jun 2027 10:06:50.238   01 Jun 2027 10:07:11.700            21.462              Murmansk1          1559.000
        39   01 Jun 2027 10:07:25.046   01 Jun 2027 10:07:26.641             1.595                Novosib           199.375
        40   01 Jun 2027 10:07:31.206   01 Jun 2027 10:08:44.496            73.290                 Moscow          8756.125
        41   01 Jun 2027 10:08:53.815   01 Jun 2027 10:10:09.799            75.984                 Moscow          4659.500
        42   02 Jun 2027 03:48:15.893   02 Jun 2027 03:49:28.118            72.225               Magadan1          5050.500
        43   02 Jun 2027 03:49:38.376   02 Jun 2027 03:50:28.018            49.642               Magadan1          5129.000
        44   02 Jun 2027 03:50:28.934   02 Jun 2027 03:50:47.185            18.251               Magadan2           458.000
        45   02 Jun 2027 03:50:56.964   02 Jun 2027 03:51:52.441            55.477               Magadan1          4889.500
        46   02 Jun 2027 03:51:52.612   02 Jun 2027 03:52:14.606            21.994                Anadyr1            85.500
        47   02 Jun 2027 03:52:21.413   02 Jun 2027 03:52:48.921            27.508                Norilsk          3403.500
        48   02 Jun 2027 03:52:49.199   02 Jun 2027 03:53:31.549            42.350                Anadyr1           139.000
        49   02 Jun 2027 03:53:33.314   02 Jun 2027 03:53:39.310             5.996                Irkutsk           749.500
        50   02 Jun 2027 03:53:49.974   02 Jun 2027 03:55:46.998           117.024                Anadyr2          5465.000
        51   02 Jun 2027 03:56:09.469   02 Jun 2027 03:56:48.655            39.186              Murmansk1          1171.000
        52   02 Jun 2027 05:25:42.405   02 Jun 2027 05:25:53.077            10.672                Norilsk          1334.000
        53   02 Jun 2027 05:25:59.702   02 Jun 2027 05:26:34.812            35.110                Novosib          3516.500
        54   02 Jun 2027 05:26:36.331   02 Jun 2027 05:26:48.265            11.934                Norilsk           759.500
        55   02 Jun 2027 05:26:53.033   02 Jun 2027 05:27:20.187            27.154               Magadan1          2384.000
        56   02 Jun 2027 05:27:26.817   02 Jun 2027 05:28:02.298            35.481                Novosib          3315.000
        57   02 Jun 2027 05:28:05.021   02 Jun 2027 05:28:47.947            42.926               Magadan2          1361.500
        58   02 Jun 2027 05:28:48.762   02 Jun 2027 05:29:06.276            17.514                Norilsk           407.500
        59   02 Jun 2027 05:29:17.507   02 Jun 2027 05:29:57.499            39.992                Norilsk          4999.000
        60   02 Jun 2027 05:30:08.917   02 Jun 2027 05:31:17.324            68.407               Magadan1          6325.500
        61   02 Jun 2027 05:31:20.330   02 Jun 2027 05:31:47.507            27.177               Magadan1          1503.000
        62   02 Jun 2027 05:31:49.276   02 Jun 2027 05:32:05.891            16.615              Murmansk2           884.500
        63   02 Jun 2027 05:32:13.131   02 Jun 2027 05:33:00.637            47.506              Murmansk2          3620.000
        64   02 Jun 2027 07:02:30.858   02 Jun 2027 07:03:20.608            49.750                Norilsk          4530.000
        65   02 Jun 2027 07:03:21.376   02 Jun 2027 07:03:43.894            22.518                Novosib           384.000
        66   02 Jun 2027 07:03:54.373   02 Jun 2027 07:04:15.553            21.180                Norilsk          2647.500
        67   02 Jun 2027 07:04:19.835   02 Jun 2027 07:05:12.539            52.704                Norilsk          4733.000
        68   02 Jun 2027 07:05:25.482   02 Jun 2027 07:06:49.487            84.005                Novosib          6471.500
        69   02 Jun 2027 07:06:54.177   02 Jun 2027 07:07:14.445            20.268                 Moscow          2345.000
        70   02 Jun 2027 07:07:19.317   02 Jun 2027 07:07:40.530            21.213                Norilsk          2436.000
        71   02 Jun 2027 07:07:46.540   02 Jun 2027 07:08:11.858            25.318                Novosib          3005.000
        72   02 Jun 2027 07:08:12.059   02 Jun 2027 07:08:12.901             0.842              Murmansk1           100.500
        73   02 Jun 2027 07:08:31.186   02 Jun 2027 07:08:53.311            22.125                Norilsk          2765.625
        74   02 Jun 2027 07:09:00.574   02 Jun 2027 07:09:26.263            25.689                Norilsk          3211.125
        75   02 Jun 2027 07:09:33.801   02 Jun 2027 07:10:25.534            51.733              Murmansk1          6354.750
        76   02 Jun 2027 08:40:25.098   02 Jun 2027 08:40:36.751            11.653                Novosib            85.000
        77   02 Jun 2027 08:40:37.273   02 Jun 2027 08:40:41.797             4.524                Irkutsk           261.000
        78   02 Jun 2027 08:40:46.998   02 Jun 2027 08:41:11.719            24.721              Murmansk2          2600.500
        79   02 Jun 2027 08:41:22.624   02 Jun 2027 08:42:27.730            65.106                Norilsk          5452.500
        80   02 Jun 2027 08:42:33.588   02 Jun 2027 08:43:03.311            29.723                Norilsk          2929.000
        81   02 Jun 2027 08:43:06.255   02 Jun 2027 08:43:07.821             1.566                Novosib           195.750
        82   02 Jun 2027 08:43:08.082   02 Jun 2027 08:43:25.351            17.269                 Moscow          1406.750
        83   02 Jun 2027 08:43:27.862   02 Jun 2027 08:43:47.118            19.256              Murmansk2          1255.500
        84   02 Jun 2027 08:43:49.674   02 Jun 2027 08:44:02.902            13.228                Novosib          1278.000
        85   02 Jun 2027 08:44:03.130   02 Jun 2027 08:44:50.545            47.415              Murmansk1           114.000
        86   02 Jun 2027 10:14:26.428   02 Jun 2027 10:16:04.687            98.259                 Moscow         12141.000
        87   02 Jun 2027 10:16:18.311   02 Jun 2027 10:17:30.651            72.340              Murmansk1          6812.000
        88   02 Jun 2027 10:17:31.906   02 Jun 2027 10:17:49.763            17.857              Murmansk1           627.500
        89   02 Jun 2027 10:17:55.482   02 Jun 2027 10:18:41.412            45.930              Murmansk1          2859.500
        90   02 Jun 2027 10:18:50.503   02 Jun 2027 10:19:47.225            56.722              Murmansk2          4545.500
        91   02 Jun 2027 10:20:06.200   02 Jun 2027 10:21:22.999            76.799                Norilsk          9487.500
        92   02 Jun 2027 10:21:25.546   02 Jun 2027 10:22:17.262            51.716              Murmansk1          1273.500
        93   03 Jun 2027 03:59:44.552   03 Jun 2027 04:00:22.361            37.809                Irkutsk          4069.000
        94   03 Jun 2027 04:00:34.208   03 Jun 2027 04:01:30.320            56.112               Magadan1          5923.500
        95   03 Jun 2027 04:01:47.324   03 Jun 2027 04:02:36.193            48.869               Magadan1          6108.625
        96   03 Jun 2027 04:02:36.193   03 Jun 2027 04:02:42.989             6.796               Magadan2           849.500
        97   03 Jun 2027 04:02:46.803   03 Jun 2027 04:03:27.246            40.443               Magadan2          3450.875
        98   03 Jun 2027 04:03:35.751   03 Jun 2027 04:04:33.759            58.008               Magadan1          4252.500
        99   03 Jun 2027 04:04:39.157   03 Jun 2027 04:04:42.971             3.814                Norilsk           476.750
       100   03 Jun 2027 04:04:44.234   03 Jun 2027 04:05:17.150            32.916                Anadyr1          2853.750
       101   03 Jun 2027 04:05:17.906   03 Jun 2027 04:05:24.147             6.241               Magadan1           378.000
       102   03 Jun 2027 04:05:25.160   03 Jun 2027 04:05:38.092            12.932                Novosib           506.500
       103   03 Jun 2027 04:05:41.414   03 Jun 2027 04:07:39.415           118.001                Irkutsk          1661.000
       104   03 Jun 2027 04:07:43.254   03 Jun 2027 04:08:11.170            27.916               Magadan1          1919.500
       105   03 Jun 2027 04:08:12.224   03 Jun 2027 04:08:47.277            35.053                Novosib           527.000
       106   03 Jun 2027 04:08:50.304   03 Jun 2027 04:09:09.947            19.643              Murmansk1          1513.500
       107   03 Jun 2027 05:37:46.129   03 Jun 2027 05:38:41.452            55.323               Magadan2          6446.500
       108   03 Jun 2027 05:38:45.931   03 Jun 2027 05:39:23.230            37.299                Norilsk          2239.500
       109   03 Jun 2027 05:39:25.122   03 Jun 2027 05:39:37.168            12.046               Magadan1           946.000
       110   03 Jun 2027 05:39:42.261   03 Jun 2027 05:41:14.675            92.414                Novosib          2546.500
       111   03 Jun 2027 05:41:18.402   03 Jun 2027 05:41:27.688             9.286                Norilsk          1160.750
       112   03 Jun 2027 05:41:32.751   03 Jun 2027 05:42:06.385            33.634               Magadan2          3234.250
       113   03 Jun 2027 05:42:37.381   03 Jun 2027 05:44:49.450           132.069              Murmansk1         15498.000
       114   03 Jun 2027 05:44:55.985   03 Jun 2027 05:45:39.125            43.140                Norilsk          3267.500
       115   03 Jun 2027 07:14:30.700   03 Jun 2027 07:14:42.697            11.997                Irkutsk          1499.625
       116   03 Jun 2027 07:14:42.909   03 Jun 2027 07:15:09.820            26.911                Norilsk           751.875
       117   03 Jun 2027 07:15:14.134   03 Jun 2027 07:15:44.736            30.602                Irkutsk          2157.000
       118   03 Jun 2027 07:15:46.969   03 Jun 2027 07:15:56.178             9.209                Norilsk          1116.500
       119   03 Jun 2027 07:15:59.451   03 Jun 2027 07:16:11.049            11.598                Norilsk          1449.750
       120   03 Jun 2027 07:16:17.973   03 Jun 2027 07:17:25.303            67.330                Novosib          3648.750
       121   03 Jun 2027 07:17:31.083   03 Jun 2027 07:18:26.773            55.690                 Moscow          2890.000
       122   03 Jun 2027 07:18:30.715   03 Jun 2027 07:18:51.895            21.180              Murmansk2          1971.000
       123   03 Jun 2027 07:18:52.602   03 Jun 2027 07:18:55.991             3.389                Irkutsk           353.500
       124   03 Jun 2027 07:19:05.612   03 Jun 2027 07:20:04.801            59.189              Murmansk2          4810.500
       125   03 Jun 2027 07:20:10.862   03 Jun 2027 07:20:21.701            10.839                Irkutsk          1101.000
       126   03 Jun 2027 07:20:29.169   03 Jun 2027 07:21:03.470            34.301              Murmansk2          3734.000
       127   03 Jun 2027 08:52:12.336   03 Jun 2027 08:52:21.000             8.664                Norilsk           510.500
       128   03 Jun 2027 08:52:22.053   03 Jun 2027 08:53:20.529            58.476                 Moscow           526.500
       129   03 Jun 2027 08:53:24.166   03 Jun 2027 08:53:54.771            30.605                Novosib          1818.500
       130   03 Jun 2027 08:54:02.925   03 Jun 2027 08:54:44.247            41.322                Novosib          4077.000
       131   03 Jun 2027 08:54:44.410   03 Jun 2027 08:55:09.720            25.310                Novosib            81.500
       132   03 Jun 2027 08:55:11.018   03 Jun 2027 08:55:16.849             5.831              Murmansk2           649.000
       133   03 Jun 2027 08:55:17.052   03 Jun 2027 08:55:19.850             2.798                Norilsk           101.500
       134   03 Jun 2027 08:55:26.762   03 Jun 2027 08:56:06.416            39.654                Norilsk          3456.000
       135   03 Jun 2027 08:56:09.475   03 Jun 2027 08:56:33.917            24.442                Novosib          1529.500
       136   03 Jun 2027 10:26:27.971   03 Jun 2027 10:27:13.288            45.317                 Moscow          1418.000
       137   03 Jun 2027 10:27:39.375   03 Jun 2027 10:29:27.976           108.601              Murmansk1         13043.500
       138   03 Jun 2027 10:29:30.291   03 Jun 2027 10:29:39.998             9.707              Murmansk2          1157.500
       139   03 Jun 2027 10:29:46.746   03 Jun 2027 10:30:36.422            49.676              Murmansk1          3374.000
       140   03 Jun 2027 10:30:51.042   03 Jun 2027 10:32:12.345            81.303              Murmansk2          7310.000
       141   04 Jun 2027 04:12:35.004   04 Jun 2027 04:13:41.802            66.798                Irkutsk          2439.000
       142   04 Jun 2027 04:13:53.596   04 Jun 2027 04:14:41.118            47.522               Magadan2          5897.000
       143   04 Jun 2027 04:15:02.513   04 Jun 2027 04:16:29.504            86.991                Anadyr1         10697.500
       144   04 Jun 2027 04:16:32.804   04 Jun 2027 04:16:37.039             4.235                Norilsk           529.375
       145   04 Jun 2027 04:16:37.435   04 Jun 2027 04:16:49.548            12.113                Anadyr2          1318.625
       146   04 Jun 2027 04:16:57.800   04 Jun 2027 04:17:33.161            35.361                Novosib          4126.000
       147   04 Jun 2027 04:17:33.786   04 Jun 2027 04:18:00.241            26.455                Irkutsk           312.500
       148   04 Jun 2027 04:18:04.038   04 Jun 2027 04:18:53.028            48.990                Norilsk          1898.500
       149   04 Jun 2027 04:18:57.014   04 Jun 2027 04:19:20.000            22.986               Magadan1          1993.000
       150   04 Jun 2027 04:19:22.137   04 Jun 2027 04:20:08.058            45.921               Magadan1          1068.500
       151   04 Jun 2027 04:20:10.698   04 Jun 2027 04:20:21.215            10.517                Norilsk          1314.625
       152   04 Jun 2027 04:20:23.740   04 Jun 2027 04:20:51.833            28.093              Murmansk2          1267.875
       153   04 Jun 2027 04:20:55.138   04 Jun 2027 04:21:34.284            39.146                Novosib          1652.500
       154   04 Jun 2027 05:50:04.331   04 Jun 2027 05:50:39.866            35.535                Norilsk          4441.875
       155   04 Jun 2027 05:50:42.022   04 Jun 2027 05:51:00.470            18.448                Novosib          1870.625
       156   04 Jun 2027 05:51:15.143   04 Jun 2027 05:52:15.034            59.891               Magadan1          7336.500
       157   04 Jun 2027 05:52:26.221   04 Jun 2027 05:53:26.587            60.366                Norilsk          5593.500
       158   04 Jun 2027 05:53:28.295   04 Jun 2027 05:53:35.606             7.311               Magadan2           854.000
       159   04 Jun 2027 05:53:35.934   04 Jun 2027 05:53:40.962             5.028                Norilsk           164.000
       160   04 Jun 2027 05:53:41.228   04 Jun 2027 05:53:46.837             5.609                Irkutsk           133.000
       161   04 Jun 2027 05:54:01.285   04 Jun 2027 05:55:39.795            98.510                Irkutsk          7224.000
       162   04 Jun 2027 05:55:50.519   04 Jun 2027 05:56:12.416            21.897                Novosib          2737.125
       163   04 Jun 2027 05:56:21.586   04 Jun 2027 05:57:04.388            42.802                Irkutsk          5350.250
       164   04 Jun 2027 05:57:10.620   04 Jun 2027 05:57:30.351            19.731              Murmansk2          1859.625
       165   04 Jun 2027 07:27:03.468   04 Jun 2027 07:27:14.165            10.697                  Delhi          1337.125
       166   04 Jun 2027 07:27:31.264   04 Jun 2027 07:29:14.830           103.566                Norilsk         10008.375
       167   04 Jun 2027 07:29:17.362   04 Jun 2027 07:30:07.128            49.766                Novosib          1266.000
       168   04 Jun 2027 07:30:11.368   04 Jun 2027 07:30:40.303            28.935                Irkutsk          2120.000
       169   04 Jun 2027 07:30:42.103   04 Jun 2027 07:30:50.829             8.726              Murmansk1           900.000
       170   04 Jun 2027 07:30:50.969   04 Jun 2027 07:30:54.719             3.750                 Moscow            70.000
       171   04 Jun 2027 07:31:00.854   04 Jun 2027 07:32:06.947            66.093                Novosib          3067.500
       172   04 Jun 2027 07:32:11.457   04 Jun 2027 07:32:27.901            16.444                Irkutsk          2055.500
       173   04 Jun 2027 07:32:28.446   04 Jun 2027 07:33:03.989            35.543              Murmansk1           472.000
       174   04 Jun 2027 09:03:45.275   04 Jun 2027 09:04:10.082            24.807              Murmansk2          1438.000
       175   04 Jun 2027 09:04:22.177   04 Jun 2027 09:05:14.030            51.853                Norilsk          6047.500
       176   04 Jun 2027 09:05:14.076   04 Jun 2027 09:06:31.054            76.978                Norilsk            23.000
       177   04 Jun 2027 09:06:31.507   04 Jun 2027 09:06:33.512             2.005                Norilsk           226.500
       178   04 Jun 2027 09:06:49.983   04 Jun 2027 09:07:01.826            11.843                 Moscow          1480.375
       179   04 Jun 2027 09:07:06.281   04 Jun 2027 09:08:32.029            85.748              Murmansk1          8982.625
       180   04 Jun 2027 10:38:59.500   04 Jun 2027 10:39:17.449            17.949              Murmansk2           533.000
       181   04 Jun 2027 10:40:53.636   04 Jun 2027 10:42:33.538            99.902                 Moscow          7105.000
       182   04 Jun 2027 10:42:51.820   04 Jun 2027 10:44:04.968            73.148              Murmansk2          9141.000
       183   05 Jun 2027 04:25:02.811   05 Jun 2027 04:25:35.552            32.741               Magadan2            13.500
       184   05 Jun 2027 04:25:51.496   05 Jun 2027 04:27:28.979            97.483               Magadan1          7972.000
       185   05 Jun 2027 04:27:31.180   05 Jun 2027 04:28:10.350            39.170               Magadan2          1100.500
       186   05 Jun 2027 04:28:22.779   05 Jun 2027 04:29:05.887            43.108                Novosib          5388.500
       187   05 Jun 2027 04:29:17.764   05 Jun 2027 04:30:51.838            94.074                Novosib          6764.500
       188   05 Jun 2027 04:30:53.262   05 Jun 2027 04:31:03.734            10.472                Norilsk           712.000
       189   05 Jun 2027 04:31:05.098   05 Jun 2027 04:31:24.578            19.480               Magadan1           682.000
       190   05 Jun 2027 04:31:30.413   05 Jun 2027 04:32:14.562            44.149               Magadan2          2917.500
       191   05 Jun 2027 04:32:16.509   05 Jun 2027 04:32:26.977            10.468               Magadan2           973.500
       192   05 Jun 2027 04:32:27.062   05 Jun 2027 04:33:01.589            34.527              Murmansk1            42.500
       193   05 Jun 2027 06:02:08.189   05 Jun 2027 06:02:24.128            15.939                Norilsk           417.500
       194   05 Jun 2027 06:02:32.208   05 Jun 2027 06:03:13.494            41.286                Norilsk          4040.000
       195   05 Jun 2027 06:03:34.523   05 Jun 2027 06:05:25.889           111.366                Norilsk         10514.500
       196   05 Jun 2027 06:05:31.677   05 Jun 2027 06:06:20.988            49.311                Novosib          2894.000
       197   05 Jun 2027 06:06:28.017   05 Jun 2027 06:06:59.867            31.850                Norilsk          3514.500
       198   05 Jun 2027 06:07:07.043   05 Jun 2027 06:07:21.905            14.862              Murmansk1          1857.750
       199   05 Jun 2027 06:07:21.905   05 Jun 2027 06:07:47.527            25.622              Murmansk2          1730.250
       200   05 Jun 2027 06:07:50.675   05 Jun 2027 06:08:14.446            23.771                Norilsk          1574.000
       201   05 Jun 2027 06:08:15.125   05 Jun 2027 06:08:26.878            11.753                Irkutsk           339.500
       202   05 Jun 2027 06:08:32.308   05 Jun 2027 06:08:58.942            26.634                Norilsk          2715.000
       203   05 Jun 2027 07:39:26.566   05 Jun 2027 07:41:16.245           109.679                Norilsk         11611.500
       204   05 Jun 2027 07:41:19.126   05 Jun 2027 07:41:43.311            24.185              Murmansk2          1440.500
       205   05 Jun 2027 07:41:43.876   05 Jun 2027 07:43:06.623            82.747                Irkutsk           282.500
       206   05 Jun 2027 07:43:09.561   05 Jun 2027 07:43:50.858            41.297              Murmansk2          1469.000
       207   05 Jun 2027 07:43:55.573   05 Jun 2027 07:44:17.185            21.612                Irkutsk          2357.500
       208   05 Jun 2027 09:15:55.857   05 Jun 2027 09:16:40.601            44.744                Novosib          2976.500
       209   05 Jun 2027 09:16:52.451   05 Jun 2027 09:18:31.092            98.641                Norilsk          5925.000
       210   05 Jun 2027 09:18:32.874   05 Jun 2027 09:19:05.588            32.714                Norilsk           891.000
       211   05 Jun 2027 09:19:07.294   05 Jun 2027 09:19:27.675            20.381              Murmansk2           853.000
       212   05 Jun 2027 09:19:30.947   05 Jun 2027 09:19:46.264            15.317                Norilsk          1636.000
       213   05 Jun 2027 09:19:58.126   05 Jun 2027 09:21:25.012            86.886                Novosib          5931.000
       214   05 Jun 2027 10:54:17.508   05 Jun 2027 10:55:41.537            84.029                 Moscow          7725.000
       215   06 Jun 2027 03:03:10.437   06 Jun 2027 03:03:33.375            22.938                Irkutsk           568.000
       216   06 Jun 2027 03:03:35.927   06 Jun 2027 03:04:10.222            34.295                Norilsk          1276.000
       217   06 Jun 2027 03:04:13.181   06 Jun 2027 03:04:29.867            16.686                Norilsk          1479.500
       218   06 Jun 2027 03:04:35.154   06 Jun 2027 03:05:12.648            37.494                Anadyr2          2643.500
       219   06 Jun 2027 03:05:18.374   06 Jun 2027 03:05:20.115             1.741                Norilsk           217.625
       220   06 Jun 2027 03:05:22.320   06 Jun 2027 03:05:36.270            13.950                Irkutsk          1743.750
       221   06 Jun 2027 03:05:37.594   06 Jun 2027 03:05:47.686            10.092               Magadan2          1261.500
       222   06 Jun 2027 03:05:47.686   06 Jun 2027 03:06:01.911            14.225               Magadan1          1404.624
       223   06 Jun 2027 03:06:03.065   06 Jun 2027 03:06:24.134            21.069                Norilsk           577.000
       224   06 Jun 2027 03:06:24.925   06 Jun 2027 03:06:43.918            18.993                Anadyr2           395.500
       225   06 Jun 2027 04:38:27.252   06 Jun 2027 04:38:51.984            24.732                Norilsk          3091.500
       226   06 Jun 2027 04:38:56.617   06 Jun 2027 04:40:14.782            78.165               Magadan1          5729.000
       227   06 Jun 2027 04:40:29.393   06 Jun 2027 04:41:42.796            73.403               Magadan2          7305.500
       228   06 Jun 2027 04:41:43.065   06 Jun 2027 04:42:02.486            19.421               Magadan2           134.500
       229   06 Jun 2027 04:42:07.995   06 Jun 2027 04:43:00.607            52.612                Novosib          2754.500
       230   06 Jun 2027 04:43:11.626   06 Jun 2027 04:43:59.241            47.615               Magadan2          5509.500
       231   06 Jun 2027 04:43:59.810   06 Jun 2027 04:44:14.603            14.793               Magadan2           284.500
       232   06 Jun 2027 04:44:16.584   06 Jun 2027 04:44:52.452            35.868               Magadan2           990.500
       233   06 Jun 2027 04:44:52.458   06 Jun 2027 04:44:57.222             4.764                Norilsk             3.000
       234   06 Jun 2027 04:44:59.073   06 Jun 2027 04:45:09.622            10.549                Novosib           925.500
       235   06 Jun 2027 06:14:46.006   06 Jun 2027 06:15:09.562            23.556                Norilsk          2944.500
       236   06 Jun 2027 06:15:51.435   06 Jun 2027 06:19:10.136           198.701                Irkutsk         22912.500
       237   06 Jun 2027 06:19:11.051   06 Jun 2027 06:19:39.263            28.212                Norilsk           457.500
       238   06 Jun 2027 06:19:39.289   06 Jun 2027 06:20:07.143            27.854              Murmansk2            13.000
       239   06 Jun 2027 06:20:12.953   06 Jun 2027 06:20:38.282            25.329              Murmansk1          2905.000
       240   06 Jun 2027 06:20:42.417   06 Jun 2027 06:21:09.166            26.749                Novosib          2067.500
       241   06 Jun 2027 07:52:06.951   06 Jun 2027 07:52:21.351            14.400              Murmansk2           247.000
       242   06 Jun 2027 07:52:22.602   06 Jun 2027 07:52:34.224            11.622                Irkutsk           625.500
       243   06 Jun 2027 07:52:41.173   06 Jun 2027 07:53:17.800            36.627                Norilsk          3474.500
       244   06 Jun 2027 07:53:19.091   06 Jun 2027 07:53:35.301            16.210                Norilsk           645.500
       245   06 Jun 2027 07:53:36.868   06 Jun 2027 07:53:44.886             8.018              Murmansk2           783.500
       246   06 Jun 2027 07:53:45.463   06 Jun 2027 07:53:53.074             7.611              Murmansk2           288.500
       247   06 Jun 2027 07:53:59.893   06 Jun 2027 07:54:32.103            32.210                 Moscow          3409.500
       248   06 Jun 2027 07:54:40.391   06 Jun 2027 07:54:48.986             8.595                 Moscow          1074.375
       249   06 Jun 2027 07:54:57.688   06 Jun 2027 07:56:33.385            95.697                 Moscow          7420.625
       250   06 Jun 2027 09:28:13.235   06 Jun 2027 09:28:23.562            10.327                Norilsk          1054.000
       251   06 Jun 2027 09:28:24.955   06 Jun 2027 09:28:53.392            28.437                Norilsk           696.500
       252   06 Jun 2027 09:28:58.967   06 Jun 2027 09:29:39.995            41.028              Murmansk1          2787.500
       253   06 Jun 2027 09:29:41.413   06 Jun 2027 09:30:27.920            46.507                Novosib           709.000
       254   06 Jun 2027 09:30:31.038   06 Jun 2027 09:31:01.456            30.418                Norilsk          1559.000
       255   06 Jun 2027 09:31:06.129   06 Jun 2027 09:31:39.389            33.260              Murmansk2          2336.500
       256   06 Jun 2027 09:31:58.617   06 Jun 2027 09:33:35.044            96.427                Norilsk          9614.000
       257   07 Jun 2027 03:15:18.915   07 Jun 2027 03:16:03.838            44.923               Magadan2          2529.500
       258   07 Jun 2027 03:16:13.997   07 Jun 2027 03:16:59.511            45.514                Norilsk          5079.500
       259   07 Jun 2027 03:17:01.338   07 Jun 2027 03:17:25.494            24.156               Magadan2           913.500
       260   07 Jun 2027 03:17:34.457   07 Jun 2027 03:18:52.247            77.790                Irkutsk          4481.500
       261   07 Jun 2027 04:50:24.795   07 Jun 2027 04:50:50.169            25.374               Magadan1           262.500
       262   07 Jun 2027 04:50:53.073   07 Jun 2027 04:51:38.174            45.101               Magadan1          1452.000
       263   07 Jun 2027 04:51:42.512   07 Jun 2027 04:52:06.440            23.928               Magadan1          2169.000
       264   07 Jun 2027 04:52:17.893   07 Jun 2027 04:53:29.466            71.573                Irkutsk          5726.500
       265   07 Jun 2027 04:53:30.420   07 Jun 2027 04:53:42.858            12.438               Magadan1           477.000
       266   07 Jun 2027 04:53:50.951   07 Jun 2027 04:54:20.048            29.097                Norilsk          3637.125
       267   07 Jun 2027 04:54:25.580   07 Jun 2027 04:54:58.543            32.963                Irkutsk          3175.375
       268   07 Jun 2027 04:55:00.075   07 Jun 2027 04:55:29.742            29.667               Magadan2           766.000
       269   07 Jun 2027 04:55:30.157   07 Jun 2027 04:55:32.995             2.838               Magadan1           207.500
       270   07 Jun 2027 04:55:34.296   07 Jun 2027 04:55:44.427            10.131                Novosib           650.500
       271   07 Jun 2027 04:55:48.151   07 Jun 2027 04:56:24.772            36.621                Novosib          1862.000
       272   07 Jun 2027 04:56:29.129   07 Jun 2027 04:57:17.466            48.337              Murmansk2          2178.500
       273   07 Jun 2027 06:26:46.637   07 Jun 2027 06:28:12.480            85.843                Novosib          3850.500
       274   07 Jun 2027 06:28:36.319   07 Jun 2027 06:30:42.035           125.716                Novosib         11919.500
       275   07 Jun 2027 06:30:50.782   07 Jun 2027 06:31:28.017            37.235                Norilsk          4373.500
       276   07 Jun 2027 06:31:30.123   07 Jun 2027 06:31:57.903            27.780              Murmansk2          1053.000
       277   07 Jun 2027 06:32:00.183   07 Jun 2027 06:32:36.443            36.260              Murmansk1          1140.000
       278   07 Jun 2027 06:32:48.978   07 Jun 2027 06:34:04.961            75.983              Murmansk1          4149.000
       279   07 Jun 2027 08:04:13.335   07 Jun 2027 08:04:26.570            13.235                Irkutsk           669.000
       280   07 Jun 2027 08:04:29.121   07 Jun 2027 08:04:39.822            10.701                Norilsk          1275.500
       281   07 Jun 2027 08:04:45.220   07 Jun 2027 08:05:44.785            59.565                Irkutsk          2699.000
       282   07 Jun 2027 08:05:45.967   07 Jun 2027 08:06:08.502            22.535              Murmansk1           591.000
       283   07 Jun 2027 08:06:12.179   07 Jun 2027 08:07:13.951            61.772                Novosib          1838.500
       284   07 Jun 2027 08:07:15.197   07 Jun 2027 08:07:43.720            28.523                Irkutsk           623.000
       285   07 Jun 2027 08:07:52.108   07 Jun 2027 08:08:40.585            48.477              Murmansk2          4194.000
       286   07 Jun 2027 08:08:43.115   07 Jun 2027 08:09:01.997            18.882                Norilsk          1265.000
       287   07 Jun 2027 09:40:19.482   07 Jun 2027 09:40:54.101            34.619              Murmansk1          3087.000
       288   07 Jun 2027 09:40:55.748   07 Jun 2027 09:41:05.781            10.033                Norilsk           823.500
       289   07 Jun 2027 09:41:19.367   07 Jun 2027 09:42:31.326            71.959                Norilsk          6793.000
       290   07 Jun 2027 09:42:32.839   07 Jun 2027 09:43:11.020            38.181                Novosib           756.500
       291   07 Jun 2027 09:43:16.210   07 Jun 2027 09:43:53.007            36.797              Murmansk2          2595.000
       292   07 Jun 2027 09:44:03.195   07 Jun 2027 09:44:46.305            43.110                Novosib          5094.000
       293   07 Jun 2027 09:44:46.366   07 Jun 2027 09:44:59.327            12.961                Norilsk            30.500
       294   07 Jun 2027 09:45:09.427   07 Jun 2027 09:45:57.899            48.472                 Moscow          5050.000
       295   08 Jun 2027 03:27:04.274   08 Jun 2027 03:27:34.277            30.003               Magadan1          3372.500
       296   08 Jun 2027 03:27:35.080   08 Jun 2027 03:27:43.449             8.369                Anadyr2           401.500
       297   08 Jun 2027 03:27:57.816   08 Jun 2027 03:29:02.603            64.787               Magadan1          7183.500
       298   08 Jun 2027 03:29:09.929   08 Jun 2027 03:30:03.469            53.540                Anadyr1          3663.000
       299   08 Jun 2027 03:30:03.529   08 Jun 2027 03:30:06.904             3.375               Magadan2            30.000
       300   08 Jun 2027 03:30:13.358   08 Jun 2027 03:30:42.440            29.082                Anadyr2          3227.000
       301   08 Jun 2027 03:30:48.411   08 Jun 2027 03:31:59.587            71.176                Anadyr2          2985.500
       302   08 Jun 2027 05:01:51.933   08 Jun 2027 05:02:15.134            23.201                Norilsk          1651.500
       303   08 Jun 2027 05:02:30.603   08 Jun 2027 05:03:57.789            87.186                Norilsk          7734.500
       304   08 Jun 2027 05:04:01.284   08 Jun 2027 05:04:19.343            18.059                Novosib          1747.500
       305   08 Jun 2027 05:04:20.143   08 Jun 2027 05:04:27.322             7.179               Magadan1           400.000
       306   08 Jun 2027 05:04:34.905   08 Jun 2027 05:05:25.257            50.352                Novosib          3791.500
       307   08 Jun 2027 05:05:25.723   08 Jun 2027 05:05:30.030             4.307                Novosib           233.000
       308   08 Jun 2027 05:05:33.381   08 Jun 2027 05:06:03.398            30.017               Magadan1          1675.500
       309   08 Jun 2027 05:06:07.886   08 Jun 2027 05:06:47.304            39.418               Magadan1          2244.000
       310   08 Jun 2027 05:06:48.463   08 Jun 2027 05:07:15.411            26.948                Norilsk           579.500
       311   08 Jun 2027 05:07:15.662   08 Jun 2027 05:07:48.707            33.045                Irkutsk           125.500
       312   08 Jun 2027 05:08:03.407   08 Jun 2027 05:09:05.815            62.408                Irkutsk          7350.000
       313   08 Jun 2027 05:09:07.519   08 Jun 2027 05:09:22.897            15.378                Norilsk           852.000
       314   08 Jun 2027 06:38:25.175   08 Jun 2027 06:39:03.430            38.255                Norilsk           402.000
       315   08 Jun 2027 06:39:06.488   08 Jun 2027 06:39:55.143            48.655                Novosib          1529.000
       316   08 Jun 2027 06:39:59.560   08 Jun 2027 06:40:08.812             9.252                Norilsk          1156.500
       317   08 Jun 2027 06:40:14.664   08 Jun 2027 06:40:40.254            25.590                Norilsk          3198.750
       318   08 Jun 2027 06:40:45.066   08 Jun 2027 06:41:42.388            57.322                Irkutsk          3185.250
       319   08 Jun 2027 06:41:52.582   08 Jun 2027 06:42:37.331            44.749              Murmansk1          5097.000
       320   08 Jun 2027 06:42:37.969   08 Jun 2027 06:42:50.413            12.444                Novosib           319.000
       321   08 Jun 2027 06:42:52.676   08 Jun 2027 06:43:30.389            37.713                Irkutsk          1131.500
       322   08 Jun 2027 06:43:31.602   08 Jun 2027 06:43:37.071             5.469                Novosib           606.500
       323   08 Jun 2027 06:43:39.585   08 Jun 2027 06:44:02.314            22.729                Irkutsk          1257.000
       324   08 Jun 2027 06:44:13.080   08 Jun 2027 06:45:25.944            72.864                Novosib          5383.000
       325   08 Jun 2027 08:16:43.742   08 Jun 2027 08:17:12.956            29.214                 Moscow           873.500
       326   08 Jun 2027 08:17:15.195   08 Jun 2027 08:17:27.433            12.238              Murmansk1          1119.500
       327   08 Jun 2027 08:17:43.790   08 Jun 2027 08:18:51.494            67.704                Irkutsk          8178.500
       328   08 Jun 2027 08:19:05.959   08 Jun 2027 08:20:24.273            78.314                Norilsk          7232.500
       329   08 Jun 2027 08:20:25.068   08 Jun 2027 08:20:40.669            15.601                Norilsk           397.500
       330   08 Jun 2027 09:50:09.525   08 Jun 2027 09:50:36.396            26.871                 Moscow          3358.875
       331   08 Jun 2027 09:50:43.766   08 Jun 2027 09:51:10.837            27.071                Novosib            49.625
       332   08 Jun 2027 09:52:11.497   08 Jun 2027 09:53:43.340            91.843              Murmansk2          4816.500
       333   08 Jun 2027 09:53:44.918   08 Jun 2027 09:54:07.478            22.560              Murmansk2           789.000
       334   08 Jun 2027 09:54:17.341   08 Jun 2027 09:55:05.002            47.661              Murmansk1          4931.500
       335   08 Jun 2027 09:55:09.031   08 Jun 2027 09:56:07.080            58.049              Murmansk2          2014.500
       336   08 Jun 2027 09:56:08.594   08 Jun 2027 09:56:37.264            28.670              Murmansk1           757.000
       337   08 Jun 2027 09:56:39.863   08 Jun 2027 09:57:07.125            27.262                Norilsk          1299.500
       338   08 Jun 2027 09:57:09.770   08 Jun 2027 09:57:31.015            21.245              Murmansk2          1322.500
       339   08 Jun 2027 09:57:37.634   08 Jun 2027 09:58:03.028            25.394                Norilsk           462.500
       340   09 Jun 2027 03:37:25.556   09 Jun 2027 03:38:49.031            83.475                Irkutsk          7654.000
       341   09 Jun 2027 03:38:52.346   09 Jun 2027 03:39:07.306            14.960                Anadyr2          1657.500
       342   09 Jun 2027 03:39:07.648   09 Jun 2027 03:39:24.557            16.909                Anadyr2           171.000
       343   09 Jun 2027 03:39:37.083   09 Jun 2027 03:41:03.516            86.433               Magadan2          6263.000
       344   09 Jun 2027 03:41:07.385   09 Jun 2027 03:41:59.759            52.374                Anadyr1          1934.500
       345   09 Jun 2027 03:42:04.675   09 Jun 2027 03:42:27.057            22.382                Anadyr1          2458.000
       346   09 Jun 2027 03:42:32.465   09 Jun 2027 03:43:02.982            30.517               Magadan2          2704.000
       347   09 Jun 2027 03:43:17.168   09 Jun 2027 03:43:51.966            34.798                Novosib          4349.750
       348   09 Jun 2027 03:44:00.960   09 Jun 2027 03:44:50.921            49.961                Anadyr2          2743.250
       349   09 Jun 2027 05:13:46.422   09 Jun 2027 05:14:46.111            59.689                Irkutsk          2717.500
       350   09 Jun 2027 05:15:02.270   09 Jun 2027 05:16:11.069            68.799                Norilsk          8079.500
       351   09 Jun 2027 05:16:15.454   09 Jun 2027 05:16:39.492            24.038                Norilsk          2192.500
       352   09 Jun 2027 05:16:48.924   09 Jun 2027 05:17:42.876            53.952                Irkutsk          4716.000
       353   09 Jun 2027 05:17:43.824   09 Jun 2027 05:17:47.925             4.101                Norilsk           474.000
       354   09 Jun 2027 05:17:49.872   09 Jun 2027 05:18:22.048            32.176                Norilsk           973.500
       355   09 Jun 2027 05:18:33.651   09 Jun 2027 05:19:48.649            74.998                Irkutsk          5801.500
       356   09 Jun 2027 05:19:51.823   09 Jun 2027 05:20:56.967            65.144                Novosib          1587.000
       357   09 Jun 2027 05:21:00.903   09 Jun 2027 05:21:21.708            20.805              Murmansk2          1968.000
       358   09 Jun 2027 06:50:50.346   09 Jun 2027 06:51:30.515            40.169                Novosib          2463.000
       359   09 Jun 2027 06:51:38.143   09 Jun 2027 06:52:45.673            67.530                Irkutsk          3814.000
       360   09 Jun 2027 06:53:06.340   09 Jun 2027 06:54:12.145            65.805                Novosib          8225.625
       361   09 Jun 2027 06:54:21.580   09 Jun 2027 06:55:31.977            70.397                Norilsk          6825.375
       362   09 Jun 2027 06:55:34.431   09 Jun 2027 06:56:31.140            56.709              Murmansk1          1227.000
       363   09 Jun 2027 06:56:36.337   09 Jun 2027 06:57:18.826            42.489              Murmansk2          2448.000
       364   09 Jun 2027 08:28:47.809   09 Jun 2027 08:29:23.079            35.270                Norilsk          4069.000
       365   09 Jun 2027 08:29:37.297   09 Jun 2027 08:30:34.861            57.564                Irkutsk          7109.000
       366   09 Jun 2027 08:30:37.514   09 Jun 2027 08:31:31.551            54.037              Murmansk2          1326.500
       367   09 Jun 2027 08:31:39.422   09 Jun 2027 08:31:54.250            14.828              Murmansk2          1853.500
       368   09 Jun 2027 08:32:07.919   09 Jun 2027 08:34:04.670           116.751                Novosib          8916.500
       369   09 Jun 2027 10:02:21.716   09 Jun 2027 10:04:52.465           150.749                 Moscow         16597.500
       370   09 Jun 2027 10:04:54.298   09 Jun 2027 10:05:09.042            14.744                Novosib           916.500
       371   09 Jun 2027 10:05:13.239   09 Jun 2027 10:06:31.825            78.586                 Moscow          2098.500
       372   09 Jun 2027 10:06:32.790   09 Jun 2027 10:06:40.606             7.816                Norilsk           482.500
       373   09 Jun 2027 10:06:43.923   09 Jun 2027 10:07:06.673            22.750                Novosib          1658.500
       374   09 Jun 2027 10:07:10.855   09 Jun 2027 10:07:45.896            35.041                 Moscow          2091.000
       375   09 Jun 2027 10:07:51.892   09 Jun 2027 10:08:33.900            42.008                 Moscow          2998.000
       376   09 Jun 2027 10:08:35.210   09 Jun 2027 10:08:53.485            18.275              Murmansk2           655.000
       377   09 Jun 2027 10:08:59.086   09 Jun 2027 10:09:30.303            31.217                 Moscow          2800.500
       378   09 Jun 2027 10:09:37.902   09 Jun 2027 10:10:17.401            39.499                Norilsk          3799.500
       379   10 Jun 2027 03:48:31.030   10 Jun 2027 03:49:44.557            73.527               Magadan2          5475.000
       380   10 Jun 2027 03:49:53.117   10 Jun 2027 03:50:43.375            50.258               Magadan2          4280.000
       381   10 Jun 2027 03:50:43.911   10 Jun 2027 03:51:01.929            18.018               Magadan2           268.000
       382   10 Jun 2027 03:51:02.945   10 Jun 2027 03:52:04.717            61.772                Anadyr1           508.000
       383   10 Jun 2027 03:52:07.026   10 Jun 2027 03:53:04.035            57.009               Magadan2          1154.500
       384   10 Jun 2027 03:53:15.805   10 Jun 2027 03:54:08.714            52.909                Norilsk          5885.000
       385   10 Jun 2027 03:54:11.316   10 Jun 2027 03:54:19.127             7.811               Magadan2           976.375
       386   10 Jun 2027 03:54:19.127   10 Jun 2027 03:54:53.662            34.535               Magadan1           324.625
       387   10 Jun 2027 03:55:03.438   10 Jun 2027 03:55:46.383            42.945               Magadan2          4888.000
       388   10 Jun 2027 03:56:02.228   10 Jun 2027 03:56:53.640            51.412                Anadyr2          1795.000
       389   10 Jun 2027 05:25:55.886   10 Jun 2027 05:26:35.638            39.752               Magadan1          1019.000
       390   10 Jun 2027 05:26:51.869   10 Jun 2027 05:28:12.604            80.735                Norilsk          8115.500
       391   10 Jun 2027 05:28:16.368   10 Jun 2027 05:29:33.470            77.102                Novosib          1882.000
       392   10 Jun 2027 05:29:34.772   10 Jun 2027 05:29:45.622            10.850                Novosib           651.000
       393   10 Jun 2027 05:29:47.855   10 Jun 2027 05:30:02.215            14.360               Magadan1          1116.500
       394   10 Jun 2027 05:30:07.699   10 Jun 2027 05:30:33.517            25.818                Novosib          2742.000
       395   10 Jun 2027 05:30:42.600   10 Jun 2027 05:30:59.475            16.875                Norilsk          2109.375
       396   10 Jun 2027 05:31:02.930   10 Jun 2027 05:32:03.774            60.844              Murmansk2          4159.625
       397   10 Jun 2027 05:32:12.240   10 Jun 2027 05:33:22.075            69.835                Novosib          4233.000
       398   10 Jun 2027 07:02:47.844   10 Jun 2027 07:04:45.349           117.505                Irkutsk          5714.500
       399   10 Jun 2027 07:04:57.254   10 Jun 2027 07:06:15.846            78.592                Novosib          5952.500
       400   10 Jun 2027 07:06:16.195   10 Jun 2027 07:06:31.978            15.783                 Moscow           174.500
       401   10 Jun 2027 07:06:44.090   10 Jun 2027 07:08:01.255            77.165                Irkutsk          6056.000
       402   10 Jun 2027 07:08:02.105   10 Jun 2027 07:08:48.389            46.284                Novosib           425.000
       403   10 Jun 2027 07:08:49.668   10 Jun 2027 07:08:56.506             6.838                Irkutsk           639.500
       404   10 Jun 2027 07:09:07.975   10 Jun 2027 07:09:16.014             8.039                Norilsk          1004.875
       405   10 Jun 2027 07:09:19.884   10 Jun 2027 07:10:12.728            52.844              Murmansk1          4729.625
       406   10 Jun 2027 08:40:42.398   10 Jun 2027 08:41:14.299            31.901                 Moscow          1446.000
       407   10 Jun 2027 08:41:19.015   10 Jun 2027 08:41:40.713            21.698              Murmansk2          2358.000
       408   10 Jun 2027 08:41:48.835   10 Jun 2027 08:42:32.967            44.132              Murmansk1          4061.000
       409   10 Jun 2027 08:42:42.763   10 Jun 2027 08:43:34.440            51.677                Norilsk          4898.000
       410   10 Jun 2027 08:43:34.811   10 Jun 2027 08:43:44.492             9.681              Murmansk1           185.500
       411   10 Jun 2027 08:44:02.948   10 Jun 2027 08:45:17.048            74.100              Murmansk2          9228.000
       412   10 Jun 2027 10:14:41.067   10 Jun 2027 10:16:19.885            98.818                 Moscow         12057.000
       413   10 Jun 2027 10:16:41.454   10 Jun 2027 10:18:23.221           101.767                 Moscow         10784.500
       414   10 Jun 2027 10:18:34.042   10 Jun 2027 10:20:20.659           106.617                Norilsk          5410.500
       415   10 Jun 2027 10:20:22.271   10 Jun 2027 10:20:43.744            21.473                Norilsk           806.000
       416   10 Jun 2027 10:20:45.995   10 Jun 2027 10:21:06.305            20.310              Murmansk2          1125.500
       417   10 Jun 2027 10:21:06.742   10 Jun 2027 10:21:12.978             6.236                Norilsk           218.500
       418   10 Jun 2027 10:21:27.731   10 Jun 2027 10:22:48.219            80.488                Norilsk          7376.500
       419   11 Jun 2027 04:00:01.277   11 Jun 2027 04:00:31.293            30.016               Magadan1          3752.000
       420   11 Jun 2027 04:00:31.293   11 Jun 2027 04:00:48.942            17.649               Magadan2          1490.000
       421   11 Jun 2027 04:01:07.062   11 Jun 2027 04:02:17.476            70.414               Magadan1          8801.750
       422   11 Jun 2027 04:02:17.476   11 Jun 2027 04:02:52.426            34.950               Magadan2           258.250
       423   11 Jun 2027 04:02:55.908   11 Jun 2027 04:04:09.545            73.637                Anadyr1          1741.000
       424   11 Jun 2027 04:04:23.356   11 Jun 2027 04:05:33.152            69.796                Anadyr1          6905.500
       425   11 Jun 2027 04:05:34.838   11 Jun 2027 04:06:10.088            35.250               Magadan1           843.000
       426   11 Jun 2027 04:06:13.231   11 Jun 2027 04:07:06.361            53.130               Magadan1          1571.500
       427   11 Jun 2027 04:07:12.543   11 Jun 2027 04:07:40.619            28.076               Magadan2          3091.000
       428   11 Jun 2027 04:07:54.973   11 Jun 2027 04:08:27.094            32.121                Irkutsk          4015.125
       429   11 Jun 2027 04:08:35.054   11 Jun 2027 04:09:41.665            66.611              Murmansk2          7141.875
       430   11 Jun 2027 05:37:50.286   11 Jun 2027 05:37:56.388             6.102                Norilsk           762.750
       431   11 Jun 2027 05:38:01.618   11 Jun 2027 05:38:56.950            55.332               Magadan1          3119.750
       432   11 Jun 2027 05:39:06.689   11 Jun 2027 05:40:13.144            66.455                Irkutsk          4869.500
       433   11 Jun 2027 05:40:14.265   11 Jun 2027 05:40:19.250             4.985                Norilsk           560.500
       434   11 Jun 2027 05:40:24.065   11 Jun 2027 05:41:00.708            36.643               Magadan2          2407.500
       435   11 Jun 2027 05:41:06.355   11 Jun 2027 05:41:12.408             6.053                Norilsk           756.625
       436   11 Jun 2027 05:41:19.223   11 Jun 2027 05:42:03.698            44.475                Irkutsk          5474.375
       437   11 Jun 2027 05:42:04.312   11 Jun 2027 05:42:06.803             2.491                Norilsk           307.000
       438   11 Jun 2027 05:42:10.775   11 Jun 2027 05:43:00.188            49.413                Irkutsk          1986.000
       439   11 Jun 2027 05:43:02.781   11 Jun 2027 05:43:33.340            30.559               Magadan2          1296.500
       440   11 Jun 2027 05:43:49.148   11 Jun 2027 05:44:00.705            11.557                Norilsk          1444.625
       441   11 Jun 2027 05:44:13.678   11 Jun 2027 05:45:17.004            63.326                Irkutsk          7915.750
       442   11 Jun 2027 05:45:25.918   11 Jun 2027 05:46:41.008            75.090              Murmansk1          5030.125
       443   11 Jun 2027 07:14:45.439   11 Jun 2027 07:15:15.513            30.074                Irkutsk          1656.000
       444   11 Jun 2027 07:15:26.422   11 Jun 2027 07:16:11.166            44.744                Norilsk          5454.500
       445   11 Jun 2027 07:16:14.188   11 Jun 2027 07:16:28.483            14.295                Norilsk          1511.000
       446   11 Jun 2027 07:16:33.423   11 Jun 2027 07:17:39.931            66.508                Novosib          2470.000
       447   11 Jun 2027 07:17:48.098   11 Jun 2027 07:18:41.522            53.424                 Moscow          4083.500
       448   11 Jun 2027 07:18:46.163   11 Jun 2027 07:19:08.403            22.240              Murmansk1          2320.500
       449   11 Jun 2027 07:19:09.181   11 Jun 2027 07:19:23.718            14.537              Murmansk2           389.000
       450   11 Jun 2027 07:19:27.424   11 Jun 2027 07:20:01.623            34.199                Novosib          1853.000
       451   11 Jun 2027 07:20:13.057   11 Jun 2027 07:20:52.705            39.648                Novosib          1133.000
       452   11 Jun 2027 07:21:01.470   11 Jun 2027 07:21:24.327            22.857                 Moscow          2857.125
       453   11 Jun 2027 07:21:31.760   11 Jun 2027 07:21:44.389            12.629                Norilsk          1525.375
       454   11 Jun 2027 08:52:29.465   11 Jun 2027 08:53:09.909            40.444                Norilsk          1838.000
       455   11 Jun 2027 08:53:14.490   11 Jun 2027 08:53:32.924            18.434              Murmansk2          2290.500
       456   11 Jun 2027 08:53:34.899   11 Jun 2027 08:53:45.250            10.351                Norilsk           987.500
       457   11 Jun 2027 08:53:50.138   11 Jun 2027 08:54:18.891            28.753              Murmansk1          2444.000
       458   11 Jun 2027 08:54:22.454   11 Jun 2027 08:54:57.413            34.959                Novosib          1781.500
       459   11 Jun 2027 08:54:58.935   11 Jun 2027 08:55:24.587            25.652                Novosib           761.000
       460   11 Jun 2027 08:55:24.623   11 Jun 2027 08:55:25.709             1.086              Murmansk2            18.000
       461   11 Jun 2027 08:55:30.114   11 Jun 2027 08:55:49.499            19.385                 Moscow          2202.500
       462   11 Jun 2027 08:55:50.135   11 Jun 2027 08:56:07.692            17.557              Murmansk1           318.000
       463   11 Jun 2027 08:56:21.074   11 Jun 2027 08:57:46.091            85.017                Norilsk          6691.000
       464   11 Jun 2027 10:26:42.602   11 Jun 2027 10:27:28.071            45.469                 Moscow          1295.000
       465   11 Jun 2027 10:27:54.031   11 Jun 2027 10:29:02.990            68.959              Murmansk1          6132.000
       466   11 Jun 2027 10:29:05.550   11 Jun 2027 10:29:31.750            26.200                 Moscow          1280.000
       467   11 Jun 2027 10:29:39.274   11 Jun 2027 10:30:11.614            32.340              Murmansk1          3762.000
       468   11 Jun 2027 10:30:11.820   11 Jun 2027 10:30:35.902            24.082                 Moscow           103.000
       469   11 Jun 2027 10:30:47.370   11 Jun 2027 10:31:52.060            64.690                 Moscow          5734.000
       470   11 Jun 2027 10:31:54.035   11 Jun 2027 10:32:29.105            35.070              Murmansk2           987.500
       471   12 Jun 2027 04:12:49.885   12 Jun 2027 04:13:56.227            66.342                Irkutsk          2819.500
       472   12 Jun 2027 04:14:08.649   12 Jun 2027 04:15:45.633            96.984               Magadan2          6211.000
       473   12 Jun 2027 04:15:46.399   12 Jun 2027 04:15:53.563             7.164               Magadan2           383.000
       474   12 Jun 2027 04:15:54.894   12 Jun 2027 04:16:16.170            21.276               Magadan1           665.500
       475   12 Jun 2027 04:16:32.024   12 Jun 2027 04:17:19.472            47.448                Norilsk          5931.000
       476   12 Jun 2027 04:17:23.660   12 Jun 2027 04:18:04.493            40.833               Magadan1          4090.000
       477   12 Jun 2027 04:18:09.028   12 Jun 2027 04:18:35.574            26.546                Anadyr2          2267.500
       478   12 Jun 2027 04:18:40.397   12 Jun 2027 04:20:04.318            83.921                Anadyr1          2411.500
       479   12 Jun 2027 04:20:05.444   12 Jun 2027 04:20:23.402            17.958               Magadan2           563.000
       480   12 Jun 2027 04:20:33.103   12 Jun 2027 04:20:55.337            22.234                Irkutsk          2779.250
       481   12 Jun 2027 04:20:58.185   12 Jun 2027 04:21:48.090            49.905                Novosib          3495.250
       482   12 Jun 2027 05:50:19.700   12 Jun 2027 05:50:54.462            34.762                Norilsk          4345.250
