uniorb/output/strategy_2/Drop/Drop_KinoSat_110809.txt

KinoSat_110809
-------------------------
    Access    *     Start Time (UTCG)     *     Stop Time (UTCG)  *   Duration (s)        *       Station  *  Data (Mbytes)
         1   01 Jun 2027 04:36:30.243   01 Jun 2027 04:36:48.963            18.720               Magadan1           585.000
         2   01 Jun 2027 06:06:32.947   01 Jun 2027 06:06:47.861            14.914                Irkutsk           466.063
         3   01 Jun 2027 06:09:41.910   01 Jun 2027 06:10:52.104            70.194                Irkutsk          2193.562
         4   01 Jun 2027 06:11:11.869   01 Jun 2027 06:11:13.121             1.252                Novosib            39.125
         5   01 Jun 2027 06:11:28.208   01 Jun 2027 06:11:53.957            25.749                Norilsk           804.656
         6   01 Jun 2027 06:11:54.788   01 Jun 2027 06:12:28.728            33.940                Novosib          1060.625
         7   01 Jun 2027 06:12:34.209   01 Jun 2027 06:13:20.622            46.413                Anadyr1          1450.406
         8   01 Jun 2027 06:13:22.381   01 Jun 2027 06:14:07.992            45.611                Irkutsk          1425.344
         9   01 Jun 2027 06:14:32.247   01 Jun 2027 06:15:03.252            31.005               Magadan2           968.906
        10   01 Jun 2027 06:15:04.774   01 Jun 2027 06:15:18.831            14.057              Murmansk2           439.281
        11   01 Jun 2027 06:15:18.831   01 Jun 2027 06:16:09.030            50.199              Murmansk1          1568.719
        12   01 Jun 2027 06:16:40.330   01 Jun 2027 06:17:07.730            27.400                Norilsk           856.250
        13   01 Jun 2027 06:17:33.614   01 Jun 2027 06:17:55.478            21.864                Norilsk           683.250
        14   01 Jun 2027 06:18:19.058   01 Jun 2027 06:19:07.149            48.091                Norilsk          1502.844
        15   01 Jun 2027 06:19:56.583   01 Jun 2027 06:20:01.910             5.327                Norilsk           166.469
        16   01 Jun 2027 06:50:00.947   01 Jun 2027 06:51:58.032           117.085            RioGallegos          3658.906
        17   01 Jun 2027 06:53:07.697   01 Jun 2027 06:54:03.373            55.676            RioGallegos          1739.875
        18   01 Jun 2027 07:26:16.553   01 Jun 2027 07:28:34.388           137.835                Sumatra          4307.344
        19   01 Jun 2027 07:46:40.625   01 Jun 2027 07:46:50.186             9.561                Irkutsk           298.781
        20   01 Jun 2027 07:47:04.819   01 Jun 2027 07:47:16.953            12.134                Novosib           379.187
        21   01 Jun 2027 07:47:20.810   01 Jun 2027 07:49:51.886           151.076                Irkutsk          4721.125
        22   01 Jun 2027 07:49:57.850   01 Jun 2027 07:51:11.765            73.915                Irkutsk          2309.844
        23   01 Jun 2027 07:53:13.320   01 Jun 2027 07:53:29.021            15.701              Murmansk2           490.656
        24   01 Jun 2027 07:56:13.750   01 Jun 2027 07:56:30.832            17.082              Murmansk2           533.812
        25   01 Jun 2027 08:26:44.548   01 Jun 2027 08:27:20.179            35.631            RioGallegos          1113.469
        26   01 Jun 2027 09:01:01.986   01 Jun 2027 09:02:25.946            83.960                Sumatra          2623.750
        27   01 Jun 2027 09:05:13.336   01 Jun 2027 09:06:13.800            60.464                Sumatra          1889.500
        28   01 Jun 2027 09:10:58.226   01 Jun 2027 09:11:51.450            53.224                  Delhi          1663.250
        29   01 Jun 2027 09:21:48.551   01 Jun 2027 09:21:59.099            10.548                 Moscow           329.625
        30   01 Jun 2027 09:23:36.582   01 Jun 2027 09:25:41.871           125.289                Irkutsk          3915.281
        31   01 Jun 2027 09:26:09.664   01 Jun 2027 09:26:20.654            10.990                Irkutsk           343.438
        32   01 Jun 2027 09:26:26.974   01 Jun 2027 09:27:06.826            39.852              Murmansk2          1245.375
        33   01 Jun 2027 09:27:06.826   01 Jun 2027 09:27:09.585             2.759              Murmansk1            86.219
        34   01 Jun 2027 09:27:18.429   01 Jun 2027 09:28:14.126            55.697                 Moscow          1740.531
        35   01 Jun 2027 10:45:49.775   01 Jun 2027 10:46:25.756            35.981                  Delhi          1124.406
        36   01 Jun 2027 10:47:28.620   01 Jun 2027 10:49:14.226           105.606                  Delhi          3300.188
        37   01 Jun 2027 11:00:00.922   01 Jun 2027 11:01:32.250            91.328                Norilsk          2854.000
        38   01 Jun 2027 11:01:46.891   01 Jun 2027 11:02:25.194            38.303                 Moscow          1196.969
        39   01 Jun 2027 11:02:36.112   01 Jun 2027 11:06:18.656           222.544                Norilsk          6954.500
        40   01 Jun 2027 11:07:33.928   01 Jun 2027 11:07:45.814            11.886              Murmansk1           371.438
        41   01 Jun 2027 12:29:24.300   01 Jun 2027 12:32:35.190           190.890                 Moscow          5965.312
        42   01 Jun 2027 12:32:55.889   01 Jun 2027 12:34:15.911            80.022              Murmansk2          2500.688
        43   01 Jun 2027 12:34:16.579   01 Jun 2027 12:36:24.076           127.497              Murmansk1          3984.281
        44   01 Jun 2027 12:37:36.923   01 Jun 2027 12:37:59.596            22.673              Murmansk1           708.531
        45   01 Jun 2027 12:38:40.256   01 Jun 2027 12:39:02.313            22.057              Murmansk1           689.281
        46   01 Jun 2027 12:49:29.428   01 Jun 2027 12:52:57.538           208.110                Anadyr2          6503.438
        47   01 Jun 2027 13:43:07.091   01 Jun 2027 13:46:36.745           209.654               CapeTown          6551.687
        48   01 Jun 2027 14:10:42.029   01 Jun 2027 14:10:52.962            10.933              Murmansk2           341.656
        49   01 Jun 2027 14:12:03.096   01 Jun 2027 14:12:09.902             6.806              Murmansk1           212.687
        50   01 Jun 2027 14:14:45.326   01 Jun 2027 14:15:24.074            38.748              Murmansk1          1210.875
        51   01 Jun 2027 14:23:36.417   01 Jun 2027 14:25:38.738           122.321                Anadyr2          3822.531
        52   01 Jun 2027 14:26:12.465   01 Jun 2027 14:27:58.398           105.933                Anadyr1          3310.406
        53   01 Jun 2027 15:19:12.357   01 Jun 2027 15:19:42.806            30.449               CapeTown           951.531
        54   01 Jun 2027 15:59:21.036   01 Jun 2027 16:03:15.785           234.749                Anadyr1          7335.906
        55   01 Jun 2027 16:03:31.080   01 Jun 2027 16:03:31.951             0.871                Anadyr1            27.219
        56   01 Jun 2027 16:04:31.303   01 Jun 2027 16:07:26.397           175.094               Magadan2          5471.688
        57   01 Jun 2027 17:35:16.437   01 Jun 2027 17:36:48.052            91.615                Anadyr2          2862.969
        58   01 Jun 2027 17:36:48.594   01 Jun 2027 17:38:38.865           110.271                Anadyr1          3445.969
        59   01 Jun 2027 17:39:36.051   01 Jun 2027 17:41:37.953           121.902               Magadan1          3809.438
        60   01 Jun 2027 17:43:26.995   01 Jun 2027 17:43:55.732            28.737               Magadan2           898.031
        61   01 Jun 2027 17:43:55.732   01 Jun 2027 17:45:03.172            67.440               Magadan1          2107.500
        62   01 Jun 2027 18:30:31.198   01 Jun 2027 18:33:49.545           198.347            RioGallegos          6198.344
        63   01 Jun 2027 19:11:01.026   01 Jun 2027 19:12:52.280           111.254                Anadyr2          3476.688
        64   01 Jun 2027 19:13:11.378   01 Jun 2027 19:17:17.789           246.411                Norilsk          7700.344
        65   01 Jun 2027 19:17:43.850   01 Jun 2027 19:21:55.641           251.791                Irkutsk          7868.469
        66   01 Jun 2027 19:31:59.380   01 Jun 2027 19:34:46.195           166.815                Sumatra          5212.969
        67   01 Jun 2027 20:52:02.888   01 Jun 2027 20:52:46.511            43.623               Magadan1          1363.219
        68   01 Jun 2027 20:52:53.991   01 Jun 2027 20:54:34.097           100.106                Irkutsk          3128.312
        69   01 Jun 2027 20:54:45.219   01 Jun 2027 20:57:13.004           147.785                Novosib          4618.281
        70   01 Jun 2027 21:02:02.147   01 Jun 2027 21:04:54.875           172.728                  Delhi          5397.750
        71   01 Jun 2027 22:27:40.875   01 Jun 2027 22:31:35.140           234.265              Murmansk2          7320.781
        72   01 Jun 2027 22:32:13.990   01 Jun 2027 22:34:35.017           141.027              Murmansk1          4407.094
        73   02 Jun 2027 00:00:46.802   02 Jun 2027 00:01:33.392            46.590               Magadan1          1455.938
        74   02 Jun 2027 00:02:20.647   02 Jun 2027 00:02:36.580            15.933               Magadan1           497.906
        75   02 Jun 2027 00:03:11.105   02 Jun 2027 00:04:16.568            65.463              Murmansk2          2045.719
        76   02 Jun 2027 00:04:40.083   02 Jun 2027 00:04:56.350            16.267              Murmansk1           508.344
        77   02 Jun 2027 00:05:00.198   02 Jun 2027 00:05:38.980            38.782                Novosib          1211.937
        78   02 Jun 2027 00:06:45.781   02 Jun 2027 00:08:22.399            96.618                 Moscow          3019.313
        79   02 Jun 2027 00:09:28.277   02 Jun 2027 00:10:41.880            73.603                 Moscow          2300.094
        80   02 Jun 2027 00:31:57.840   02 Jun 2027 00:34:54.888           177.048               CapeTown          5532.750
        81   02 Jun 2027 00:38:46.284   02 Jun 2027 00:38:57.343            11.059               CapeTown           345.594
        82   02 Jun 2027 01:31:19.992   02 Jun 2027 01:31:47.616            27.624               Magadan1           863.250
        83   02 Jun 2027 01:39:07.956   02 Jun 2027 01:40:04.886            56.930              Murmansk1          1779.063
        84   02 Jun 2027 01:40:04.886   02 Jun 2027 01:40:37.684            32.798              Murmansk2          1024.938
        85   02 Jun 2027 01:41:58.938   02 Jun 2027 01:42:34.199            35.261                Novosib          1101.906
        86   02 Jun 2027 01:42:52.761   02 Jun 2027 01:42:52.986             0.225                 Moscow             7.031
        87   02 Jun 2027 01:43:39.366   02 Jun 2027 01:43:56.871            17.505                 Moscow           547.031
        88   02 Jun 2027 01:45:37.894   02 Jun 2027 01:45:59.885            21.991                 Moscow           687.219
        89   02 Jun 2027 01:46:20.545   02 Jun 2027 01:46:25.473             4.928                 Moscow           154.000
        90   02 Jun 2027 02:06:21.231   02 Jun 2027 02:07:45.830            84.599               CapeTown          2643.719
        91   02 Jun 2027 03:09:38.978   02 Jun 2027 03:10:08.825            29.847               Magadan2           932.719
        92   02 Jun 2027 03:10:19.278   02 Jun 2027 03:12:46.370           147.092                Anadyr2          4596.625
        93   02 Jun 2027 03:12:48.550   02 Jun 2027 03:13:05.228            16.678               Magadan1           521.187
        94   02 Jun 2027 03:13:16.318   02 Jun 2027 03:14:39.108            82.790                Anadyr2          2587.187
        95   02 Jun 2027 03:14:39.108   02 Jun 2027 03:15:52.792            73.684                Anadyr1          2302.625
        96   02 Jun 2027 04:45:11.657   02 Jun 2027 04:46:01.397            49.740                Irkutsk          1554.375
        97   02 Jun 2027 04:49:27.548   02 Jun 2027 04:49:43.914            16.366                Anadyr2           511.438
        98   02 Jun 2027 06:22:06.719   02 Jun 2027 06:22:39.749            33.030                Irkutsk          1032.187
        99   02 Jun 2027 06:23:09.475   02 Jun 2027 06:23:14.478             5.003               Magadan1           156.344
       100   02 Jun 2027 06:23:43.962   02 Jun 2027 06:25:14.919            90.957               Magadan1          2842.406
       101   02 Jun 2027 06:25:43.625   02 Jun 2027 06:26:42.809            59.184                Novosib          1849.500
       102   02 Jun 2027 06:26:48.948   02 Jun 2027 06:26:52.693             3.745                Norilsk           117.031
       103   02 Jun 2027 06:27:03.508   02 Jun 2027 06:27:29.487            25.979                Novosib           811.844
       104   02 Jun 2027 06:31:07.949   02 Jun 2027 06:31:19.480            11.531                Norilsk           360.344
       105   02 Jun 2027 06:31:40.324   02 Jun 2027 06:32:08.067            27.743              Murmansk2           866.969
       106   02 Jun 2027 06:32:10.959   02 Jun 2027 06:32:20.606             9.647                Norilsk           301.469
       107   02 Jun 2027 06:34:09.057   02 Jun 2027 06:34:26.668            17.611              Murmansk2           550.344
       108   02 Jun 2027 07:03:17.576   02 Jun 2027 07:04:24.153            66.577            RioGallegos          2080.531
       109   02 Jun 2027 07:05:10.490   02 Jun 2027 07:06:01.101            50.611            RioGallegos          1581.594
       110   02 Jun 2027 07:06:27.264   02 Jun 2027 07:06:48.796            21.532            RioGallegos           672.875
       111   02 Jun 2027 07:07:42.503   02 Jun 2027 07:08:18.827            36.324            RioGallegos          1135.125
       112   02 Jun 2027 07:09:20.577   02 Jun 2027 07:10:37.315            76.738            RioGallegos          2398.062
       113   02 Jun 2027 07:37:44.757   02 Jun 2027 07:41:00.296           195.539                Sumatra          6110.594
       114   02 Jun 2027 07:59:03.084   02 Jun 2027 07:59:20.293            17.209                Norilsk           537.781
       115   02 Jun 2027 07:59:28.214   02 Jun 2027 07:59:29.139             0.925                Norilsk            28.906
       116   02 Jun 2027 07:59:38.920   02 Jun 2027 08:01:39.064           120.144                Irkutsk          3754.500
       117   02 Jun 2027 08:01:55.970   02 Jun 2027 08:02:06.656            10.686                Norilsk           333.937
       118   02 Jun 2027 08:02:17.691   02 Jun 2027 08:02:36.238            18.547                Norilsk           579.594
       119   02 Jun 2027 08:02:37.682   02 Jun 2027 08:02:54.813            17.131              Murmansk1           535.344
       120   02 Jun 2027 08:02:56.403   02 Jun 2027 08:03:24.506            28.103                Norilsk           878.219
       121   02 Jun 2027 08:03:33.695   02 Jun 2027 08:03:37.609             3.914              Murmansk1           122.313
       122   02 Jun 2027 08:03:39.211   02 Jun 2027 08:04:40.267            61.056                Novosib          1908.000
       123   02 Jun 2027 08:05:08.021   02 Jun 2027 08:05:20.892            12.871              Murmansk2           402.219
       124   02 Jun 2027 08:39:10.164   02 Jun 2027 08:40:31.997            81.833            RioGallegos          2557.281
       125   02 Jun 2027 08:42:36.171   02 Jun 2027 08:42:49.640            13.469            RioGallegos           420.906
       126   02 Jun 2027 08:43:25.835   02 Jun 2027 08:43:56.787            30.952            RioGallegos           967.250
       127   02 Jun 2027 09:13:23.002   02 Jun 2027 09:14:18.278            55.276                Sumatra          1727.375
       128   02 Jun 2027 09:21:18.105   02 Jun 2027 09:23:56.513           158.408                  Delhi          4950.250
       129   02 Jun 2027 09:25:10.557   02 Jun 2027 09:25:10.929             0.372                  Delhi            11.625
       130   02 Jun 2027 09:34:45.241   02 Jun 2027 09:35:56.913            71.672              Murmansk1          2239.750
       131   02 Jun 2027 09:36:01.460   02 Jun 2027 09:36:37.000            35.540                Novosib          1110.625
       132   02 Jun 2027 09:36:41.255   02 Jun 2027 09:37:00.778            19.523              Murmansk1           610.094
       133   02 Jun 2027 09:37:14.386   02 Jun 2027 09:37:55.593            41.207                 Moscow          1287.719
       134   02 Jun 2027 09:38:02.691   02 Jun 2027 09:38:05.559             2.868                Irkutsk            89.625
       135   02 Jun 2027 09:38:12.880   02 Jun 2027 09:38:13.547             0.667                Novosib            20.844
       136   02 Jun 2027 09:38:14.392   02 Jun 2027 09:38:31.947            17.555                Novosib           548.594
       137   02 Jun 2027 09:38:46.203   02 Jun 2027 09:39:57.463            71.260                Norilsk          2226.875
       138   02 Jun 2027 10:58:24.102   02 Jun 2027 11:00:52.620           148.518                  Delhi          4641.187
       139   02 Jun 2027 11:10:43.651   02 Jun 2027 11:11:08.818            25.167                 Moscow           786.469
       140   02 Jun 2027 11:11:11.473   02 Jun 2027 11:11:54.330            42.857                 Moscow          1339.281
       141   02 Jun 2027 11:12:00.076   02 Jun 2027 11:12:52.605            52.529                 Moscow          1641.531
       142   02 Jun 2027 11:13:07.981   02 Jun 2027 11:13:39.077            31.096                 Moscow           971.750
       143   02 Jun 2027 11:13:40.575   02 Jun 2027 11:13:48.060             7.485              Murmansk2           233.906
       144   02 Jun 2027 11:13:51.254   02 Jun 2027 11:14:12.046            20.792                Norilsk           649.750
       145   02 Jun 2027 11:14:34.463   02 Jun 2027 11:15:32.559            58.096                 Moscow          1815.500
       146   02 Jun 2027 12:41:33.464   02 Jun 2027 12:42:54.412            80.948                 Moscow          2529.625
       147   02 Jun 2027 12:45:04.338   02 Jun 2027 12:48:43.514           219.176              Murmansk2          6849.250
       148   02 Jun 2027 12:49:38.348   02 Jun 2027 12:49:47.243             8.895              Murmansk1           277.969
       149   02 Jun 2027 12:49:58.045   02 Jun 2027 12:50:22.415            24.370              Murmansk2           761.563
       150   02 Jun 2027 12:52:17.841   02 Jun 2027 12:53:25.602            67.761              Murmansk1          2117.531
       151   02 Jun 2027 13:00:53.690   02 Jun 2027 13:04:17.286           203.596                Anadyr1          6362.375
       152   02 Jun 2027 13:04:40.153   02 Jun 2027 13:06:13.682            93.529                Anadyr2          2922.781
       153   02 Jun 2027 14:23:06.794   02 Jun 2027 14:23:37.620            30.826              Murmansk1           963.313
       154   02 Jun 2027 14:24:06.277   02 Jun 2027 14:24:09.890             3.613              Murmansk1           112.906
       155   02 Jun 2027 14:25:36.610   02 Jun 2027 14:26:05.871            29.261              Murmansk2           914.406
       156   02 Jun 2027 14:35:34.655   02 Jun 2027 14:37:29.973           115.318                Anadyr1          3603.688
       157   02 Jun 2027 14:38:11.671   02 Jun 2027 14:39:40.186            88.515                Anadyr2          2766.094
       158   02 Jun 2027 15:34:25.785   02 Jun 2027 15:35:28.578            62.793               CapeTown          1962.281
       159   02 Jun 2027 16:04:06.285   02 Jun 2027 16:05:11.097            64.812              Murmansk2          2025.375
       160   02 Jun 2027 16:05:26.101   02 Jun 2027 16:05:39.803            13.702              Murmansk1           428.187
       161   02 Jun 2027 16:11:22.226   02 Jun 2027 16:12:55.791            93.565                Anadyr1          2923.906
       162   02 Jun 2027 16:13:01.546   02 Jun 2027 16:14:03.414            61.868                Anadyr2          1933.375
       163   02 Jun 2027 16:14:03.687   02 Jun 2027 16:16:43.216           159.529               Magadan2          4985.281
       164   02 Jun 2027 16:16:43.791   02 Jun 2027 16:19:10.416           146.625               Magadan1          4582.031
       165   02 Jun 2027 17:47:17.398   02 Jun 2027 17:48:34.908            77.510                Anadyr2          2422.188
       166   02 Jun 2027 17:49:34.343   02 Jun 2027 17:51:29.584           115.241               Magadan2          3601.281
       167   02 Jun 2027 17:52:16.944   02 Jun 2027 17:52:39.850            22.906               Magadan2           715.813
       168   02 Jun 2027 17:52:51.131   02 Jun 2027 17:52:57.025             5.894               Magadan2           184.188
       169   02 Jun 2027 17:58:39.040   02 Jun 2027 17:59:34.969            55.929               Magadan1          1747.781
       170   02 Jun 2027 18:42:09.649   02 Jun 2027 18:46:26.170           256.521            RioGallegos          8016.281
       171   02 Jun 2027 18:47:17.932   02 Jun 2027 18:48:36.009            78.077            RioGallegos          2439.906
       172   02 Jun 2027 19:25:10.463   02 Jun 2027 19:29:18.505           248.042                Norilsk          7751.313
       173   02 Jun 2027 19:29:42.051   02 Jun 2027 19:30:09.480            27.429                Irkutsk           857.156
       174   02 Jun 2027 19:30:34.933   02 Jun 2027 19:31:02.918            27.985                Irkutsk           874.531
       175   02 Jun 2027 19:32:11.443   02 Jun 2027 19:32:52.545            41.102                Irkutsk          1284.437
       176   02 Jun 2027 19:43:32.349   02 Jun 2027 19:47:01.768           209.419                Sumatra          6544.344
       177   02 Jun 2027 19:50:07.922   02 Jun 2027 19:50:11.023             3.101                Sumatra            96.906
       178   02 Jun 2027 21:05:13.840   02 Jun 2027 21:05:50.551            36.711                Novosib          1147.219
       179   02 Jun 2027 21:08:01.484   02 Jun 2027 21:08:36.862            35.378                Novosib          1105.562
       180   02 Jun 2027 21:12:44.194   02 Jun 2027 21:13:05.871            21.677                Novosib           677.406
       181   02 Jun 2027 21:13:22.889   02 Jun 2027 21:14:44.460            81.571                Novosib          2549.094
       182   02 Jun 2027 21:15:41.435   02 Jun 2027 21:16:42.463            61.028                  Delhi          1907.125
       183   02 Jun 2027 21:19:13.683   02 Jun 2027 21:20:25.661            71.978                  Delhi          2249.312
       184   02 Jun 2027 22:38:29.184   02 Jun 2027 22:38:32.965             3.781                Norilsk           118.156
       185   02 Jun 2027 22:39:34.697   02 Jun 2027 22:43:33.418           238.721              Murmansk2          7460.031
       186   02 Jun 2027 22:44:07.464   02 Jun 2027 22:45:23.425            75.961              Murmansk1          2373.781
       187   02 Jun 2027 22:45:42.004   02 Jun 2027 22:48:47.053           185.049                 Moscow          5782.781
       188   03 Jun 2027 00:13:01.486   03 Jun 2027 00:13:45.348            43.862               Magadan2          1370.687
       189   03 Jun 2027 00:15:12.058   03 Jun 2027 00:16:48.340            96.282              Murmansk2          3008.813
       190   03 Jun 2027 00:17:05.824   03 Jun 2027 00:17:36.631            30.807                Novosib           962.719
       191   03 Jun 2027 00:18:40.730   03 Jun 2027 00:19:04.210            23.480                 Moscow           733.750
       192   03 Jun 2027 00:19:21.846   03 Jun 2027 00:19:43.387            21.541                 Moscow           673.156
       193   03 Jun 2027 00:20:36.871   03 Jun 2027 00:21:36.577            59.706                 Moscow          1865.812
       194   03 Jun 2027 00:23:33.065   03 Jun 2027 00:24:53.628            80.563                 Moscow          2517.594
       195   03 Jun 2027 00:43:28.058   03 Jun 2027 00:44:56.231            88.173               CapeTown          2755.406
       196   03 Jun 2027 00:46:06.249   03 Jun 2027 00:46:42.458            36.209               CapeTown          1131.531
       197   03 Jun 2027 01:42:11.456   03 Jun 2027 01:43:03.328            51.872               Magadan1          1621.000
       198   03 Jun 2027 01:43:15.164   03 Jun 2027 01:44:42.385            87.221               Magadan1          2725.656
       199   03 Jun 2027 01:51:09.623   03 Jun 2027 01:53:00.113           110.490              Murmansk2          3452.812
       200   03 Jun 2027 01:54:16.945   03 Jun 2027 01:54:24.891             7.946              Murmansk1           248.313
       201   03 Jun 2027 01:54:32.536   03 Jun 2027 01:55:22.541            50.005                 Moscow          1562.656
       202   03 Jun 2027 01:59:42.371   03 Jun 2027 02:00:54.263            71.892                 Moscow          2246.625
       203   03 Jun 2027 02:18:46.757   03 Jun 2027 02:19:55.410            68.653               CapeTown          2145.406
       204   03 Jun 2027 03:21:08.187   03 Jun 2027 03:21:15.528             7.341                Anadyr1           229.406
       205   03 Jun 2027 03:21:25.394   03 Jun 2027 03:21:37.774            12.380                Anadyr1           386.875
       206   03 Jun 2027 03:21:53.466   03 Jun 2027 03:22:15.640            22.174                Anadyr2           692.938
       207   03 Jun 2027 03:23:07.510   03 Jun 2027 03:23:08.419             0.909               Magadan2            28.406
       208   03 Jun 2027 03:23:08.419   03 Jun 2027 03:23:25.097            16.678               Magadan1           521.187
       209   03 Jun 2027 03:23:41.419   03 Jun 2027 03:24:34.845            53.426               Magadan2          1669.563
       210   03 Jun 2027 03:24:38.342   03 Jun 2027 03:27:53.573           195.231                Anadyr1          6100.969
       211   03 Jun 2027 03:29:45.396   03 Jun 2027 03:29:54.178             8.782                Norilsk           274.438
       212   03 Jun 2027 04:57:57.689   03 Jun 2027 04:58:24.431            26.742                Irkutsk           835.688
       213   03 Jun 2027 05:00:06.905   03 Jun 2027 05:00:58.762            51.857                Anadyr2          1620.531
       214   03 Jun 2027 05:00:58.762   03 Jun 2027 05:01:26.017            27.255                Anadyr1           851.719
       215   03 Jun 2027 05:02:59.107   03 Jun 2027 05:03:09.049             9.942               Magadan2           310.687
       216   03 Jun 2027 06:33:28.406   03 Jun 2027 06:33:34.507             6.101               Magadan1           190.656
       217   03 Jun 2027 06:33:50.766   03 Jun 2027 06:34:48.383            57.617                Irkutsk          1800.531
       218   03 Jun 2027 06:34:51.203   03 Jun 2027 06:35:13.530            22.327                Norilsk           697.719
       219   03 Jun 2027 06:35:16.079   03 Jun 2027 06:35:21.920             5.841               Magadan2           182.531
       220   03 Jun 2027 06:35:21.920   03 Jun 2027 06:37:02.435           100.515               Magadan1          3141.094
       221   03 Jun 2027 06:37:17.973   03 Jun 2027 06:38:10.818            52.845               Magadan2          1651.406
       222   03 Jun 2027 06:38:19.845   03 Jun 2027 06:38:40.397            20.552              Murmansk2           642.250
       223   03 Jun 2027 06:38:43.521   03 Jun 2027 06:38:52.944             9.423                Norilsk           294.469
       224   03 Jun 2027 06:38:54.736   03 Jun 2027 06:39:19.463            24.727              Murmansk2           772.719
       225   03 Jun 2027 06:40:04.142   03 Jun 2027 06:40:29.642            25.500              Murmansk1           796.875
       226   03 Jun 2027 06:47:55.175   03 Jun 2027 06:47:58.152             2.977              Murmansk2            93.031
       227   03 Jun 2027 07:13:54.624   03 Jun 2027 07:15:30.011            95.387            RioGallegos          2980.844
       228   03 Jun 2027 07:49:21.924   03 Jun 2027 07:50:38.865            76.941                Sumatra          2404.406
       229   03 Jun 2027 07:51:29.607   03 Jun 2027 07:53:00.577            90.970                Sumatra          2842.812
       230   03 Jun 2027 08:02:43.565   03 Jun 2027 08:03:23.580            40.015                  Delhi          1250.469
       231   03 Jun 2027 08:09:31.378   03 Jun 2027 08:10:24.746            53.368                Norilsk          1667.750
       232   03 Jun 2027 08:10:36.015   03 Jun 2027 08:10:51.664            15.649                Norilsk           489.031
       233   03 Jun 2027 08:11:09.825   03 Jun 2027 08:12:43.588            93.763                Irkutsk          2930.094
       234   03 Jun 2027 08:13:09.208   03 Jun 2027 08:13:49.737            40.529                Novosib          1266.531
       235   03 Jun 2027 08:13:52.527   03 Jun 2027 08:13:55.761             3.234                Novosib           101.063
       236   03 Jun 2027 08:13:57.789   03 Jun 2027 08:14:05.649             7.860                Norilsk           245.625
       237   03 Jun 2027 08:14:25.681   03 Jun 2027 08:14:48.034            22.353                Norilsk           698.531
       238   03 Jun 2027 08:14:56.727   03 Jun 2027 08:15:13.721            16.994              Murmansk1           531.063
       239   03 Jun 2027 08:15:13.721   03 Jun 2027 08:15:27.488            13.767              Murmansk2           430.219
       240   03 Jun 2027 08:51:41.423   03 Jun 2027 08:52:29.755            48.332            RioGallegos          1510.375
       241   03 Jun 2027 08:54:34.897   03 Jun 2027 08:55:27.821            52.924            RioGallegos          1653.875
       242   03 Jun 2027 09:25:53.103   03 Jun 2027 09:26:16.303            23.200                Sumatra           725.000
       243   03 Jun 2027 09:26:43.068   03 Jun 2027 09:26:57.059            13.991                Sumatra           437.219
       244   03 Jun 2027 09:30:23.736   03 Jun 2027 09:30:35.061            11.325                Sumatra           353.906
       245   03 Jun 2027 09:33:02.488   03 Jun 2027 09:34:59.527           117.039                Sumatra          3657.469
       246   03 Jun 2027 09:47:11.507   03 Jun 2027 09:48:05.068            53.561              Murmansk1          1673.781
       247   03 Jun 2027 09:48:08.467   03 Jun 2027 09:48:37.761            29.294                Novosib           915.438
       248   03 Jun 2027 09:48:39.477   03 Jun 2027 09:49:18.295            38.818                 Moscow          1213.063
       249   03 Jun 2027 09:49:21.578   03 Jun 2027 09:49:26.383             4.805                 Moscow           150.156
       250   03 Jun 2027 09:49:40.256   03 Jun 2027 09:49:44.228             3.972              Murmansk1           124.125
       251   03 Jun 2027 09:49:47.673   03 Jun 2027 09:50:12.234            24.561                Novosib           767.531
       252   03 Jun 2027 09:50:17.627   03 Jun 2027 09:51:10.163            52.536              Murmansk1          1641.750
       253   03 Jun 2027 09:52:04.361   03 Jun 2027 09:52:36.895            32.534                Novosib          1016.688
       254   03 Jun 2027 11:11:10.770   03 Jun 2027 11:13:35.078           144.308                  Delhi          4509.625
       255   03 Jun 2027 11:22:33.375   03 Jun 2027 11:22:37.741             4.366              Murmansk1           136.437
       256   03 Jun 2027 11:22:53.789   03 Jun 2027 11:23:06.314            12.525              Murmansk1           391.406
       257   03 Jun 2027 11:23:11.319   03 Jun 2027 11:24:09.722            58.403              Murmansk2          1825.094
       258   03 Jun 2027 11:24:30.831   03 Jun 2027 11:24:32.496             1.665                 Moscow            52.031
       259   03 Jun 2027 11:24:42.534   03 Jun 2027 11:25:14.920            32.386              Murmansk1          1012.062
       260   03 Jun 2027 11:25:25.929   03 Jun 2027 11:25:53.334            27.405                Norilsk           856.406
       261   03 Jun 2027 11:25:53.696   03 Jun 2027 11:26:04.932            11.236              Murmansk2           351.125
       262   03 Jun 2027 11:26:05.774   03 Jun 2027 11:27:03.188            57.414                 Moscow          1794.187
       263   03 Jun 2027 11:27:13.872   03 Jun 2027 11:27:28.986            15.114                 Moscow           472.312
       264   03 Jun 2027 11:27:29.322   03 Jun 2027 11:27:36.104             6.782                Norilsk           211.938
       265   03 Jun 2027 11:28:23.613   03 Jun 2027 11:28:26.013             2.400              Murmansk2            75.000
       266   03 Jun 2027 11:28:54.376   03 Jun 2027 11:29:10.600            16.224                 Moscow           507.000
       267   03 Jun 2027 12:34:46.726   03 Jun 2027 12:36:20.405            93.679               CapeTown          2927.469
       268   03 Jun 2027 12:38:52.889   03 Jun 2027 12:39:01.615             8.726               CapeTown           272.687
       269   03 Jun 2027 12:53:45.938   03 Jun 2027 12:54:52.571            66.633                 Moscow          2082.281
       270   03 Jun 2027 12:57:14.572   03 Jun 2027 12:59:45.038           150.466              Murmansk2          4702.063
       271   03 Jun 2027 13:00:09.976   03 Jun 2027 13:00:38.876            28.900              Murmansk2           903.125
       272   03 Jun 2027 13:01:39.897   03 Jun 2027 13:02:03.130            23.233              Murmansk2           726.031
       273   03 Jun 2027 13:02:18.542   03 Jun 2027 13:02:29.125            10.583              Murmansk1           330.719
       274   03 Jun 2027 13:05:37.061   03 Jun 2027 13:05:39.983             2.922              Murmansk1            91.313
       275   03 Jun 2027 13:06:33.984   03 Jun 2027 13:06:58.980            24.996              Murmansk2           781.125
       276   03 Jun 2027 13:12:33.162   03 Jun 2027 13:16:10.134           216.972                Anadyr1          6780.375
       277   03 Jun 2027 13:17:01.061   03 Jun 2027 13:19:03.301           122.240                Anadyr2          3820.000
       278   03 Jun 2027 14:35:39.429   03 Jun 2027 14:35:58.246            18.817              Murmansk2           588.031
       279   03 Jun 2027 14:45:32.225   03 Jun 2027 14:45:37.906             5.681              Murmansk2           177.531
       280   03 Jun 2027 14:47:33.589   03 Jun 2027 14:50:10.374           156.785                Anadyr2          4899.531
       281   03 Jun 2027 14:50:19.398   03 Jun 2027 14:50:45.463            26.065                Anadyr2           814.531
       282   03 Jun 2027 14:51:25.806   03 Jun 2027 14:52:10.377            44.571                Anadyr2          1392.844
       283   03 Jun 2027 16:17:18.484   03 Jun 2027 16:19:25.862           127.378              Murmansk1          3980.562
       284   03 Jun 2027 16:23:23.520   03 Jun 2027 16:24:56.275            92.755                Anadyr1          2898.594
       285   03 Jun 2027 16:25:17.181   03 Jun 2027 16:26:01.414            44.233                Anadyr2          1382.281
       286   03 Jun 2027 16:26:39.569   03 Jun 2027 16:26:43.929             4.360                Anadyr2           136.250
       287   03 Jun 2027 16:27:03.866   03 Jun 2027 16:29:57.230           173.364               Magadan1          5417.625
       288   03 Jun 2027 16:31:04.607   03 Jun 2027 16:31:49.997            45.390               Magadan2          1418.438
       289   03 Jun 2027 16:33:26.396   03 Jun 2027 16:34:09.307            42.911               Magadan1          1340.969
       290   03 Jun 2027 17:59:18.156   03 Jun 2027 18:01:53.471           155.315                Anadyr1          4853.594
       291   03 Jun 2027 18:01:58.110   03 Jun 2027 18:03:20.916            82.806               Magadan2          2587.688
       292   03 Jun 2027 18:03:20.916   03 Jun 2027 18:04:05.691            44.775               Magadan1          1399.219
       293   03 Jun 2027 18:04:05.875   03 Jun 2027 18:05:35.546            89.671                Norilsk          2802.219
       294   03 Jun 2027 18:53:53.827   03 Jun 2027 18:56:14.669           140.842            RioGallegos          4401.313
       295   03 Jun 2027 18:56:23.118   03 Jun 2027 18:57:33.797            70.679            RioGallegos          2208.719
       296   03 Jun 2027 18:57:58.812   03 Jun 2027 18:58:52.553            53.741            RioGallegos          1679.406
       297   03 Jun 2027 19:37:37.038   03 Jun 2027 19:38:17.119            40.081               Magadan1          1252.531
       298   03 Jun 2027 19:38:55.241   03 Jun 2027 19:39:35.410            40.169               Magadan1          1255.281
       299   03 Jun 2027 19:41:24.509   03 Jun 2027 19:44:14.495           169.986                Irkutsk          5312.062
       300   03 Jun 2027 19:44:28.244   03 Jun 2027 19:46:17.700           109.456                Novosib          3420.500
       301   03 Jun 2027 19:56:32.606   03 Jun 2027 19:57:39.220            66.614                Sumatra          2081.687
       302   03 Jun 2027 19:59:00.768   03 Jun 2027 20:00:00.027            59.259                Sumatra          1851.844
       303   03 Jun 2027 20:04:37.441   03 Jun 2027 20:05:53.743            76.302                Sumatra          2384.438
       304   03 Jun 2027 21:17:09.108   03 Jun 2027 21:17:24.310            15.202                Novosib           475.063
       305   03 Jun 2027 21:17:48.385   03 Jun 2027 21:18:23.050            34.665                Novosib          1083.281
       306   03 Jun 2027 21:19:06.776   03 Jun 2027 21:20:06.987            60.211                Novosib          1881.594
       307   03 Jun 2027 21:22:19.173   03 Jun 2027 21:22:53.725            34.552                Novosib          1079.750
       308   03 Jun 2027 21:25:04.578   03 Jun 2027 21:27:52.874           168.296                  Delhi          5259.250
       309   03 Jun 2027 21:31:28.921   03 Jun 2027 21:31:36.256             7.335                  Delhi           229.219
       310   03 Jun 2027 22:49:16.482   03 Jun 2027 22:50:43.115            86.633               Magadan2          2707.281
       311   03 Jun 2027 22:51:30.541   03 Jun 2027 22:53:57.272           146.731              Murmansk1          4585.344
       312   03 Jun 2027 22:54:11.541   03 Jun 2027 22:55:32.505            80.964              Murmansk2          2530.125
       313   03 Jun 2027 22:56:39.835   03 Jun 2027 23:02:16.000           336.165                 Moscow         10505.156
       314   04 Jun 2027 00:27:13.248   04 Jun 2027 00:27:27.302            14.054              Murmansk2           439.188
       315   04 Jun 2027 00:27:54.030   04 Jun 2027 00:28:48.866            54.836              Murmansk1          1713.625
       316   04 Jun 2027 00:29:16.221   04 Jun 2027 00:29:51.223            35.002              Murmansk1          1093.812
       317   04 Jun 2027 00:30:33.282   04 Jun 2027 00:31:24.819            51.537              Murmansk1          1610.531
       318   04 Jun 2027 00:32:29.766   04 Jun 2027 00:33:06.074            36.308                 Moscow          1134.625
       319   04 Jun 2027 00:34:29.100   04 Jun 2027 00:34:39.755            10.655                 Moscow           332.969
       320   04 Jun 2027 00:40:29.250   04 Jun 2027 00:42:13.215           103.965                 Moscow          3248.906
       321   04 Jun 2027 00:55:04.767   04 Jun 2027 00:56:24.693            79.926               CapeTown          2497.688
       322   04 Jun 2027 01:53:41.677   04 Jun 2027 01:53:43.083             1.406                Anadyr2            43.937
       323   04 Jun 2027 01:53:45.725   04 Jun 2027 01:55:21.016            95.291               Magadan2          2977.844
       324   04 Jun 2027 01:55:30.073   04 Jun 2027 01:56:24.903            54.830               Magadan2          1713.438
       325   04 Jun 2027 02:03:11.232   04 Jun 2027 02:04:40.999            89.767              Murmansk1          2805.219
       326   04 Jun 2027 02:06:24.801   04 Jun 2027 02:06:31.237             6.436              Murmansk2           201.125
       327   04 Jun 2027 02:06:49.669   04 Jun 2027 02:07:17.033            27.364                 Moscow           855.125
       328   04 Jun 2027 02:08:10.114   04 Jun 2027 02:08:28.460            18.346                Novosib           573.312
       329   04 Jun 2027 02:12:06.313   04 Jun 2027 02:12:10.022             3.709                 Moscow           115.906
       330   04 Jun 2027 02:12:27.720   04 Jun 2027 02:12:38.818            11.098                 Moscow           346.812
       331   04 Jun 2027 02:13:53.730   04 Jun 2027 02:15:11.268            77.538                 Moscow          2423.062
       332   04 Jun 2027 02:35:54.439   04 Jun 2027 02:36:02.437             7.998               CapeTown           249.937
       333   04 Jun 2027 02:38:54.962   04 Jun 2027 02:39:49.283            54.321               CapeTown          1697.531
       334   04 Jun 2027 03:34:12.826   04 Jun 2027 03:35:27.771            74.945               Magadan2          2342.031
       335   04 Jun 2027 03:35:46.338   04 Jun 2027 03:36:33.929            47.591                Anadyr2          1487.219
       336   04 Jun 2027 03:36:35.536   04 Jun 2027 03:36:37.077             1.541               Magadan2            48.156
       337   04 Jun 2027 03:37:03.187   04 Jun 2027 03:37:38.723            35.536               Magadan1          1110.500
       338   04 Jun 2027 03:37:38.723   04 Jun 2027 03:38:55.453            76.730               Magadan2          2397.813
       339   04 Jun 2027 03:38:55.453   04 Jun 2027 03:39:15.939            20.486               Magadan1           640.187
       340   04 Jun 2027 03:39:22.314   04 Jun 2027 03:39:35.826            13.512               Magadan1           422.250
       341   04 Jun 2027 04:21:16.016   04 Jun 2027 04:22:26.544            70.528            RioGallegos          2204.000
       342   04 Jun 2027 05:12:12.622   04 Jun 2027 05:13:19.123            66.501                Anadyr1          2078.156
       343   04 Jun 2027 06:44:31.341   04 Jun 2027 06:45:15.205            43.864               Magadan2          1370.750
       344   04 Jun 2027 06:45:31.614   04 Jun 2027 06:46:02.331            30.717               Magadan2           959.906
       345   04 Jun 2027 06:46:14.727   04 Jun 2027 06:46:59.106            44.379               Magadan2          1386.844
       346   04 Jun 2027 06:47:16.391   04 Jun 2027 06:47:58.875            42.484                Irkutsk          1327.625
       347   04 Jun 2027 06:48:27.966   04 Jun 2027 06:49:20.934            52.968               Magadan2          1655.250
       348   04 Jun 2027 06:49:46.129   04 Jun 2027 06:50:20.424            34.295              Murmansk2          1071.719
       349   04 Jun 2027 06:50:24.825   04 Jun 2027 06:50:28.884             4.059              Murmansk2           126.844
       350   04 Jun 2027 06:50:28.884   04 Jun 2027 06:50:56.552            27.668              Murmansk1           864.625
       351   04 Jun 2027 06:51:06.637   04 Jun 2027 06:51:29.024            22.387                Novosib           699.594
       352   04 Jun 2027 06:51:29.953   04 Jun 2027 06:52:24.056            54.103              Murmansk1          1690.719
       353   04 Jun 2027 07:25:56.355   04 Jun 2027 07:26:32.336            35.981            RioGallegos          1124.406
       354   04 Jun 2027 07:27:53.739   04 Jun 2027 07:27:54.237             0.498            RioGallegos            15.563
       355   04 Jun 2027 07:28:18.651   04 Jun 2027 07:28:39.887            21.236            RioGallegos           663.625
       356   04 Jun 2027 07:33:46.474   04 Jun 2027 07:33:57.573            11.099            RioGallegos           346.844
       357   04 Jun 2027 08:01:06.332   04 Jun 2027 08:02:14.560            68.228                Sumatra          2132.125
       358   04 Jun 2027 08:03:47.045   04 Jun 2027 08:04:59.330            72.285                Sumatra          2258.906
       359   04 Jun 2027 08:13:05.459   04 Jun 2027 08:14:46.611           101.152                  Delhi          3161.000
       360   04 Jun 2027 08:17:28.279   04 Jun 2027 08:17:52.316            24.037                  Delhi           751.156
       361   04 Jun 2027 08:21:33.189   04 Jun 2027 08:21:56.413            23.224                Irkutsk           725.750
       362   04 Jun 2027 08:22:18.993   04 Jun 2027 08:22:23.147             4.154                Norilsk           129.812
       363   04 Jun 2027 08:22:29.004   04 Jun 2027 08:23:10.794            41.790                Irkutsk          1305.937
       364   04 Jun 2027 08:23:12.882   04 Jun 2027 08:23:41.056            28.174                Norilsk           880.437
       365   04 Jun 2027 08:24:09.462   04 Jun 2027 08:24:43.370            33.908                Norilsk          1059.625
       366   04 Jun 2027 08:24:46.534   04 Jun 2027 08:25:31.878            45.344                Norilsk          1417.000
       367   04 Jun 2027 08:25:36.158   04 Jun 2027 08:25:56.513            20.355                Norilsk           636.094
       368   04 Jun 2027 08:25:59.529   04 Jun 2027 08:26:05.047             5.518                Norilsk           172.438
       369   04 Jun 2027 08:26:27.472   04 Jun 2027 08:27:09.323            41.851                Irkutsk          1307.844
       370   04 Jun 2027 08:27:46.990   04 Jun 2027 08:28:04.553            17.563              Murmansk1           548.844
       371   04 Jun 2027 08:34:33.465   04 Jun 2027 08:34:36.181             2.716              Murmansk2            84.875
       372   04 Jun 2027 09:04:19.469   04 Jun 2027 09:04:43.791            24.322            RioGallegos           760.063
       373   04 Jun 2027 09:06:31.022   04 Jun 2027 09:07:10.112            39.090            RioGallegos          1221.562
       374   04 Jun 2027 09:38:36.202   04 Jun 2027 09:40:40.708           124.506                Sumatra          3890.813
       375   04 Jun 2027 09:59:07.236   04 Jun 2027 09:59:35.575            28.339                 Moscow           885.594
       376   04 Jun 2027 09:59:53.885   04 Jun 2027 09:59:58.274             4.389                Norilsk           137.156
       377   04 Jun 2027 10:00:14.779   04 Jun 2027 10:00:37.835            23.056                Novosib           720.500
       378   04 Jun 2027 10:00:53.603   04 Jun 2027 10:01:15.786            22.183                Irkutsk           693.219
       379   04 Jun 2027 10:01:33.077   04 Jun 2027 10:02:08.331            35.254              Murmansk1          1101.687
       380   04 Jun 2027 10:02:13.944   04 Jun 2027 10:03:11.838            57.894              Murmansk2          1809.187
       381   04 Jun 2027 11:24:17.609   04 Jun 2027 11:27:29.876           192.267                  Delhi          6008.344
       382   04 Jun 2027 11:32:43.034   04 Jun 2027 11:33:34.060            51.026                 Moscow          1594.563
       383   04 Jun 2027 11:33:37.127   04 Jun 2027 11:33:39.473             2.346                 Moscow            73.313
       384   04 Jun 2027 11:33:57.436   04 Jun 2027 11:34:22.023            24.587              Murmansk1           768.344
       385   04 Jun 2027 11:34:22.023   04 Jun 2027 11:34:29.778             7.755              Murmansk2           242.344
       386   04 Jun 2027 11:34:46.986   04 Jun 2027 11:35:04.382            17.396              Murmansk1           543.625
       387   04 Jun 2027 11:35:07.974   04 Jun 2027 11:35:13.030             5.056              Murmansk1           158.000
       388   04 Jun 2027 11:35:30.648   04 Jun 2027 11:35:49.800            19.152                 Moscow           598.500
       389   04 Jun 2027 11:36:00.120   04 Jun 2027 11:36:51.970            51.850                 Moscow          1620.312
       390   04 Jun 2027 11:36:55.543   04 Jun 2027 11:38:09.803            74.260                 Moscow          2320.625
       391   04 Jun 2027 11:38:27.771   04 Jun 2027 11:38:38.968            11.197                Norilsk           349.906
       392   04 Jun 2027 11:38:39.121   04 Jun 2027 11:39:07.934            28.813                 Moscow           900.406
       393   04 Jun 2027 11:39:33.614   04 Jun 2027 11:40:13.489            39.875              Murmansk1          1246.094
       394   04 Jun 2027 12:45:28.644   04 Jun 2027 12:47:57.661           149.017               CapeTown          4656.781
       395   04 Jun 2027 12:51:02.607   04 Jun 2027 12:52:37.046            94.439               CapeTown          2951.219
       396   04 Jun 2027 13:09:26.649   04 Jun 2027 13:10:23.152            56.503              Murmansk1          1765.719
       397   04 Jun 2027 13:10:51.691   04 Jun 2027 13:11:45.641            53.950              Murmansk2          1685.937
       398   04 Jun 2027 13:12:11.630   04 Jun 2027 13:12:13.482             1.852              Murmansk2            57.875
       399   04 Jun 2027 13:13:41.537   04 Jun 2027 13:14:52.308            70.771              Murmansk2          2211.594
       400   04 Jun 2027 13:24:19.441   04 Jun 2027 13:29:14.896           295.455                Anadyr2          9232.969
       401   04 Jun 2027 14:48:03.965   04 Jun 2027 14:48:34.015            30.050              Murmansk2           939.062
       402   04 Jun 2027 14:49:39.441   04 Jun 2027 14:50:04.192            24.751              Murmansk1           773.469
       403   04 Jun 2027 14:50:26.778   04 Jun 2027 14:51:29.625            62.847              Murmansk2          1963.969
       404   04 Jun 2027 14:59:33.084   04 Jun 2027 15:01:19.009           105.925                Anadyr1          3310.156
       405   04 Jun 2027 15:02:46.796   04 Jun 2027 15:03:50.583            63.787                Anadyr2          1993.344
       406   04 Jun 2027 15:04:10.156   04 Jun 2027 15:08:14.813           244.657               Magadan2          7645.531
       407   04 Jun 2027 16:35:24.875   04 Jun 2027 16:37:07.635           102.760                Anadyr1          3211.250
       408   04 Jun 2027 16:37:54.607   04 Jun 2027 16:38:43.902            49.295               Magadan2          1540.469
       409   04 Jun 2027 16:38:43.902   04 Jun 2027 16:40:15.328            91.426               Magadan1          2857.062
       410   04 Jun 2027 16:42:45.309   04 Jun 2027 16:44:16.775            91.466               Magadan2          2858.312
       411   04 Jun 2027 18:11:18.676   04 Jun 2027 18:13:41.958           143.282                Anadyr2          4477.563
       412   04 Jun 2027 18:13:48.035   04 Jun 2027 18:15:10.101            82.066               Magadan2          2564.562
       413   04 Jun 2027 18:15:37.732   04 Jun 2027 18:16:34.370            56.638               Magadan2          1769.937
       414   04 Jun 2027 18:17:12.708   04 Jun 2027 18:17:38.500            25.792                Norilsk           806.000
       415   04 Jun 2027 19:05:41.970   04 Jun 2027 19:09:11.346           209.376            RioGallegos          6543.000
       416   04 Jun 2027 19:15:38.956   04 Jun 2027 19:16:40.833            61.877            RioGallegos          1933.656
       417   04 Jun 2027 19:49:10.590   04 Jun 2027 19:50:52.492           101.902                Norilsk          3184.438
       418   04 Jun 2027 19:53:18.353   04 Jun 2027 19:54:18.434            60.081                Irkutsk          1877.531
       419   04 Jun 2027 19:55:00.844   04 Jun 2027 20:00:46.085           345.241                Novosib         10788.781
       420   04 Jun 2027 20:08:57.949   04 Jun 2027 20:09:53.214            55.265                Sumatra          1727.031
       421   04 Jun 2027 20:19:01.490   04 Jun 2027 20:19:21.637            20.147                Sumatra           629.594
       422   04 Jun 2027 21:28:19.245   04 Jun 2027 21:28:26.982             7.737                Norilsk           241.781
       423   04 Jun 2027 21:28:59.895   04 Jun 2027 21:29:20.110            20.215                Irkutsk           631.719
       424   04 Jun 2027 21:29:33.807   04 Jun 2027 21:31:07.618            93.811                Novosib          2931.594
       425   04 Jun 2027 21:32:53.120   04 Jun 2027 21:33:22.957            29.837                Novosib           932.406
       426   04 Jun 2027 21:36:47.184   04 Jun 2027 21:40:08.644           201.460                  Delhi          6295.625
       427   04 Jun 2027 23:01:05.929   04 Jun 2027 23:01:44.397            38.468               Magadan2          1202.125
       428   04 Jun 2027 23:02:12.510   04 Jun 2027 23:02:38.071            25.561               Magadan2           798.781
       429   04 Jun 2027 23:03:27.814   04 Jun 2027 23:05:36.477           128.663              Murmansk1          4020.719
       430   04 Jun 2027 23:06:12.392   04 Jun 2027 23:07:32.229            79.837              Murmansk2          2494.906
       431   04 Jun 2027 23:08:06.600   04 Jun 2027 23:12:33.026           266.426                 Moscow          8325.813
       432   04 Jun 2027 23:12:50.717   04 Jun 2027 23:14:20.275            89.558                 Moscow          2798.687
       433   05 Jun 2027 00:39:14.629   05 Jun 2027 00:39:44.803            30.174              Murmansk2           942.938
       434   05 Jun 2027 00:39:44.803   05 Jun 2027 00:42:34.701           169.898              Murmansk1          5309.312
       435   05 Jun 2027 00:43:01.732   05 Jun 2027 00:44:36.240            94.508                 Moscow          2953.375
       436   05 Jun 2027 01:06:47.230   05 Jun 2027 01:08:20.837            93.607               CapeTown          2925.219
       437   05 Jun 2027 02:04:05.620   05 Jun 2027 02:04:31.889            26.269                Anadyr2           820.906
       438   05 Jun 2027 02:05:21.583   05 Jun 2027 02:05:44.447            22.864               Magadan1           714.500
       439   05 Jun 2027 02:05:51.535   05 Jun 2027 02:06:35.744            44.209               Magadan2          1381.531
       440   05 Jun 2027 02:07:22.499   05 Jun 2027 02:07:55.325            32.826               Magadan1          1025.813
       441   05 Jun 2027 02:10:25.439   05 Jun 2027 02:10:37.226            11.787               Magadan2           368.344
       442   05 Jun 2027 02:12:52.340   05 Jun 2027 02:13:03.504            11.164               Magadan1           348.875
       443   05 Jun 2027 02:13:54.876   05 Jun 2027 02:14:05.393            10.517                Norilsk           328.656
       444   05 Jun 2027 02:15:12.748   05 Jun 2027 02:16:27.770            75.022              Murmansk2          2344.437
       445   05 Jun 2027 02:16:27.770   05 Jun 2027 02:16:42.755            14.985              Murmansk1           468.281
       446   05 Jun 2027 02:18:24.365   05 Jun 2027 02:18:32.261             7.896              Murmansk2           246.750
       447   05 Jun 2027 02:18:34.143   05 Jun 2027 02:19:19.750            45.607              Murmansk1          1425.219
       448   05 Jun 2027 02:19:22.837   05 Jun 2027 02:19:47.754            24.917                 Moscow           778.656
       449   05 Jun 2027 02:24:49.148   05 Jun 2027 02:24:50.322             1.174                 Moscow            36.687
       450   05 Jun 2027 02:27:08.746   05 Jun 2027 02:27:17.383             8.637                 Moscow           269.906
       451   05 Jun 2027 02:29:39.322   05 Jun 2027 02:30:37.248            57.926                 Moscow          1810.187
       452   05 Jun 2027 02:48:30.920   05 Jun 2027 02:49:00.989            30.069               CapeTown           939.656
       453   05 Jun 2027 02:53:54.286   05 Jun 2027 02:54:12.084            17.798               CapeTown           556.188
       454   05 Jun 2027 03:45:16.319   05 Jun 2027 03:45:43.860            27.541               Magadan1           860.656
       455   05 Jun 2027 03:45:43.921   05 Jun 2027 03:46:13.751            29.830                Anadyr1           932.188
       456   05 Jun 2027 03:46:16.475   05 Jun 2027 03:46:25.698             9.223                Anadyr1           288.219
       457   05 Jun 2027 03:47:10.304   05 Jun 2027 03:47:18.807             8.503               Magadan2           265.719
       458   05 Jun 2027 03:47:47.281   05 Jun 2027 03:47:51.918             4.637                Anadyr2           144.906
       459   05 Jun 2027 03:47:51.918   05 Jun 2027 03:51:54.285           242.367                Anadyr1          7573.969
       460   05 Jun 2027 03:52:57.071   05 Jun 2027 03:53:22.509            25.438                Norilsk           794.938
       461   05 Jun 2027 03:54:30.622   05 Jun 2027 03:54:51.182            20.560              Murmansk1           642.500
       462   05 Jun 2027 03:55:37.705   05 Jun 2027 03:55:55.051            17.346                Norilsk           542.063
       463   05 Jun 2027 04:32:03.807   05 Jun 2027 04:34:58.523           174.716            RioGallegos          5459.875
       464   05 Jun 2027 05:21:28.515   05 Jun 2027 05:21:36.491             7.976                Irkutsk           249.250
       465   05 Jun 2027 05:21:57.852   05 Jun 2027 05:23:29.200            91.348               Magadan2          2854.625
       466   05 Jun 2027 05:23:30.627   05 Jun 2027 05:23:42.893            12.266                Anadyr2           383.313
       467   05 Jun 2027 05:24:01.261   05 Jun 2027 05:26:13.166           131.905                Anadyr2          4122.031
       468   05 Jun 2027 05:26:36.333   05 Jun 2027 05:27:04.875            28.542               Magadan1           891.937
       469   05 Jun 2027 05:31:41.340   05 Jun 2027 05:31:56.250            14.910                Norilsk           465.937
       470   05 Jun 2027 06:55:46.366   05 Jun 2027 06:56:53.529            67.163                Irkutsk          2098.844
       471   05 Jun 2027 06:58:04.410   05 Jun 2027 06:58:15.514            11.104                Novosib           347.000
       472   05 Jun 2027 06:58:27.999   05 Jun 2027 06:59:02.143            34.144                Irkutsk          1067.000
       473   05 Jun 2027 06:59:15.265   05 Jun 2027 06:59:51.652            36.387                Novosib          1137.094
       474   05 Jun 2027 07:00:07.613   05 Jun 2027 07:00:48.114            40.501                Novosib          1265.656
       475   05 Jun 2027 07:00:51.092   05 Jun 2027 07:00:57.882             6.790                Irkutsk           212.188
       476   05 Jun 2027 07:01:00.868   05 Jun 2027 07:01:23.762            22.894               Magadan1           715.438
       477   05 Jun 2027 07:01:33.339   05 Jun 2027 07:02:58.212            84.873              Murmansk1          2652.281
       478   05 Jun 2027 07:03:07.292   05 Jun 2027 07:03:42.326            35.034                Novosib          1094.812
       479   05 Jun 2027 07:03:54.173   05 Jun 2027 07:04:19.170            24.997              Murmansk1           781.156
       480   05 Jun 2027 07:08:34.323   05 Jun 2027 07:08:42.482             8.159              Murmansk2           254.969
       481   05 Jun 2027 07:38:01.483   05 Jun 2027 07:38:39.094            37.611            RioGallegos          1175.344
       482   05 Jun 2027 07:39:37.574   05 Jun 2027 07:39:44.069             6.495            RioGallegos           202.969
