uniorb/output/strategy_2/Drop/Drop_KinoSat_110706.txt

KinoSat_110706
-------------------------
    Access    *     Start Time (UTCG)     *     Stop Time (UTCG)  *   Duration (s)        *       Station  *  Data (Mbytes)
         1   01 Jun 2027 03:29:11.646   01 Jun 2027 03:29:14.313             2.667               Magadan2            83.344
         2   01 Jun 2027 03:29:14.981   01 Jun 2027 03:32:13.255           178.274                Anadyr1          5571.062
         3   01 Jun 2027 03:32:13.255   01 Jun 2027 03:32:37.358            24.103                Anadyr2           753.219
         4   01 Jun 2027 03:32:37.358   01 Jun 2027 03:34:21.548           104.190                Anadyr1          3255.938
         5   01 Jun 2027 03:34:23.562   01 Jun 2027 03:34:41.142            17.580               Magadan1           549.375
         6   01 Jun 2027 03:34:41.142   01 Jun 2027 03:35:22.423            41.281               Magadan2          1290.031
         7   01 Jun 2027 03:35:26.969   01 Jun 2027 03:35:49.668            22.699                Anadyr1           709.344
         8   01 Jun 2027 05:06:29.265   01 Jun 2027 05:06:56.973            27.708                Anadyr2           865.875
         9   01 Jun 2027 05:07:43.445   01 Jun 2027 05:09:47.412           123.967               Magadan2          3873.969
        10   01 Jun 2027 05:10:00.197   01 Jun 2027 05:11:48.864           108.667                Anadyr1          3395.844
        11   01 Jun 2027 05:11:52.678   01 Jun 2027 05:12:18.025            25.347               Magadan1           792.094
        12   01 Jun 2027 05:12:20.329   01 Jun 2027 05:12:24.780             4.451                Novosib           139.094
        13   01 Jun 2027 05:12:31.368   01 Jun 2027 05:12:34.741             3.373                Norilsk           105.406
        14   01 Jun 2027 05:17:16.218   01 Jun 2027 05:17:29.082            12.864                Norilsk           402.000
        15   01 Jun 2027 05:47:34.040   01 Jun 2027 05:54:28.274           414.234            RioGallegos         12944.812
        16   01 Jun 2027 05:55:15.002   01 Jun 2027 05:55:57.290            42.288            RioGallegos          1321.500
        17   01 Jun 2027 05:56:57.853   01 Jun 2027 05:57:49.562            51.709            RioGallegos          1615.906
        18   01 Jun 2027 05:58:52.804   01 Jun 2027 05:59:40.476            47.672            RioGallegos          1489.750
        19   01 Jun 2027 06:26:11.163   01 Jun 2027 06:28:06.547           115.384                Sumatra          3605.750
        20   01 Jun 2027 06:30:37.909   01 Jun 2027 06:31:04.239            26.330                Sumatra           822.813
        21   01 Jun 2027 06:43:22.453   01 Jun 2027 06:45:33.189           130.736               Magadan2          4085.500
        22   01 Jun 2027 06:45:48.032   01 Jun 2027 06:46:27.301            39.269               Magadan1          1227.156
        23   01 Jun 2027 06:46:51.019   01 Jun 2027 06:48:12.711            81.692                Irkutsk          2552.875
        24   01 Jun 2027 06:48:14.768   01 Jun 2027 06:48:23.818             9.050                Novosib           282.813
        25   01 Jun 2027 06:48:35.936   01 Jun 2027 06:48:45.139             9.203              Murmansk1           287.594
        26   01 Jun 2027 06:48:51.539   01 Jun 2027 06:49:29.084            37.545                Novosib          1173.281
        27   01 Jun 2027 06:49:56.683   01 Jun 2027 06:50:02.158             5.475                Norilsk           171.094
        28   01 Jun 2027 07:26:58.401   01 Jun 2027 07:27:12.850            14.449            RioGallegos           451.531
        29   01 Jun 2027 07:27:25.728   01 Jun 2027 07:27:28.334             2.606            RioGallegos            81.438
        30   01 Jun 2027 07:57:44.197   01 Jun 2027 08:00:20.356           156.159                Sumatra          4879.969
        31   01 Jun 2027 08:07:51.432   01 Jun 2027 08:10:00.117           128.685                  Delhi          4021.406
        32   01 Jun 2027 08:17:55.089   01 Jun 2027 08:17:58.876             3.787                  Delhi           118.344
        33   01 Jun 2027 08:20:29.942   01 Jun 2027 08:20:58.491            28.549                Irkutsk           892.156
        34   01 Jun 2027 08:21:22.267   01 Jun 2027 08:21:45.354            23.087              Murmansk1           721.469
        35   01 Jun 2027 08:21:53.769   01 Jun 2027 08:22:21.517            27.748                Irkutsk           867.125
        36   01 Jun 2027 08:22:35.530   01 Jun 2027 08:23:35.318            59.788              Murmansk1          1868.375
        37   01 Jun 2027 08:23:35.318   01 Jun 2027 08:28:59.366           324.048              Murmansk2         10126.500
        38   01 Jun 2027 08:28:59.366   01 Jun 2027 08:29:23.942            24.576              Murmansk1           768.000
        39   01 Jun 2027 09:03:22.551   01 Jun 2027 09:04:47.878            85.327            RioGallegos          2666.469
        40   01 Jun 2027 09:05:03.363   01 Jun 2027 09:05:52.851            49.488            RioGallegos          1546.500
        41   01 Jun 2027 09:42:04.132   01 Jun 2027 09:43:44.162           100.030                  Delhi          3125.937
        42   01 Jun 2027 09:44:20.379   01 Jun 2027 09:45:02.364            41.985                  Delhi          1312.031
        43   01 Jun 2027 09:55:11.358   01 Jun 2027 09:55:22.276            10.918                 Moscow           341.187
        44   01 Jun 2027 09:58:17.185   01 Jun 2027 09:58:47.340            30.155              Murmansk1           942.344
        45   01 Jun 2027 09:58:47.340   01 Jun 2027 09:59:57.985            70.645              Murmansk2          2207.656
        46   01 Jun 2027 09:59:57.985   01 Jun 2027 10:00:06.356             8.371              Murmansk1           261.594
        47   01 Jun 2027 10:00:25.863   01 Jun 2027 10:02:24.679           118.816                Norilsk          3713.000
        48   01 Jun 2027 10:02:32.096   01 Jun 2027 10:02:36.006             3.910              Murmansk2           122.188
        49   01 Jun 2027 10:02:44.167   01 Jun 2027 10:03:19.661            35.494              Murmansk2          1109.188
        50   01 Jun 2027 11:30:31.229   01 Jun 2027 11:30:32.678             1.449              Murmansk1            45.281
        51   01 Jun 2027 11:30:47.510   01 Jun 2027 11:33:54.022           186.512                 Moscow          5828.500
        52   01 Jun 2027 11:33:55.317   01 Jun 2027 11:34:28.054            32.737              Murmansk1          1023.031
        53   01 Jun 2027 11:34:49.133   01 Jun 2027 11:36:25.971            96.838              Murmansk1          3026.188
        54   01 Jun 2027 11:37:26.442   01 Jun 2027 11:37:38.308            11.866              Murmansk1           370.812
        55   01 Jun 2027 11:37:46.231   01 Jun 2027 11:38:07.188            20.957                 Moscow           654.906
        56   01 Jun 2027 11:38:23.886   01 Jun 2027 11:38:38.909            15.023                Norilsk           469.469
        57   01 Jun 2027 11:39:16.629   01 Jun 2027 11:39:35.259            18.630              Murmansk2           582.187
        58   01 Jun 2027 11:39:59.288   01 Jun 2027 11:40:47.409            48.121              Murmansk2          1503.781
        59   01 Jun 2027 12:40:54.123   01 Jun 2027 12:47:36.372           402.249               CapeTown         12570.281
        60   01 Jun 2027 13:06:53.562   01 Jun 2027 13:08:43.260           109.698              Murmansk1          3428.062
        61   01 Jun 2027 13:20:51.446   01 Jun 2027 13:27:08.040           376.594                Anadyr2         11768.563
        62   01 Jun 2027 13:27:46.608   01 Jun 2027 13:30:24.390           157.782                Anadyr2          4930.687
        63   01 Jun 2027 14:56:24.258   01 Jun 2027 14:56:44.889            20.631                Anadyr2           644.719
        64   01 Jun 2027 14:57:47.106   01 Jun 2027 14:58:21.304            34.198                Anadyr1          1068.687
        65   01 Jun 2027 14:59:48.143   01 Jun 2027 15:06:17.956           389.813               Magadan1         12181.656
        66   01 Jun 2027 15:06:55.619   01 Jun 2027 15:07:39.950            44.331               Magadan2          1385.344
        67   01 Jun 2027 16:34:40.280   01 Jun 2027 16:36:24.615           104.335               Magadan2          3260.469
        68   01 Jun 2027 16:37:00.805   01 Jun 2027 16:37:20.714            19.909               Magadan1           622.156
        69   01 Jun 2027 16:38:11.017   01 Jun 2027 16:38:53.087            42.070               Magadan1          1314.687
        70   01 Jun 2027 16:39:17.184   01 Jun 2027 16:39:20.887             3.703               Magadan1           115.719
        71   01 Jun 2027 17:30:04.562   01 Jun 2027 17:32:05.226           120.664            RioGallegos          3770.750
        72   01 Jun 2027 18:08:09.280   01 Jun 2027 18:09:28.769            79.489                Anadyr2          2484.031
        73   01 Jun 2027 18:10:24.806   01 Jun 2027 18:16:44.341           379.535                Norilsk         11860.469
        74   01 Jun 2027 18:17:33.516   01 Jun 2027 18:18:57.196            83.680                Irkutsk          2615.000
        75   01 Jun 2027 18:20:12.823   01 Jun 2027 18:20:49.656            36.833                Irkutsk          1151.031
        76   01 Jun 2027 18:22:17.474   01 Jun 2027 18:23:13.558            56.084                Irkutsk          1752.625
        77   01 Jun 2027 18:31:20.565   01 Jun 2027 18:33:04.004           103.439                Sumatra          3232.469
        78   01 Jun 2027 18:34:23.059   01 Jun 2027 18:34:28.126             5.067                Sumatra           158.344
        79   01 Jun 2027 18:36:34.760   01 Jun 2027 18:37:51.372            76.612                Sumatra          2394.125
        80   01 Jun 2027 19:50:54.679   01 Jun 2027 19:54:36.019           221.340                Novosib          6916.875
        81   01 Jun 2027 19:56:02.587   01 Jun 2027 19:56:48.670            46.083                Novosib          1440.094
        82   01 Jun 2027 20:12:35.029   01 Jun 2027 20:12:57.153            22.124                Sumatra           691.375
        83   01 Jun 2027 21:22:37.171   01 Jun 2027 21:23:10.194            33.023               Magadan2          1031.969
        84   01 Jun 2027 21:23:17.201   01 Jun 2027 21:23:19.945             2.744               Magadan2            85.750
        85   01 Jun 2027 21:25:24.401   01 Jun 2027 21:29:16.124           231.723              Murmansk1          7241.344
        86   01 Jun 2027 21:33:15.784   01 Jun 2027 21:35:34.370           138.586                  Delhi          4330.813
        87   01 Jun 2027 21:42:47.659   01 Jun 2027 21:44:01.009            73.350                  Delhi          2292.187
        88   01 Jun 2027 22:57:14.958   01 Jun 2027 22:57:41.618            26.660               Magadan2           833.125
        89   01 Jun 2027 22:57:41.618   01 Jun 2027 22:57:45.059             3.441               Magadan1           107.531
        90   01 Jun 2027 22:57:55.158   01 Jun 2027 22:59:05.049            69.891               Magadan2          2184.094
        91   01 Jun 2027 23:00:15.911   01 Jun 2027 23:02:53.986           158.075              Murmansk1          4939.844
        92   01 Jun 2027 23:02:53.986   01 Jun 2027 23:06:10.003           196.017              Murmansk2          6125.531
        93   01 Jun 2027 23:07:01.183   01 Jun 2027 23:08:02.234            61.051                 Moscow          1907.844
        94   01 Jun 2027 23:09:53.762   01 Jun 2027 23:10:22.953            29.191                 Moscow           912.219
        95   01 Jun 2027 23:12:51.788   01 Jun 2027 23:14:06.087            74.299                 Moscow          2321.844
        96   01 Jun 2027 23:31:04.654   01 Jun 2027 23:33:01.269           116.615               CapeTown          3644.219
        97   01 Jun 2027 23:34:05.924   01 Jun 2027 23:36:15.134           129.210               CapeTown          4037.813
        98   02 Jun 2027 00:36:09.049   02 Jun 2027 00:36:38.673            29.624              Murmansk2           925.750
        99   02 Jun 2027 00:38:38.836   02 Jun 2027 00:39:01.767            22.931              Murmansk1           716.594
       100   02 Jun 2027 00:39:23.305   02 Jun 2027 00:41:10.126           106.821                 Moscow          3338.156
       101   02 Jun 2027 00:47:42.757   02 Jun 2027 00:48:08.681            25.924                 Moscow           810.125
       102   02 Jun 2027 00:50:48.870   02 Jun 2027 00:50:52.905             4.035                 Moscow           126.094
       103   02 Jun 2027 00:52:05.392   02 Jun 2027 00:52:15.455            10.063                 Moscow           314.469
       104   02 Jun 2027 01:03:17.117   02 Jun 2027 01:04:01.776            44.659               CapeTown          1395.594
       105   02 Jun 2027 01:07:01.148   02 Jun 2027 01:07:42.236            41.088               CapeTown          1284.000
       106   02 Jun 2027 01:10:59.124   02 Jun 2027 01:11:42.914            43.790               CapeTown          1368.437
       107   02 Jun 2027 01:15:15.090   02 Jun 2027 01:15:43.210            28.120               CapeTown           878.750
       108   02 Jun 2027 02:01:22.144   02 Jun 2027 02:02:53.003            90.859               Magadan2          2839.344
       109   02 Jun 2027 02:04:41.477   02 Jun 2027 02:04:45.683             4.206               Magadan2           131.437
       110   02 Jun 2027 02:05:46.511   02 Jun 2027 02:05:55.311             8.800               Magadan1           275.000
       111   02 Jun 2027 02:07:14.856   02 Jun 2027 02:07:29.699            14.843               Magadan2           463.844
       112   02 Jun 2027 02:07:29.699   02 Jun 2027 02:07:35.188             5.489               Magadan1           171.531
       113   02 Jun 2027 02:08:11.469   02 Jun 2027 02:08:14.448             2.979               Magadan2            93.094
       114   02 Jun 2027 02:08:23.938   02 Jun 2027 02:08:35.068            11.130               Magadan2           347.813
       115   02 Jun 2027 02:08:46.613   02 Jun 2027 02:08:56.957            10.344                Norilsk           323.250
       116   02 Jun 2027 02:10:15.873   02 Jun 2027 02:10:41.059            25.186                Norilsk           787.062
       117   02 Jun 2027 02:12:06.495   02 Jun 2027 02:12:07.601             1.106              Murmansk2            34.563
       118   02 Jun 2027 02:12:14.766   02 Jun 2027 02:13:43.157            88.391              Murmansk1          2762.219
       119   02 Jun 2027 02:14:46.620   02 Jun 2027 02:15:05.569            18.949              Murmansk2           592.156
       120   02 Jun 2027 02:15:25.736   02 Jun 2027 02:15:36.469            10.733              Murmansk1           335.406
       121   02 Jun 2027 02:16:37.902   02 Jun 2027 02:16:54.901            16.999                 Moscow           531.219
       122   02 Jun 2027 02:17:42.704   02 Jun 2027 02:18:02.040            19.336                 Moscow           604.250
       123   02 Jun 2027 02:20:08.115   02 Jun 2027 02:20:42.389            34.274              Murmansk2          1071.062
       124   02 Jun 2027 02:23:02.295   02 Jun 2027 02:23:25.809            23.514              Murmansk1           734.813
       125   02 Jun 2027 02:25:05.697   02 Jun 2027 02:25:32.256            26.559                 Moscow           829.969
       126   02 Jun 2027 02:41:54.931   02 Jun 2027 02:42:25.944            31.013               CapeTown           969.156
       127   02 Jun 2027 02:45:57.794   02 Jun 2027 02:46:07.114             9.320               CapeTown           291.250
       128   02 Jun 2027 02:46:23.547   02 Jun 2027 02:47:07.055            43.508               CapeTown          1359.625
       129   02 Jun 2027 03:42:21.047   02 Jun 2027 03:43:39.571            78.524               Magadan1          2453.875
       130   02 Jun 2027 03:44:20.247   02 Jun 2027 03:44:51.586            31.339               Magadan1           979.344
       131   02 Jun 2027 03:44:51.586   02 Jun 2027 03:45:43.298            51.712               Magadan2          1616.000
       132   02 Jun 2027 03:45:45.963   02 Jun 2027 03:47:01.448            75.485               Magadan2          2358.906
       133   02 Jun 2027 03:47:01.448   02 Jun 2027 03:47:09.903             8.455               Magadan1           264.219
       134   02 Jun 2027 03:47:18.291   02 Jun 2027 03:47:25.999             7.708               Magadan1           240.875
       135   02 Jun 2027 03:47:25.999   02 Jun 2027 03:48:15.893            49.894               Magadan2          1559.187
       136   02 Jun 2027 05:19:06.742   02 Jun 2027 05:21:55.967           169.225                Irkutsk          5288.281
       137   02 Jun 2027 05:21:59.178   02 Jun 2027 05:23:30.558            91.380                Anadyr1          2855.625
       138   02 Jun 2027 05:23:36.881   02 Jun 2027 05:24:15.374            38.493               Magadan2          1202.906
       139   02 Jun 2027 06:02:06.889   02 Jun 2027 06:02:25.244            18.355            RioGallegos           573.594
       140   02 Jun 2027 06:09:36.604   02 Jun 2027 06:09:41.243             4.639            RioGallegos           144.969
       141   02 Jun 2027 06:10:51.978   02 Jun 2027 06:11:38.383            46.405            RioGallegos          1450.156
       142   02 Jun 2027 06:36:42.932   02 Jun 2027 06:38:51.563           128.631                Sumatra          4019.719
       143   02 Jun 2027 06:42:33.024   02 Jun 2027 06:44:25.797           112.773                Sumatra          3524.156
       144   02 Jun 2027 06:55:15.866   02 Jun 2027 06:55:50.582            34.716                Novosib          1084.875
       145   02 Jun 2027 06:55:53.295   02 Jun 2027 06:56:23.697            30.402                Novosib           950.063
       146   02 Jun 2027 06:57:09.731   02 Jun 2027 06:57:38.978            29.247                Novosib           913.969
       147   02 Jun 2027 06:57:42.008   02 Jun 2027 06:57:52.166            10.158               Magadan1           317.438
       148   02 Jun 2027 06:58:00.265   02 Jun 2027 06:58:05.641             5.376               Magadan2           168.000
       149   02 Jun 2027 06:58:07.774   02 Jun 2027 07:00:15.087           127.313                Irkutsk          3978.531
       150   02 Jun 2027 07:00:22.116   02 Jun 2027 07:00:36.305            14.189                Novosib           443.406
       151   02 Jun 2027 08:19:17.935   02 Jun 2027 08:20:20.492            62.557                  Delhi          1954.906
       152   02 Jun 2027 08:20:28.862   02 Jun 2027 08:22:21.048           112.186                  Delhi          3505.813
       153   02 Jun 2027 08:31:46.919   02 Jun 2027 08:31:57.994            11.075              Murmansk2           346.094
       154   02 Jun 2027 08:32:13.986   02 Jun 2027 08:32:23.103             9.117                Novosib           284.906
       155   02 Jun 2027 08:32:30.317   02 Jun 2027 08:33:41.652            71.335              Murmansk1          2229.219
       156   02 Jun 2027 08:33:49.284   02 Jun 2027 08:34:22.914            33.630              Murmansk1          1050.938
       157   02 Jun 2027 08:34:27.962   02 Jun 2027 08:34:35.538             7.576                Norilsk           236.750
       158   02 Jun 2027 08:34:37.684   02 Jun 2027 08:35:24.305            46.621              Murmansk1          1456.906
       159   02 Jun 2027 08:35:32.840   02 Jun 2027 08:37:20.754           107.914              Murmansk2          3372.312
       160   02 Jun 2027 09:17:04.662   02 Jun 2027 09:18:13.911            69.249            RioGallegos          2164.031
       161   02 Jun 2027 09:54:18.028   02 Jun 2027 09:55:30.653            72.625                  Delhi          2269.531
       162   02 Jun 2027 09:56:55.088   02 Jun 2027 09:57:59.410            64.322                  Delhi          2010.063
       163   02 Jun 2027 10:07:33.236   02 Jun 2027 10:08:42.291            69.055                Norilsk          2157.969
       164   02 Jun 2027 10:08:54.239   02 Jun 2027 10:09:16.701            22.462                Novosib           701.937
       165   02 Jun 2027 10:09:21.621   02 Jun 2027 10:10:30.770            69.149                Norilsk          2160.906
       166   02 Jun 2027 10:10:40.376   02 Jun 2027 10:11:48.773            68.397              Murmansk1          2137.406
       167   02 Jun 2027 10:13:03.274   02 Jun 2027 10:13:50.811            47.537                 Moscow          1485.531
       168   02 Jun 2027 11:42:07.491   02 Jun 2027 11:42:54.754            47.263                 Moscow          1476.969
       169   02 Jun 2027 11:43:49.293   02 Jun 2027 11:44:17.826            28.533              Murmansk1           891.656
       170   02 Jun 2027 11:44:21.325   02 Jun 2027 11:44:33.053            11.728                 Moscow           366.500
       171   02 Jun 2027 11:44:36.260   02 Jun 2027 11:45:03.272            27.012                 Moscow           844.125
       172   02 Jun 2027 11:45:03.762   02 Jun 2027 11:45:23.730            19.968              Murmansk2           624.000
       173   02 Jun 2027 11:45:47.510   02 Jun 2027 11:46:45.703            58.193              Murmansk1          1818.531
       174   02 Jun 2027 11:47:15.693   02 Jun 2027 11:48:05.404            49.711              Murmansk1          1553.469
       175   02 Jun 2027 12:52:34.047   02 Jun 2027 12:55:50.985           196.938               CapeTown          6154.313
       176   02 Jun 2027 12:57:46.963   02 Jun 2027 12:58:54.557            67.594               CapeTown          2112.313
       177   02 Jun 2027 13:19:12.343   02 Jun 2027 13:21:38.097           145.754              Murmansk1          4554.812
       178   02 Jun 2027 13:28:01.500   02 Jun 2027 13:28:10.710             9.210              Murmansk2           287.812
       179   02 Jun 2027 13:28:13.459   02 Jun 2027 13:29:01.950            48.491              Murmansk2          1515.344
       180   02 Jun 2027 13:32:46.840   02 Jun 2027 13:37:02.252           255.412                Anadyr1          7981.625
       181   02 Jun 2027 13:40:54.142   02 Jun 2027 13:41:12.577            18.435                Anadyr2           576.094
       182   02 Jun 2027 14:58:58.215   02 Jun 2027 15:00:04.672            66.457              Murmansk1          2076.781
       183   02 Jun 2027 15:03:58.661   02 Jun 2027 15:04:05.376             6.715              Murmansk2           209.844
       184   02 Jun 2027 15:04:19.751   02 Jun 2027 15:05:20.411            60.660              Murmansk1          1895.625
       185   02 Jun 2027 15:08:24.954   02 Jun 2027 15:10:50.156           145.202                Anadyr1          4537.562
       186   02 Jun 2027 15:11:32.943   02 Jun 2027 15:16:24.973           292.030               Magadan2          9125.937
       187   02 Jun 2027 15:16:24.973   02 Jun 2027 15:18:56.905           151.932               Magadan1          4747.875
       188   02 Jun 2027 16:46:39.425   02 Jun 2027 16:47:28.065            48.640               Magadan2          1520.000
       189   02 Jun 2027 16:54:28.317   02 Jun 2027 16:55:00.016            31.699               Magadan1           990.594
       190   02 Jun 2027 17:40:35.584   02 Jun 2027 17:43:20.457           164.873            RioGallegos          5152.281
       191   02 Jun 2027 18:20:53.424   02 Jun 2027 18:21:11.017            17.593                Anadyr1           549.781
       192   02 Jun 2027 18:21:29.782   02 Jun 2027 18:21:34.706             4.924                Anadyr2           153.875
       193   02 Jun 2027 18:21:45.008   02 Jun 2027 18:22:16.859            31.851                Anadyr1           995.344
       194   02 Jun 2027 18:22:20.645   02 Jun 2027 18:24:58.060           157.415                Norilsk          4919.219
       195   02 Jun 2027 18:26:59.332   02 Jun 2027 18:27:50.339            51.007                Norilsk          1593.969
       196   02 Jun 2027 18:27:51.739   02 Jun 2027 18:30:47.561           175.822                Irkutsk          5494.438
       197   02 Jun 2027 18:32:09.002   02 Jun 2027 18:32:56.077            47.075                Irkutsk          1471.094
       198   02 Jun 2027 18:42:12.797   02 Jun 2027 18:44:41.104           148.307                Sumatra          4634.594
       199   02 Jun 2027 18:46:16.308   02 Jun 2027 18:48:32.680           136.372                Sumatra          4261.625
       200   02 Jun 2027 18:50:27.712   02 Jun 2027 18:50:52.984            25.272                Sumatra           789.750
       201   02 Jun 2027 20:02:41.096   02 Jun 2027 20:03:48.151            67.055                Novosib          2095.469
       202   02 Jun 2027 20:05:31.306   02 Jun 2027 20:06:30.436            59.130                Novosib          1847.812
       203   02 Jun 2027 20:08:27.826   02 Jun 2027 20:08:44.027            16.201                Novosib           506.281
       204   02 Jun 2027 20:12:42.601   02 Jun 2027 20:14:34.928           112.327                  Delhi          3510.219
       205   02 Jun 2027 20:17:58.633   02 Jun 2027 20:18:10.381            11.748                  Delhi           367.125
       206   02 Jun 2027 21:37:04.106   02 Jun 2027 21:42:18.603           314.497              Murmansk1          9828.031
       207   02 Jun 2027 21:55:30.762   02 Jun 2027 21:56:39.066            68.304                  Delhi          2134.500
       208   02 Jun 2027 23:08:50.615   02 Jun 2027 23:09:31.830            41.215               Magadan1          1287.969
       209   02 Jun 2027 23:10:40.970   02 Jun 2027 23:10:52.212            11.242               Magadan1           351.313
       210   02 Jun 2027 23:11:12.842   02 Jun 2027 23:11:16.296             3.454               Magadan1           107.938
       211   02 Jun 2027 23:11:26.023   02 Jun 2027 23:11:37.761            11.738               Magadan1           366.813
       212   02 Jun 2027 23:11:37.761   02 Jun 2027 23:11:46.104             8.343               Magadan2           260.719
       213   02 Jun 2027 23:12:15.841   02 Jun 2027 23:13:49.658            93.817              Murmansk2          2931.781
       214   02 Jun 2027 23:13:57.850   02 Jun 2027 23:15:42.361           104.511              Murmansk1          3265.969
       215   02 Jun 2027 23:15:52.370   02 Jun 2027 23:17:28.945            96.575              Murmansk1          3017.969
       216   02 Jun 2027 23:17:38.883   02 Jun 2027 23:19:28.722           109.839                 Moscow          3432.469
       217   02 Jun 2027 23:42:08.999   02 Jun 2027 23:44:34.807           145.808               CapeTown          4556.500
       218   02 Jun 2027 23:46:09.983   02 Jun 2027 23:48:08.255           118.272               CapeTown          3696.000
       219   03 Jun 2027 00:48:10.719   03 Jun 2027 00:48:26.608            15.889              Murmansk2           496.531
       220   03 Jun 2027 00:51:23.714   03 Jun 2027 00:52:19.305            55.591                 Moscow          1737.219
       221   03 Jun 2027 00:54:19.102   03 Jun 2027 00:54:40.304            21.202                 Moscow           662.563
       222   03 Jun 2027 00:56:51.105   03 Jun 2027 00:58:44.582           113.477                 Moscow          3546.156
       223   03 Jun 2027 01:23:50.616   03 Jun 2027 01:24:11.971            21.355               CapeTown           667.344
       224   03 Jun 2027 01:26:10.482   03 Jun 2027 01:26:52.833            42.351               CapeTown          1323.469
       225   03 Jun 2027 02:12:02.821   03 Jun 2027 02:12:40.988            38.167                Anadyr1          1192.719
       226   03 Jun 2027 02:13:04.020   03 Jun 2027 02:13:38.059            34.039               Magadan2          1063.719
       227   03 Jun 2027 02:13:41.668   03 Jun 2027 02:13:59.627            17.959               Magadan1           561.219
       228   03 Jun 2027 02:14:08.578   03 Jun 2027 02:14:55.700            47.122               Magadan1          1472.563
       229   03 Jun 2027 02:20:49.882   03 Jun 2027 02:20:56.288             6.406                Norilsk           200.187
       230   03 Jun 2027 02:22:32.629   03 Jun 2027 02:23:05.330            32.701                Norilsk          1021.906
       231   03 Jun 2027 02:24:07.503   03 Jun 2027 02:25:19.870            72.367              Murmansk2          2261.469
       232   03 Jun 2027 02:26:40.380   03 Jun 2027 02:27:23.748            43.368              Murmansk2          1355.250
       233   03 Jun 2027 02:29:16.018   03 Jun 2027 02:29:25.682             9.664                 Moscow           302.000
       234   03 Jun 2027 02:29:47.136   03 Jun 2027 02:31:50.467           123.331                 Moscow          3854.094
       235   03 Jun 2027 03:00:21.532   03 Jun 2027 03:00:47.680            26.148               CapeTown           817.125
       236   03 Jun 2027 03:55:13.783   03 Jun 2027 03:55:20.242             6.459                Anadyr2           201.844
       237   03 Jun 2027 03:55:24.405   03 Jun 2027 03:56:25.947            61.542               Magadan2          1923.187
       238   03 Jun 2027 03:56:37.806   03 Jun 2027 03:58:12.762            94.956                Anadyr2          2967.375
       239   03 Jun 2027 03:58:20.902   03 Jun 2027 03:59:45.887            84.985               Magadan2          2655.781
       240   03 Jun 2027 05:28:16.050   03 Jun 2027 05:28:35.374            19.324                Irkutsk           603.875
       241   03 Jun 2027 05:31:49.151   03 Jun 2027 05:32:36.836            47.685               Magadan2          1490.156
       242   03 Jun 2027 05:32:36.836   03 Jun 2027 05:36:11.643           214.807               Magadan1          6712.719
       243   03 Jun 2027 06:13:58.828   03 Jun 2027 06:15:07.066            68.238            RioGallegos          2132.437
       244   03 Jun 2027 06:47:47.833   03 Jun 2027 06:50:32.443           164.610                Sumatra          5144.062
       245   03 Jun 2027 06:54:31.966   03 Jun 2027 06:56:00.661            88.695                Sumatra          2771.719
       246   03 Jun 2027 07:06:07.814   03 Jun 2027 07:06:18.454            10.640                Norilsk           332.500
       247   03 Jun 2027 07:07:08.624   03 Jun 2027 07:07:50.972            42.348                Novosib          1323.375
       248   03 Jun 2027 07:08:02.529   03 Jun 2027 07:08:52.442            49.913                Irkutsk          1559.781
       249   03 Jun 2027 07:09:16.232   03 Jun 2027 07:09:38.411            22.179                Novosib           693.094
       250   03 Jun 2027 07:09:43.690   03 Jun 2027 07:09:53.016             9.326                Norilsk           291.437
       251   03 Jun 2027 07:09:55.839   03 Jun 2027 07:10:14.460            18.621                Novosib           581.906
       252   03 Jun 2027 07:10:25.110   03 Jun 2027 07:10:57.552            32.442                Irkutsk          1013.812
       253   03 Jun 2027 07:10:59.262   03 Jun 2027 07:11:57.639            58.377              Murmansk2          1824.281
       254   03 Jun 2027 07:12:23.960   03 Jun 2027 07:13:03.988            40.028                Norilsk          1250.875
       255   03 Jun 2027 07:47:36.579   03 Jun 2027 07:48:11.837            35.258            RioGallegos          1101.813
       256   03 Jun 2027 07:50:26.591   03 Jun 2027 07:50:42.632            16.041            RioGallegos           501.281
       257   03 Jun 2027 08:21:58.061   03 Jun 2027 08:23:32.240            94.179                Sumatra          2943.094
       258   03 Jun 2027 08:30:52.050   03 Jun 2027 08:34:24.076           212.026                  Delhi          6625.813
       259   03 Jun 2027 08:42:45.147   03 Jun 2027 08:42:45.353             0.206                Norilsk             6.437
       260   03 Jun 2027 08:42:59.772   03 Jun 2027 08:43:13.894            14.122                Novosib           441.313
       261   03 Jun 2027 08:43:34.779   03 Jun 2027 08:43:49.584            14.805              Murmansk2           462.656
       262   03 Jun 2027 08:43:59.831   03 Jun 2027 08:44:02.526             2.695              Murmansk1            84.219
       263   03 Jun 2027 08:44:02.526   03 Jun 2027 08:44:29.850            27.324              Murmansk2           853.875
       264   03 Jun 2027 08:44:57.869   03 Jun 2027 08:45:09.791            11.922                Irkutsk           372.563
       265   03 Jun 2027 08:45:11.133   03 Jun 2027 08:45:15.708             4.575                 Moscow           142.969
       266   03 Jun 2027 08:45:24.152   03 Jun 2027 08:46:10.140            45.988              Murmansk2          1437.125
       267   03 Jun 2027 08:46:14.956   03 Jun 2027 08:46:36.163            21.207                Norilsk           662.719
       268   03 Jun 2027 08:46:39.787   03 Jun 2027 08:46:55.428            15.641                Norilsk           488.781
       269   03 Jun 2027 08:47:07.087   03 Jun 2027 08:47:13.993             6.906              Murmansk2           215.813
       270   03 Jun 2027 08:47:16.011   03 Jun 2027 08:47:20.042             4.031                Norilsk           125.969
       271   03 Jun 2027 08:47:26.428   03 Jun 2027 08:48:22.930            56.502              Murmansk1          1765.688
       272   03 Jun 2027 10:06:38.562   03 Jun 2027 10:10:29.428           230.866                  Delhi          7214.562
       273   03 Jun 2027 10:19:29.561   03 Jun 2027 10:19:56.125            26.564              Murmansk1           830.125
       274   03 Jun 2027 10:19:57.698   03 Jun 2027 10:19:58.530             0.832              Murmansk1            26.000
       275   03 Jun 2027 10:20:13.228   03 Jun 2027 10:21:05.910            52.682              Murmansk1          1646.313
       276   03 Jun 2027 10:21:12.520   03 Jun 2027 10:21:32.462            19.942                Novosib           623.188
       277   03 Jun 2027 10:21:34.493   03 Jun 2027 10:22:00.611            26.118                 Moscow           816.188
       278   03 Jun 2027 10:22:12.458   03 Jun 2027 10:22:47.921            35.463              Murmansk2          1108.219
       279   03 Jun 2027 10:22:50.213   03 Jun 2027 10:23:00.277            10.064                Novosib           314.500
       280   03 Jun 2027 10:23:00.545   03 Jun 2027 10:23:13.240            12.695              Murmansk1           396.719
       281   03 Jun 2027 10:23:13.240   03 Jun 2027 10:23:40.303            27.063              Murmansk2           845.719
       282   03 Jun 2027 11:53:40.636   03 Jun 2027 11:53:55.600            14.964                 Moscow           467.625
       283   03 Jun 2027 11:56:28.398   03 Jun 2027 11:56:52.222            23.824              Murmansk2           744.500
       284   03 Jun 2027 11:57:10.990   03 Jun 2027 11:58:30.002            79.012              Murmansk2          2469.125
       285   03 Jun 2027 12:01:09.161   03 Jun 2027 12:01:20.436            11.275              Murmansk1           352.344
       286   03 Jun 2027 12:01:29.753   03 Jun 2027 12:02:20.416            50.663              Murmansk1          1583.219
       287   03 Jun 2027 12:03:59.921   03 Jun 2027 12:04:06.977             7.056              Murmansk1           220.500
       288   03 Jun 2027 12:04:06.977   03 Jun 2027 12:04:40.678            33.701              Murmansk2          1053.156
       289   03 Jun 2027 12:04:44.591   03 Jun 2027 12:05:22.192            37.601              Murmansk2          1175.031
       290   03 Jun 2027 12:11:30.296   03 Jun 2027 12:12:41.148            70.852                Anadyr2          2214.125
       291   03 Jun 2027 13:06:06.891   03 Jun 2027 13:08:05.689           118.798               CapeTown          3712.438
       292   03 Jun 2027 13:13:45.496   03 Jun 2027 13:15:34.361           108.865               CapeTown          3402.031
       293   03 Jun 2027 13:31:33.312   03 Jun 2027 13:32:04.624            31.312              Murmansk1           978.500
       294   03 Jun 2027 13:33:16.627   03 Jun 2027 13:33:25.450             8.823              Murmansk1           275.719
       295   03 Jun 2027 13:33:53.029   03 Jun 2027 13:34:21.123            28.094              Murmansk1           877.938
       296   03 Jun 2027 13:36:12.304   03 Jun 2027 13:36:32.641            20.337              Murmansk2           635.531
       297   03 Jun 2027 13:37:22.399   03 Jun 2027 13:38:05.421            43.022              Murmansk2          1344.437
       298   03 Jun 2027 13:42:25.929   03 Jun 2027 13:42:43.131            17.202              Murmansk2           537.563
       299   03 Jun 2027 13:44:43.529   03 Jun 2027 13:47:56.021           192.492                Anadyr2          6015.375
       300   03 Jun 2027 13:49:42.755   03 Jun 2027 13:50:19.632            36.877                Anadyr2          1152.406
       301   03 Jun 2027 13:51:23.855   03 Jun 2027 13:52:45.538            81.683                Anadyr1          2552.594
       302   03 Jun 2027 15:14:17.638   03 Jun 2027 15:14:49.330            31.692              Murmansk2           990.375
       303   03 Jun 2027 15:16:07.236   03 Jun 2027 15:16:19.156            11.920              Murmansk2           372.500
       304   03 Jun 2027 15:20:25.867   03 Jun 2027 15:22:35.125           129.258                Anadyr2          4039.312
       305   03 Jun 2027 15:22:35.125   03 Jun 2027 15:22:48.142            13.017                Anadyr1           406.781
       306   03 Jun 2027 15:23:21.769   03 Jun 2027 15:27:21.090           239.321               Magadan2          7478.781
       307   03 Jun 2027 15:29:13.296   03 Jun 2027 15:29:34.413            21.117               Magadan2           659.906
       308   03 Jun 2027 15:31:28.432   03 Jun 2027 15:32:49.416            80.984               Magadan2          2530.750
       309   03 Jun 2027 16:56:53.728   03 Jun 2027 16:57:20.286            26.558                Anadyr2           829.938
       310   03 Jun 2027 16:58:39.171   03 Jun 2027 16:59:50.482            71.311               Magadan1          2228.469
       311   03 Jun 2027 17:01:45.038   03 Jun 2027 17:02:16.361            31.323               Magadan2           978.844
       312   03 Jun 2027 17:06:14.741   03 Jun 2027 17:06:30.276            15.535               Magadan1           485.469
       313   03 Jun 2027 17:07:02.711   03 Jun 2027 17:07:11.364             8.653               Magadan2           270.406
       314   03 Jun 2027 17:07:20.819   03 Jun 2027 17:08:13.867            53.048               Magadan2          1657.750
       315   03 Jun 2027 17:51:54.673   03 Jun 2027 17:55:06.702           192.029            RioGallegos          6000.906
       316   03 Jun 2027 17:58:25.084   03 Jun 2027 17:58:56.399            31.315            RioGallegos           978.594
       317   03 Jun 2027 18:34:18.037   03 Jun 2027 18:35:46.582            88.545                Norilsk          2767.031
       318   03 Jun 2027 18:36:19.205   03 Jun 2027 18:38:29.532           130.327                Norilsk          4072.719
       319   03 Jun 2027 18:38:58.116   03 Jun 2027 18:39:50.159            52.043                Irkutsk          1626.344
       320   03 Jun 2027 18:41:40.933   03 Jun 2027 18:43:41.470           120.537                Irkutsk          3766.781
       321   03 Jun 2027 18:55:40.961   03 Jun 2027 18:59:05.968           205.007                Sumatra          6406.469
       322   03 Jun 2027 18:59:56.379   03 Jun 2027 19:00:36.183            39.804                Sumatra          1243.875
       323   03 Jun 2027 20:14:30.884   03 Jun 2027 20:17:35.454           184.570                Novosib          5767.813
       324   03 Jun 2027 20:23:35.850   03 Jun 2027 20:26:14.358           158.508                  Delhi          4953.375
       325   03 Jun 2027 20:27:50.350   03 Jun 2027 20:28:02.218            11.868                  Delhi           370.875
       326   03 Jun 2027 20:30:02.700   03 Jun 2027 20:31:29.900            87.200                  Delhi          2725.000
       327   03 Jun 2027 21:48:51.923   03 Jun 2027 21:54:56.178           364.255              Murmansk2         11382.969
       328   03 Jun 2027 23:23:00.214   03 Jun 2027 23:23:15.597            15.383               Magadan2           480.719
       329   03 Jun 2027 23:23:18.954   03 Jun 2027 23:23:28.364             9.410               Magadan1           294.062
       330   03 Jun 2027 23:24:16.226   03 Jun 2027 23:27:43.263           207.037              Murmansk1          6469.906
       331   03 Jun 2027 23:27:55.366   03 Jun 2027 23:29:48.079           112.713                 Moscow          3522.281
       332   03 Jun 2027 23:32:48.653   03 Jun 2027 23:33:21.226            32.573                 Moscow          1017.906
       333   03 Jun 2027 23:34:23.634   03 Jun 2027 23:34:33.360             9.726                 Moscow           303.938
       334   03 Jun 2027 23:53:25.694   03 Jun 2027 23:55:01.023            95.329               CapeTown          2979.031
       335   03 Jun 2027 23:57:22.002   03 Jun 2027 23:58:05.720            43.718               CapeTown          1366.187
       336   03 Jun 2027 23:58:36.679   04 Jun 2027 00:00:04.872            88.193               CapeTown          2756.031
       337   04 Jun 2027 01:00:12.397   04 Jun 2027 01:01:36.793            84.396              Murmansk1          2637.375
       338   04 Jun 2027 01:03:24.777   04 Jun 2027 01:03:58.041            33.264                 Moscow          1039.500
       339   04 Jun 2027 01:11:04.431   04 Jun 2027 01:11:06.300             1.869              Murmansk2            58.406
       340   04 Jun 2027 01:12:03.065   04 Jun 2027 01:12:17.873            14.808                 Moscow           462.750
       341   04 Jun 2027 01:13:00.570   04 Jun 2027 01:13:16.831            16.261                 Moscow           508.156
       342   04 Jun 2027 01:27:21.206   04 Jun 2027 01:28:12.628            51.422               CapeTown          1606.938
       343   04 Jun 2027 01:30:29.060   04 Jun 2027 01:31:32.534            63.474               CapeTown          1983.563
       344   04 Jun 2027 02:24:08.325   04 Jun 2027 02:24:26.973            18.648                Anadyr1           582.750
       345   04 Jun 2027 02:24:38.452   04 Jun 2027 02:25:02.410            23.958                Anadyr2           748.688
       346   04 Jun 2027 02:25:04.002   04 Jun 2027 02:26:28.204            84.202               Magadan2          2631.313
       347   04 Jun 2027 02:26:58.359   04 Jun 2027 02:27:25.771            27.412               Magadan1           856.625
       348   04 Jun 2027 02:30:13.094   04 Jun 2027 02:30:32.876            19.782               Magadan2           618.188
       349   04 Jun 2027 02:32:50.516   04 Jun 2027 02:32:55.209             4.693                Norilsk           146.656
       350   04 Jun 2027 02:33:44.986   04 Jun 2027 02:34:21.392            36.406               Magadan2          1137.688
       351   04 Jun 2027 02:36:08.304   04 Jun 2027 02:37:40.102            91.798              Murmansk2          2868.688
       352   04 Jun 2027 02:39:37.272   04 Jun 2027 02:39:59.437            22.165                 Moscow           692.656
       353   04 Jun 2027 02:43:58.020   04 Jun 2027 02:44:10.720            12.700                 Moscow           396.875
       354   04 Jun 2027 02:44:30.386   04 Jun 2027 02:44:43.793            13.407                 Moscow           418.969
       355   04 Jun 2027 02:45:17.667   04 Jun 2027 02:45:26.947             9.280              Murmansk2           290.000
       356   04 Jun 2027 02:46:56.015   04 Jun 2027 02:47:12.633            16.618                 Moscow           519.313
       357   04 Jun 2027 02:49:02.331   04 Jun 2027 02:49:16.300            13.969                 Moscow           436.531
       358   04 Jun 2027 04:07:14.862   04 Jun 2027 04:07:41.778            26.916               Magadan2           841.125
       359   04 Jun 2027 04:08:05.103   04 Jun 2027 04:08:06.056             0.953                Irkutsk            29.781
       360   04 Jun 2027 04:08:24.199   04 Jun 2027 04:09:17.937            53.738               Magadan1          1679.312
       361   04 Jun 2027 04:09:17.937   04 Jun 2027 04:09:18.309             0.372               Magadan2            11.625
       362   04 Jun 2027 04:09:27.339   04 Jun 2027 04:10:32.379            65.040               Magadan1          2032.500
       363   04 Jun 2027 04:10:32.379   04 Jun 2027 04:11:18.873            46.494               Magadan2          1452.938
       364   04 Jun 2027 04:11:30.491   04 Jun 2027 04:12:35.185            64.694               Magadan1          2021.687
       365   04 Jun 2027 04:12:38.244   04 Jun 2027 04:12:39.596             1.352                Anadyr1            42.250
       366   04 Jun 2027 04:15:58.627   04 Jun 2027 04:16:05.949             7.322                Norilsk           228.812
       367   04 Jun 2027 04:49:43.741   04 Jun 2027 04:51:25.478           101.737            RioGallegos          3179.281
       368   04 Jun 2027 04:53:27.198   04 Jun 2027 04:54:18.297            51.099            RioGallegos          1596.844
       369   04 Jun 2027 04:54:30.041   04 Jun 2027 04:55:03.220            33.179            RioGallegos          1036.844
       370   04 Jun 2027 04:56:04.997   04 Jun 2027 04:56:31.241            26.244            RioGallegos           820.125
       371   04 Jun 2027 05:43:28.463   04 Jun 2027 05:43:31.808             3.345                Irkutsk           104.531
       372   04 Jun 2027 05:43:31.912   04 Jun 2027 05:43:50.937            19.025                Novosib           594.531
       373   04 Jun 2027 05:44:05.846   04 Jun 2027 05:44:18.100            12.254                Novosib           382.937
       374   04 Jun 2027 05:44:24.965   04 Jun 2027 05:46:20.565           115.600                Irkutsk          3612.500
       375   04 Jun 2027 05:46:55.472   04 Jun 2027 05:48:06.561            71.089               Magadan2          2221.531
       376   04 Jun 2027 06:59:08.913   04 Jun 2027 07:00:06.768            57.855                Sumatra          1807.969
       377   04 Jun 2027 07:03:45.879   04 Jun 2027 07:05:09.639            83.760                Sumatra          2617.500
       378   04 Jun 2027 07:18:01.275   04 Jun 2027 07:18:11.187             9.912                Norilsk           309.750
       379   04 Jun 2027 07:18:51.077   04 Jun 2027 07:18:59.016             7.939                Novosib           248.094
       380   04 Jun 2027 07:19:13.123   04 Jun 2027 07:19:39.295            26.172                Norilsk           817.875
       381   04 Jun 2027 07:19:57.611   04 Jun 2027 07:20:16.357            18.746                Norilsk           585.813
       382   04 Jun 2027 07:20:25.121   04 Jun 2027 07:20:53.789            28.668                Norilsk           895.875
       383   04 Jun 2027 07:21:11.949   04 Jun 2027 07:22:39.064            87.115                Irkutsk          2722.344
       384   04 Jun 2027 07:22:44.881   04 Jun 2027 07:22:59.995            15.114                Irkutsk           472.313
       385   04 Jun 2027 07:23:08.775   04 Jun 2027 07:23:14.003             5.228                Novosib           163.375
       386   04 Jun 2027 07:23:18.567   04 Jun 2027 07:24:17.413            58.846                Irkutsk          1838.937
       387   04 Jun 2027 07:24:51.596   04 Jun 2027 07:25:15.012            23.416              Murmansk1           731.750
       388   04 Jun 2027 07:27:04.562   04 Jun 2027 07:27:11.522             6.960              Murmansk1           217.500
       389   04 Jun 2027 07:59:59.056   04 Jun 2027 08:00:14.847            15.791            RioGallegos           493.469
       390   04 Jun 2027 08:01:08.026   04 Jun 2027 08:01:49.540            41.514            RioGallegos          1297.313
       391   04 Jun 2027 08:34:14.402   04 Jun 2027 08:35:19.100            64.698                Sumatra          2021.813
       392   04 Jun 2027 08:39:01.650   04 Jun 2027 08:39:09.959             8.309                Sumatra           259.656
       393   04 Jun 2027 08:42:32.675   04 Jun 2027 08:45:01.698           149.023                  Delhi          4656.969
       394   04 Jun 2027 08:55:59.550   04 Jun 2027 08:56:19.714            20.164                Novosib           630.125
       395   04 Jun 2027 08:56:25.777   04 Jun 2027 08:56:33.388             7.611                Novosib           237.844
       396   04 Jun 2027 08:56:41.603   04 Jun 2027 08:57:03.618            22.015                Novosib           687.969
       397   04 Jun 2027 08:57:15.877   04 Jun 2027 08:57:24.643             8.766                 Moscow           273.938
       398   04 Jun 2027 08:57:33.348   04 Jun 2027 08:58:23.458            50.110                Irkutsk          1565.938
       399   04 Jun 2027 08:58:29.384   04 Jun 2027 08:58:37.050             7.666                Norilsk           239.562
       400   04 Jun 2027 08:58:41.612   04 Jun 2027 08:59:20.866            39.254                Irkutsk          1226.688
       401   04 Jun 2027 08:59:41.319   04 Jun 2027 09:00:05.685            24.366                Novosib           761.438
       402   04 Jun 2027 09:00:08.631   04 Jun 2027 09:00:59.564            50.933                 Moscow          1591.656
       403   04 Jun 2027 10:19:06.942   04 Jun 2027 10:20:27.233            80.291                  Delhi          2509.094
       404   04 Jun 2027 10:22:02.591   04 Jun 2027 10:22:32.497            29.906                  Delhi           934.563
       405   04 Jun 2027 10:22:47.968   04 Jun 2027 10:23:38.712            50.744                  Delhi          1585.750
       406   04 Jun 2027 10:31:32.067   04 Jun 2027 10:31:34.958             2.891                Norilsk            90.344
       407   04 Jun 2027 10:31:37.108   04 Jun 2027 10:32:19.978            42.870                 Moscow          1339.687
       408   04 Jun 2027 10:32:22.752   04 Jun 2027 10:33:01.062            38.310              Murmansk1          1197.188
       409   04 Jun 2027 10:33:06.787   04 Jun 2027 10:33:16.473             9.686                Novosib           302.688
       410   04 Jun 2027 10:33:16.656   04 Jun 2027 10:33:55.086            38.430              Murmansk2          1200.937
       411   04 Jun 2027 10:34:12.162   04 Jun 2027 10:34:23.442            11.280              Murmansk1           352.500
       412   04 Jun 2027 10:34:34.727   04 Jun 2027 10:34:53.073            18.346                Norilsk           573.312
       413   04 Jun 2027 10:34:57.075   04 Jun 2027 10:35:11.424            14.349                 Moscow           448.406
       414   04 Jun 2027 10:35:19.010   04 Jun 2027 10:35:43.746            24.736                Norilsk           773.000
       415   04 Jun 2027 10:38:28.912   04 Jun 2027 10:39:17.163            48.251                 Moscow          1507.844
       416   04 Jun 2027 12:02:32.847   04 Jun 2027 12:02:56.486            23.639                 Moscow           738.719
       417   04 Jun 2027 12:03:18.252   04 Jun 2027 12:03:52.598            34.346                 Moscow          1073.312
       418   04 Jun 2027 12:04:31.290   04 Jun 2027 12:05:37.050            65.760                 Moscow          2055.000
       419   04 Jun 2027 12:07:00.996   04 Jun 2027 12:07:30.207            29.211                 Moscow           912.844
       420   04 Jun 2027 12:08:15.811   04 Jun 2027 12:08:20.533             4.722              Murmansk2           147.562
       421   04 Jun 2027 12:09:10.423   04 Jun 2027 12:09:34.206            23.783              Murmansk2           743.219
       422   04 Jun 2027 12:10:52.333   04 Jun 2027 12:11:17.932            25.599              Murmansk2           799.969
       423   04 Jun 2027 12:13:16.656   04 Jun 2027 12:14:26.048            69.392                Norilsk          2168.500
       424   04 Jun 2027 12:22:18.878   04 Jun 2027 12:25:33.501           194.623                Anadyr2          6081.969
       425   04 Jun 2027 12:26:02.157   04 Jun 2027 12:26:34.536            32.379                Anadyr2          1011.844
       426   04 Jun 2027 13:27:19.212   04 Jun 2027 13:28:28.551            69.339               CapeTown          2166.844
       427   04 Jun 2027 13:43:56.573   04 Jun 2027 13:44:18.638            22.065              Murmansk1           689.531
       428   04 Jun 2027 13:45:56.046   04 Jun 2027 13:46:21.993            25.947              Murmansk1           810.844
       429   04 Jun 2027 13:47:59.139   04 Jun 2027 13:48:31.019            31.880              Murmansk1           996.250
       430   04 Jun 2027 13:50:34.284   04 Jun 2027 13:51:18.533            44.249              Murmansk1          1382.781
       431   04 Jun 2027 13:56:41.219   04 Jun 2027 13:59:57.138           195.919                Anadyr1          6122.469
       432   04 Jun 2027 14:00:14.703   04 Jun 2027 14:00:52.077            37.374                Anadyr1          1167.937
       433   04 Jun 2027 14:02:52.830   04 Jun 2027 14:03:15.653            22.823                Anadyr1           713.219
       434   04 Jun 2027 15:24:35.356   04 Jun 2027 15:26:04.949            89.593              Murmansk2          2799.781
       435   04 Jun 2027 15:32:26.957   04 Jun 2027 15:33:49.933            82.976                Anadyr2          2593.000
       436   04 Jun 2027 15:34:44.371   04 Jun 2027 15:35:16.897            32.526                Anadyr2          1016.438
       437   04 Jun 2027 15:35:19.880   04 Jun 2027 15:39:12.211           232.331               Magadan2          7260.344
       438   04 Jun 2027 15:40:53.160   04 Jun 2027 15:41:15.106            21.946               Magadan2           685.813
       439   04 Jun 2027 15:43:00.326   04 Jun 2027 15:43:27.818            27.492               Magadan2           859.125
       440   04 Jun 2027 15:44:39.770   04 Jun 2027 15:45:36.383            56.613               Magadan2          1769.156
       441   04 Jun 2027 17:09:05.170   04 Jun 2027 17:09:28.059            22.889                Anadyr2           715.281
       442   04 Jun 2027 17:10:39.428   04 Jun 2027 17:11:18.672            39.244               Magadan2          1226.375
       443   04 Jun 2027 17:12:50.379   04 Jun 2027 17:13:52.971            62.592               Magadan1          1956.000
       444   04 Jun 2027 17:14:10.681   04 Jun 2027 17:14:21.979            11.298               Magadan2           353.062
       445   04 Jun 2027 17:18:02.785   04 Jun 2027 17:18:11.269             8.484               Magadan2           265.125
       446   04 Jun 2027 17:19:22.985   04 Jun 2027 17:20:10.758            47.773               Magadan1          1492.906
       447   04 Jun 2027 18:03:27.891   04 Jun 2027 18:06:56.352           208.461            RioGallegos          6514.406
       448   04 Jun 2027 18:08:16.440   04 Jun 2027 18:10:11.978           115.538            RioGallegos          3610.562
       449   04 Jun 2027 18:46:16.549   04 Jun 2027 18:46:54.272            37.723                Norilsk          1178.844
       450   04 Jun 2027 18:47:57.225   04 Jun 2027 18:49:21.143            83.918                Norilsk          2622.437
       451   04 Jun 2027 18:50:44.901   04 Jun 2027 18:52:18.613            93.712                Irkutsk          2928.500
       452   04 Jun 2027 18:53:42.415   04 Jun 2027 18:54:51.233            68.818                Irkutsk          2150.563
       453   04 Jun 2027 19:00:11.264   04 Jun 2027 19:01:06.700            55.436                Irkutsk          1732.375
       454   04 Jun 2027 19:04:53.688   04 Jun 2027 19:06:04.364            70.676                Sumatra          2208.625
       455   04 Jun 2027 19:07:00.579   04 Jun 2027 19:08:16.048            75.469                Sumatra          2358.406
       456   04 Jun 2027 19:09:31.688   04 Jun 2027 19:09:47.010            15.322                Sumatra           478.812
       457   04 Jun 2027 19:11:16.774   04 Jun 2027 19:11:49.480            32.706                Sumatra          1022.062
       458   04 Jun 2027 20:25:59.797   04 Jun 2027 20:27:24.937            85.140                Irkutsk          2660.625
       459   04 Jun 2027 20:27:32.212   04 Jun 2027 20:27:45.704            13.492                Novosib           421.625
       460   04 Jun 2027 20:28:18.798   04 Jun 2027 20:29:37.233            78.435                Novosib          2451.094
       461   04 Jun 2027 20:34:53.770   04 Jun 2027 20:37:59.619           185.849                  Delhi          5807.781
       462   04 Jun 2027 20:42:01.108   04 Jun 2027 20:42:25.771            24.663                  Delhi           770.719
       463   04 Jun 2027 22:00:43.940   04 Jun 2027 22:04:46.053           242.113              Murmansk2          7566.031
       464   04 Jun 2027 22:05:56.739   04 Jun 2027 22:06:33.846            37.107              Murmansk1          1159.594
       465   04 Jun 2027 23:31:41.620   04 Jun 2027 23:31:52.932            11.312                Anadyr2           353.500
       466   04 Jun 2027 23:31:53.466   04 Jun 2027 23:33:48.215           114.749               Magadan2          3585.906
       467   04 Jun 2027 23:33:48.215   04 Jun 2027 23:33:57.988             9.773               Magadan1           305.406
       468   04 Jun 2027 23:34:28.234   04 Jun 2027 23:35:15.859            47.625               Magadan2          1488.281
       469   04 Jun 2027 23:36:16.969   04 Jun 2027 23:37:43.896            86.927              Murmansk2          2716.469
       470   04 Jun 2027 23:37:44.328   04 Jun 2027 23:39:11.372            87.044              Murmansk1          2720.125
       471   04 Jun 2027 23:39:49.231   04 Jun 2027 23:40:46.563            57.332                 Moscow          1791.625
       472   04 Jun 2027 23:41:37.313   04 Jun 2027 23:42:14.085            36.772                 Moscow          1149.125
       473   04 Jun 2027 23:44:27.304   04 Jun 2027 23:46:00.321            93.017                 Moscow          2906.781
       474   05 Jun 2027 00:04:51.291   05 Jun 2027 00:07:28.700           157.409               CapeTown          4919.031
       475   05 Jun 2027 01:12:14.066   05 Jun 2027 01:13:32.104            78.038              Murmansk2          2438.688
       476   05 Jun 2027 01:15:11.253   05 Jun 2027 01:15:25.499            14.246                Novosib           445.187
       477   05 Jun 2027 01:15:26.418   05 Jun 2027 01:16:46.601            80.183                 Moscow          2505.719
       478   05 Jun 2027 01:22:54.995   05 Jun 2027 01:23:07.862            12.867              Murmansk1           402.094
       479   05 Jun 2027 01:24:42.222   05 Jun 2027 01:24:52.363            10.141                 Moscow           316.906
       480   05 Jun 2027 01:39:31.031   05 Jun 2027 01:40:59.040            88.009               CapeTown          2750.281
       481   05 Jun 2027 01:48:41.569   05 Jun 2027 01:48:59.886            18.317               CapeTown           572.406
       482   05 Jun 2027 02:36:15.934   05 Jun 2027 02:37:08.223            52.289                Anadyr1          1634.031
