uniorb/output/strategy_2/Drop/Drop_KinoSat_111910.txt

KinoSat_111910
-------------------------
    Access    *     Start Time (UTCG)     *     Stop Time (UTCG)  *   Duration (s)        *       Station  *  Data (Mbytes)
         1   01 Jun 2027 03:52:38.018   01 Jun 2027 03:52:57.480            19.462              Murmansk1           608.187
         2   01 Jun 2027 03:52:59.689   01 Jun 2027 03:53:53.041            53.352                Irkutsk          1667.250
         3   01 Jun 2027 03:54:07.391   01 Jun 2027 03:57:17.941           190.550                Irkutsk          5954.688
         4   01 Jun 2027 03:59:52.612   01 Jun 2027 03:59:53.451             0.839                Novosib            26.219
         5   01 Jun 2027 05:30:12.623   01 Jun 2027 05:30:18.874             6.251                Norilsk           195.344
         6   01 Jun 2027 05:31:00.460   01 Jun 2027 05:32:22.540            82.080                Norilsk          2565.000
         7   01 Jun 2027 05:32:25.045   01 Jun 2027 05:33:52.519            87.474              Murmansk2          2733.562
         8   01 Jun 2027 05:34:16.484   01 Jun 2027 05:38:08.777           232.293                 Moscow          7259.156
         9   01 Jun 2027 06:54:38.629   01 Jun 2027 06:56:27.167           108.538                Anadyr2          3391.813
        10   01 Jun 2027 06:56:27.167   01 Jun 2027 06:57:04.938            37.771                Anadyr1          1180.344
        11   01 Jun 2027 06:57:07.751   01 Jun 2027 06:58:47.529            99.778               Magadan2          3118.062
        12   01 Jun 2027 07:06:27.467   01 Jun 2027 07:06:37.331             9.864                Norilsk           308.250
        13   01 Jun 2027 07:07:07.492   01 Jun 2027 07:07:26.536            19.044                 Moscow           595.125
        14   01 Jun 2027 07:07:34.480   01 Jun 2027 07:08:18.787            44.307              Murmansk2          1384.594
        15   01 Jun 2027 07:08:18.787   01 Jun 2027 07:09:39.530            80.743              Murmansk1          2523.219
        16   01 Jun 2027 07:09:39.530   01 Jun 2027 07:10:36.234            56.704              Murmansk2          1772.000
        17   01 Jun 2027 07:10:50.011   01 Jun 2027 07:11:36.794            46.783              Murmansk1          1461.969
        18   01 Jun 2027 07:12:33.829   01 Jun 2027 07:13:32.171            58.342                 Moscow          1823.188
        19   01 Jun 2027 07:31:31.646   01 Jun 2027 07:32:03.435            31.789               CapeTown           993.406
        20   01 Jun 2027 08:30:09.460   01 Jun 2027 08:31:18.894            69.434               Magadan2          2169.813
        21   01 Jun 2027 08:31:18.894   01 Jun 2027 08:32:16.766            57.872               Magadan1          1808.500
        22   01 Jun 2027 08:32:25.075   01 Jun 2027 08:34:08.038           102.963               Magadan2          3217.594
        23   01 Jun 2027 08:34:16.345   01 Jun 2027 08:35:40.871            84.526                Anadyr1          2641.437
        24   01 Jun 2027 10:04:59.165   01 Jun 2027 10:08:24.538           205.373                Anadyr1          6417.906
        25   01 Jun 2027 10:08:33.945   01 Jun 2027 10:11:04.851           150.906                Anadyr2          4715.812
        26   01 Jun 2027 11:39:52.182   01 Jun 2027 11:46:15.438           383.256               Magadan2         11976.750
        27   01 Jun 2027 14:02:23.975   01 Jun 2027 14:07:37.992           314.017            RioGallegos          9813.031
        28   01 Jun 2027 14:35:17.957   01 Jun 2027 14:41:46.529           388.572                Sumatra         12142.875
        29   01 Jun 2027 14:51:11.921   01 Jun 2027 14:56:29.266           317.345                Irkutsk          9917.031
        30   01 Jun 2027 16:21:37.071   01 Jun 2027 16:25:16.145           219.074                  Delhi          6846.062
        31   01 Jun 2027 16:29:45.979   01 Jun 2027 16:33:36.253           230.274                Novosib          7196.062
        32   01 Jun 2027 16:37:17.110   01 Jun 2027 16:37:19.255             2.145                Norilsk            67.031
        33   01 Jun 2027 19:44:42.272   01 Jun 2027 19:45:03.022            20.750              Murmansk1           648.437
        34   01 Jun 2027 19:47:32.844   01 Jun 2027 19:49:37.156           124.312              Murmansk2          3884.750
        35   01 Jun 2027 19:51:00.798   01 Jun 2027 19:51:51.138            50.340              Murmansk1          1573.125
        36   01 Jun 2027 20:52:49.375   01 Jun 2027 20:59:02.690           373.315               CapeTown         11666.094
        37   02 Jun 2027 00:10:21.731   02 Jun 2027 00:10:47.131            25.400            RioGallegos           793.750
        38   02 Jun 2027 00:11:47.030   02 Jun 2027 00:12:19.153            32.123            RioGallegos          1003.844
        39   02 Jun 2027 00:42:37.162   02 Jun 2027 00:43:44.130            66.968                Anadyr1          2092.750
        40   02 Jun 2027 00:44:07.188   02 Jun 2027 00:44:55.404            48.216                Anadyr1          1506.750
        41   02 Jun 2027 00:45:13.636   02 Jun 2027 00:46:04.093            50.457                Norilsk          1576.781
        42   02 Jun 2027 00:46:50.884   02 Jun 2027 00:47:22.435            31.551               Magadan1           985.969
        43   02 Jun 2027 00:48:21.167   02 Jun 2027 00:48:30.385             9.218                Norilsk           288.062
        44   02 Jun 2027 00:48:30.408   02 Jun 2027 00:48:51.896            21.488               Magadan2           671.500
        45   02 Jun 2027 00:49:43.180   02 Jun 2027 00:50:10.606            27.426                Irkutsk           857.062
        46   02 Jun 2027 00:50:21.739   02 Jun 2027 00:50:57.174            35.435               Magadan2          1107.344
        47   02 Jun 2027 00:53:05.617   02 Jun 2027 00:53:09.231             3.614                Novosib           112.937
        48   02 Jun 2027 00:53:11.005   02 Jun 2027 00:53:19.533             8.528               Magadan1           266.500
        49   02 Jun 2027 00:53:21.665   02 Jun 2027 00:53:22.870             1.205                Novosib            37.656
        50   02 Jun 2027 00:53:45.456   02 Jun 2027 00:54:19.682            34.226                Norilsk          1069.562
        51   02 Jun 2027 00:54:50.369   02 Jun 2027 00:54:55.058             4.689                Irkutsk           146.531
        52   02 Jun 2027 00:55:10.805   02 Jun 2027 00:55:22.472            11.667               Magadan1           364.594
        53   02 Jun 2027 00:55:51.269   02 Jun 2027 00:55:58.593             7.324                Irkutsk           228.875
        54   02 Jun 2027 00:56:35.216   02 Jun 2027 00:56:50.393            15.177                Irkutsk           474.281
        55   02 Jun 2027 00:58:31.025   02 Jun 2027 00:58:44.450            13.425                Irkutsk           419.531
        56   02 Jun 2027 00:59:46.354   02 Jun 2027 01:00:16.954            30.600                Irkutsk           956.250
        57   02 Jun 2027 01:00:19.379   02 Jun 2027 01:01:13.992            54.613                Irkutsk          1706.656
        58   02 Jun 2027 01:08:39.856   02 Jun 2027 01:09:30.808            50.952                Sumatra          1592.250
        59   02 Jun 2027 01:11:04.542   02 Jun 2027 01:12:13.495            68.953                Sumatra          2154.781
        60   02 Jun 2027 01:14:51.169   02 Jun 2027 01:15:23.132            31.963                Sumatra           998.844
        61   02 Jun 2027 01:46:39.955   02 Jun 2027 01:47:34.827            54.872            RioGallegos          1714.750
        62   02 Jun 2027 01:49:10.986   02 Jun 2027 01:49:27.358            16.372            RioGallegos           511.625
        63   02 Jun 2027 02:19:14.916   02 Jun 2027 02:19:24.605             9.689                Anadyr1           302.781
        64   02 Jun 2027 02:19:28.562   02 Jun 2027 02:19:51.466            22.904                Anadyr1           715.750
        65   02 Jun 2027 02:20:36.941   02 Jun 2027 02:20:42.160             5.219                Anadyr1           163.094
        66   02 Jun 2027 02:20:54.264   02 Jun 2027 02:21:50.285            56.021                Norilsk          1750.656
        67   02 Jun 2027 02:23:18.998   02 Jun 2027 02:23:30.530            11.532               Magadan1           360.375
        68   02 Jun 2027 02:23:30.530   02 Jun 2027 02:23:36.806             6.276               Magadan2           196.125
        69   02 Jun 2027 02:23:49.361   02 Jun 2027 02:23:57.908             8.547                Norilsk           267.094
        70   02 Jun 2027 02:24:01.836   02 Jun 2027 02:24:22.139            20.303                Norilsk           634.469
        71   02 Jun 2027 02:25:50.901   02 Jun 2027 02:25:58.018             7.117                Novosib           222.406
        72   02 Jun 2027 02:26:03.015   02 Jun 2027 02:27:14.360            71.345                Irkutsk          2229.531
        73   02 Jun 2027 02:30:25.819   02 Jun 2027 02:30:31.804             5.985                Irkutsk           187.031
        74   02 Jun 2027 02:30:59.969   02 Jun 2027 02:31:33.471            33.502                Irkutsk          1046.938
        75   02 Jun 2027 02:33:21.471   02 Jun 2027 02:33:29.390             7.919                Irkutsk           247.469
        76   02 Jun 2027 02:33:38.765   02 Jun 2027 02:33:54.870            16.105                Irkutsk           503.281
        77   02 Jun 2027 02:34:42.716   02 Jun 2027 02:36:00.969            78.253                Irkutsk          2445.406
        78   02 Jun 2027 02:41:11.254   02 Jun 2027 02:41:48.780            37.526                  Delhi          1172.687
        79   02 Jun 2027 02:42:06.485   02 Jun 2027 02:45:45.215           218.730                Sumatra          6835.313
        80   02 Jun 2027 02:45:52.062   02 Jun 2027 02:46:55.032            62.970                Sumatra          1967.812
        81   02 Jun 2027 04:05:37.133   02 Jun 2027 04:05:52.003            14.870              Murmansk2           464.688
        82   02 Jun 2027 04:05:53.280   02 Jun 2027 04:07:43.003           109.723                Irkutsk          3428.844
        83   02 Jun 2027 04:07:43.504   02 Jun 2027 04:07:54.854            11.350                Norilsk           354.688
        84   02 Jun 2027 04:08:02.669   02 Jun 2027 04:08:39.683            37.014                Novosib          1156.687
        85   02 Jun 2027 04:08:42.933   02 Jun 2027 04:08:48.321             5.388              Murmansk1           168.375
        86   02 Jun 2027 04:08:58.011   02 Jun 2027 04:09:37.812            39.801                Irkutsk          1243.781
        87   02 Jun 2027 04:10:04.569   02 Jun 2027 04:12:17.701           133.132                  Delhi          4160.375
        88   02 Jun 2027 05:42:51.836   02 Jun 2027 05:45:49.642           177.806              Murmansk2          5556.437
        89   02 Jun 2027 05:45:59.275   02 Jun 2027 05:46:29.169            29.894              Murmansk1           934.188
        90   02 Jun 2027 05:46:36.337   02 Jun 2027 05:47:50.529            74.192                 Moscow          2318.500
        91   02 Jun 2027 05:49:09.374   02 Jun 2027 05:49:21.891            12.517                 Moscow           391.156
        92   02 Jun 2027 05:49:45.165   02 Jun 2027 05:49:55.570            10.405                 Moscow           325.156
        93   02 Jun 2027 05:50:58.056   02 Jun 2027 05:51:01.365             3.309                 Moscow           103.406
        94   02 Jun 2027 07:05:47.838   02 Jun 2027 07:06:04.452            16.614                Anadyr1           519.187
        95   02 Jun 2027 07:06:47.402   02 Jun 2027 07:08:27.645           100.243                Anadyr2          3132.594
        96   02 Jun 2027 07:08:27.645   02 Jun 2027 07:11:48.469           200.824                Anadyr1          6275.750
        97   02 Jun 2027 07:18:25.843   02 Jun 2027 07:18:29.352             3.509                Norilsk           109.656
        98   02 Jun 2027 07:18:51.834   02 Jun 2027 07:19:35.487            43.653                 Moscow          1364.156
        99   02 Jun 2027 07:19:55.072   02 Jun 2027 07:20:00.393             5.321              Murmansk1           166.281
       100   02 Jun 2027 07:20:00.393   02 Jun 2027 07:23:44.378           223.985              Murmansk2          6999.531
       101   02 Jun 2027 07:23:55.335   02 Jun 2027 07:24:46.285            50.950                 Moscow          1592.187
       102   02 Jun 2027 08:40:12.484   02 Jun 2027 08:41:21.918            69.434                Anadyr1          2169.813
       103   02 Jun 2027 08:41:41.714   02 Jun 2027 08:43:27.026           105.312               Magadan2          3291.000
       104   02 Jun 2027 08:43:27.026   02 Jun 2027 08:44:12.023            44.997               Magadan1          1406.156
       105   02 Jun 2027 08:44:42.729   02 Jun 2027 08:47:41.296           178.567                Anadyr1          5580.219
       106   02 Jun 2027 08:53:05.328   02 Jun 2027 08:53:39.551            34.223                 Moscow          1069.469
       107   02 Jun 2027 10:14:53.003   02 Jun 2027 10:15:34.007            41.004               Magadan1          1281.375
       108   02 Jun 2027 10:15:34.559   02 Jun 2027 10:19:24.982           230.423               Magadan2          7200.719
       109   02 Jun 2027 10:19:26.689   02 Jun 2027 10:22:55.356           208.667                Anadyr1          6520.844
       110   02 Jun 2027 11:50:51.412   02 Jun 2027 11:57:57.056           425.644               Magadan1         13301.375
       111   02 Jun 2027 11:58:51.554   02 Jun 2027 11:59:14.509            22.955                Novosib           717.344
       112   02 Jun 2027 11:59:55.102   02 Jun 2027 12:00:09.145            14.043              Murmansk1           438.844
       113   02 Jun 2027 12:00:53.772   02 Jun 2027 12:01:51.395            57.623                Norilsk          1800.719
       114   02 Jun 2027 12:03:25.926   02 Jun 2027 12:03:36.919            10.993              Murmansk2           343.531
       115   02 Jun 2027 12:03:51.998   02 Jun 2027 12:04:06.049            14.051                Norilsk           439.094
       116   02 Jun 2027 12:04:45.275   02 Jun 2027 12:05:39.733            54.458              Murmansk2          1701.813
       117   02 Jun 2027 12:06:25.245   02 Jun 2027 12:06:41.629            16.384              Murmansk1           512.000
       118   02 Jun 2027 12:06:58.294   02 Jun 2027 12:07:19.351            21.057              Murmansk2           658.031
       119   02 Jun 2027 12:40:39.829   02 Jun 2027 12:42:42.027           122.198            RioGallegos          3818.688
       120   02 Jun 2027 13:09:09.563   02 Jun 2027 13:09:49.918            40.355                Sumatra          1261.094
       121   02 Jun 2027 13:14:33.345   02 Jun 2027 13:15:26.052            52.707                Sumatra          1647.094
       122   02 Jun 2027 13:20:20.963   02 Jun 2027 13:21:23.255            62.292                Sumatra          1946.625
       123   02 Jun 2027 13:22:46.944   02 Jun 2027 13:25:18.338           151.394                Irkutsk          4731.063
       124   02 Jun 2027 14:13:39.751   02 Jun 2027 14:20:39.852           420.101            RioGallegos         13128.156
       125   02 Jun 2027 14:49:39.365   02 Jun 2027 14:51:18.887            99.522                Sumatra          3110.062
       126   02 Jun 2027 15:05:28.331   02 Jun 2027 15:06:47.934            79.603                Irkutsk          2487.594
       127   02 Jun 2027 16:38:34.282   02 Jun 2027 16:39:26.466            52.184                 Moscow          1630.750
       128   02 Jun 2027 16:41:47.146   02 Jun 2027 16:42:07.945            20.799              Murmansk1           649.969
       129   02 Jun 2027 16:43:48.532   02 Jun 2027 16:44:02.361            13.829              Murmansk2           432.156
       130   02 Jun 2027 16:44:25.303   02 Jun 2027 16:48:01.094           215.791                Norilsk          6743.469
       131   02 Jun 2027 16:48:51.313   02 Jun 2027 16:50:11.128            79.815                Norilsk          2494.219
       132   02 Jun 2027 17:59:19.330   02 Jun 2027 18:00:20.597            61.267               CapeTown          1914.594
       133   02 Jun 2027 18:14:27.244   02 Jun 2027 18:14:59.017            31.773                 Moscow           992.906
       134   02 Jun 2027 18:16:10.289   02 Jun 2027 18:19:31.185           200.896                 Moscow          6278.000
       135   02 Jun 2027 18:32:22.915   02 Jun 2027 18:33:13.963            51.048                Anadyr1          1595.250
       136   02 Jun 2027 18:39:55.009   02 Jun 2027 18:40:27.388            32.379                Anadyr1          1011.844
       137   02 Jun 2027 19:26:43.523   02 Jun 2027 19:27:17.868            34.345               CapeTown          1073.281
       138   02 Jun 2027 19:29:48.661   02 Jun 2027 19:30:20.694            32.033               CapeTown          1001.031
       139   02 Jun 2027 19:33:04.944   02 Jun 2027 19:33:46.875            41.931               CapeTown          1310.344
       140   02 Jun 2027 19:38:42.374   02 Jun 2027 19:39:16.482            34.108               CapeTown          1065.875
       141   02 Jun 2027 19:56:50.801   02 Jun 2027 19:57:58.912            68.111              Murmansk1          2128.469
       142   02 Jun 2027 19:59:04.387   02 Jun 2027 20:02:22.576           198.189              Murmansk2          6193.406
       143   02 Jun 2027 20:02:47.045   02 Jun 2027 20:05:22.362           155.317              Murmansk1          4853.656
       144   02 Jun 2027 21:06:08.341   02 Jun 2027 21:09:18.938           190.597               CapeTown          5956.156
       145   02 Jun 2027 21:44:06.085   02 Jun 2027 21:44:09.660             3.575                Anadyr2           111.719
       146   02 Jun 2027 21:44:56.145   02 Jun 2027 21:46:25.765            89.620                Anadyr2          2800.625
       147   02 Jun 2027 21:46:50.395   02 Jun 2027 21:47:53.316            62.921               Magadan1          1966.281
       148   02 Jun 2027 21:50:48.431   02 Jun 2027 21:51:09.485            21.054               Magadan1           657.937
       149   02 Jun 2027 21:55:26.301   02 Jun 2027 21:56:01.792            35.491               Magadan2          1109.094
       150   02 Jun 2027 23:19:06.321   02 Jun 2027 23:22:52.573           226.252                Anadyr1          7070.375
       151   02 Jun 2027 23:22:54.135   02 Jun 2027 23:24:03.851            69.716                Anadyr2          2178.625
       152   02 Jun 2027 23:24:08.675   02 Jun 2027 23:25:43.157            94.482               Magadan1          2952.562
       153   02 Jun 2027 23:26:26.418   02 Jun 2027 23:27:05.331            38.913               Magadan1          1216.031
       154   02 Jun 2027 23:27:53.842   02 Jun 2027 23:29:01.716            67.874                Irkutsk          2121.063
       155   02 Jun 2027 23:29:34.022   02 Jun 2027 23:30:32.690            58.668                Irkutsk          1833.375
       156   02 Jun 2027 23:43:04.150   02 Jun 2027 23:44:09.328            65.178                Sumatra          2036.813
       157   02 Jun 2027 23:45:50.095   02 Jun 2027 23:46:50.033            59.938                Sumatra          1873.063
       158   03 Jun 2027 00:18:01.234   03 Jun 2027 00:18:17.475            16.241            RioGallegos           507.531
       159   03 Jun 2027 00:18:34.291   03 Jun 2027 00:19:07.520            33.229            RioGallegos          1038.406
       160   03 Jun 2027 00:23:52.201   03 Jun 2027 00:24:21.878            29.677            RioGallegos           927.406
       161   03 Jun 2027 00:54:32.409   03 Jun 2027 00:54:41.837             9.428                Anadyr1           294.625
       162   03 Jun 2027 00:54:49.075   03 Jun 2027 00:55:36.287            47.212                Anadyr2          1475.375
       163   03 Jun 2027 00:56:49.831   03 Jun 2027 00:57:14.485            24.654                Anadyr2           770.437
       164   03 Jun 2027 00:57:16.085   03 Jun 2027 00:58:49.760            93.675                Norilsk          2927.344
       165   03 Jun 2027 00:58:53.864   03 Jun 2027 00:59:23.754            29.890               Magadan1           934.062
       166   03 Jun 2027 00:59:58.439   03 Jun 2027 01:00:50.580            52.141               Magadan2          1629.406
       167   03 Jun 2027 01:00:56.371   03 Jun 2027 01:02:12.119            75.748                Irkutsk          2367.125
       168   03 Jun 2027 01:02:41.072   03 Jun 2027 01:02:43.422             2.350                Irkutsk            73.437
       169   03 Jun 2027 01:03:50.926   03 Jun 2027 01:04:02.774            11.848                Novosib           370.250
       170   03 Jun 2027 01:04:52.467   03 Jun 2027 01:05:27.071            34.604                Novosib          1081.375
       171   03 Jun 2027 01:07:57.450   03 Jun 2027 01:08:20.402            22.952                Novosib           717.250
       172   03 Jun 2027 01:14:39.520   03 Jun 2027 01:17:05.100           145.580                Sumatra          4549.375
       173   03 Jun 2027 01:54:11.530   03 Jun 2027 01:54:31.437            19.907            RioGallegos           622.094
       174   03 Jun 2027 01:55:19.370   03 Jun 2027 01:55:28.923             9.553            RioGallegos           298.531
       175   03 Jun 2027 01:57:48.257   03 Jun 2027 01:58:05.330            17.073            RioGallegos           533.531
       176   03 Jun 2027 01:58:18.969   03 Jun 2027 01:58:31.512            12.543            RioGallegos           391.969
       177   03 Jun 2027 02:00:54.529   03 Jun 2027 02:00:57.838             3.309            RioGallegos           103.406
       178   03 Jun 2027 02:29:12.828   03 Jun 2027 02:30:01.244            48.416                Anadyr2          1513.000
       179   03 Jun 2027 02:31:18.870   03 Jun 2027 02:31:21.665             2.795                Anadyr1            87.344
       180   03 Jun 2027 02:32:00.814   03 Jun 2027 02:32:17.921            17.107                Anadyr1           534.594
       181   03 Jun 2027 02:32:56.705   03 Jun 2027 02:34:12.257            75.552                Norilsk          2361.000
       182   03 Jun 2027 02:35:23.136   03 Jun 2027 02:35:42.472            19.336               Magadan2           604.250
       183   03 Jun 2027 02:36:22.736   03 Jun 2027 02:37:06.776            44.040              Murmansk1          1376.250
       184   03 Jun 2027 02:37:09.704   03 Jun 2027 02:38:48.487            98.783                Irkutsk          3086.969
       185   03 Jun 2027 02:42:41.635   03 Jun 2027 02:43:44.766            63.131                Irkutsk          1972.844
       186   03 Jun 2027 02:51:06.533   03 Jun 2027 02:51:54.731            48.198                  Delhi          1506.187
       187   03 Jun 2027 03:25:40.599   03 Jun 2027 03:26:41.292            60.693            RioGallegos          1896.656
       188   03 Jun 2027 03:28:17.908   03 Jun 2027 03:28:26.060             8.152            RioGallegos           254.750
       189   03 Jun 2027 03:31:02.159   03 Jun 2027 03:31:19.394            17.235            RioGallegos           538.594
       190   03 Jun 2027 03:33:01.060   03 Jun 2027 03:33:44.676            43.616            RioGallegos          1363.000
       191   03 Jun 2027 04:14:50.947   03 Jun 2027 04:15:09.607            18.660                Irkutsk           583.125
       192   03 Jun 2027 04:18:13.430   03 Jun 2027 04:18:15.225             1.795                Irkutsk            56.094
       193   03 Jun 2027 04:18:22.910   03 Jun 2027 04:18:33.389            10.479                Novosib           327.469
       194   03 Jun 2027 04:18:43.410   03 Jun 2027 04:18:47.551             4.141                Irkutsk           129.406
       195   03 Jun 2027 04:18:51.438   03 Jun 2027 04:21:18.457           147.019              Murmansk2          4594.344
       196   03 Jun 2027 04:21:19.854   03 Jun 2027 04:21:41.742            21.888                Norilsk           684.000
       197   03 Jun 2027 04:21:43.475   03 Jun 2027 04:23:11.695            88.220                 Moscow          2756.875
       198   03 Jun 2027 04:23:17.115   03 Jun 2027 04:30:36.727           439.612                  Delhi         13737.875
       199   03 Jun 2027 05:53:20.763   03 Jun 2027 05:53:43.090            22.327                Novosib           697.719
       200   03 Jun 2027 05:55:09.322   03 Jun 2027 05:56:38.607            89.285              Murmansk1          2790.156
       201   03 Jun 2027 05:56:38.607   03 Jun 2027 05:56:55.945            17.338              Murmansk2           541.813
       202   03 Jun 2027 05:57:05.019   03 Jun 2027 05:58:09.624            64.605                 Moscow          2018.906
       203   03 Jun 2027 05:58:12.652   03 Jun 2027 05:59:31.600            78.948              Murmansk2          2467.125
       204   03 Jun 2027 05:59:52.929   03 Jun 2027 05:59:56.410             3.481                 Moscow           108.781
       205   03 Jun 2027 06:00:58.839   03 Jun 2027 06:01:04.694             5.855                 Moscow           182.969
       206   03 Jun 2027 06:02:23.929   03 Jun 2027 06:02:33.312             9.383                 Moscow           293.219
       207   03 Jun 2027 06:14:14.579   03 Jun 2027 06:17:13.900           179.321               CapeTown          5603.781
       208   03 Jun 2027 07:17:23.120   03 Jun 2027 07:17:31.642             8.522                Anadyr1           266.312
       209   03 Jun 2027 07:17:40.506   03 Jun 2027 07:18:08.363            27.857               Magadan2           870.531
       210   03 Jun 2027 07:18:27.488   03 Jun 2027 07:18:45.954            18.466               Magadan2           577.063
       211   03 Jun 2027 07:18:50.087   03 Jun 2027 07:19:22.163            32.076               Magadan2          1002.375
       212   03 Jun 2027 07:19:22.163   03 Jun 2027 07:19:30.431             8.268               Magadan1           258.375
       213   03 Jun 2027 07:19:43.514   03 Jun 2027 07:19:54.452            10.938                Anadyr2           341.813
       214   03 Jun 2027 07:20:30.065   03 Jun 2027 07:20:50.792            20.727                Anadyr1           647.719
       215   03 Jun 2027 07:21:53.561   03 Jun 2027 07:22:33.786            40.225                Anadyr2          1257.031
       216   03 Jun 2027 07:29:33.402   03 Jun 2027 07:29:55.256            21.854              Murmansk2           682.937
       217   03 Jun 2027 07:30:13.761   03 Jun 2027 07:30:22.479             8.718                 Moscow           272.437
       218   03 Jun 2027 07:31:36.236   03 Jun 2027 07:31:57.633            21.397                 Moscow           668.656
       219   03 Jun 2027 07:52:21.837   03 Jun 2027 07:56:51.677           269.840               CapeTown          8432.500
       220   03 Jun 2027 08:51:28.239   03 Jun 2027 08:52:43.777            75.538                Anadyr1          2360.562
       221   03 Jun 2027 08:53:09.463   03 Jun 2027 08:53:43.504            34.041               Magadan2          1063.781
       222   03 Jun 2027 08:53:52.489   03 Jun 2027 08:55:49.522           117.033                Anadyr2          3657.281
       223   03 Jun 2027 08:55:58.517   03 Jun 2027 08:57:30.282            91.765               Magadan2          2867.656
       224   03 Jun 2027 09:38:32.499   03 Jun 2027 09:38:54.603            22.104            RioGallegos           690.750
       225   03 Jun 2027 10:23:22.580   03 Jun 2027 10:25:40.824           138.244               Magadan2          4320.125
       226   03 Jun 2027 10:25:58.476   03 Jun 2027 10:26:28.993            30.517                Irkutsk           953.656
       227   03 Jun 2027 10:26:40.886   03 Jun 2027 10:27:59.689            78.803               Magadan1          2462.594
       228   03 Jun 2027 10:27:59.689   03 Jun 2027 10:28:21.576            21.887               Magadan2           683.969
       229   03 Jun 2027 10:28:31.124   03 Jun 2027 10:29:21.478            50.354               Magadan1          1573.563
       230   03 Jun 2027 10:29:21.478   03 Jun 2027 10:32:50.752           209.274               Magadan2          6539.813
       231   03 Jun 2027 10:33:13.556   03 Jun 2027 10:33:22.025             8.469                Norilsk           264.656
       232   03 Jun 2027 10:33:22.992   03 Jun 2027 10:34:41.641            78.649                Anadyr2          2457.781
       233   03 Jun 2027 10:35:00.125   03 Jun 2027 10:35:05.401             5.276                Novosib           164.875
       234   03 Jun 2027 10:35:07.709   03 Jun 2027 10:35:30.965            23.256              Murmansk1           726.750
       235   03 Jun 2027 10:35:38.013   03 Jun 2027 10:35:54.748            16.735              Murmansk1           522.969
       236   03 Jun 2027 11:10:22.878   03 Jun 2027 11:10:35.310            12.432            RioGallegos           388.500
       237   03 Jun 2027 11:10:54.236   03 Jun 2027 11:11:11.716            17.480            RioGallegos           546.250
       238   03 Jun 2027 11:12:31.038   03 Jun 2027 11:12:59.025            27.987            RioGallegos           874.594
       239   03 Jun 2027 11:18:30.544   03 Jun 2027 11:18:32.056             1.512            RioGallegos            47.250
       240   03 Jun 2027 11:18:48.875   03 Jun 2027 11:18:49.992             1.117            RioGallegos            34.906
       241   03 Jun 2027 11:19:43.490   03 Jun 2027 11:19:47.889             4.399            RioGallegos           137.469
       242   03 Jun 2027 11:48:13.709   03 Jun 2027 11:49:42.228            88.519                Sumatra          2766.219
       243   03 Jun 2027 12:03:44.012   03 Jun 2027 12:04:23.536            39.524                Irkutsk          1235.125
       244   03 Jun 2027 12:05:17.429   03 Jun 2027 12:09:29.314           251.885               Magadan1          7871.406
       245   03 Jun 2027 13:22:32.129   03 Jun 2027 13:23:48.657            76.528                Sumatra          2391.500
       246   03 Jun 2027 13:29:27.096   03 Jun 2027 13:30:00.773            33.677                Sumatra          1052.406
       247   03 Jun 2027 13:35:07.537   03 Jun 2027 13:37:04.422           116.885                Irkutsk          3652.656
       248   03 Jun 2027 13:43:03.772   03 Jun 2027 13:43:47.410            43.638                Irkutsk          1363.688
       249   03 Jun 2027 13:45:01.375   03 Jun 2027 13:45:50.222            48.847                Irkutsk          1526.469
       250   03 Jun 2027 14:26:57.661   03 Jun 2027 14:31:53.505           295.844            RioGallegos          9245.125
       251   03 Jun 2027 15:17:03.111   03 Jun 2027 15:17:15.058            11.947                Norilsk           373.344
       252   03 Jun 2027 15:18:05.446   03 Jun 2027 15:18:12.590             7.144                Novosib           223.250
       253   03 Jun 2027 15:20:11.663   03 Jun 2027 15:21:02.182            50.519                Norilsk          1578.719
       254   03 Jun 2027 15:21:54.535   03 Jun 2027 15:22:20.929            26.394                Norilsk           824.813
       255   03 Jun 2027 15:22:27.792   03 Jun 2027 15:22:59.474            31.682                Novosib           990.063
       256   03 Jun 2027 16:49:16.155   03 Jun 2027 16:52:08.987           172.832                 Moscow          5401.000
       257   03 Jun 2027 16:54:09.180   03 Jun 2027 16:54:32.533            23.353              Murmansk1           729.781
       258   03 Jun 2027 16:57:09.446   03 Jun 2027 17:03:11.869           362.423                Norilsk         11325.719
       259   03 Jun 2027 18:26:55.645   03 Jun 2027 18:28:00.345            64.700                 Moscow          2021.875
       260   03 Jun 2027 18:29:57.528   03 Jun 2027 18:30:51.193            53.665              Murmansk1          1677.031
       261   03 Jun 2027 18:31:25.696   03 Jun 2027 18:32:18.193            52.497                 Moscow          1640.531
       262   03 Jun 2027 18:33:45.944   03 Jun 2027 18:34:29.523            43.579              Murmansk2          1361.844
       263   03 Jun 2027 18:39:39.531   03 Jun 2027 18:39:43.335             3.804              Murmansk1           118.875
       264   03 Jun 2027 18:51:05.937   03 Jun 2027 18:51:11.997             6.060                Anadyr1           189.375
       265   03 Jun 2027 18:51:31.098   03 Jun 2027 18:51:36.902             5.804                Anadyr1           181.375
       266   03 Jun 2027 18:52:02.965   03 Jun 2027 18:52:42.014            39.049                Anadyr1          1220.281
       267   03 Jun 2027 19:38:50.543   03 Jun 2027 19:39:47.211            56.668               CapeTown          1770.875
       268   03 Jun 2027 19:41:40.024   03 Jun 2027 19:43:08.861            88.837               CapeTown          2776.156
       269   03 Jun 2027 20:09:30.017   03 Jun 2027 20:11:07.917            97.900              Murmansk1          3059.375
       270   03 Jun 2027 20:11:13.163   03 Jun 2027 20:14:05.993           172.830              Murmansk2          5400.938
       271   03 Jun 2027 20:14:22.247   03 Jun 2027 20:15:13.719            51.472              Murmansk1          1608.500
       272   03 Jun 2027 20:16:00.660   03 Jun 2027 20:16:24.743            24.083              Murmansk2           752.594
       273   03 Jun 2027 20:16:57.135   03 Jun 2027 20:17:19.025            21.890              Murmansk2           684.063
       274   03 Jun 2027 21:55:15.536   03 Jun 2027 21:57:02.100           106.564                Anadyr2          3330.125
       275   03 Jun 2027 21:57:09.254   03 Jun 2027 21:58:22.739            73.485                Anadyr1          2296.406
       276   03 Jun 2027 21:58:37.704   03 Jun 2027 21:58:51.886            14.182                Anadyr1           443.188
       277   03 Jun 2027 21:58:54.336   03 Jun 2027 22:01:06.913           132.577               Magadan2          4143.031
       278   03 Jun 2027 22:01:39.171   03 Jun 2027 22:01:55.421            16.250               Magadan1           507.812
       279   03 Jun 2027 22:02:11.704   03 Jun 2027 22:02:21.219             9.515               Magadan1           297.344
       280   03 Jun 2027 22:02:35.845   03 Jun 2027 22:03:03.560            27.715               Magadan1           866.094
       281   03 Jun 2027 22:05:24.317   03 Jun 2027 22:05:38.007            13.690               Magadan1           427.813
       282   03 Jun 2027 22:05:51.637   03 Jun 2027 22:06:02.367            10.730               Magadan2           335.312
       283   03 Jun 2027 22:06:03.507   03 Jun 2027 22:06:28.512            25.005               Magadan2           781.406
       284   03 Jun 2027 22:08:31.628   03 Jun 2027 22:08:51.332            19.704               Magadan1           615.750
       285   03 Jun 2027 22:51:53.261   03 Jun 2027 22:54:00.618           127.357            RioGallegos          3979.906
       286   03 Jun 2027 22:56:19.861   03 Jun 2027 22:56:23.418             3.557            RioGallegos           111.156
       287   03 Jun 2027 23:31:06.379   03 Jun 2027 23:32:30.532            84.153                Anadyr1          2629.781
       288   03 Jun 2027 23:32:32.318   03 Jun 2027 23:33:06.078            33.760                Anadyr2          1055.000
       289   03 Jun 2027 23:33:13.245   03 Jun 2027 23:34:52.346            99.101                Norilsk          3096.906
       290   03 Jun 2027 23:35:11.715   03 Jun 2027 23:36:32.222            80.507               Magadan1          2515.844
       291   03 Jun 2027 23:36:32.222   03 Jun 2027 23:36:44.120            11.898               Magadan2           371.813
       292   03 Jun 2027 23:38:10.008   03 Jun 2027 23:38:26.170            16.162               Magadan2           505.062
       293   03 Jun 2027 23:38:44.085   03 Jun 2027 23:38:53.236             9.151               Magadan2           285.969
       294   03 Jun 2027 23:38:54.172   03 Jun 2027 23:39:16.101            21.929                Irkutsk           685.281
       295   03 Jun 2027 23:39:57.710   03 Jun 2027 23:40:26.546            28.836                Irkutsk           901.125
       296   03 Jun 2027 23:53:36.266   03 Jun 2027 23:55:36.461           120.195                Sumatra          3756.094
       297   03 Jun 2027 23:59:17.569   04 Jun 2027 00:01:21.636           124.067                Sumatra          3877.094
       298   04 Jun 2027 01:06:26.604   04 Jun 2027 01:06:38.328            11.724                Anadyr1           366.375
       299   04 Jun 2027 01:07:07.230   04 Jun 2027 01:07:30.035            22.805                Anadyr1           712.656
       300   04 Jun 2027 01:08:04.703   04 Jun 2027 01:08:42.180            37.477                Anadyr2          1171.156
       301   04 Jun 2027 01:08:58.128   04 Jun 2027 01:10:52.060           113.932                Norilsk          3560.375
       302   04 Jun 2027 01:11:04.893   04 Jun 2027 01:11:26.092            21.199               Magadan1           662.469
       303   04 Jun 2027 01:12:55.073   04 Jun 2027 01:15:59.688           184.615                Irkutsk          5769.219
       304   04 Jun 2027 01:22:16.283   04 Jun 2027 01:22:49.121            32.838                Novosib          1026.187
       305   04 Jun 2027 01:26:44.221   04 Jun 2027 01:27:49.823            65.602                Sumatra          2050.062
       306   04 Jun 2027 01:33:32.533   04 Jun 2027 01:35:17.807           105.274                Sumatra          3289.812
       307   04 Jun 2027 02:10:14.718   04 Jun 2027 02:10:36.608            21.890            RioGallegos           684.062
       308   04 Jun 2027 02:40:38.799   04 Jun 2027 02:40:40.830             2.031                Anadyr1            63.469
       309   04 Jun 2027 02:41:13.156   04 Jun 2027 02:42:01.019            47.863                Anadyr1          1495.719
       310   04 Jun 2027 02:44:59.100   04 Jun 2027 02:46:26.294            87.194                Norilsk          2724.812
       311   04 Jun 2027 02:47:59.510   04 Jun 2027 02:49:09.930            70.420              Murmansk1          2200.625
       312   04 Jun 2027 02:49:16.568   04 Jun 2027 02:50:36.159            79.591                Irkutsk          2487.219
       313   04 Jun 2027 02:51:35.963   04 Jun 2027 02:51:49.923            13.960                Irkutsk           436.250
       314   04 Jun 2027 02:56:09.170   04 Jun 2027 02:56:57.860            48.690                  Delhi          1521.563
       315   04 Jun 2027 03:37:56.448   04 Jun 2027 03:39:31.601            95.153            RioGallegos          2973.531
       316   04 Jun 2027 04:30:27.375   04 Jun 2027 04:31:49.099            81.724              Murmansk2          2553.875
       317   04 Jun 2027 04:31:52.152   04 Jun 2027 04:32:53.822            61.670                Novosib          1927.188
       318   04 Jun 2027 04:33:09.546   04 Jun 2027 04:33:11.799             2.253                Norilsk            70.406
       319   04 Jun 2027 04:35:25.625   04 Jun 2027 04:36:19.339            53.714                Novosib          1678.562
       320   04 Jun 2027 04:36:32.177   04 Jun 2027 04:38:28.524           116.347                  Delhi          3635.844
       321   04 Jun 2027 06:03:52.920   04 Jun 2027 06:05:43.517           110.597                Novosib          3456.156
       322   04 Jun 2027 06:07:47.321   04 Jun 2027 06:08:03.156            15.835                Novosib           494.844
       323   04 Jun 2027 06:08:17.832   04 Jun 2027 06:09:24.118            66.286              Murmansk1          2071.438
       324   04 Jun 2027 06:09:51.728   04 Jun 2027 06:10:01.885            10.157                 Moscow           317.406
       325   04 Jun 2027 06:10:05.029   04 Jun 2027 06:10:34.841            29.812              Murmansk1           931.625
       326   04 Jun 2027 06:11:04.868   04 Jun 2027 06:11:37.637            32.769                 Moscow          1024.031
       327   04 Jun 2027 06:11:54.149   04 Jun 2027 06:12:02.910             8.761                 Moscow           273.781
       328   04 Jun 2027 06:26:12.037   04 Jun 2027 06:29:25.520           193.483               CapeTown          6046.344
       329   04 Jun 2027 07:29:17.984   04 Jun 2027 07:30:09.189            51.205                Anadyr1          1600.156
       330   04 Jun 2027 07:30:16.737   04 Jun 2027 07:31:11.801            55.064                Anadyr1          1720.750
       331   04 Jun 2027 07:31:42.640   04 Jun 2027 07:31:56.405            13.765                Anadyr2           430.156
       332   04 Jun 2027 07:32:34.497   04 Jun 2027 07:33:54.528            80.031                Anadyr1          2500.969
       333   04 Jun 2027 08:05:25.432   04 Jun 2027 08:09:28.522           243.090               CapeTown          7596.562
       334   04 Jun 2027 09:03:19.413   04 Jun 2027 09:05:12.808           113.395                Anadyr2          3543.594
       335   04 Jun 2027 09:05:44.933   04 Jun 2027 09:07:13.221            88.288               Magadan2          2759.000
       336   04 Jun 2027 09:07:32.643   04 Jun 2027 09:07:36.614             3.971               Magadan1           124.094
       337   04 Jun 2027 09:07:36.614   04 Jun 2027 09:08:09.642            33.028               Magadan2          1032.125
       338   04 Jun 2027 09:08:10.218   04 Jun 2027 09:09:24.559            74.341                Anadyr2          2323.156
       339   04 Jun 2027 09:09:24.559   04 Jun 2027 09:10:13.041            48.482                Anadyr1          1515.062
       340   04 Jun 2027 09:10:42.074   04 Jun 2027 09:10:52.034             9.960               Magadan2           311.250
       341   04 Jun 2027 10:38:24.051   04 Jun 2027 10:39:31.575            67.524               Magadan1          2110.125
       342   04 Jun 2027 10:40:29.568   04 Jun 2027 10:40:35.028             5.460               Magadan2           170.625
       343   04 Jun 2027 10:40:45.679   04 Jun 2027 10:41:16.682            31.003               Magadan2           968.844
       344   04 Jun 2027 10:41:18.398   04 Jun 2027 10:45:28.929           250.531               Magadan1          7829.094
       345   04 Jun 2027 10:45:42.464   04 Jun 2027 10:46:20.584            38.120                Anadyr1          1191.250
       346   04 Jun 2027 10:46:31.347   04 Jun 2027 10:46:59.576            28.229              Murmansk2           882.156
       347   04 Jun 2027 10:47:05.355   04 Jun 2027 10:47:36.717            31.362                Novosib           980.062
       348   04 Jun 2027 11:22:11.563   04 Jun 2027 11:23:02.448            50.885            RioGallegos          1590.156
       349   04 Jun 2027 11:26:54.579   04 Jun 2027 11:27:36.001            41.422            RioGallegos          1294.438
       350   04 Jun 2027 11:59:06.352   04 Jun 2027 12:01:04.666           118.314                Sumatra          3697.312
       351   04 Jun 2027 12:11:36.564   04 Jun 2027 12:12:26.641            50.077                Irkutsk          1564.906
       352   04 Jun 2027 12:15:16.368   04 Jun 2027 12:15:39.574            23.206                Norilsk           725.187
       353   04 Jun 2027 12:16:13.825   04 Jun 2027 12:17:27.065            73.240                Irkutsk          2288.750
       354   04 Jun 2027 12:18:17.508   04 Jun 2027 12:20:38.271           140.763               Magadan1          4398.844
       355   04 Jun 2027 13:07:40.165   04 Jun 2027 13:08:13.117            32.952            RioGallegos          1029.750
       356   04 Jun 2027 13:32:48.777   04 Jun 2027 13:35:43.425           174.648                Sumatra          5457.750
       357   04 Jun 2027 13:41:32.033   04 Jun 2027 13:42:33.434            61.401                Sumatra          1918.781
       358   04 Jun 2027 13:52:29.520   04 Jun 2027 13:52:34.494             4.974                Irkutsk           155.437
       359   04 Jun 2027 13:55:19.106   04 Jun 2027 13:57:30.877           131.771                Irkutsk          4117.844
       360   04 Jun 2027 15:17:23.804   04 Jun 2027 15:18:16.834            53.030                  Delhi          1657.187
       361   04 Jun 2027 15:19:46.446   04 Jun 2027 15:22:29.661           163.215                  Delhi          5100.469
       362   04 Jun 2027 15:25:31.825   04 Jun 2027 15:26:45.103            73.278                Novosib          2289.937
       363   04 Jun 2027 15:29:27.445   04 Jun 2027 15:30:04.298            36.853                Norilsk          1151.656
       364   04 Jun 2027 15:30:26.138   04 Jun 2027 15:30:58.042            31.904                Novosib           997.000
       365   04 Jun 2027 17:01:19.175   04 Jun 2027 17:04:36.628           197.453                 Moscow          6170.406
       366   04 Jun 2027 17:09:58.422   04 Jun 2027 17:14:18.038           259.616                Norilsk          8113.000
       367   04 Jun 2027 18:39:29.393   04 Jun 2027 18:41:25.734           116.341                 Moscow          3635.656
       368   04 Jun 2027 18:42:17.843   04 Jun 2027 18:45:44.078           206.235              Murmansk2          6444.844
       369   04 Jun 2027 19:51:00.631   04 Jun 2027 19:53:26.154           145.523               CapeTown          4547.594
       370   04 Jun 2027 20:22:13.262   04 Jun 2027 20:26:42.526           269.264              Murmansk2          8414.500
       371   04 Jun 2027 20:27:51.792   04 Jun 2027 20:28:19.455            27.663              Murmansk1           864.469
       372   04 Jun 2027 20:37:43.072   04 Jun 2027 20:37:50.974             7.902               Magadan2           246.937
       373   04 Jun 2027 20:37:55.019   04 Jun 2027 20:38:13.031            18.012               Magadan2           562.875
       374   04 Jun 2027 20:41:56.938   04 Jun 2027 20:41:59.560             2.622               Magadan1            81.937
       375   04 Jun 2027 20:42:21.517   04 Jun 2027 20:42:34.568            13.051               Magadan1           407.844
       376   04 Jun 2027 22:07:17.308   04 Jun 2027 22:11:02.150           224.842                Anadyr2          7026.312
       377   04 Jun 2027 22:11:02.150   04 Jun 2027 22:11:11.899             9.749                Anadyr1           304.656
       378   04 Jun 2027 22:11:12.270   04 Jun 2027 22:11:39.214            26.944               Magadan2           842.000
       379   04 Jun 2027 22:11:39.214   04 Jun 2027 22:14:31.611           172.397               Magadan1          5387.406
       380   04 Jun 2027 22:17:04.591   04 Jun 2027 22:17:19.667            15.076               Magadan1           471.125
       381   04 Jun 2027 22:17:40.364   04 Jun 2027 22:17:54.043            13.679               Magadan1           427.469
       382   04 Jun 2027 22:18:38.458   04 Jun 2027 22:18:57.909            19.451               Magadan1           607.844
       383   04 Jun 2027 23:03:02.294   04 Jun 2027 23:05:26.663           144.369            RioGallegos          4511.531
       384   04 Jun 2027 23:05:31.572   04 Jun 2027 23:05:49.852            18.280            RioGallegos           571.250
       385   04 Jun 2027 23:43:05.982   04 Jun 2027 23:44:25.145            79.163                Anadyr1          2473.844
       386   04 Jun 2027 23:44:30.871   04 Jun 2027 23:44:52.915            22.044                Anadyr2           688.875
       387   04 Jun 2027 23:45:10.943   04 Jun 2027 23:46:27.370            76.427                Norilsk          2388.344
       388   04 Jun 2027 23:46:36.421   04 Jun 2027 23:46:40.966             4.545                Norilsk           142.031
       389   04 Jun 2027 23:46:48.711   04 Jun 2027 23:47:03.526            14.815                Anadyr2           462.969
       390   04 Jun 2027 23:47:09.451   04 Jun 2027 23:47:30.162            20.711               Magadan1           647.219
       391   04 Jun 2027 23:48:22.238   04 Jun 2027 23:48:36.413            14.175                Norilsk           442.969
       392   04 Jun 2027 23:49:14.867   04 Jun 2027 23:49:48.230            33.363               Magadan1          1042.594
       393   04 Jun 2027 23:49:58.723   04 Jun 2027 23:50:25.567            26.844                Irkutsk           838.875
       394   04 Jun 2027 23:50:26.771   04 Jun 2027 23:51:10.550            43.779               Magadan1          1368.094
       395   04 Jun 2027 23:53:50.111   04 Jun 2027 23:54:32.446            42.335                Irkutsk          1322.969
       396   05 Jun 2027 00:04:41.644   05 Jun 2027 00:05:08.009            26.365                Sumatra           823.906
       397   05 Jun 2027 00:06:17.043   05 Jun 2027 00:07:12.995            55.952                Sumatra          1748.500
       398   05 Jun 2027 00:07:44.925   05 Jun 2027 00:08:44.982            60.057                Sumatra          1876.781
       399   05 Jun 2027 00:37:04.614   05 Jun 2027 00:37:22.129            17.515            RioGallegos           547.344
       400   05 Jun 2027 00:38:42.942   05 Jun 2027 00:38:52.018             9.076            RioGallegos           283.625
       401   05 Jun 2027 00:40:50.281   05 Jun 2027 00:41:05.233            14.952            RioGallegos           467.250
       402   05 Jun 2027 00:42:36.025   05 Jun 2027 00:42:44.905             8.880            RioGallegos           277.500
       403   05 Jun 2027 00:43:56.771   05 Jun 2027 00:44:06.464             9.693            RioGallegos           302.906
       404   05 Jun 2027 00:47:59.659   05 Jun 2027 00:48:29.938            30.279            RioGallegos           946.219
       405   05 Jun 2027 01:18:19.647   05 Jun 2027 01:18:42.303            22.656                Anadyr2           708.000
       406   05 Jun 2027 01:19:25.443   05 Jun 2027 01:20:31.575            66.132                Anadyr2          2066.625
       407   05 Jun 2027 01:20:52.603   05 Jun 2027 01:21:06.667            14.064                Anadyr1           439.500
       408   05 Jun 2027 01:21:13.498   05 Jun 2027 01:21:30.469            16.971                Anadyr1           530.344
       409   05 Jun 2027 01:21:36.056   05 Jun 2027 01:22:54.336            78.280                Norilsk          2446.250
       410   05 Jun 2027 01:22:56.302   05 Jun 2027 01:23:24.135            27.833               Magadan2           869.781
       411   05 Jun 2027 01:24:54.880   05 Jun 2027 01:27:16.477           141.597                Irkutsk          4424.906
       412   05 Jun 2027 01:28:33.102   05 Jun 2027 01:29:50.863            77.761                Novosib          2430.031
       413   05 Jun 2027 01:38:54.888   05 Jun 2027 01:41:38.582           163.694                Sumatra          5115.438
       414   05 Jun 2027 02:23:45.914   05 Jun 2027 02:24:31.211            45.297            RioGallegos          1415.531
       415   05 Jun 2027 02:52:37.600   05 Jun 2027 02:52:48.994            11.394                Anadyr2           356.063
       416   05 Jun 2027 02:54:23.809   05 Jun 2027 02:55:03.311            39.502                Anadyr2          1234.437
       417   05 Jun 2027 02:57:01.426   05 Jun 2027 02:58:06.280            64.854                Norilsk          2026.687
       418   05 Jun 2027 02:59:46.458   05 Jun 2027 03:00:45.896            59.438              Murmansk2          1857.437
       419   05 Jun 2027 03:01:06.052   05 Jun 2027 03:01:13.896             7.844               Magadan2           245.125
       420   05 Jun 2027 03:01:17.964   05 Jun 2027 03:01:50.082            32.118               Magadan2          1003.687
       421   05 Jun 2027 03:01:50.082   05 Jun 2027 03:01:51.172             1.090               Magadan1            34.062
       422   05 Jun 2027 03:02:27.122   05 Jun 2027 03:02:41.597            14.475              Murmansk1           452.344
       423   05 Jun 2027 03:03:09.991   05 Jun 2027 03:03:58.024            48.033              Murmansk2          1501.031
       424   05 Jun 2027 03:04:35.379   05 Jun 2027 03:05:16.008            40.629              Murmansk2          1269.656
       425   05 Jun 2027 03:06:10.375   05 Jun 2027 03:06:50.872            40.497                Novosib          1265.531
       426   05 Jun 2027 03:06:55.440   05 Jun 2027 03:08:00.539            65.099                Norilsk          2034.344
       427   05 Jun 2027 03:08:08.623   05 Jun 2027 03:11:14.913           186.290                  Delhi          5821.563
       428   05 Jun 2027 03:50:16.396   05 Jun 2027 03:55:27.479           311.083            RioGallegos          9721.344
       429   05 Jun 2027 04:41:24.378   05 Jun 2027 04:41:37.320            12.942                Norilsk           404.438
       430   05 Jun 2027 04:41:42.115   05 Jun 2027 04:41:50.151             8.036                Novosib           251.125
       431   05 Jun 2027 04:41:52.496   05 Jun 2027 04:42:26.660            34.164                Norilsk          1067.625
       432   05 Jun 2027 04:42:31.163   05 Jun 2027 04:43:06.191            35.028                Irkutsk          1094.625
       433   05 Jun 2027 04:43:22.593   05 Jun 2027 04:43:23.738             1.145                Norilsk            35.781
       434   05 Jun 2027 04:43:28.803   05 Jun 2027 04:45:52.323           143.520                 Moscow          4485.000
       435   05 Jun 2027 04:46:25.656   05 Jun 2027 04:50:54.536           268.880                  Delhi          8402.500
       436   05 Jun 2027 06:17:41.530   05 Jun 2027 06:17:44.856             3.326                Norilsk           103.937
       437   05 Jun 2027 06:17:49.995   05 Jun 2027 06:18:43.777            53.782              Murmansk1          1680.688
       438   05 Jun 2027 06:18:48.290   05 Jun 2027 06:19:52.089            63.799              Murmansk2          1993.719
       439   05 Jun 2027 06:20:01.543   05 Jun 2027 06:20:13.753            12.210                 Moscow           381.563
       440   05 Jun 2027 06:20:16.429   05 Jun 2027 06:21:11.216            54.787              Murmansk2          1712.094
       441   05 Jun 2027 06:21:11.216   05 Jun 2027 06:21:58.466            47.250              Murmansk1          1476.562
       442   05 Jun 2027 06:38:14.560   05 Jun 2027 06:38:53.024            38.464               CapeTown          1202.000
       443   05 Jun 2027 06:41:39.459   05 Jun 2027 06:42:30.946            51.487               CapeTown          1608.969
       444   05 Jun 2027 07:41:10.852   05 Jun 2027 07:42:09.063            58.211                Anadyr2          1819.094
       445   05 Jun 2027 07:42:30.284   05 Jun 2027 07:42:40.499            10.215               Magadan2           319.219
       446   05 Jun 2027 07:42:43.451   05 Jun 2027 07:42:51.750             8.299                Anadyr2           259.344
       447   05 Jun 2027 07:43:05.119   05 Jun 2027 07:43:21.656            16.537               Magadan1           516.781
       448   05 Jun 2027 07:43:27.637   05 Jun 2027 07:44:22.525            54.888                Anadyr2          1715.250
       449   05 Jun 2027 07:45:55.175   05 Jun 2027 07:47:13.852            78.677                Anadyr1          2458.656
       450   05 Jun 2027 08:19:10.012   05 Jun 2027 08:22:17.760           187.748               CapeTown          5867.125
       451   05 Jun 2027 09:17:39.052   05 Jun 2027 09:19:50.483           131.431                Anadyr1          4107.219
       452   05 Jun 2027 09:19:50.483   05 Jun 2027 09:21:17.316            86.833                Anadyr2          2713.531
       453   05 Jun 2027 10:51:58.363   05 Jun 2027 10:53:00.660            62.297                Irkutsk          1946.781
       454   05 Jun 2027 10:53:03.403   05 Jun 2027 10:55:01.104           117.701               Magadan1          3678.156
       455   05 Jun 2027 10:55:11.795   05 Jun 2027 10:55:14.222             2.427                Novosib            75.844
       456   05 Jun 2027 10:55:16.154   05 Jun 2027 10:55:55.568            39.414                Irkutsk          1231.688
       457   05 Jun 2027 10:56:12.840   05 Jun 2027 10:56:28.978            16.138                Norilsk           504.313
       458   05 Jun 2027 10:56:31.586   05 Jun 2027 10:57:16.936            45.350                Irkutsk          1417.188
       459   05 Jun 2027 10:57:50.811   05 Jun 2027 10:58:55.179            64.368                Irkutsk          2011.500
       460   05 Jun 2027 10:59:03.110   05 Jun 2027 10:59:07.401             4.291               Magadan1           134.094
       461   05 Jun 2027 10:59:10.484   05 Jun 2027 10:59:35.653            25.169              Murmansk1           786.531
       462   05 Jun 2027 11:00:18.330   05 Jun 2027 11:00:25.005             6.675              Murmansk2           208.594
       463   05 Jun 2027 11:06:24.901   05 Jun 2027 11:06:38.997            14.096              Murmansk1           440.500
       464   05 Jun 2027 11:34:03.493   05 Jun 2027 11:35:13.718            70.225            RioGallegos          2194.531
       465   05 Jun 2027 12:10:20.877   05 Jun 2027 12:10:40.330            19.453                Sumatra           607.906
       466   05 Jun 2027 12:11:57.986   05 Jun 2027 12:13:04.160            66.174                Sumatra          2067.937
       467   05 Jun 2027 12:22:19.968   05 Jun 2027 12:24:09.735           109.767                Irkutsk          3430.219
       468   05 Jun 2027 12:27:15.132   05 Jun 2027 12:28:20.588            65.456                Norilsk          2045.500
       469   05 Jun 2027 12:30:22.409   05 Jun 2027 12:30:34.823            12.414                Norilsk           387.938
       470   05 Jun 2027 12:32:09.711   05 Jun 2027 12:32:26.615            16.904                Norilsk           528.250
       471   05 Jun 2027 12:32:55.177   05 Jun 2027 12:33:21.465            26.288              Murmansk2           821.500
       472   05 Jun 2027 13:10:43.590   05 Jun 2027 13:12:30.682           107.092            RioGallegos          3346.625
       473   05 Jun 2027 13:45:02.656   05 Jun 2027 13:47:32.172           149.516                Sumatra          4672.375
       474   05 Jun 2027 13:59:49.680   05 Jun 2027 14:01:00.190            70.510                Novosib          2203.438
       475   05 Jun 2027 14:01:41.111   05 Jun 2027 14:04:12.186           151.075                Irkutsk          4721.094
       476   05 Jun 2027 15:29:48.867   05 Jun 2027 15:32:21.014           152.147                  Delhi          4754.594
       477   05 Jun 2027 15:34:52.823   05 Jun 2027 15:35:23.361            30.538                  Delhi           954.313
       478   05 Jun 2027 15:37:36.916   05 Jun 2027 15:39:49.164           132.248                  Delhi          4132.750
       479   05 Jun 2027 15:41:54.056   05 Jun 2027 15:43:00.762            66.706                Norilsk          2084.563
       480   05 Jun 2027 15:45:20.445   05 Jun 2027 15:45:58.335            37.890                Norilsk          1184.063
       481   05 Jun 2027 15:50:03.401   05 Jun 2027 15:50:52.507            49.106                Norilsk          1534.562
       482   05 Jun 2027 17:13:25.236   05 Jun 2027 17:14:28.151            62.915                 Moscow          1966.094
