uniorb/output/strategy_2/Drop/Drop_KinoSat_111108.txt

KinoSat_111108
-------------------------
    Access    *     Start Time (UTCG)     *     Stop Time (UTCG)  *   Duration (s)        *       Station  *  Data (Mbytes)
         1   01 Jun 2027 03:08:17.963   01 Jun 2027 03:08:18.437             0.474                Norilsk            14.812
         2   01 Jun 2027 03:08:52.449   01 Jun 2027 03:09:27.098            34.649                Norilsk          1082.781
         3   01 Jun 2027 03:09:35.336   01 Jun 2027 03:10:31.949            56.613              Murmansk1          1769.156
         4   01 Jun 2027 03:10:31.949   01 Jun 2027 03:12:10.684            98.735              Murmansk2          3085.469
         5   01 Jun 2027 03:28:13.688   01 Jun 2027 03:28:36.832            23.144               CapeTown           723.250
         6   01 Jun 2027 04:24:36.686   01 Jun 2027 04:25:34.934            58.248                Anadyr2          1820.250
         7   01 Jun 2027 04:26:00.798   01 Jun 2027 04:26:03.826             3.028                Anadyr2            94.625
         8   01 Jun 2027 04:31:16.190   01 Jun 2027 04:31:22.771             6.581               Magadan1           205.656
         9   01 Jun 2027 04:31:33.704   01 Jun 2027 04:31:38.672             4.968               Magadan1           155.250
        10   01 Jun 2027 04:31:42.230   01 Jun 2027 04:33:33.445           111.215                Anadyr2          3475.469
        11   01 Jun 2027 04:33:58.580   01 Jun 2027 04:33:59.696             1.116                Anadyr2            34.875
        12   01 Jun 2027 04:34:16.554   01 Jun 2027 04:34:17.115             0.561                Norilsk            17.531
        13   01 Jun 2027 04:34:17.648   01 Jun 2027 04:34:25.139             7.491                Anadyr2           234.094
        14   01 Jun 2027 06:08:07.817   01 Jun 2027 06:08:19.867            12.050                Irkutsk           376.563
        15   01 Jun 2027 06:08:58.300   01 Jun 2027 06:09:41.910            43.610                Irkutsk          1362.812
        16   01 Jun 2027 07:42:58.248   01 Jun 2027 07:43:13.232            14.984                Novosib           468.250
        17   01 Jun 2027 07:43:56.831   01 Jun 2027 07:44:09.949            13.118                Irkutsk           409.937
        18   01 Jun 2027 07:44:25.118   01 Jun 2027 07:45:43.548            78.430                Irkutsk          2450.938
        19   01 Jun 2027 07:45:57.120   01 Jun 2027 07:47:08.315            71.195               Magadan2          2224.844
        20   01 Jun 2027 07:47:50.914   01 Jun 2027 07:48:16.008            25.094               Magadan2           784.187
        21   01 Jun 2027 07:48:21.129   01 Jun 2027 07:48:23.584             2.455                Novosib            76.719
        22   01 Jun 2027 07:48:27.445   01 Jun 2027 07:49:26.066            58.621              Murmansk2          1831.906
        23   01 Jun 2027 08:59:24.932   01 Jun 2027 09:01:01.986            97.054                Sumatra          3032.938
        24   01 Jun 2027 09:20:13.393   01 Jun 2027 09:21:28.986            75.593                Irkutsk          2362.281
        25   01 Jun 2027 09:21:34.921   01 Jun 2027 09:22:05.337            30.416                Norilsk           950.500
        26   01 Jun 2027 09:22:14.249   01 Jun 2027 09:24:31.372           137.123              Murmansk1          4285.094
        27   01 Jun 2027 09:24:52.531   01 Jun 2027 09:25:02.893            10.362              Murmansk2           323.812
        28   01 Jun 2027 09:25:16.373   01 Jun 2027 09:25:50.724            34.351                Norilsk          1073.469
        29   01 Jun 2027 10:00:33.377   01 Jun 2027 10:01:25.926            52.549            RioGallegos          1642.156
        30   01 Jun 2027 10:34:47.608   01 Jun 2027 10:36:14.059            86.451                Sumatra          2701.594
        31   01 Jun 2027 10:45:31.366   01 Jun 2027 10:45:49.775            18.409                  Delhi           575.281
        32   01 Jun 2027 10:57:36.188   01 Jun 2027 10:58:25.621            49.433              Murmansk2          1544.781
        33   01 Jun 2027 10:58:45.968   01 Jun 2027 10:59:42.900            56.932                Irkutsk          1779.125
        34   01 Jun 2027 10:59:56.127   01 Jun 2027 11:00:50.083            53.956                 Moscow          1686.125
        35   01 Jun 2027 11:00:53.188   01 Jun 2027 11:01:53.138            59.950                Novosib          1873.437
        36   01 Jun 2027 12:19:44.258   01 Jun 2027 12:22:52.959           188.701                  Delhi          5896.906
        37   01 Jun 2027 12:27:32.446   01 Jun 2027 12:29:24.300           111.854                 Moscow          3495.438
        38   01 Jun 2027 12:30:29.216   01 Jun 2027 12:32:47.742           138.526              Murmansk2          4328.938
        39   01 Jun 2027 14:03:02.015   01 Jun 2027 14:04:50.621           108.606                 Moscow          3393.937
        40   01 Jun 2027 14:06:12.738   01 Jun 2027 14:07:29.628            76.890                 Moscow          2402.812
        41   01 Jun 2027 14:07:50.325   01 Jun 2027 14:08:14.429            24.104              Murmansk1           753.250
        42   01 Jun 2027 14:08:23.178   01 Jun 2027 14:10:42.029           138.851              Murmansk2          4339.094
        43   01 Jun 2027 14:13:24.859   01 Jun 2027 14:15:23.682           118.823                Norilsk          3713.219
        44   01 Jun 2027 14:22:32.283   01 Jun 2027 14:23:25.039            52.756                Anadyr1          1648.625
        45   01 Jun 2027 14:23:25.039   01 Jun 2027 14:23:36.417            11.378                Anadyr2           355.562
        46   01 Jun 2027 14:24:03.391   01 Jun 2027 14:24:39.978            36.587                Anadyr1          1143.344
        47   01 Jun 2027 14:25:09.517   01 Jun 2027 14:26:12.465            62.948                Anadyr1          1967.125
        48   01 Jun 2027 15:16:32.782   01 Jun 2027 15:19:12.357           159.575               CapeTown          4986.719
        49   01 Jun 2027 15:44:30.437   01 Jun 2027 15:45:35.660            65.223              Murmansk1          2038.219
        50   01 Jun 2027 15:57:06.448   01 Jun 2027 15:59:21.036           134.588                Anadyr1          4205.875
        51   01 Jun 2027 16:52:55.932   01 Jun 2027 16:54:16.033            80.101               CapeTown          2503.156
        52   01 Jun 2027 16:56:28.407   01 Jun 2027 16:56:31.392             2.985               CapeTown            93.281
        53   01 Jun 2027 17:25:18.319   01 Jun 2027 17:27:41.349           143.030              Murmansk2          4469.687
        54   01 Jun 2027 17:29:16.703   01 Jun 2027 17:29:35.809            19.106              Murmansk2           597.062
        55   01 Jun 2027 17:32:53.524   01 Jun 2027 17:35:16.437           142.913                Anadyr2          4466.031
        56   01 Jun 2027 17:35:36.856   01 Jun 2027 17:38:31.027           174.171               Magadan1          5442.844
        57   01 Jun 2027 19:08:49.044   01 Jun 2027 19:10:47.096           118.052                Anadyr1          3689.125
        58   01 Jun 2027 19:11:05.796   01 Jun 2027 19:15:11.057           245.261               Magadan1          7664.406
        59   01 Jun 2027 20:03:46.560   01 Jun 2027 20:07:01.843           195.283            RioGallegos          6102.594
        60   01 Jun 2027 20:44:31.823   01 Jun 2027 20:46:39.413           127.590                Anadyr2          3987.188
        61   01 Jun 2027 20:46:41.736   01 Jun 2027 20:50:33.248           231.512                Norilsk          7234.750
        62   01 Jun 2027 20:51:07.144   01 Jun 2027 20:52:53.991           106.847                Irkutsk          3338.969
        63   01 Jun 2027 21:05:11.238   01 Jun 2027 21:08:21.383           190.145                Sumatra          5942.031
        64   01 Jun 2027 22:22:34.884   01 Jun 2027 22:23:00.995            26.111                Norilsk           815.969
        65   01 Jun 2027 22:23:12.230   01 Jun 2027 22:23:50.414            38.184               Magadan2          1193.250
        66   01 Jun 2027 22:25:13.385   01 Jun 2027 22:25:37.107            23.722               Magadan1           741.313
        67   01 Jun 2027 22:26:26.464   01 Jun 2027 22:27:53.444            86.980                Irkutsk          2718.125
        68   01 Jun 2027 22:28:21.085   01 Jun 2027 22:28:57.209            36.124                Novosib          1128.875
        69   01 Jun 2027 22:29:55.588   01 Jun 2027 22:30:27.700            32.112                Novosib          1003.500
        70   01 Jun 2027 22:35:08.961   01 Jun 2027 22:36:56.961           108.000                  Delhi          3375.000
        71   01 Jun 2027 23:53:17.822   01 Jun 2027 23:53:21.011             3.189                Anadyr1            99.656
        72   01 Jun 2027 23:54:01.843   01 Jun 2027 23:54:36.013            34.170                Anadyr1          1067.812
        73   01 Jun 2027 23:55:24.304   01 Jun 2027 23:55:46.833            22.529                Anadyr1           704.031
        74   01 Jun 2027 23:56:05.918   01 Jun 2027 23:56:10.483             4.565                Anadyr1           142.656
        75   01 Jun 2027 23:58:58.605   02 Jun 2027 00:00:46.802           108.197               Magadan1          3381.156
        76   02 Jun 2027 00:01:07.125   02 Jun 2027 00:04:40.083           212.958              Murmansk1          6654.937
        77   02 Jun 2027 00:06:48.329   02 Jun 2027 00:07:07.175            18.846              Murmansk1           588.938
        78   02 Jun 2027 00:08:22.399   02 Jun 2027 00:09:28.277            65.878                 Moscow          2058.688
        79   02 Jun 2027 01:26:36.568   02 Jun 2027 01:27:12.766            36.198                Anadyr2          1131.188
        80   02 Jun 2027 01:27:12.766   02 Jun 2027 01:27:21.585             8.819                Anadyr1           275.594
        81   02 Jun 2027 01:28:01.297   02 Jun 2027 01:29:15.193            73.896                Anadyr1          2309.250
        82   02 Jun 2027 01:32:11.507   02 Jun 2027 01:34:14.647           123.140               Magadan2          3848.125
        83   02 Jun 2027 01:34:39.381   02 Jun 2027 01:34:42.623             3.242               Magadan2           101.312
        84   02 Jun 2027 01:36:43.150   02 Jun 2027 01:38:44.424           121.274              Murmansk1          3789.813
        85   02 Jun 2027 01:39:01.729   02 Jun 2027 01:39:39.925            38.196                Novosib          1193.625
        86   02 Jun 2027 01:39:49.745   02 Jun 2027 01:41:50.895           121.150                Novosib          3785.937
        87   02 Jun 2027 03:20:41.014   02 Jun 2027 03:21:15.632            34.618                Norilsk          1081.812
        88   02 Jun 2027 03:22:51.423   02 Jun 2027 03:23:52.563            61.140              Murmansk1          1910.625
        89   02 Jun 2027 04:36:56.017   02 Jun 2027 04:37:18.610            22.593               Magadan2           706.031
        90   02 Jun 2027 04:43:04.181   02 Jun 2027 04:43:07.369             3.188               Magadan1            99.625
        91   02 Jun 2027 04:43:25.100   02 Jun 2027 04:43:51.365            26.265               Magadan1           820.781
        92   02 Jun 2027 04:43:51.365   02 Jun 2027 04:47:58.251           246.886               Magadan2          7715.187
        93   02 Jun 2027 04:47:58.251   02 Jun 2027 04:49:04.346            66.095               Magadan1          2065.469
        94   02 Jun 2027 06:19:02.863   02 Jun 2027 06:19:02.873             0.010                Irkutsk             0.312
        95   02 Jun 2027 06:19:39.138   02 Jun 2027 06:20:58.654            79.516                Irkutsk          2484.875
        96   02 Jun 2027 06:21:46.724   02 Jun 2027 06:22:06.719            19.995                Irkutsk           624.844
        97   02 Jun 2027 07:56:52.023   02 Jun 2027 07:57:09.208            17.185               Magadan1           537.031
        98   02 Jun 2027 07:57:09.208   02 Jun 2027 07:57:31.216            22.008               Magadan2           687.750
        99   02 Jun 2027 07:57:46.908   02 Jun 2027 07:57:56.379             9.471                Irkutsk           295.969
       100   02 Jun 2027 07:57:58.181   02 Jun 2027 08:00:15.857           137.676               Magadan1          4302.375
       101   02 Jun 2027 08:00:44.261   02 Jun 2027 08:00:46.945             2.684                Novosib            83.875
       102   02 Jun 2027 08:00:48.019   02 Jun 2027 08:00:51.198             3.179                Norilsk            99.344
       103   02 Jun 2027 08:01:18.607   02 Jun 2027 08:01:25.545             6.938              Murmansk1           216.812
       104   02 Jun 2027 08:02:05.556   02 Jun 2027 08:02:37.682            32.126              Murmansk2          1003.938
       105   02 Jun 2027 08:03:09.542   02 Jun 2027 08:03:13.016             3.474              Murmansk2           108.563
       106   02 Jun 2027 08:35:26.552   02 Jun 2027 08:38:00.287           153.735            RioGallegos          4804.219
       107   02 Jun 2027 09:10:59.671   02 Jun 2027 09:13:23.002           143.331                Sumatra          4479.094
       108   02 Jun 2027 09:30:57.301   02 Jun 2027 09:31:42.068            44.767                Irkutsk          1398.969
       109   02 Jun 2027 09:32:11.065   02 Jun 2027 09:32:36.319            25.254                Novosib           789.188
       110   02 Jun 2027 09:32:41.400   02 Jun 2027 09:33:09.566            28.166                Novosib           880.188
       111   02 Jun 2027 09:33:13.706   02 Jun 2027 09:33:36.264            22.558                Irkutsk           704.938
       112   02 Jun 2027 09:33:48.378   02 Jun 2027 09:34:29.101            40.723              Murmansk2          1272.594
       113   02 Jun 2027 09:34:38.116   02 Jun 2027 09:34:51.637            13.521                Irkutsk           422.531
       114   02 Jun 2027 09:34:54.144   02 Jun 2027 09:36:02.589            68.445                Norilsk          2138.906
       115   02 Jun 2027 09:36:16.112   02 Jun 2027 09:37:00.778            44.666              Murmansk2          1395.813
       116   02 Jun 2027 09:39:08.480   02 Jun 2027 09:39:10.789             2.309              Murmansk2            72.156
       117   02 Jun 2027 10:13:02.911   02 Jun 2027 10:13:36.910            33.999            RioGallegos          1062.469
       118   02 Jun 2027 10:14:05.151   02 Jun 2027 10:14:54.229            49.078            RioGallegos          1533.688
       119   02 Jun 2027 10:17:43.964   02 Jun 2027 10:18:03.844            19.880            RioGallegos           621.250
       120   02 Jun 2027 10:47:14.849   02 Jun 2027 10:48:10.746            55.897                Sumatra          1746.781
       121   02 Jun 2027 10:54:42.313   02 Jun 2027 10:55:04.551            22.238                  Delhi           694.937
       122   02 Jun 2027 11:08:09.017   02 Jun 2027 11:08:41.429            32.412              Murmansk2          1012.875
       123   02 Jun 2027 11:08:44.640   02 Jun 2027 11:09:04.705            20.065                Norilsk           627.031
       124   02 Jun 2027 11:09:12.146   02 Jun 2027 11:09:35.035            22.889                Irkutsk           715.281
       125   02 Jun 2027 11:09:42.130   02 Jun 2027 11:10:46.868            64.738                Irkutsk          2023.063
       126   02 Jun 2027 11:10:57.880   02 Jun 2027 11:10:59.132             1.252                Norilsk            39.125
       127   02 Jun 2027 11:11:01.640   02 Jun 2027 11:12:11.663            70.023              Murmansk1          2188.219
       128   02 Jun 2027 11:12:23.824   02 Jun 2027 11:12:33.531             9.707                Norilsk           303.344
       129   02 Jun 2027 11:13:48.060   02 Jun 2027 11:14:04.208            16.148              Murmansk2           504.625
       130   02 Jun 2027 11:17:43.745   02 Jun 2027 11:17:45.206             1.461              Murmansk2            45.656
       131   02 Jun 2027 11:18:11.852   02 Jun 2027 11:18:28.992            17.140              Murmansk2           535.625
       132   02 Jun 2027 12:32:26.799   02 Jun 2027 12:34:00.227            93.428                  Delhi          2919.625
       133   02 Jun 2027 12:34:41.350   02 Jun 2027 12:35:30.607            49.257                  Delhi          1539.281
       134   02 Jun 2027 12:39:57.697   02 Jun 2027 12:40:33.245            35.548                 Moscow          1110.875
       135   02 Jun 2027 12:40:57.958   02 Jun 2027 12:41:32.295            34.337                Novosib          1073.031
       136   02 Jun 2027 12:42:26.521   02 Jun 2027 12:45:06.354           159.833              Murmansk1          4994.781
       137   02 Jun 2027 12:46:21.247   02 Jun 2027 12:46:58.289            37.042              Murmansk1          1157.563
       138   02 Jun 2027 13:57:01.083   02 Jun 2027 13:57:56.318            55.235               CapeTown          1726.094
       139   02 Jun 2027 13:59:40.362   02 Jun 2027 13:59:44.661             4.299               CapeTown           134.344
       140   02 Jun 2027 14:15:13.535   02 Jun 2027 14:16:49.741            96.206                 Moscow          3006.437
       141   02 Jun 2027 14:18:42.993   02 Jun 2027 14:21:40.106           177.113              Murmansk2          5534.781
       142   02 Jun 2027 14:21:59.399   02 Jun 2027 14:22:41.575            42.176              Murmansk2          1318.000
       143   02 Jun 2027 14:34:09.046   02 Jun 2027 14:36:58.759           169.713                Anadyr2          5303.531
       144   02 Jun 2027 14:37:21.054   02 Jun 2027 14:38:11.671            50.617                Anadyr2          1581.781
       145   02 Jun 2027 15:36:31.522   02 Jun 2027 15:36:32.486             0.964               CapeTown            30.125
       146   02 Jun 2027 15:36:52.532   02 Jun 2027 15:36:56.718             4.186               CapeTown           130.812
       147   02 Jun 2027 15:56:24.875   02 Jun 2027 15:56:56.028            31.153                 Moscow           973.531
       148   02 Jun 2027 15:56:57.000   02 Jun 2027 15:58:40.813           103.813              Murmansk2          3244.156
       149   02 Jun 2027 16:01:24.903   02 Jun 2027 16:01:40.786            15.883              Murmansk2           496.344
       150   02 Jun 2027 16:09:05.313   02 Jun 2027 16:11:22.226           136.913                Anadyr1          4278.531
       151   02 Jun 2027 17:05:44.333   02 Jun 2027 17:06:11.248            26.915               CapeTown           841.094
       152   02 Jun 2027 17:06:21.823   02 Jun 2027 17:07:08.440            46.617               CapeTown          1456.781
       153   02 Jun 2027 17:38:23.712   02 Jun 2027 17:41:15.894           172.182              Murmansk2          5380.688
       154   02 Jun 2027 17:41:15.894   02 Jun 2027 17:41:38.038            22.144              Murmansk1           692.000
       155   02 Jun 2027 17:44:54.897   02 Jun 2027 17:46:47.882           112.985                Anadyr1          3530.781
       156   02 Jun 2027 17:47:31.279   02 Jun 2027 17:49:34.343           123.064               Magadan2          3845.750
       157   02 Jun 2027 17:52:57.025   02 Jun 2027 17:53:28.927            31.902               Magadan2           996.937
       158   02 Jun 2027 19:20:49.979   02 Jun 2027 19:24:53.871           243.892                Anadyr2          7621.625
       159   02 Jun 2027 19:25:08.939   02 Jun 2027 19:27:09.456           120.517               Magadan1          3766.156
       160   02 Jun 2027 19:34:11.206   02 Jun 2027 19:34:24.321            13.115               Magadan2           409.844
       161   02 Jun 2027 20:15:29.412   02 Jun 2027 20:18:46.107           196.695            RioGallegos          6146.719
       162   02 Jun 2027 20:19:47.665   02 Jun 2027 20:19:56.662             8.997            RioGallegos           281.156
       163   02 Jun 2027 20:56:29.373   02 Jun 2027 20:57:12.504            43.131                Anadyr1          1347.844
       164   02 Jun 2027 20:59:00.641   02 Jun 2027 20:59:21.363            20.722                Norilsk           647.563
       165   02 Jun 2027 20:59:43.198   02 Jun 2027 21:01:01.553            78.355               Magadan2          2448.594
       166   02 Jun 2027 21:01:03.953   02 Jun 2027 21:01:42.186            38.233                Norilsk          1194.781
       167   02 Jun 2027 21:02:58.225   02 Jun 2027 21:04:24.034            85.809                Irkutsk          2681.531
       168   02 Jun 2027 21:05:50.551   02 Jun 2027 21:08:01.484           130.933                Novosib          4091.656
       169   02 Jun 2027 21:16:50.013   02 Jun 2027 21:17:42.471            52.458                Sumatra          1639.312
       170   02 Jun 2027 21:17:50.827   02 Jun 2027 21:19:05.396            74.569                Sumatra          2330.281
       171   02 Jun 2027 22:35:14.582   02 Jun 2027 22:36:44.050            89.468               Magadan2          2795.875
       172   02 Jun 2027 22:37:23.648   02 Jun 2027 22:37:31.470             7.822               Magadan1           244.438
       173   02 Jun 2027 22:37:39.766   02 Jun 2027 22:37:46.857             7.091               Magadan1           221.594
       174   02 Jun 2027 22:37:57.817   02 Jun 2027 22:38:08.236            10.419               Magadan1           325.594
       175   02 Jun 2027 22:38:28.329   02 Jun 2027 22:39:40.098            71.769                Irkutsk          2242.781
       176   02 Jun 2027 22:39:59.471   02 Jun 2027 22:40:35.977            36.506                Novosib          1140.813
       177   02 Jun 2027 22:41:12.766   02 Jun 2027 22:42:05.325            52.559                Novosib          1642.469
       178   02 Jun 2027 22:46:42.531   02 Jun 2027 22:49:55.149           192.618                  Delhi          6019.313
       179   03 Jun 2027 00:07:25.110   03 Jun 2027 00:07:47.722            22.612                Anadyr1           706.625
       180   03 Jun 2027 00:10:29.942   03 Jun 2027 00:10:41.103            11.161                Anadyr2           348.781
       181   03 Jun 2027 00:10:52.535   03 Jun 2027 00:11:27.867            35.332               Magadan1          1104.125
       182   03 Jun 2027 00:11:29.965   03 Jun 2027 00:13:01.486            91.521               Magadan2          2860.031
       183   03 Jun 2027 00:13:02.629   03 Jun 2027 00:15:43.914           161.285              Murmansk1          5040.156
       184   03 Jun 2027 00:18:05.311   03 Jun 2027 00:18:31.760            26.449              Murmansk1           826.531
       185   03 Jun 2027 00:19:04.210   03 Jun 2027 00:19:21.846            17.636                 Moscow           551.125
       186   03 Jun 2027 00:19:43.387   03 Jun 2027 00:20:36.871            53.484                 Moscow          1671.375
       187   03 Jun 2027 00:21:44.840   03 Jun 2027 00:22:30.676            45.836                 Moscow          1432.375
       188   03 Jun 2027 01:38:20.706   03 Jun 2027 01:39:55.524            94.818                Anadyr1          2963.063
       189   03 Jun 2027 01:40:33.310   03 Jun 2027 01:40:58.082            24.772                Anadyr1           774.125
       190   03 Jun 2027 01:41:04.901   03 Jun 2027 01:41:16.466            11.565                Anadyr2           361.406
       191   03 Jun 2027 01:43:14.144   03 Jun 2027 01:43:45.825            31.681                Anadyr1           990.031
       192   03 Jun 2027 01:44:42.385   03 Jun 2027 01:46:08.114            85.729               Magadan2          2679.031
       193   03 Jun 2027 01:46:25.901   03 Jun 2027 01:46:35.020             9.119                Norilsk           284.969
       194   03 Jun 2027 01:46:52.068   03 Jun 2027 01:47:19.591            27.523               Magadan1           860.094
       195   03 Jun 2027 01:48:44.397   03 Jun 2027 01:49:31.552            47.155              Murmansk2          1473.594
       196   03 Jun 2027 01:49:58.697   03 Jun 2027 01:50:47.532            48.835              Murmansk1          1526.094
       197   03 Jun 2027 01:50:48.341   03 Jun 2027 01:51:26.000            37.659                Novosib          1176.844
       198   03 Jun 2027 01:52:09.640   03 Jun 2027 01:52:36.080            26.440                 Moscow           826.250
       199   03 Jun 2027 01:54:06.053   03 Jun 2027 01:54:32.536            26.483                 Moscow           827.594
       200   03 Jun 2027 01:57:35.233   03 Jun 2027 01:58:06.314            31.081                 Moscow           971.281
       201   03 Jun 2027 02:16:43.043   03 Jun 2027 02:17:23.502            40.459               CapeTown          1264.344
       202   03 Jun 2027 02:18:34.582   03 Jun 2027 02:18:46.757            12.175               CapeTown           380.469
       203   03 Jun 2027 02:21:00.495   03 Jun 2027 02:21:15.410            14.915               CapeTown           466.094
       204   03 Jun 2027 03:19:21.908   03 Jun 2027 03:19:25.148             3.240               Magadan2           101.250
       205   03 Jun 2027 03:34:18.330   03 Jun 2027 03:34:33.839            15.509              Murmansk1           484.656
       206   03 Jun 2027 03:34:33.839   03 Jun 2027 03:35:06.774            32.935              Murmansk2          1029.219
       207   03 Jun 2027 03:36:28.278   03 Jun 2027 03:37:33.754            65.476              Murmansk1          2046.125
       208   03 Jun 2027 04:55:25.487   03 Jun 2027 04:55:27.240             1.753               Magadan1            54.781
       209   03 Jun 2027 04:55:41.020   03 Jun 2027 04:57:22.124           101.104               Magadan1          3159.500
       210   03 Jun 2027 04:57:22.124   03 Jun 2027 04:59:27.026           124.902               Magadan2          3903.187
       211   03 Jun 2027 05:00:10.773   03 Jun 2027 05:00:23.513            12.740               Magadan2           398.125
       212   03 Jun 2027 05:00:39.808   03 Jun 2027 05:01:06.842            27.034               Magadan2           844.813
       213   03 Jun 2027 06:28:54.990   03 Jun 2027 06:29:29.299            34.309                Irkutsk          1072.156
       214   03 Jun 2027 06:31:47.663   03 Jun 2027 06:32:58.060            70.397                Irkutsk          2199.906
       215   03 Jun 2027 06:33:09.702   03 Jun 2027 06:33:56.259            46.557                Anadyr1          1454.906
       216   03 Jun 2027 06:34:02.115   03 Jun 2027 06:35:32.764            90.649                Anadyr2          2832.781
       217   03 Jun 2027 06:35:51.733   03 Jun 2027 06:36:23.113            31.380                Anadyr2           980.625
       218   03 Jun 2027 07:21:19.558   03 Jun 2027 07:22:22.882            63.324            RioGallegos          1978.875
       219   03 Jun 2027 08:05:43.539   03 Jun 2027 08:06:15.221            31.682               Magadan2           990.062
       220   03 Jun 2027 08:07:07.540   03 Jun 2027 08:07:10.532             2.992                Irkutsk            93.500
       221   03 Jun 2027 08:07:17.562   03 Jun 2027 08:07:37.430            19.868                Norilsk           620.875
       222   03 Jun 2027 08:07:48.213   03 Jun 2027 08:08:28.331            40.118               Magadan2          1253.687
       223   03 Jun 2027 08:08:41.451   03 Jun 2027 08:08:47.384             5.933               Magadan2           185.406
       224   03 Jun 2027 08:08:47.384   03 Jun 2027 08:09:33.403            46.019               Magadan1          1438.094
       225   03 Jun 2027 08:09:38.086   03 Jun 2027 08:10:08.070            29.984                Irkutsk           937.000
       226   03 Jun 2027 08:10:11.090   03 Jun 2027 08:10:50.742            39.652                Irkutsk          1239.125
       227   03 Jun 2027 08:11:01.612   03 Jun 2027 08:11:09.825             8.213                Irkutsk           256.656
       228   03 Jun 2027 08:11:20.602   03 Jun 2027 08:11:33.841            13.239                Norilsk           413.719
       229   03 Jun 2027 08:11:34.264   03 Jun 2027 08:12:33.620            59.356              Murmansk2          1854.875
       230   03 Jun 2027 08:12:46.627   03 Jun 2027 08:12:46.974             0.347                Norilsk            10.844
       231   03 Jun 2027 08:13:01.369   03 Jun 2027 08:13:22.957            21.588                Norilsk           674.625
       232   03 Jun 2027 08:14:43.799   03 Jun 2027 08:14:56.727            12.928              Murmansk2           404.000
       233   03 Jun 2027 08:15:13.721   03 Jun 2027 08:15:20.868             7.147              Murmansk1           223.344
       234   03 Jun 2027 08:15:27.488   03 Jun 2027 08:15:47.995            20.507              Murmansk2           640.844
       235   03 Jun 2027 08:47:27.341   03 Jun 2027 08:48:13.428            46.087            RioGallegos          1440.219
       236   03 Jun 2027 08:55:44.186   03 Jun 2027 08:56:01.003            16.817            RioGallegos           525.531
       237   03 Jun 2027 09:23:38.102   03 Jun 2027 09:24:40.795            62.693                Sumatra          1959.156
       238   03 Jun 2027 09:25:14.345   03 Jun 2027 09:25:53.103            38.758                Sumatra          1211.188
       239   03 Jun 2027 09:36:10.501   03 Jun 2027 09:36:26.956            16.455                  Delhi           514.219
       240   03 Jun 2027 09:36:32.836   03 Jun 2027 09:37:16.708            43.872                  Delhi          1371.000
       241   03 Jun 2027 09:42:29.182   03 Jun 2027 09:42:50.553            21.371                Norilsk           667.844
       242   03 Jun 2027 09:43:57.434   03 Jun 2027 09:44:20.666            23.232                Irkutsk           726.000
       243   03 Jun 2027 09:44:36.140   03 Jun 2027 09:44:36.998             0.858                Norilsk            26.812
       244   03 Jun 2027 09:44:37.391   03 Jun 2027 09:44:38.877             1.486                Norilsk            46.438
       245   03 Jun 2027 09:44:44.095   03 Jun 2027 09:44:56.667            12.572                Irkutsk           392.875
       246   03 Jun 2027 09:45:32.109   03 Jun 2027 09:46:21.583            49.474                Novosib          1546.062
       247   03 Jun 2027 09:46:29.167   03 Jun 2027 09:46:55.969            26.802                Irkutsk           837.562
       248   03 Jun 2027 09:47:02.585   03 Jun 2027 09:47:15.735            13.150                Novosib           410.937
       249   03 Jun 2027 09:47:20.994   03 Jun 2027 09:47:40.232            19.238                Novosib           601.188
       250   03 Jun 2027 09:47:55.989   03 Jun 2027 09:48:08.467            12.478                Novosib           389.937
       251   03 Jun 2027 09:48:09.693   03 Jun 2027 09:48:14.530             4.837              Murmansk1           151.156
       252   03 Jun 2027 09:48:16.205   03 Jun 2027 09:48:36.661            20.456                Norilsk           639.250
       253   03 Jun 2027 09:49:50.397   03 Jun 2027 09:49:53.850             3.453                Norilsk           107.906
       254   03 Jun 2027 09:50:17.627   03 Jun 2027 09:51:10.163            52.536              Murmansk2          1641.750
       255   03 Jun 2027 10:25:38.837   03 Jun 2027 10:25:51.808            12.971            RioGallegos           405.344
       256   03 Jun 2027 10:26:41.661   03 Jun 2027 10:26:58.003            16.342            RioGallegos           510.687
       257   03 Jun 2027 10:28:45.557   03 Jun 2027 10:29:52.412            66.855            RioGallegos          2089.219
       258   03 Jun 2027 11:09:40.810   03 Jun 2027 11:09:56.184            15.374                  Delhi           480.438
       259   03 Jun 2027 11:15:22.066   03 Jun 2027 11:15:22.575             0.509                  Delhi            15.906
       260   03 Jun 2027 11:20:36.535   03 Jun 2027 11:21:58.263            81.728              Murmansk2          2554.000
       261   03 Jun 2027 11:22:04.441   03 Jun 2027 11:22:26.652            22.211                Norilsk           694.094
       262   03 Jun 2027 11:22:28.280   03 Jun 2027 11:23:21.757            53.477                 Moscow          1671.156
       263   03 Jun 2027 11:23:32.344   03 Jun 2027 11:23:42.517            10.173                Novosib           317.906
       264   03 Jun 2027 11:23:43.971   03 Jun 2027 11:23:52.956             8.985                 Moscow           280.781
       265   03 Jun 2027 11:23:56.328   03 Jun 2027 11:24:30.831            34.503                 Moscow          1078.219
       266   03 Jun 2027 11:29:15.625   03 Jun 2027 11:29:32.130            16.505              Murmansk2           515.781
       267   03 Jun 2027 12:45:26.265   03 Jun 2027 12:49:42.017           255.752                  Delhi          7992.250
       268   03 Jun 2027 12:54:25.184   03 Jun 2027 12:56:39.545           134.361              Murmansk2          4198.781
       269   03 Jun 2027 14:07:17.901   03 Jun 2027 14:09:28.025           130.124               CapeTown          4066.375
       270   03 Jun 2027 14:11:02.715   03 Jun 2027 14:11:04.824             2.109               CapeTown            65.906
       271   03 Jun 2027 14:11:29.692   03 Jun 2027 14:12:40.654            70.962               CapeTown          2217.563
       272   03 Jun 2027 14:30:54.581   03 Jun 2027 14:33:43.218           168.637              Murmansk1          5269.906
       273   03 Jun 2027 14:34:36.115   03 Jun 2027 14:34:47.736            11.621              Murmansk2           363.156
       274   03 Jun 2027 14:45:53.975   03 Jun 2027 14:47:39.580           105.605                Anadyr1          3300.156
       275   03 Jun 2027 14:48:50.954   03 Jun 2027 14:49:23.622            32.668                Anadyr1          1020.875
       276   03 Jun 2027 14:50:10.374   03 Jun 2027 14:50:19.398             9.024                Anadyr2           282.000
       277   03 Jun 2027 14:50:45.463   03 Jun 2027 14:51:25.806            40.343                Anadyr2          1260.719
       278   03 Jun 2027 15:42:47.189   03 Jun 2027 15:42:59.069            11.880               CapeTown           371.250
       279   03 Jun 2027 15:45:28.215   03 Jun 2027 15:46:18.117            49.902               CapeTown          1559.437
       280   03 Jun 2027 16:08:31.386   03 Jun 2027 16:08:58.705            27.319                 Moscow           853.719
       281   03 Jun 2027 16:09:26.172   03 Jun 2027 16:10:27.475            61.303              Murmansk1          1915.719
       282   03 Jun 2027 16:11:37.533   03 Jun 2027 16:11:57.324            19.791              Murmansk2           618.469
       283   03 Jun 2027 16:21:04.774   03 Jun 2027 16:23:14.388           129.614                Anadyr2          4050.438
       284   03 Jun 2027 16:23:14.424   03 Jun 2027 16:23:23.520             9.096                Anadyr1           284.250
       285   03 Jun 2027 16:25:59.736   03 Jun 2027 16:28:21.196           141.460               Magadan2          4420.625
       286   03 Jun 2027 17:52:22.583   03 Jun 2027 17:52:43.493            20.910              Murmansk1           653.438
       287   03 Jun 2027 17:56:56.351   03 Jun 2027 17:59:18.156           141.805                Anadyr1          4431.406
       288   03 Jun 2027 17:59:25.316   03 Jun 2027 18:00:50.918            85.602                Anadyr2          2675.062
       289   03 Jun 2027 18:00:56.864   03 Jun 2027 18:01:58.110            61.246               Magadan1          1913.937
       290   03 Jun 2027 18:03:20.916   03 Jun 2027 18:04:05.691            44.775               Magadan2          1399.219
       291   03 Jun 2027 18:04:38.200   03 Jun 2027 18:05:22.180            43.980               Magadan1          1374.375
       292   03 Jun 2027 19:32:50.686   03 Jun 2027 19:34:50.127           119.441                Anadyr1          3732.531
       293   03 Jun 2027 19:34:56.174   03 Jun 2027 19:36:58.443           122.269                Anadyr2          3820.906
       294   03 Jun 2027 19:37:06.189   03 Jun 2027 19:38:56.632           110.443                Norilsk          3451.344
       295   03 Jun 2027 19:39:35.410   03 Jun 2027 19:40:26.419            51.009               Magadan1          1594.031
       296   03 Jun 2027 19:44:22.906   03 Jun 2027 19:44:56.674            33.768               Magadan1          1055.250
       297   03 Jun 2027 20:27:16.636   03 Jun 2027 20:30:33.231           196.595            RioGallegos          6143.594
       298   03 Jun 2027 21:10:30.326   03 Jun 2027 21:10:38.709             8.383                Anadyr2           261.969
       299   03 Jun 2027 21:10:41.810   03 Jun 2027 21:14:35.426           233.616                Norilsk          7300.500
       300   03 Jun 2027 21:14:51.599   03 Jun 2027 21:15:07.051            15.452                Irkutsk           482.875
       301   03 Jun 2027 21:16:22.588   03 Jun 2027 21:16:53.489            30.901                Irkutsk           965.656
       302   03 Jun 2027 21:17:24.310   03 Jun 2027 21:17:48.385            24.075                Novosib           752.344
       303   03 Jun 2027 21:18:23.050   03 Jun 2027 21:19:06.776            43.726                Novosib          1366.438
       304   03 Jun 2027 21:20:06.987   03 Jun 2027 21:20:14.593             7.606                Novosib           237.688
       305   03 Jun 2027 21:21:03.266   03 Jun 2027 21:22:19.173            75.907                Novosib          2372.094
       306   03 Jun 2027 21:29:32.235   03 Jun 2027 21:31:16.669           104.434                Sumatra          3263.563
       307   03 Jun 2027 22:46:38.883   03 Jun 2027 22:46:58.137            19.254                Norilsk           601.687
       308   03 Jun 2027 22:47:16.657   03 Jun 2027 22:48:48.330            91.673               Magadan2          2864.781
       309   03 Jun 2027 22:49:48.034   03 Jun 2027 22:49:57.380             9.346               Magadan1           292.063
       310   03 Jun 2027 22:50:30.987   03 Jun 2027 22:51:27.395            56.408                Irkutsk          1762.750
       311   03 Jun 2027 22:51:32.656   03 Jun 2027 22:51:51.233            18.577                Novosib           580.531
       312   03 Jun 2027 22:51:57.433   03 Jun 2027 22:52:04.370             6.937                Novosib           216.781
       313   03 Jun 2027 22:52:24.863   03 Jun 2027 22:53:05.700            40.837                Novosib          1276.156
       314   03 Jun 2027 22:56:03.573   03 Jun 2027 22:56:36.949            33.376                Novosib          1043.000
       315   03 Jun 2027 22:58:23.441   03 Jun 2027 22:59:18.845            55.404                  Delhi          1731.375
       316   03 Jun 2027 23:00:09.347   03 Jun 2027 23:01:46.465            97.118                  Delhi          3034.938
       317   04 Jun 2027 00:16:40.297   04 Jun 2027 00:16:42.598             2.301                Anadyr1            71.906
       318   04 Jun 2027 00:17:22.335   04 Jun 2027 00:18:16.934            54.599                Anadyr2          1706.219
       319   04 Jun 2027 00:21:09.779   04 Jun 2027 00:21:46.524            36.745                Anadyr1          1148.281
       320   04 Jun 2027 00:22:14.325   04 Jun 2027 00:22:31.079            16.754                Anadyr2           523.562
       321   04 Jun 2027 00:22:37.980   04 Jun 2027 00:22:51.456            13.476                Norilsk           421.125
       322   04 Jun 2027 00:23:04.006   04 Jun 2027 00:24:07.411            63.405               Magadan1          1981.406
       323   04 Jun 2027 00:24:07.411   04 Jun 2027 00:24:30.034            22.623               Magadan2           706.969
       324   04 Jun 2027 00:24:59.698   04 Jun 2027 00:26:07.739            68.041              Murmansk2          2126.281
       325   04 Jun 2027 00:26:07.739   04 Jun 2027 00:27:54.030           106.291              Murmansk1          3321.594
       326   04 Jun 2027 00:29:45.950   04 Jun 2027 00:31:07.814            81.864                 Moscow          2558.250
       327   04 Jun 2027 00:33:47.622   04 Jun 2027 00:34:29.100            41.478                 Moscow          1296.188
       328   04 Jun 2027 01:50:05.876   04 Jun 2027 01:51:47.609           101.733                Anadyr1          3179.156
       329   04 Jun 2027 01:52:05.522   04 Jun 2027 01:52:32.866            27.344                Anadyr2           854.500
       330   04 Jun 2027 01:52:48.497   04 Jun 2027 01:53:11.658            23.161                Anadyr1           723.781
       331   04 Jun 2027 01:53:11.658   04 Jun 2027 01:53:17.635             5.977                Anadyr2           186.781
       332   04 Jun 2027 01:55:07.844   04 Jun 2027 01:56:46.254            98.410               Magadan1          3075.312
       333   04 Jun 2027 01:58:34.786   04 Jun 2027 01:58:52.197            17.411                Norilsk           544.094
       334   04 Jun 2027 02:00:45.844   04 Jun 2027 02:02:03.696            77.852              Murmansk2          2432.875
       335   04 Jun 2027 02:02:49.302   04 Jun 2027 02:02:59.524            10.222                Novosib           319.437
       336   04 Jun 2027 02:03:12.223   04 Jun 2027 02:03:24.172            11.949                Novosib           373.406
       337   04 Jun 2027 02:04:06.985   04 Jun 2027 02:05:12.252            65.267                 Moscow          2039.594
       338   04 Jun 2027 02:09:59.525   04 Jun 2027 02:10:00.780             1.255                 Moscow            39.219
       339   04 Jun 2027 02:10:13.497   04 Jun 2027 02:10:42.245            28.748                 Moscow           898.375
       340   04 Jun 2027 02:16:20.167   04 Jun 2027 02:16:35.183            15.016                 Moscow           469.250
       341   04 Jun 2027 02:28:23.862   04 Jun 2027 02:28:57.775            33.913               CapeTown          1059.781
       342   04 Jun 2027 02:31:23.160   04 Jun 2027 02:31:30.821             7.661               CapeTown           239.406
       343   04 Jun 2027 02:33:05.886   04 Jun 2027 02:34:46.940           101.054               CapeTown          3157.938
       344   04 Jun 2027 03:31:58.731   04 Jun 2027 03:32:24.444            25.713               Magadan2           803.531
       345   04 Jun 2027 03:32:24.444   04 Jun 2027 03:32:43.094            18.650               Magadan1           582.813
       346   04 Jun 2027 03:33:07.059   04 Jun 2027 03:33:16.980             9.921               Magadan1           310.031
       347   04 Jun 2027 03:33:42.471   04 Jun 2027 03:34:02.697            20.226                Anadyr1           632.063
       348   04 Jun 2027 03:34:26.515   04 Jun 2027 03:35:46.338            79.823                Anadyr2          2494.469
       349   04 Jun 2027 05:08:10.219   04 Jun 2027 05:13:19.123           308.904                Anadyr2          9653.250
       350   04 Jun 2027 05:13:19.123   04 Jun 2027 05:13:26.432             7.309                Anadyr1           228.406
       351   04 Jun 2027 06:41:28.624   04 Jun 2027 06:42:02.091            33.467               Magadan2          1045.844
       352   04 Jun 2027 06:42:40.746   04 Jun 2027 06:42:46.488             5.742                Norilsk           179.437
       353   04 Jun 2027 06:43:15.690   04 Jun 2027 06:43:57.943            42.253                Anadyr1          1320.406
       354   04 Jun 2027 06:44:02.908   04 Jun 2027 06:44:14.987            12.079               Magadan2           377.469
       355   04 Jun 2027 06:44:14.987   04 Jun 2027 06:44:31.341            16.354               Magadan1           511.063
       356   04 Jun 2027 06:44:37.306   04 Jun 2027 06:45:02.736            25.430                Anadyr1           794.687
       357   04 Jun 2027 06:45:15.205   04 Jun 2027 06:45:31.614            16.409               Magadan1           512.781
       358   04 Jun 2027 06:45:54.053   04 Jun 2027 06:46:56.001            61.948                Irkutsk          1935.875
       359   04 Jun 2027 06:46:59.106   04 Jun 2027 06:47:01.294             2.188               Magadan1            68.375
       360   04 Jun 2027 06:47:07.207   04 Jun 2027 06:47:39.181            31.974                Norilsk           999.187
       361   04 Jun 2027 06:47:53.595   04 Jun 2027 06:48:49.660            56.065                Anadyr1          1752.031
       362   04 Jun 2027 07:24:44.274   04 Jun 2027 07:25:27.509            43.235            RioGallegos          1351.094
       363   04 Jun 2027 07:30:08.875   04 Jun 2027 07:30:29.136            20.261            RioGallegos           633.156
       364   04 Jun 2027 08:17:39.208   04 Jun 2027 08:17:46.104             6.896               Magadan2           215.500
       365   04 Jun 2027 08:18:25.140   04 Jun 2027 08:18:43.990            18.850                Irkutsk           589.062
       366   04 Jun 2027 08:19:09.584   04 Jun 2027 08:19:10.694             1.110                Irkutsk            34.688
       367   04 Jun 2027 08:19:27.516   04 Jun 2027 08:20:21.580            54.064               Magadan1          1689.500
       368   04 Jun 2027 08:20:32.284   04 Jun 2027 08:21:35.313            63.029               Magadan1          1969.656
       369   04 Jun 2027 08:21:56.413   04 Jun 2027 08:22:23.300            26.887                Irkutsk           840.219
       370   04 Jun 2027 08:22:28.542   04 Jun 2027 08:22:29.004             0.462                Irkutsk            14.438
       371   04 Jun 2027 08:22:37.563   04 Jun 2027 08:23:12.882            35.319                Norilsk          1103.719
       372   04 Jun 2027 08:23:16.298   04 Jun 2027 08:23:31.679            15.381              Murmansk2           480.656
       373   04 Jun 2027 08:23:41.056   04 Jun 2027 08:23:43.042             1.986                Norilsk            62.062
       374   04 Jun 2027 08:23:52.572   04 Jun 2027 08:24:09.462            16.890                Norilsk           527.812
       375   04 Jun 2027 08:24:10.555   04 Jun 2027 08:25:05.840            55.285              Murmansk2          1727.656
       376   04 Jun 2027 08:29:44.739   04 Jun 2027 08:29:58.906            14.167              Murmansk1           442.719
       377   04 Jun 2027 08:59:31.507   04 Jun 2027 09:00:44.414            72.907            RioGallegos          2278.344
       378   04 Jun 2027 09:34:31.056   04 Jun 2027 09:35:24.770            53.714                Sumatra          1678.562
       379   04 Jun 2027 09:47:52.727   04 Jun 2027 09:48:14.767            22.040                  Delhi           688.750
       380   04 Jun 2027 09:48:59.029   04 Jun 2027 09:49:28.200            29.171                  Delhi           911.594
       381   04 Jun 2027 09:55:09.046   04 Jun 2027 09:55:50.534            41.488                Irkutsk          1296.500
       382   04 Jun 2027 09:56:15.348   04 Jun 2027 09:56:17.831             2.483                Novosib            77.594
       383   04 Jun 2027 09:56:21.227   04 Jun 2027 09:56:33.131            11.904                Norilsk           372.000
       384   04 Jun 2027 09:56:40.497   04 Jun 2027 09:57:26.565            46.068                Novosib          1439.625
       385   04 Jun 2027 09:57:30.313   04 Jun 2027 09:57:54.977            24.664                Norilsk           770.750
       386   04 Jun 2027 09:58:04.766   04 Jun 2027 09:58:15.800            11.034                Irkutsk           344.812
       387   04 Jun 2027 09:58:17.272   04 Jun 2027 09:58:46.573            29.301                Irkutsk           915.656
       388   04 Jun 2027 09:58:48.552   04 Jun 2027 09:59:53.885            65.333                Norilsk          2041.656
       389   04 Jun 2027 10:00:10.363   04 Jun 2027 10:00:39.421            29.058                Irkutsk           908.063
       390   04 Jun 2027 10:03:33.279   04 Jun 2027 10:03:35.691             2.412              Murmansk1            75.375
       391   04 Jun 2027 10:05:31.593   04 Jun 2027 10:05:49.455            17.862              Murmansk2           558.188
       392   04 Jun 2027 10:38:22.777   04 Jun 2027 10:39:00.910            38.133            RioGallegos          1191.656
       393   04 Jun 2027 10:40:24.448   04 Jun 2027 10:40:52.133            27.685            RioGallegos           865.156
       394   04 Jun 2027 11:12:51.335   04 Jun 2027 11:14:30.196            98.861                Sumatra          3089.406
       395   04 Jun 2027 11:32:32.335   04 Jun 2027 11:33:24.284            51.949              Murmansk2          1623.406
       396   04 Jun 2027 11:33:34.060   04 Jun 2027 11:33:37.127             3.067                 Moscow            95.844
       397   04 Jun 2027 11:33:39.473   04 Jun 2027 11:34:02.153            22.680                 Moscow           708.750
       398   04 Jun 2027 11:34:06.574   04 Jun 2027 11:34:27.476            20.902                Norilsk           653.188
       399   04 Jun 2027 11:34:29.070   04 Jun 2027 11:34:50.357            21.287                Norilsk           665.219
       400   04 Jun 2027 11:34:55.059   04 Jun 2027 11:35:24.644            29.585                Norilsk           924.531
       401   04 Jun 2027 11:35:30.506   04 Jun 2027 11:35:30.648             0.142                 Moscow             4.438
       402   04 Jun 2027 11:35:39.602   04 Jun 2027 11:35:46.264             6.662                Novosib           208.187
       403   04 Jun 2027 11:35:49.800   04 Jun 2027 11:36:00.120            10.320                 Moscow           322.500
       404   04 Jun 2027 11:36:05.716   04 Jun 2027 11:36:10.148             4.432                Norilsk           138.500
       405   04 Jun 2027 11:36:13.756   04 Jun 2027 11:36:24.477            10.721                Novosib           335.031
       406   04 Jun 2027 11:36:46.957   04 Jun 2027 11:37:11.344            24.387                Norilsk           762.094
       407   04 Jun 2027 12:59:02.321   04 Jun 2027 13:01:19.091           136.770                  Delhi          4274.062
       408   04 Jun 2027 13:01:47.088   04 Jun 2027 13:01:59.828            12.740                  Delhi           398.125
       409   04 Jun 2027 13:03:05.873   04 Jun 2027 13:04:11.022            65.149                 Moscow          2035.906
       410   04 Jun 2027 13:05:54.085   04 Jun 2027 13:06:01.924             7.839                 Moscow           244.969
       411   04 Jun 2027 13:06:16.732   04 Jun 2027 13:06:35.835            19.103                 Moscow           596.969
       412   04 Jun 2027 13:06:39.927   04 Jun 2027 13:09:26.649           166.722              Murmansk1          5210.063
       413   04 Jun 2027 13:09:28.159   04 Jun 2027 13:10:05.159            37.000                Norilsk          1156.250
       414   04 Jun 2027 14:18:26.345   04 Jun 2027 14:21:07.507           161.162               CapeTown          5036.312
       415   04 Jun 2027 14:24:06.905   04 Jun 2027 14:26:00.046           113.141               CapeTown          3535.656
       416   04 Jun 2027 14:43:08.074   04 Jun 2027 14:43:51.652            43.578              Murmansk1          1361.812
       417   04 Jun 2027 14:44:02.238   04 Jun 2027 14:44:19.292            17.054              Murmansk2           532.937
       418   04 Jun 2027 14:45:44.933   04 Jun 2027 14:46:01.546            16.613              Murmansk2           519.156
       419   04 Jun 2027 14:57:43.465   04 Jun 2027 15:00:14.302           150.837                Anadyr2          4713.656
       420   04 Jun 2027 15:00:52.112   04 Jun 2027 15:01:23.332            31.220                Anadyr2           975.625
       421   04 Jun 2027 15:52:25.403   04 Jun 2027 15:52:57.980            32.577               CapeTown          1018.031
       422   04 Jun 2027 16:02:02.182   04 Jun 2027 16:02:08.234             6.052               CapeTown           189.125
       423   04 Jun 2027 16:02:11.292   04 Jun 2027 16:04:12.749           121.457               CapeTown          3795.531
       424   04 Jun 2027 16:21:58.148   04 Jun 2027 16:22:07.832             9.684              Murmansk2           302.625
       425   04 Jun 2027 16:22:33.031   04 Jun 2027 16:23:07.177            34.146              Murmansk1          1067.063
       426   04 Jun 2027 16:29:43.186   04 Jun 2027 16:30:16.118            32.932              Murmansk1          1029.125
       427   04 Jun 2027 16:33:04.718   04 Jun 2027 16:34:30.237            85.519                Anadyr2          2672.469
       428   04 Jun 2027 16:34:34.740   04 Jun 2027 16:35:10.181            35.441                Anadyr1          1107.531
       429   04 Jun 2027 16:37:09.341   04 Jun 2027 16:37:54.607            45.266               Magadan2          1414.562
       430   04 Jun 2027 16:38:43.902   04 Jun 2027 16:40:05.741            81.839               Magadan2          2557.469
       431   04 Jun 2027 16:40:15.328   04 Jun 2027 16:40:38.724            23.396               Magadan1           731.125
       432   04 Jun 2027 16:40:48.847   04 Jun 2027 16:40:58.614             9.767               Magadan1           305.219
       433   04 Jun 2027 18:08:57.835   04 Jun 2027 18:11:18.676           140.841                Anadyr2          4401.281
       434   04 Jun 2027 18:11:24.257   04 Jun 2027 18:13:48.035           143.778               Magadan2          4493.063
       435   04 Jun 2027 18:13:48.035   04 Jun 2027 18:15:10.101            82.066               Magadan1          2564.562
       436   04 Jun 2027 18:21:29.033   04 Jun 2027 18:21:38.539             9.506               Magadan2           297.062
       437   04 Jun 2027 19:44:51.114   04 Jun 2027 19:46:51.503           120.389                Anadyr2          3762.156
       438   04 Jun 2027 19:46:52.645   04 Jun 2027 19:48:41.222           108.577                Anadyr1          3393.031
       439   04 Jun 2027 19:48:53.386   04 Jun 2027 19:51:05.408           132.022               Magadan2          4125.688
       440   04 Jun 2027 19:53:32.560   04 Jun 2027 19:53:43.806            11.246               Magadan2           351.437
       441   04 Jun 2027 19:54:18.434   04 Jun 2027 19:56:22.922           124.488                Irkutsk          3890.250
       442   04 Jun 2027 19:56:56.970   04 Jun 2027 19:57:50.318            53.348                Irkutsk          1667.125
       443   04 Jun 2027 20:39:07.059   04 Jun 2027 20:39:37.599            30.540            RioGallegos           954.375
       444   04 Jun 2027 20:39:51.043   04 Jun 2027 20:40:07.737            16.694            RioGallegos           521.688
       445   04 Jun 2027 20:40:35.800   04 Jun 2027 20:41:02.608            26.808            RioGallegos           837.750
       446   04 Jun 2027 21:20:22.156   04 Jun 2027 21:20:35.863            13.707                Anadyr2           428.344
       447   04 Jun 2027 21:20:40.692   04 Jun 2027 21:20:49.038             8.346                Anadyr2           260.812
       448   04 Jun 2027 21:21:31.700   04 Jun 2027 21:22:37.640            65.940                Anadyr2          2060.625
       449   04 Jun 2027 21:22:42.581   04 Jun 2027 21:24:45.719           123.138                Norilsk          3848.063
       450   04 Jun 2027 21:26:46.819   04 Jun 2027 21:28:43.067           116.248                Irkutsk          3632.750
       451   04 Jun 2027 21:31:07.618   04 Jun 2027 21:32:13.091            65.473                Novosib          2046.031
       452   04 Jun 2027 21:33:22.957   04 Jun 2027 21:34:47.303            84.346                Novosib          2635.813
       453   04 Jun 2027 21:48:28.757   04 Jun 2027 21:48:58.891            30.134                Sumatra           941.688
       454   04 Jun 2027 22:54:55.177   04 Jun 2027 22:55:42.709            47.532                Anadyr1          1485.375
       455   04 Jun 2027 22:58:40.926   04 Jun 2027 23:00:36.126           115.200                Norilsk          3600.000
       456   04 Jun 2027 23:02:34.409   04 Jun 2027 23:03:17.939            43.530                Irkutsk          1360.313
       457   04 Jun 2027 23:03:28.971   04 Jun 2027 23:05:01.532            92.561                Novosib          2892.531
       458   04 Jun 2027 23:05:27.950   04 Jun 2027 23:05:53.241            25.291                Novosib           790.344
       459   04 Jun 2027 23:10:09.905   04 Jun 2027 23:12:33.534           143.629                  Delhi          4488.406
       460   05 Jun 2027 00:28:21.309   05 Jun 2027 00:28:39.305            17.996                Anadyr1           562.375
       461   05 Jun 2027 00:29:23.399   05 Jun 2027 00:30:49.631            86.232                Anadyr2          2694.750
       462   05 Jun 2027 00:34:12.155   05 Jun 2027 00:34:30.877            18.722                Anadyr2           585.062
       463   05 Jun 2027 00:34:31.290   05 Jun 2027 00:37:09.084           157.794               Magadan1          4931.062
       464   05 Jun 2027 00:37:10.090   05 Jun 2027 00:39:14.629           124.539              Murmansk2          3891.844
       465   05 Jun 2027 00:41:21.373   05 Jun 2027 00:42:51.152            89.779                 Moscow          2805.594
       466   05 Jun 2027 00:56:24.501   05 Jun 2027 00:56:44.230            19.729                  Delhi           616.531
       467   05 Jun 2027 01:10:28.304   05 Jun 2027 01:11:01.010            32.706               CapeTown          1022.063
       468   05 Jun 2027 01:12:02.997   05 Jun 2027 01:13:00.065            57.068               CapeTown          1783.375
       469   05 Jun 2027 02:01:52.191   05 Jun 2027 02:02:10.737            18.546                Anadyr2           579.562
       470   05 Jun 2027 02:02:55.895   05 Jun 2027 02:03:08.048            12.153                Anadyr1           379.781
       471   05 Jun 2027 02:03:36.619   05 Jun 2027 02:04:05.620            29.001                Anadyr2           906.281
       472   05 Jun 2027 02:04:33.144   05 Jun 2027 02:05:04.398            31.254                Anadyr2           976.688
       473   05 Jun 2027 02:06:35.744   05 Jun 2027 02:07:55.325            79.581               Magadan2          2486.906
       474   05 Jun 2027 02:10:23.828   05 Jun 2027 02:10:54.091            30.263                Norilsk           945.719
       475   05 Jun 2027 02:12:47.438   05 Jun 2027 02:14:20.803            93.365              Murmansk1          2917.656
       476   05 Jun 2027 02:14:57.001   05 Jun 2027 02:16:34.099            97.098                Novosib          3034.312
       477   05 Jun 2027 02:40:10.115   05 Jun 2027 02:41:19.526            69.411               CapeTown          2169.094
       478   05 Jun 2027 02:49:37.304   05 Jun 2027 02:49:53.722            16.418               CapeTown           513.063
       479   05 Jun 2027 03:43:27.520   05 Jun 2027 03:44:11.420            43.900               Magadan2          1371.875
       480   05 Jun 2027 03:44:35.502   05 Jun 2027 03:44:54.138            18.636               Magadan2           582.375
       481   05 Jun 2027 03:48:43.959   05 Jun 2027 03:49:04.324            20.365               Magadan2           636.406
       482   05 Jun 2027 05:19:55.471   05 Jun 2027 05:20:13.712            18.241               Magadan1           570.031
