uniorb/output/strategy_2/Drop/Drop_KinoSat_111806.txt

KinoSat_111806
-------------------------
    Access    *     Start Time (UTCG)     *     Stop Time (UTCG)  *   Duration (s)        *       Station  *  Data (Mbytes)
         1   01 Jun 2027 03:00:34.495   01 Jun 2027 03:01:15.069            40.574                Irkutsk          1267.937
         2   01 Jun 2027 03:01:40.056   01 Jun 2027 03:01:52.018            11.962                Norilsk           373.812
         3   01 Jun 2027 03:02:13.812   01 Jun 2027 03:02:55.356            41.544                Irkutsk          1298.250
         4   01 Jun 2027 03:03:23.219   01 Jun 2027 03:03:31.576             8.357                Norilsk           261.156
         5   01 Jun 2027 03:03:56.531   01 Jun 2027 03:05:21.011            84.480                  Delhi          2640.000
         6   01 Jun 2027 03:45:11.339   01 Jun 2027 03:45:32.661            21.322            RioGallegos           666.313
         7   01 Jun 2027 04:36:04.842   01 Jun 2027 04:36:07.151             2.309              Murmansk2            72.156
         8   01 Jun 2027 04:36:07.151   01 Jun 2027 04:36:40.207            33.056              Murmansk1          1033.000
         9   01 Jun 2027 04:37:10.805   01 Jun 2027 04:38:40.415            89.610              Murmansk2          2800.312
        10   01 Jun 2027 04:38:44.322   01 Jun 2027 04:38:50.251             5.929                 Moscow           185.281
        11   01 Jun 2027 04:38:58.142   01 Jun 2027 04:39:23.027            24.885                Norilsk           777.656
        12   01 Jun 2027 04:39:43.343   01 Jun 2027 04:39:43.580             0.237                 Moscow             7.406
        13   01 Jun 2027 04:39:45.234   01 Jun 2027 04:40:50.675            65.441              Murmansk2          2045.031
        14   01 Jun 2027 04:40:56.210   01 Jun 2027 04:41:25.062            28.852                 Moscow           901.625
        15   01 Jun 2027 04:57:47.187   01 Jun 2027 04:58:08.855            21.668               CapeTown           677.125
        16   01 Jun 2027 04:58:41.321   01 Jun 2027 04:59:06.861            25.540               CapeTown           798.125
        17   01 Jun 2027 05:54:00.169   01 Jun 2027 05:54:27.596            27.427                Anadyr1           857.094
        18   01 Jun 2027 05:55:15.658   01 Jun 2027 05:56:05.325            49.667                Anadyr2          1552.094
        19   01 Jun 2027 06:11:53.907   01 Jun 2027 06:11:54.788             0.881                Novosib            27.531
        20   01 Jun 2027 06:14:04.801   01 Jun 2027 06:14:23.537            18.736              Murmansk1           585.500
        21   01 Jun 2027 06:14:23.537   01 Jun 2027 06:15:04.774            41.237              Murmansk2          1288.656
        22   01 Jun 2027 06:15:12.851   01 Jun 2027 06:15:58.987            46.136                 Moscow          1441.750
        23   01 Jun 2027 06:16:09.030   01 Jun 2027 06:16:33.877            24.847              Murmansk1           776.469
        24   01 Jun 2027 06:32:34.169   01 Jun 2027 06:34:18.673           104.504               CapeTown          3265.750
        25   01 Jun 2027 07:35:44.184   01 Jun 2027 07:36:23.696            39.512               Magadan2          1234.750
        26   01 Jun 2027 07:36:26.853   01 Jun 2027 07:38:08.875           102.022               Magadan1          3188.187
        27   01 Jun 2027 09:12:34.158   01 Jun 2027 09:13:57.384            83.226                Anadyr1          2600.813
        28   01 Jun 2027 09:14:58.932   01 Jun 2027 09:16:18.630            79.698                Anadyr2          2490.562
        29   01 Jun 2027 09:16:18.630   01 Jun 2027 09:17:32.713            74.083                Anadyr1          2315.094
        30   01 Jun 2027 09:17:32.713   01 Jun 2027 09:17:38.893             6.180                Anadyr2           193.125
        31   01 Jun 2027 09:22:19.300   01 Jun 2027 09:22:57.091            37.791                 Moscow          1180.969
        32   01 Jun 2027 10:48:11.727   01 Jun 2027 10:53:01.719           289.992               Magadan1          9062.250
        33   01 Jun 2027 13:57:30.161   01 Jun 2027 14:00:51.695           201.534                Irkutsk          6297.937
        34   01 Jun 2027 15:26:56.977   01 Jun 2027 15:29:38.748           161.771                  Delhi          5055.344
        35   01 Jun 2027 15:33:23.564   01 Jun 2027 15:34:41.835            78.271                Novosib          2445.969
        36   01 Jun 2027 15:38:15.202   01 Jun 2027 15:40:06.935           111.733                Novosib          3491.656
        37   01 Jun 2027 18:47:38.609   01 Jun 2027 18:51:35.518           236.909                 Moscow          7403.406
        38   01 Jun 2027 19:57:49.858   01 Jun 2027 19:58:46.066            56.208               CapeTown          1756.500
        39   01 Jun 2027 20:01:45.957   01 Jun 2027 20:03:00.746            74.789               CapeTown          2337.156
        40   01 Jun 2027 20:30:41.797   01 Jun 2027 20:34:43.358           241.561              Murmansk2          7548.781
        41   01 Jun 2027 22:13:25.297   01 Jun 2027 22:17:43.353           258.056                Anadyr2          8064.250
        42   01 Jun 2027 22:17:59.498   01 Jun 2027 22:18:43.254            43.756                Norilsk          1367.375
        43   01 Jun 2027 22:19:00.137   01 Jun 2027 22:19:47.269            47.132               Magadan1          1472.875
        44   01 Jun 2027 22:20:09.517   01 Jun 2027 22:20:48.476            38.959               Magadan2          1217.469
        45   01 Jun 2027 23:08:04.321   01 Jun 2027 23:10:03.592           119.271            RioGallegos          3727.219
        46   01 Jun 2027 23:49:06.092   01 Jun 2027 23:51:06.620           120.528                Anadyr2          3766.500
        47   01 Jun 2027 23:51:14.131   01 Jun 2027 23:52:54.066            99.935                Norilsk          3122.969
        48   01 Jun 2027 23:53:23.356   01 Jun 2027 23:53:42.737            19.381               Magadan1           605.656
        49   01 Jun 2027 23:54:18.444   01 Jun 2027 23:54:52.945            34.501               Magadan2          1078.156
        50   01 Jun 2027 23:55:32.751   01 Jun 2027 23:56:49.979            77.228                Irkutsk          2413.375
        51   01 Jun 2027 23:57:45.215   01 Jun 2027 23:58:33.907            48.692                Irkutsk          1521.625
        52   01 Jun 2027 23:59:45.670   02 Jun 2027 00:00:15.167            29.497                Novosib           921.781
        53   02 Jun 2027 00:10:01.668   02 Jun 2027 00:11:05.854            64.186                Sumatra          2005.813
        54   02 Jun 2027 00:43:14.746   02 Jun 2027 00:43:24.879            10.133            RioGallegos           316.656
        55   02 Jun 2027 00:44:06.919   02 Jun 2027 00:44:46.329            39.410            RioGallegos          1231.562
        56   02 Jun 2027 00:52:36.925   02 Jun 2027 00:52:42.733             5.808            RioGallegos           181.500
        57   02 Jun 2027 01:23:59.105   02 Jun 2027 01:25:49.196           110.091                Anadyr2          3440.344
        58   02 Jun 2027 01:26:15.601   02 Jun 2027 01:26:47.245            31.644                Anadyr1           988.875
        59   02 Jun 2027 01:27:10.522   02 Jun 2027 01:28:57.956           107.434                Norilsk          3357.312
        60   02 Jun 2027 01:29:20.108   02 Jun 2027 01:29:36.158            16.050               Magadan2           501.562
        61   02 Jun 2027 01:31:02.913   02 Jun 2027 01:32:42.146            99.233                Irkutsk          3101.031
        62   02 Jun 2027 01:35:52.827   02 Jun 2027 01:36:00.760             7.933                Irkutsk           247.906
        63   02 Jun 2027 01:36:49.962   02 Jun 2027 01:37:21.503            31.541                Novosib           985.656
        64   02 Jun 2027 01:39:39.925   02 Jun 2027 01:39:49.745             9.820                Novosib           306.875
        65   02 Jun 2027 01:40:04.405   02 Jun 2027 01:40:39.464            35.059                Irkutsk          1095.594
        66   02 Jun 2027 01:46:02.769   02 Jun 2027 01:46:40.786            38.017                Sumatra          1188.031
        67   02 Jun 2027 01:48:32.637   02 Jun 2027 01:49:48.983            76.346                Sumatra          2385.812
        68   02 Jun 2027 02:20:55.646   02 Jun 2027 02:22:34.515            98.869            RioGallegos          3089.656
        69   02 Jun 2027 02:58:31.186   02 Jun 2027 02:58:54.055            22.869                Anadyr2           714.656
        70   02 Jun 2027 03:09:11.273   02 Jun 2027 03:10:42.472            91.199                Norilsk          2849.969
        71   02 Jun 2027 03:10:42.576   02 Jun 2027 03:11:21.174            38.598                Irkutsk          1206.188
        72   02 Jun 2027 03:11:50.156   02 Jun 2027 03:13:49.960           119.804              Murmansk1          3743.875
        73   02 Jun 2027 03:14:27.357   02 Jun 2027 03:16:11.260           103.903                  Delhi          3246.969
        74   02 Jun 2027 03:17:10.133   02 Jun 2027 03:17:14.438             4.305                Irkutsk           134.531
        75   02 Jun 2027 04:47:10.692   02 Jun 2027 04:47:19.611             8.919                Novosib           278.719
        76   02 Jun 2027 04:47:50.843   02 Jun 2027 04:48:54.374            63.531                Novosib          1985.344
        77   02 Jun 2027 04:50:02.182   02 Jun 2027 04:52:07.206           125.024                 Moscow          3907.000
        78   02 Jun 2027 04:52:29.586   02 Jun 2027 04:52:47.813            18.227              Murmansk1           569.594
        79   02 Jun 2027 04:52:57.945   02 Jun 2027 04:53:16.768            18.823                Novosib           588.219
        80   02 Jun 2027 04:53:54.098   02 Jun 2027 04:56:53.944           179.846                 Moscow          5620.188
        81   02 Jun 2027 05:09:21.113   02 Jun 2027 05:12:26.852           185.739               CapeTown          5804.344
        82   02 Jun 2027 06:05:19.547   02 Jun 2027 06:07:48.202           148.655                Anadyr1          4645.469
        83   02 Jun 2027 06:07:48.202   02 Jun 2027 06:08:05.742            17.540                Anadyr2           548.125
        84   02 Jun 2027 06:25:36.181   02 Jun 2027 06:26:10.989            34.808              Murmansk1          1087.750
        85   02 Jun 2027 06:26:52.395   02 Jun 2027 06:28:07.256            74.861              Murmansk2          2339.406
        86   02 Jun 2027 06:28:07.256   02 Jun 2027 06:28:35.953            28.697              Murmansk1           896.781
        87   02 Jun 2027 06:28:35.953   02 Jun 2027 06:28:58.688            22.735              Murmansk2           710.469
        88   02 Jun 2027 06:28:58.688   02 Jun 2027 06:29:29.820            31.132              Murmansk1           972.875
        89   02 Jun 2027 06:29:31.064   02 Jun 2027 06:31:53.412           142.348                 Moscow          4448.375
        90   02 Jun 2027 06:44:51.276   02 Jun 2027 06:46:13.086            81.810               CapeTown          2556.563
        91   02 Jun 2027 07:47:20.341   02 Jun 2027 07:47:29.057             8.716               Magadan1           272.375
        92   02 Jun 2027 07:47:55.029   02 Jun 2027 07:50:23.151           148.122               Magadan1          4628.813
        93   02 Jun 2027 09:24:49.497   02 Jun 2027 09:25:25.904            36.407               Magadan2          1137.719
        94   02 Jun 2027 09:25:34.476   02 Jun 2027 09:25:48.345            13.869               Magadan1           433.406
        95   02 Jun 2027 09:25:55.901   02 Jun 2027 09:29:34.531           218.630                Anadyr2          6832.188
        96   02 Jun 2027 10:55:27.577   02 Jun 2027 10:57:05.158            97.581               Magadan1          3049.406
        97   02 Jun 2027 10:58:41.032   02 Jun 2027 11:04:52.915           371.883               Magadan2         11621.344
        98   02 Jun 2027 11:05:16.861   02 Jun 2027 11:05:29.896            13.035              Murmansk1           407.344
        99   02 Jun 2027 11:05:54.537   02 Jun 2027 11:06:17.633            23.096              Murmansk1           721.750
       100   02 Jun 2027 11:40:01.893   02 Jun 2027 11:40:12.847            10.954            RioGallegos           342.312
       101   02 Jun 2027 11:41:08.982   02 Jun 2027 11:42:18.186            69.204            RioGallegos          2162.625
       102   02 Jun 2027 12:15:18.613   02 Jun 2027 12:15:59.243            40.630                Sumatra          1269.687
       103   02 Jun 2027 12:16:36.405   02 Jun 2027 12:17:17.160            40.755                Sumatra          1273.594
       104   02 Jun 2027 12:28:37.146   02 Jun 2027 12:30:23.291           106.145                Irkutsk          3317.031
       105   02 Jun 2027 12:30:24.624   02 Jun 2027 12:30:36.184            11.560                Novosib           361.250
       106   02 Jun 2027 12:32:42.583   02 Jun 2027 12:32:54.931            12.348                Irkutsk           385.875
       107   02 Jun 2027 12:33:22.397   02 Jun 2027 12:35:14.081           111.684                Norilsk          3490.125
       108   02 Jun 2027 13:18:07.563   02 Jun 2027 13:20:37.156           149.593            RioGallegos          4674.781
       109   02 Jun 2027 13:52:23.227   02 Jun 2027 13:53:47.172            83.945                Sumatra          2623.281
       110   02 Jun 2027 13:55:47.421   02 Jun 2027 13:57:13.819            86.398                Sumatra          2699.938
       111   02 Jun 2027 13:59:06.310   02 Jun 2027 14:01:30.974           144.664                Sumatra          4520.750
       112   02 Jun 2027 14:09:12.347   02 Jun 2027 14:12:30.001           197.654                Irkutsk          6176.688
       113   02 Jun 2027 15:37:51.410   02 Jun 2027 15:42:12.336           260.926                  Delhi          8153.937
       114   02 Jun 2027 15:49:35.913   02 Jun 2027 15:49:56.284            20.371                Norilsk           636.594
       115   02 Jun 2027 15:50:03.672   02 Jun 2027 15:50:37.698            34.026                Novosib          1063.312
       116   02 Jun 2027 15:52:33.524   02 Jun 2027 15:52:58.954            25.430                Novosib           794.687
       117   02 Jun 2027 15:54:25.738   02 Jun 2027 15:54:36.580            10.842                Norilsk           338.812
       118   02 Jun 2027 17:20:00.878   02 Jun 2027 17:20:38.200            37.322                 Moscow          1166.313
       119   02 Jun 2027 17:22:39.640   02 Jun 2027 17:24:35.929           116.289                 Moscow          3634.031
       120   02 Jun 2027 17:27:34.672   02 Jun 2027 17:27:55.964            21.292              Murmansk1           665.375
       121   02 Jun 2027 17:31:42.221   02 Jun 2027 17:31:47.976             5.755              Murmansk1           179.844
       122   02 Jun 2027 17:38:27.209   02 Jun 2027 17:39:13.866            46.657                Anadyr1          1458.031
       123   02 Jun 2027 17:39:14.795   02 Jun 2027 17:39:29.997            15.202                Anadyr2           475.062
       124   02 Jun 2027 17:40:02.703   02 Jun 2027 17:40:36.095            33.392                Anadyr2          1043.500
       125   02 Jun 2027 18:32:59.850   02 Jun 2027 18:35:25.014           145.164               CapeTown          4536.375
       126   02 Jun 2027 19:00:50.719   02 Jun 2027 19:04:46.741           236.022                 Moscow          7375.687
       127   02 Jun 2027 19:06:00.096   02 Jun 2027 19:06:32.447            32.351              Murmansk2          1010.969
       128   02 Jun 2027 19:18:36.660   02 Jun 2027 19:19:26.465            49.805               Magadan1          1556.406
       129   02 Jun 2027 20:10:17.674   02 Jun 2027 20:10:54.314            36.640               CapeTown          1145.000
       130   02 Jun 2027 20:13:35.308   02 Jun 2027 20:15:22.262           106.954               CapeTown          3342.313
       131   02 Jun 2027 20:44:07.986   02 Jun 2027 20:46:02.648           114.662              Murmansk2          3583.188
       132   02 Jun 2027 20:52:01.370   02 Jun 2027 20:53:10.259            68.889               Magadan2          2152.781
       133   02 Jun 2027 20:53:27.373   02 Jun 2027 20:53:42.819            15.446               Magadan2           482.687
       134   02 Jun 2027 20:54:26.024   02 Jun 2027 20:55:39.505            73.481               Magadan2          2296.281
       135   02 Jun 2027 20:58:05.207   02 Jun 2027 20:58:24.330            19.123               Magadan2           597.594
       136   02 Jun 2027 20:58:24.330   02 Jun 2027 20:58:42.177            17.847               Magadan1           557.719
       137   02 Jun 2027 20:59:43.198   02 Jun 2027 21:00:32.163            48.965               Magadan1          1530.156
       138   02 Jun 2027 22:25:26.407   02 Jun 2027 22:27:16.410           110.003                Anadyr2          3437.594
       139   02 Jun 2027 22:27:27.644   02 Jun 2027 22:30:30.737           183.093                Anadyr1          5721.656
       140   02 Jun 2027 22:30:38.358   02 Jun 2027 22:32:05.180            86.822                Norilsk          2713.188
       141   02 Jun 2027 22:32:29.777   02 Jun 2027 22:32:38.837             9.060               Magadan1           283.125
       142   02 Jun 2027 22:32:50.436   02 Jun 2027 22:32:59.744             9.308               Magadan1           290.875
       143   02 Jun 2027 22:32:59.744   02 Jun 2027 22:33:22.232            22.488               Magadan2           702.750
       144   02 Jun 2027 22:34:42.900   02 Jun 2027 22:34:47.828             4.928               Magadan1           154.000
       145   02 Jun 2027 23:19:51.540   02 Jun 2027 23:21:58.706           127.166            RioGallegos          3973.938
       146   02 Jun 2027 23:22:47.601   02 Jun 2027 23:23:28.907            41.306            RioGallegos          1290.813
       147   02 Jun 2027 23:28:19.826   02 Jun 2027 23:29:00.897            41.071            RioGallegos          1283.469
       148   03 Jun 2027 00:01:03.348   03 Jun 2027 00:01:55.107            51.759                Anadyr2          1617.469
       149   03 Jun 2027 00:01:57.642   03 Jun 2027 00:02:36.651            39.009                Anadyr1          1219.031
       150   03 Jun 2027 00:03:14.862   03 Jun 2027 00:04:59.394           104.532                Norilsk          3266.625
       151   03 Jun 2027 00:06:02.537   03 Jun 2027 00:06:19.481            16.944                Norilsk           529.500
       152   03 Jun 2027 00:06:28.647   03 Jun 2027 00:07:30.484            61.837               Magadan1          1932.406
       153   03 Jun 2027 00:08:19.117   03 Jun 2027 00:08:51.414            32.297                Irkutsk          1009.281
       154   03 Jun 2027 00:09:19.880   03 Jun 2027 00:09:49.456            29.576                Novosib           924.250
       155   03 Jun 2027 00:10:07.863   03 Jun 2027 00:10:59.194            51.331                Irkutsk          1604.094
       156   03 Jun 2027 00:11:42.093   03 Jun 2027 00:12:42.389            60.296                Novosib          1884.250
       157   03 Jun 2027 00:21:55.357   03 Jun 2027 00:23:20.570            85.213                Sumatra          2662.906
       158   03 Jun 2027 00:55:08.843   03 Jun 2027 00:55:12.679             3.836            RioGallegos           119.875
       159   03 Jun 2027 00:55:29.892   03 Jun 2027 00:55:37.220             7.328            RioGallegos           229.000
       160   03 Jun 2027 00:58:26.782   03 Jun 2027 00:58:31.191             4.409            RioGallegos           137.781
       161   03 Jun 2027 00:58:59.975   03 Jun 2027 00:59:15.129            15.154            RioGallegos           473.563
       162   03 Jun 2027 01:00:54.098   03 Jun 2027 01:01:11.559            17.461            RioGallegos           545.656
       163   03 Jun 2027 01:02:53.559   03 Jun 2027 01:03:11.625            18.066            RioGallegos           564.563
       164   03 Jun 2027 01:05:14.531   03 Jun 2027 01:05:20.227             5.696            RioGallegos           178.000
       165   03 Jun 2027 01:06:09.288   03 Jun 2027 01:06:38.548            29.260            RioGallegos           914.375
       166   03 Jun 2027 01:35:47.418   03 Jun 2027 01:36:04.871            17.453                Anadyr2           545.406
       167   03 Jun 2027 01:36:21.399   03 Jun 2027 01:37:57.957            96.558                Anadyr2          3017.438
       168   03 Jun 2027 01:39:12.922   03 Jun 2027 01:40:40.436            87.514                Norilsk          2734.812
       169   03 Jun 2027 01:40:48.494   03 Jun 2027 01:41:09.467            20.973               Magadan2           655.406
       170   03 Jun 2027 01:43:05.893   03 Jun 2027 01:44:54.958           109.065                Irkutsk          3408.281
       171   03 Jun 2027 01:45:18.301   03 Jun 2027 01:46:41.331            83.030                Novosib          2594.688
       172   03 Jun 2027 01:55:08.290   03 Jun 2027 01:55:41.212            32.922                  Delhi          1028.812
       173   03 Jun 2027 02:01:09.199   03 Jun 2027 02:01:52.834            43.635                  Delhi          1363.594
       174   03 Jun 2027 02:04:54.640   03 Jun 2027 02:07:03.892           129.252                Sumatra          4039.125
       175   03 Jun 2027 02:39:26.813   03 Jun 2027 02:40:13.527            46.714            RioGallegos          1459.812
       176   03 Jun 2027 03:21:56.838   03 Jun 2027 03:23:14.055            77.217                Irkutsk          2413.031
       177   03 Jun 2027 03:23:59.461   03 Jun 2027 03:24:24.250            24.789              Murmansk1           774.656
       178   03 Jun 2027 03:24:42.547   03 Jun 2027 03:25:17.343            34.796              Murmansk2          1087.375
       179   03 Jun 2027 03:25:17.343   03 Jun 2027 03:26:08.702            51.359              Murmansk1          1604.969
       180   03 Jun 2027 03:27:02.269   03 Jun 2027 03:28:08.104            65.835                Irkutsk          2057.344
       181   03 Jun 2027 05:00:16.245   03 Jun 2027 05:00:24.092             7.847                 Moscow           245.219
       182   03 Jun 2027 05:00:35.774   03 Jun 2027 05:00:53.969            18.195              Murmansk2           568.594
       183   03 Jun 2027 05:00:53.969   03 Jun 2027 05:01:07.139            13.170              Murmansk1           411.562
       184   03 Jun 2027 05:01:31.924   03 Jun 2027 05:02:33.250            61.326                 Moscow          1916.438
       185   03 Jun 2027 05:02:38.741   03 Jun 2027 05:04:05.534            86.793              Murmansk1          2712.281
       186   03 Jun 2027 05:04:18.524   03 Jun 2027 05:04:56.978            38.454                 Moscow          1201.687
       187   03 Jun 2027 05:05:58.618   03 Jun 2027 05:06:14.719            16.101                 Moscow           503.156
       188   03 Jun 2027 05:07:07.491   03 Jun 2027 05:07:27.512            20.021                 Moscow           625.656
       189   03 Jun 2027 05:08:08.025   03 Jun 2027 05:08:19.769            11.744                 Moscow           367.000
       190   03 Jun 2027 05:21:01.223   03 Jun 2027 05:22:29.388            88.165               CapeTown          2755.156
       191   03 Jun 2027 05:23:24.618   03 Jun 2027 05:24:19.782            55.164               CapeTown          1723.875
       192   03 Jun 2027 06:24:20.573   03 Jun 2027 06:24:49.879            29.306                Anadyr1           915.812
       193   03 Jun 2027 06:24:52.015   03 Jun 2027 06:25:58.112            66.097                Anadyr2          2065.531
       194   03 Jun 2027 06:34:19.469   03 Jun 2027 06:34:38.694            19.225                 Moscow           600.781
       195   03 Jun 2027 06:35:32.086   03 Jun 2027 06:35:40.002             7.916                 Moscow           247.375
       196   03 Jun 2027 06:35:43.019   03 Jun 2027 06:35:52.149             9.130                Norilsk           285.312
       197   03 Jun 2027 06:36:10.132   03 Jun 2027 06:36:52.579            42.447              Murmansk1          1326.469
       198   03 Jun 2027 06:36:57.602   03 Jun 2027 06:36:58.985             1.383                Norilsk            43.219
       199   03 Jun 2027 06:37:16.663   03 Jun 2027 06:37:55.999            39.336                 Moscow          1229.250
       200   03 Jun 2027 06:37:58.718   03 Jun 2027 06:38:19.845            21.127              Murmansk1           660.219
       201   03 Jun 2027 06:38:37.283   03 Jun 2027 06:38:48.907            11.624                 Moscow           363.250
       202   03 Jun 2027 06:39:30.765   03 Jun 2027 06:40:12.434            41.669                 Moscow          1302.156
       203   03 Jun 2027 06:57:15.087   03 Jun 2027 06:58:12.549            57.462               CapeTown          1795.688
       204   03 Jun 2027 07:02:01.313   03 Jun 2027 07:02:26.089            24.776               CapeTown           774.250
       205   03 Jun 2027 07:58:17.367   03 Jun 2027 07:59:08.258            50.891                Anadyr2          1590.344
       206   03 Jun 2027 07:59:16.021   03 Jun 2027 07:59:24.940             8.919               Magadan2           278.719
       207   03 Jun 2027 07:59:57.409   03 Jun 2027 08:00:24.405            26.996               Magadan2           843.625
       208   03 Jun 2027 08:00:24.405   03 Jun 2027 08:01:33.855            69.450               Magadan1          2170.312
       209   03 Jun 2027 08:01:49.174   03 Jun 2027 08:02:40.191            51.017               Magadan2          1594.281
       210   03 Jun 2027 08:05:11.459   03 Jun 2027 08:05:18.281             6.822              Murmansk2           213.188
       211   03 Jun 2027 08:10:29.544   03 Jun 2027 08:11:08.655            39.111                 Moscow          1222.219
       212   03 Jun 2027 08:48:41.546   03 Jun 2027 08:48:49.932             8.386            RioGallegos           262.063
       213   03 Jun 2027 09:32:03.582   03 Jun 2027 09:32:54.124            50.542               Magadan2          1579.437
       214   03 Jun 2027 09:33:51.988   03 Jun 2027 09:33:54.563             2.575               Magadan2            80.469
       215   03 Jun 2027 09:34:06.992   03 Jun 2027 09:35:22.140            75.148                Anadyr1          2348.375
       216   03 Jun 2027 09:35:46.169   03 Jun 2027 09:36:37.649            51.480               Magadan1          1608.750
       217   03 Jun 2027 09:36:37.649   03 Jun 2027 09:37:49.633            71.984               Magadan2          2249.500
       218   03 Jun 2027 09:37:53.483   03 Jun 2027 09:38:22.850            29.367                Anadyr2           917.719
       219   03 Jun 2027 09:38:41.993   03 Jun 2027 09:39:14.961            32.968                Norilsk          1030.250
       220   03 Jun 2027 09:39:17.509   03 Jun 2027 09:39:28.814            11.305                Norilsk           353.281
       221   03 Jun 2027 09:40:10.462   03 Jun 2027 09:41:37.813            87.351               Magadan2          2729.719
       222   03 Jun 2027 10:17:22.595   03 Jun 2027 10:17:51.144            28.549            RioGallegos           892.156
       223   03 Jun 2027 11:09:38.345   03 Jun 2027 11:12:49.903           191.558               Magadan1          5986.188
       224   03 Jun 2027 11:13:08.337   03 Jun 2027 11:16:40.915           212.578               Magadan1          6643.063
       225   03 Jun 2027 11:16:59.590   03 Jun 2027 11:17:02.561             2.971                Norilsk            92.844
       226   03 Jun 2027 11:17:02.940   03 Jun 2027 11:17:07.853             4.913              Murmansk2           153.531
       227   03 Jun 2027 11:17:12.274   03 Jun 2027 11:17:30.711            18.437              Murmansk1           576.156
       228   03 Jun 2027 11:17:56.197   03 Jun 2027 11:18:15.167            18.970              Murmansk2           592.812
       229   03 Jun 2027 11:19:50.815   03 Jun 2027 11:19:51.972             1.157              Murmansk1            36.156
       230   03 Jun 2027 11:20:09.078   03 Jun 2027 11:20:23.199            14.121                Norilsk           441.281
       231   03 Jun 2027 11:52:05.816   03 Jun 2027 11:52:57.523            51.707            RioGallegos          1615.844
       232   03 Jun 2027 11:55:20.900   03 Jun 2027 11:55:33.963            13.063            RioGallegos           408.219
       233   03 Jun 2027 12:27:07.046   03 Jun 2027 12:29:46.757           159.711                Sumatra          4990.969
       234   03 Jun 2027 12:40:48.479   03 Jun 2027 12:41:15.976            27.497                Irkutsk           859.281
       235   03 Jun 2027 12:42:16.079   03 Jun 2027 12:43:00.308            44.229                Novosib          1382.156
       236   03 Jun 2027 12:44:27.473   03 Jun 2027 12:45:15.950            48.477                Irkutsk          1514.906
       237   03 Jun 2027 12:45:26.210   03 Jun 2027 12:46:27.780            61.570                Norilsk          1924.063
       238   03 Jun 2027 13:30:50.527   03 Jun 2027 13:32:53.359           122.832            RioGallegos          3838.500
       239   03 Jun 2027 14:05:18.568   03 Jun 2027 14:09:43.542           264.974                Sumatra          8280.438
       240   03 Jun 2027 14:21:10.784   03 Jun 2027 14:24:26.070           195.286                Irkutsk          6102.688
       241   03 Jun 2027 15:51:19.871   03 Jun 2027 15:54:39.807           199.936                  Delhi          6248.000
       242   03 Jun 2027 16:01:47.969   03 Jun 2027 16:03:27.752            99.783                Novosib          3118.219
       243   03 Jun 2027 16:06:26.435   03 Jun 2027 16:07:21.216            54.781                Norilsk          1711.906
       244   03 Jun 2027 17:11:40.464   03 Jun 2027 17:13:00.942            80.478               CapeTown          2514.938
       245   03 Jun 2027 17:32:19.343   03 Jun 2027 17:33:21.334            61.991                 Moscow          1937.219
       246   03 Jun 2027 17:35:40.922   03 Jun 2027 17:36:19.110            38.188              Murmansk2          1193.375
       247   03 Jun 2027 17:36:52.425   03 Jun 2027 17:37:44.882            52.457              Murmansk2          1639.281
       248   03 Jun 2027 17:44:04.269   03 Jun 2027 17:44:21.633            17.364              Murmansk1           542.625
       249   03 Jun 2027 17:50:16.969   03 Jun 2027 17:51:15.306            58.337                Anadyr2          1823.031
       250   03 Jun 2027 17:52:27.152   03 Jun 2027 17:52:43.328            16.176                Anadyr1           505.500
       251   03 Jun 2027 17:53:23.420   03 Jun 2027 17:53:47.350            23.930                Anadyr1           747.812
       252   03 Jun 2027 18:45:00.385   03 Jun 2027 18:47:15.312           134.927               CapeTown          4216.469
       253   03 Jun 2027 19:14:27.471   03 Jun 2027 19:19:35.711           308.240              Murmansk1          9632.500
       254   03 Jun 2027 19:29:44.288   03 Jun 2027 19:30:22.345            38.057               Magadan1          1189.281
       255   03 Jun 2027 20:22:56.514   03 Jun 2027 20:24:33.831            97.317               CapeTown          3041.156
       256   03 Jun 2027 20:25:19.302   03 Jun 2027 20:27:28.458           129.156               CapeTown          4036.125
       257   03 Jun 2027 21:02:26.522   03 Jun 2027 21:02:56.900            30.378                Anadyr1           949.312
       258   03 Jun 2027 21:03:48.422   03 Jun 2027 21:04:45.979            57.557                Anadyr2          1798.656
       259   03 Jun 2027 21:04:56.630   03 Jun 2027 21:06:50.191           113.561               Magadan1          3548.781
       260   03 Jun 2027 21:07:04.379   03 Jun 2027 21:08:18.387            74.008               Magadan1          2312.750
       261   03 Jun 2027 22:37:27.239   03 Jun 2027 22:41:11.738           224.499                Anadyr1          7015.594
       262   03 Jun 2027 22:41:14.566   03 Jun 2027 22:43:02.706           108.140               Magadan1          3379.375
       263   03 Jun 2027 22:43:53.996   03 Jun 2027 22:44:02.296             8.300                Norilsk           259.375
       264   03 Jun 2027 22:44:09.283   03 Jun 2027 22:44:41.067            31.784               Magadan1           993.250
       265   03 Jun 2027 22:45:17.771   03 Jun 2027 22:45:20.091             2.320               Magadan1            72.500
       266   03 Jun 2027 22:46:13.781   03 Jun 2027 22:46:58.787            45.006                Irkutsk          1406.438
       267   03 Jun 2027 22:47:12.135   03 Jun 2027 22:47:41.408            29.273                Irkutsk           914.781
       268   03 Jun 2027 22:49:57.028   03 Jun 2027 22:50:16.651            19.623                Irkutsk           613.219
       269   03 Jun 2027 23:31:42.069   03 Jun 2027 23:33:20.499            98.430            RioGallegos          3075.938
       270   03 Jun 2027 23:33:35.096   03 Jun 2027 23:34:48.447            73.351            RioGallegos          2292.219
       271   03 Jun 2027 23:42:00.162   03 Jun 2027 23:42:27.586            27.424            RioGallegos           857.000
       272   04 Jun 2027 00:12:59.773   04 Jun 2027 00:13:44.203            44.430                Anadyr1          1388.438
       273   04 Jun 2027 00:14:01.525   04 Jun 2027 00:15:59.569           118.044                Anadyr2          3688.875
       274   04 Jun 2027 00:16:00.690   04 Jun 2027 00:16:09.871             9.181                Norilsk           286.906
       275   04 Jun 2027 00:16:11.251   04 Jun 2027 00:16:32.443            21.192               Magadan2           662.250
       276   04 Jun 2027 00:16:47.077   04 Jun 2027 00:17:01.601            14.524                Norilsk           453.875
       277   04 Jun 2027 00:17:20.044   04 Jun 2027 00:17:44.856            24.812               Magadan1           775.375
       278   04 Jun 2027 00:18:59.635   04 Jun 2027 00:19:22.848            23.213               Magadan1           725.406
       279   04 Jun 2027 00:20:15.755   04 Jun 2027 00:20:53.684            37.929                Irkutsk          1185.281
       280   04 Jun 2027 00:23:15.102   04 Jun 2027 00:23:44.648            29.546                Novosib           923.312
       281   04 Jun 2027 00:24:33.928   04 Jun 2027 00:24:40.708             6.780                Novosib           211.875
       282   04 Jun 2027 00:25:35.364   04 Jun 2027 00:25:52.163            16.799                Novosib           524.969
       283   04 Jun 2027 00:26:41.813   04 Jun 2027 00:26:43.884             2.071                Irkutsk            64.719
       284   04 Jun 2027 00:26:48.005   04 Jun 2027 00:27:05.958            17.953                Novosib           561.031
       285   04 Jun 2027 00:28:31.324   04 Jun 2027 00:28:53.475            22.151                Irkutsk           692.219
       286   04 Jun 2027 00:30:02.153   04 Jun 2027 00:30:30.396            28.243                Irkutsk           882.594
       287   04 Jun 2027 00:33:03.552   04 Jun 2027 00:33:42.977            39.425                Sumatra          1232.031
       288   04 Jun 2027 00:36:05.513   04 Jun 2027 00:36:25.073            19.560                Sumatra           611.250
       289   04 Jun 2027 00:37:56.949   04 Jun 2027 00:39:08.380            71.431                Sumatra          2232.219
       290   04 Jun 2027 01:10:39.437   04 Jun 2027 01:11:04.351            24.914            RioGallegos           778.562
       291   04 Jun 2027 01:12:01.833   04 Jun 2027 01:12:31.645            29.812            RioGallegos           931.625
       292   04 Jun 2027 01:17:40.934   04 Jun 2027 01:18:37.402            56.468            RioGallegos          1764.625
       293   04 Jun 2027 01:48:05.616   04 Jun 2027 01:49:00.112            54.496                Anadyr1          1703.000
       294   04 Jun 2027 01:49:41.040   04 Jun 2027 01:49:51.217            10.177                Anadyr2           318.031
       295   04 Jun 2027 01:50:03.297   04 Jun 2027 01:50:05.876             2.579                Anadyr1            80.594
       296   04 Jun 2027 01:51:15.343   04 Jun 2027 01:52:49.549            94.206                Norilsk          2943.937
       297   04 Jun 2027 01:52:52.360   04 Jun 2027 01:53:01.143             8.783                Norilsk           274.469
       298   04 Jun 2027 01:55:09.658   04 Jun 2027 01:56:55.212           105.554                Irkutsk          3298.563
       299   04 Jun 2027 01:57:12.059   04 Jun 2027 01:57:43.646            31.587                Novosib           987.094
       300   04 Jun 2027 01:58:10.572   04 Jun 2027 01:58:37.857            27.285                Novosib           852.656
       301   04 Jun 2027 02:02:45.902   04 Jun 2027 02:02:56.823            10.921                  Delhi           341.281
       302   04 Jun 2027 02:03:34.594   04 Jun 2027 02:03:47.039            12.445                  Delhi           388.906
       303   04 Jun 2027 02:06:56.415   04 Jun 2027 02:08:39.796           103.381                  Delhi          3230.656
       304   04 Jun 2027 02:13:33.846   04 Jun 2027 02:16:02.786           148.940                Sumatra          4654.375
       305   04 Jun 2027 02:50:36.555   04 Jun 2027 02:52:12.049            95.494            RioGallegos          2984.188
       306   04 Jun 2027 03:34:04.622   04 Jun 2027 03:34:22.856            18.234                Irkutsk           569.813
       307   04 Jun 2027 03:34:31.994   04 Jun 2027 03:34:55.956            23.962                Irkutsk           748.813
       308   04 Jun 2027 03:36:07.014   04 Jun 2027 03:36:44.199            37.185              Murmansk2          1162.031
       309   04 Jun 2027 03:37:01.450   04 Jun 2027 03:37:28.427            26.977                 Moscow           843.031
       310   04 Jun 2027 03:37:35.306   04 Jun 2027 03:38:38.979            63.673              Murmansk2          1989.781
       311   04 Jun 2027 03:38:38.979   04 Jun 2027 03:39:00.807            21.828              Murmansk1           682.125
       312   04 Jun 2027 03:41:45.331   04 Jun 2027 03:42:24.843            39.512                Novosib          1234.750
       313   04 Jun 2027 03:42:57.887   04 Jun 2027 03:43:16.803            18.916                Novosib           591.125
       314   04 Jun 2027 05:12:06.292   04 Jun 2027 05:12:22.087            15.795                 Moscow           493.594
       315   04 Jun 2027 05:12:24.737   04 Jun 2027 05:13:26.147            61.410                 Moscow          1919.062
       316   04 Jun 2027 05:14:02.079   04 Jun 2027 05:14:57.589            55.510              Murmansk2          1734.687
       317   04 Jun 2027 05:15:27.110   04 Jun 2027 05:15:38.451            11.341              Murmansk1           354.406
       318   04 Jun 2027 05:15:41.810   04 Jun 2027 05:16:07.298            25.488                 Moscow           796.500
       319   04 Jun 2027 05:16:12.965   04 Jun 2027 05:16:23.382            10.417              Murmansk1           325.531
       320   04 Jun 2027 05:16:24.792   04 Jun 2027 05:16:43.404            18.612              Murmansk2           581.625
       321   04 Jun 2027 05:16:45.626   04 Jun 2027 05:17:41.278            55.652              Murmansk1          1739.125
       322   04 Jun 2027 05:18:03.646   04 Jun 2027 05:18:14.141            10.495                 Moscow           327.969
       323   04 Jun 2027 05:19:26.790   04 Jun 2027 05:19:58.510            31.720                 Moscow           991.250
       324   04 Jun 2027 05:20:41.008   04 Jun 2027 05:21:20.381            39.373                 Moscow          1230.406
       325   04 Jun 2027 05:32:46.921   04 Jun 2027 05:33:25.956            39.035               CapeTown          1219.844
       326   04 Jun 2027 05:44:43.036   04 Jun 2027 05:45:15.081            32.045               CapeTown          1001.406
       327   04 Jun 2027 06:36:05.296   04 Jun 2027 06:37:18.488            73.192               Magadan1          2287.250
       328   04 Jun 2027 06:38:48.996   04 Jun 2027 06:39:20.980            31.984                Anadyr2           999.500
       329   04 Jun 2027 06:47:39.181   04 Jun 2027 06:48:28.490            49.309                Norilsk          1540.906
       330   04 Jun 2027 06:49:03.796   04 Jun 2027 06:49:19.906            16.110              Murmansk1           503.437
       331   04 Jun 2027 06:50:18.907   04 Jun 2027 06:50:32.892            13.985                 Moscow           437.031
       332   04 Jun 2027 06:56:26.541   04 Jun 2027 06:56:47.329            20.788                 Moscow           649.625
       333   04 Jun 2027 07:09:46.934   04 Jun 2027 07:10:17.139            30.205               CapeTown           943.906
       334   04 Jun 2027 07:13:25.389   04 Jun 2027 07:14:45.299            79.910               CapeTown          2497.188
       335   04 Jun 2027 08:09:51.418   04 Jun 2027 08:10:11.179            19.761                Anadyr2           617.531
       336   04 Jun 2027 08:10:19.152   04 Jun 2027 08:11:19.569            60.417                Anadyr1          1888.031
       337   04 Jun 2027 08:11:59.544   04 Jun 2027 08:13:33.091            93.547               Magadan1          2923.344
       338   04 Jun 2027 08:13:52.211   04 Jun 2027 08:14:34.781            42.570               Magadan2          1330.313
       339   04 Jun 2027 08:14:37.608   04 Jun 2027 08:15:26.795            49.187               Magadan1          1537.094
       340   04 Jun 2027 08:16:44.309   04 Jun 2027 08:18:02.779            78.470                Anadyr2          2452.188
       341   04 Jun 2027 09:45:11.973   04 Jun 2027 09:45:31.457            19.484               Magadan1           608.875
       342   04 Jun 2027 09:45:44.366   04 Jun 2027 09:45:56.469            12.103               Magadan2           378.219
       343   04 Jun 2027 09:45:56.469   04 Jun 2027 09:46:43.436            46.967               Magadan1          1467.719
       344   04 Jun 2027 09:47:06.286   04 Jun 2027 09:51:15.924           249.638                Anadyr2          7801.187
       345   04 Jun 2027 09:51:35.240   04 Jun 2027 09:51:39.731             4.491                Norilsk           140.344
       346   04 Jun 2027 09:52:05.479   04 Jun 2027 09:52:30.415            24.936                Irkutsk           779.250
       347   04 Jun 2027 09:52:42.349   04 Jun 2027 09:53:35.973            53.624              Murmansk2          1675.750
       348   04 Jun 2027 10:29:03.760   04 Jun 2027 10:29:24.366            20.606            RioGallegos           643.937
       349   04 Jun 2027 10:30:53.623   04 Jun 2027 10:31:10.509            16.886            RioGallegos           527.688
       350   04 Jun 2027 10:37:37.992   04 Jun 2027 10:38:10.950            32.958            RioGallegos          1029.937
       351   04 Jun 2027 11:20:57.886   04 Jun 2027 11:28:24.201           446.315               Magadan2         13947.344
       352   04 Jun 2027 11:29:02.039   04 Jun 2027 11:29:05.440             3.401              Murmansk2           106.281
       353   04 Jun 2027 11:29:19.519   04 Jun 2027 11:29:26.479             6.960                Irkutsk           217.500
       354   04 Jun 2027 11:29:31.182   04 Jun 2027 11:29:57.823            26.641              Murmansk2           832.531
       355   04 Jun 2027 11:33:57.436   04 Jun 2027 11:34:08.378            10.942              Murmansk2           341.938
       356   04 Jun 2027 12:04:13.268   04 Jun 2027 12:04:59.044            45.776            RioGallegos          1430.500
       357   04 Jun 2027 12:10:59.722   04 Jun 2027 12:11:09.225             9.503            RioGallegos           296.969
       358   04 Jun 2027 12:13:07.455   04 Jun 2027 12:13:10.178             2.723            RioGallegos            85.094
       359   04 Jun 2027 12:39:01.511   04 Jun 2027 12:42:06.873           185.362                Sumatra          5792.563
       360   04 Jun 2027 12:54:10.289   04 Jun 2027 12:55:19.984            69.695                Novosib          2177.969
       361   04 Jun 2027 12:57:31.547   04 Jun 2027 12:58:48.864            77.317                Norilsk          2416.156
       362   04 Jun 2027 12:59:15.182   04 Jun 2027 13:00:15.853            60.671                Norilsk          1895.969
       363   04 Jun 2027 13:43:44.001   04 Jun 2027 13:44:48.222            64.221            RioGallegos          2006.906
       364   04 Jun 2027 13:45:25.473   04 Jun 2027 13:48:07.542           162.069            RioGallegos          5064.656
       365   04 Jun 2027 14:18:57.565   04 Jun 2027 14:22:05.132           187.567                Sumatra          5861.469
       366   04 Jun 2027 14:35:27.855   04 Jun 2027 14:35:42.301            14.446                Norilsk           451.437
       367   04 Jun 2027 14:36:05.812   04 Jun 2027 14:37:55.601           109.789                Irkutsk          3430.906
       368   04 Jun 2027 16:07:38.234   04 Jun 2027 16:08:50.640            72.406                 Moscow          2262.687
       369   04 Jun 2027 16:11:01.935   04 Jun 2027 16:12:16.008            74.073              Murmansk2          2314.781
       370   04 Jun 2027 16:14:35.601   04 Jun 2027 16:15:53.493            77.892                Norilsk          2434.125
       371   04 Jun 2027 16:16:40.235   04 Jun 2027 16:16:43.263             3.028                Norilsk            94.625
       372   04 Jun 2027 16:18:26.531   04 Jun 2027 16:20:10.903           104.372                Norilsk          3261.625
       373   04 Jun 2027 17:22:29.314   04 Jun 2027 17:22:49.615            20.301               CapeTown           634.406
       374   04 Jun 2027 17:23:26.954   04 Jun 2027 17:25:19.530           112.576               CapeTown          3518.000
       375   04 Jun 2027 17:44:41.850   04 Jun 2027 17:44:54.165            12.315                 Moscow           384.844
       376   04 Jun 2027 17:45:28.649   04 Jun 2027 17:46:31.527            62.878                 Moscow          1964.938
       377   04 Jun 2027 17:48:20.196   04 Jun 2027 17:49:00.030            39.834              Murmansk1          1244.812
       378   04 Jun 2027 17:49:40.791   04 Jun 2027 17:50:22.693            41.902              Murmansk1          1309.438
       379   04 Jun 2027 17:52:01.736   04 Jun 2027 17:52:26.062            24.326              Murmansk1           760.188
       380   04 Jun 2027 17:56:06.465   04 Jun 2027 17:57:44.349            97.884              Murmansk2          3058.875
       381   04 Jun 2027 18:57:03.711   04 Jun 2027 18:59:05.426           121.715               CapeTown          3803.594
       382   04 Jun 2027 19:08:16.961   04 Jun 2027 19:08:34.465            17.504               CapeTown           547.000
       383   04 Jun 2027 19:27:02.307   04 Jun 2027 19:32:27.504           325.197              Murmansk1         10162.406
       384   04 Jun 2027 19:33:09.038   04 Jun 2027 19:35:10.157           121.119              Murmansk1          3784.969
       385   04 Jun 2027 20:35:59.572   04 Jun 2027 20:37:21.150            81.578               CapeTown          2549.312
       386   04 Jun 2027 20:38:33.346   04 Jun 2027 20:40:16.129           102.783               CapeTown          3211.969
       387   04 Jun 2027 21:14:22.289   04 Jun 2027 21:14:28.787             6.498                Anadyr2           203.063
       388   04 Jun 2027 21:14:44.065   04 Jun 2027 21:15:23.128            39.063                Anadyr2          1220.719
       389   04 Jun 2027 21:15:57.089   04 Jun 2027 21:16:53.380            56.291               Magadan2          1759.094
       390   04 Jun 2027 21:16:53.380   04 Jun 2027 21:18:07.776            74.396               Magadan1          2324.875
       391   04 Jun 2027 21:20:01.795   04 Jun 2027 21:20:19.016            17.221               Magadan1           538.156
       392   04 Jun 2027 21:26:36.440   04 Jun 2027 21:26:42.743             6.303               Magadan1           196.969
       393   04 Jun 2027 22:49:27.752   04 Jun 2027 22:54:21.005           293.253                Anadyr2          9164.156
       394   04 Jun 2027 22:54:32.632   04 Jun 2027 22:56:49.540           136.908               Magadan1          4278.375
       395   04 Jun 2027 22:58:06.753   04 Jun 2027 22:59:23.437            76.684                Irkutsk          2396.375
       396   04 Jun 2027 23:14:06.397   04 Jun 2027 23:16:32.759           146.362                Sumatra          4573.813
       397   04 Jun 2027 23:44:59.328   04 Jun 2027 23:45:34.909            35.581            RioGallegos          1111.906
       398   04 Jun 2027 23:53:05.327   04 Jun 2027 23:53:49.059            43.732            RioGallegos          1366.625
       399   04 Jun 2027 23:55:06.249   04 Jun 2027 23:55:26.746            20.497            RioGallegos           640.531
       400   05 Jun 2027 00:24:55.264   05 Jun 2027 00:26:19.606            84.342                Anadyr1          2635.688
       401   05 Jun 2027 00:27:17.571   05 Jun 2027 00:29:03.846           106.275                Norilsk          3321.094
       402   05 Jun 2027 00:29:05.968   05 Jun 2027 00:29:31.124            25.156               Magadan2           786.125
       403   05 Jun 2027 00:31:18.704   05 Jun 2027 00:32:56.745            98.041                Irkutsk          3063.781
       404   05 Jun 2027 00:34:43.477   05 Jun 2027 00:35:19.573            36.096                Novosib          1128.000
       405   05 Jun 2027 00:38:27.649   05 Jun 2027 00:38:45.784            18.135                Irkutsk           566.719
       406   05 Jun 2027 00:39:46.537   05 Jun 2027 00:40:49.442            62.905                Novosib          1965.781
       407   05 Jun 2027 00:45:00.899   05 Jun 2027 00:45:23.779            22.880                Sumatra           715.000
       408   05 Jun 2027 00:47:44.023   05 Jun 2027 00:47:51.446             7.423                Sumatra           231.969
       409   05 Jun 2027 00:53:45.955   05 Jun 2027 00:54:37.078            51.123                Sumatra          1597.594
       410   05 Jun 2027 00:56:31.868   05 Jun 2027 00:57:05.992            34.124                Sumatra          1066.375
       411   05 Jun 2027 01:24:32.638   05 Jun 2027 01:24:43.101            10.463            RioGallegos           326.969
       412   05 Jun 2027 01:25:22.737   05 Jun 2027 01:25:36.369            13.632            RioGallegos           426.000
       413   05 Jun 2027 01:28:14.004   05 Jun 2027 01:28:21.634             7.630            RioGallegos           238.438
       414   05 Jun 2027 01:28:44.400   05 Jun 2027 01:28:51.834             7.434            RioGallegos           232.312
       415   05 Jun 2027 01:31:26.519   05 Jun 2027 01:31:50.550            24.031            RioGallegos           750.969
       416   05 Jun 2027 01:59:20.142   05 Jun 2027 02:00:06.097            45.955                Anadyr1          1436.094
       417   05 Jun 2027 02:01:01.453   05 Jun 2027 02:01:41.020            39.567                Anadyr2          1236.469
       418   05 Jun 2027 02:03:17.741   05 Jun 2027 02:05:03.226           105.485                Norilsk          3296.406
       419   05 Jun 2027 02:06:56.388   05 Jun 2027 02:07:06.872            10.484              Murmansk2           327.625
       420   05 Jun 2027 02:07:09.565   05 Jun 2027 02:08:22.651            73.086                Novosib          2283.937
       421   05 Jun 2027 02:08:36.284   05 Jun 2027 02:08:56.418            20.134                Irkutsk           629.187
       422   05 Jun 2027 02:10:09.335   05 Jun 2027 02:10:42.054            32.719                Novosib          1022.469
       423   05 Jun 2027 02:14:30.259   05 Jun 2027 02:14:57.001            26.742                Novosib           835.688
       424   05 Jun 2027 02:17:24.482   05 Jun 2027 02:17:50.242            25.760                  Delhi           805.000
       425   05 Jun 2027 02:22:37.117   05 Jun 2027 02:22:46.793             9.676                  Delhi           302.375
       426   05 Jun 2027 02:24:56.740   05 Jun 2027 02:26:22.305            85.565                  Delhi          2673.906
       427   05 Jun 2027 02:56:20.752   05 Jun 2027 02:57:12.782            52.030            RioGallegos          1625.937
       428   05 Jun 2027 02:57:44.910   05 Jun 2027 02:58:09.924            25.014            RioGallegos           781.688
       429   05 Jun 2027 02:58:51.262   05 Jun 2027 03:00:23.588            92.326            RioGallegos          2885.187
       430   05 Jun 2027 03:02:38.412   05 Jun 2027 03:03:50.069            71.657            RioGallegos          2239.281
       431   05 Jun 2027 03:46:17.580   05 Jun 2027 03:46:34.599            17.019                Irkutsk           531.844
       432   05 Jun 2027 03:47:15.695   05 Jun 2027 03:48:02.726            47.031                Norilsk          1469.719
       433   05 Jun 2027 03:49:12.232   05 Jun 2027 03:49:35.273            23.041                Norilsk           720.031
       434   05 Jun 2027 03:49:41.464   05 Jun 2027 03:50:02.637            21.173                 Moscow           661.656
       435   05 Jun 2027 03:50:10.592   05 Jun 2027 03:50:35.474            24.882                 Moscow           777.563
       436   05 Jun 2027 03:50:42.345   05 Jun 2027 03:51:31.693            49.348              Murmansk2          1542.125
       437   05 Jun 2027 03:52:28.175   05 Jun 2027 03:53:23.643            55.468                 Moscow          1733.375
       438   05 Jun 2027 03:53:54.930   05 Jun 2027 03:54:26.716            31.786                 Moscow           993.312
       439   05 Jun 2027 03:54:27.103   05 Jun 2027 03:54:28.503             1.400                Novosib            43.750
       440   05 Jun 2027 03:54:36.249   05 Jun 2027 03:54:57.695            21.446                Novosib           670.187
       441   05 Jun 2027 05:24:20.565   05 Jun 2027 05:24:44.528            23.963              Murmansk2           748.844
       442   05 Jun 2027 05:25:01.527   05 Jun 2027 05:25:19.114            17.587                 Moscow           549.594
       443   05 Jun 2027 05:25:49.789   05 Jun 2027 05:26:13.318            23.529              Murmansk1           735.281
       444   05 Jun 2027 05:26:31.065   05 Jun 2027 05:26:43.227            12.162              Murmansk2           380.063
       445   05 Jun 2027 05:26:52.570   05 Jun 2027 05:27:00.322             7.752                Novosib           242.250
       446   05 Jun 2027 05:27:11.031   05 Jun 2027 05:27:42.324            31.293                Novosib           977.906
       447   05 Jun 2027 05:27:45.048   05 Jun 2027 05:28:13.411            28.363                 Moscow           886.344
       448   05 Jun 2027 05:28:18.702   05 Jun 2027 05:28:47.238            28.536              Murmansk2           891.750
       449   05 Jun 2027 05:28:47.238   05 Jun 2027 05:29:33.123            45.885              Murmansk1          1433.906
       450   05 Jun 2027 05:29:49.058   05 Jun 2027 05:29:54.140             5.082              Murmansk1           158.813
       451   05 Jun 2027 05:31:01.873   05 Jun 2027 05:31:23.243            21.370                 Moscow           667.813
       452   05 Jun 2027 05:32:02.249   05 Jun 2027 05:32:53.746            51.497                 Moscow          1609.281
       453   05 Jun 2027 05:33:08.585   05 Jun 2027 05:33:28.582            19.997                 Moscow           624.906
       454   05 Jun 2027 05:44:37.856   05 Jun 2027 05:45:34.218            56.362               CapeTown          1761.313
       455   05 Jun 2027 05:52:35.067   05 Jun 2027 05:53:01.286            26.219               CapeTown           819.344
       456   05 Jun 2027 06:47:36.259   05 Jun 2027 06:48:24.006            47.747                Anadyr1          1492.094
       457   05 Jun 2027 06:48:33.985   05 Jun 2027 06:48:43.170             9.185               Magadan2           287.031
       458   05 Jun 2027 06:49:06.466   05 Jun 2027 06:49:44.316            37.850               Magadan1          1182.813
       459   05 Jun 2027 06:49:47.378   05 Jun 2027 06:50:10.987            23.609               Magadan1           737.781
       460   05 Jun 2027 06:50:19.756   05 Jun 2027 06:50:50.834            31.078                Anadyr2           971.188
       461   05 Jun 2027 06:59:47.823   05 Jun 2027 07:01:39.518           111.695                 Moscow          3490.469
       462   05 Jun 2027 07:24:30.275   05 Jun 2027 07:27:11.581           161.306               CapeTown          5040.812
       463   05 Jun 2027 08:21:53.150   05 Jun 2027 08:21:56.364             3.214               Magadan1           100.438
       464   05 Jun 2027 08:22:20.808   05 Jun 2027 08:23:33.246            72.438                Anadyr2          2263.687
       465   05 Jun 2027 08:24:01.388   05 Jun 2027 08:25:31.573            90.185               Magadan2          2818.281
       466   05 Jun 2027 08:25:36.985   05 Jun 2027 08:26:07.281            30.296                Norilsk           946.750
       467   05 Jun 2027 08:26:14.905   05 Jun 2027 08:27:38.951            84.046                Anadyr1          2626.437
       468   05 Jun 2027 09:08:50.539   05 Jun 2027 09:08:57.206             6.667            RioGallegos           208.344
       469   05 Jun 2027 09:09:26.572   05 Jun 2027 09:10:10.067            43.495            RioGallegos          1359.219
       470   05 Jun 2027 09:53:32.409   05 Jun 2027 09:53:41.223             8.814               Magadan1           275.437
       471   05 Jun 2027 09:57:01.314   05 Jun 2027 09:57:58.018            56.704               Magadan1          1772.000
       472   05 Jun 2027 09:58:08.618   05 Jun 2027 09:58:15.120             6.502               Magadan2           203.188
       473   05 Jun 2027 09:58:16.978   05 Jun 2027 10:01:43.414           206.436                Anadyr1          6451.125
       474   05 Jun 2027 10:01:43.414   05 Jun 2027 10:03:06.840            83.426                Anadyr2          2607.062
       475   05 Jun 2027 10:03:06.840   05 Jun 2027 10:05:07.244           120.404                Anadyr1          3762.625
       476   05 Jun 2027 11:34:36.866   05 Jun 2027 11:34:50.898            14.032                Norilsk           438.500
       477   05 Jun 2027 11:34:51.271   05 Jun 2027 11:35:08.558            17.287                Irkutsk           540.219
       478   05 Jun 2027 11:35:17.664   05 Jun 2027 11:36:32.608            74.944                Norilsk          2342.000
       479   05 Jun 2027 11:36:41.716   05 Jun 2027 11:39:59.635           197.919               Magadan1          6184.969
       480   05 Jun 2027 11:40:13.454   05 Jun 2027 11:40:54.880            41.426              Murmansk1          1294.562
       481   05 Jun 2027 11:40:55.131   05 Jun 2027 11:40:56.960             1.829              Murmansk2            57.156
       482   05 Jun 2027 11:41:00.488   05 Jun 2027 11:41:30.025            29.537                Irkutsk           923.031
