uniorb/output/strategy_2/Drop/Drop_KinoSat_111509.txt

KinoSat_111509
-------------------------
    Access    *     Start Time (UTCG)     *     Stop Time (UTCG)  *   Duration (s)        *       Station  *  Data (Mbytes)
         1   01 Jun 2027 04:20:21.165   01 Jun 2027 04:20:27.990             6.825                Norilsk           213.281
         2   01 Jun 2027 04:20:44.897   01 Jun 2027 04:22:07.361            82.464              Murmansk1          2577.000
         3   01 Jun 2027 04:22:42.073   01 Jun 2027 04:23:29.032            46.959              Murmansk1          1467.469
         4   01 Jun 2027 04:23:38.704   01 Jun 2027 04:24:25.965            47.261              Murmansk2          1476.906
         5   01 Jun 2027 04:38:58.850   01 Jun 2027 04:39:35.176            36.326               CapeTown          1135.187
         6   01 Jun 2027 05:42:21.290   01 Jun 2027 05:42:30.911             9.621               Magadan2           300.656
         7   01 Jun 2027 05:42:45.793   01 Jun 2027 05:44:51.892           126.099                Anadyr2          3940.594
         8   01 Jun 2027 05:44:51.892   01 Jun 2027 05:45:56.453            64.561                Anadyr1          2017.531
         9   01 Jun 2027 05:46:47.817   01 Jun 2027 05:47:46.847            59.030               Magadan1          1844.688
        10   01 Jun 2027 05:48:09.352   01 Jun 2027 05:48:09.865             0.513               Magadan2            16.031
        11   01 Jun 2027 07:20:45.691   01 Jun 2027 07:22:04.552            78.861                Anadyr2          2464.406
        12   01 Jun 2027 07:22:04.552   01 Jun 2027 07:24:26.291           141.739                Anadyr1          4429.344
        13   01 Jun 2027 08:53:54.050   01 Jun 2027 08:56:20.886           146.836               Magadan1          4588.625
        14   01 Jun 2027 08:57:09.574   01 Jun 2027 08:59:58.120           168.546               Magadan1          5267.062
        15   01 Jun 2027 09:40:43.018   01 Jun 2027 09:40:48.256             5.238            RioGallegos           163.687
        16   01 Jun 2027 09:41:37.871   01 Jun 2027 09:42:07.149            29.278            RioGallegos           914.938
        17   01 Jun 2027 10:12:29.295   01 Jun 2027 10:14:13.888           104.593                Sumatra          3268.531
        18   01 Jun 2027 10:29:39.266   01 Jun 2027 10:30:00.374            21.108                Irkutsk           659.625
        19   01 Jun 2027 10:30:05.679   01 Jun 2027 10:30:45.605            39.926                Irkutsk          1247.687
        20   01 Jun 2027 10:31:18.119   01 Jun 2027 10:33:56.325           158.206               Magadan2          4943.937
        21   01 Jun 2027 10:34:47.256   01 Jun 2027 10:35:56.315            69.059                Irkutsk          2158.094
        22   01 Jun 2027 11:10:58.652   01 Jun 2027 11:11:50.800            52.148            RioGallegos          1629.625
        23   01 Jun 2027 11:12:04.475   01 Jun 2027 11:12:34.801            30.326            RioGallegos           947.687
        24   01 Jun 2027 11:15:00.963   01 Jun 2027 11:15:28.210            27.247            RioGallegos           851.469
        25   01 Jun 2027 11:19:38.302   01 Jun 2027 11:20:28.919            50.617            RioGallegos          1581.781
        26   01 Jun 2027 11:45:29.295   01 Jun 2027 11:46:51.454            82.159                Sumatra          2567.469
        27   01 Jun 2027 11:49:17.009   01 Jun 2027 11:49:43.116            26.107                Sumatra           815.844
        28   01 Jun 2027 11:54:17.488   01 Jun 2027 11:54:47.082            29.594                Sumatra           924.812
        29   01 Jun 2027 12:01:57.363   01 Jun 2027 12:02:14.143            16.780                Irkutsk           524.375
        30   01 Jun 2027 12:04:19.858   01 Jun 2027 12:04:56.481            36.623                Irkutsk          1144.469
        31   01 Jun 2027 12:06:16.370   01 Jun 2027 12:06:51.475            35.105                Irkutsk          1097.031
        32   01 Jun 2027 12:08:18.056   01 Jun 2027 12:09:02.187            44.131                Irkutsk          1379.094
        33   01 Jun 2027 12:18:19.015   01 Jun 2027 12:18:31.557            12.542              Murmansk1           391.938
        34   01 Jun 2027 12:52:29.936   01 Jun 2027 12:56:05.751           215.815            RioGallegos          6744.219
        35   01 Jun 2027 13:45:37.407   01 Jun 2027 13:47:36.752           119.345                Novosib          3729.531
        36   01 Jun 2027 15:21:01.665   01 Jun 2027 15:21:29.340            27.675              Murmansk2           864.844
        37   01 Jun 2027 15:21:59.063   01 Jun 2027 15:22:13.561            14.498                 Moscow           453.063
        38   01 Jun 2027 15:22:16.199   01 Jun 2027 15:28:13.198           356.999                Norilsk         11156.219
        39   01 Jun 2027 16:37:38.353   01 Jun 2027 16:38:16.906            38.553               CapeTown          1204.781
        40   01 Jun 2027 16:38:55.583   01 Jun 2027 16:39:34.021            38.438               CapeTown          1201.187
        41   01 Jun 2027 16:58:41.166   01 Jun 2027 16:59:42.722            61.556                 Moscow          1923.625
        42   01 Jun 2027 17:01:07.335   01 Jun 2027 17:01:57.161            49.826                 Moscow          1557.062
        43   01 Jun 2027 17:04:15.238   01 Jun 2027 17:04:40.420            25.182              Murmansk1           786.938
        44   01 Jun 2027 17:05:23.589   01 Jun 2027 17:05:45.301            21.712              Murmansk1           678.500
        45   01 Jun 2027 17:14:47.992   01 Jun 2027 17:15:20.686            32.694                Anadyr1          1021.687
        46   01 Jun 2027 17:15:43.424   01 Jun 2027 17:16:05.554            22.130                Anadyr2           691.562
        47   01 Jun 2027 17:16:50.514   01 Jun 2027 17:17:10.462            19.948                Anadyr1           623.375
        48   01 Jun 2027 17:17:25.260   01 Jun 2027 17:17:36.829            11.569                Anadyr2           361.531
        49   01 Jun 2027 17:17:58.896   01 Jun 2027 17:18:13.811            14.915                Anadyr2           466.094
        50   01 Jun 2027 18:12:28.719   01 Jun 2027 18:13:22.593            53.874               CapeTown          1683.562
        51   01 Jun 2027 18:13:57.752   01 Jun 2027 18:14:36.609            38.857               CapeTown          1214.281
        52   01 Jun 2027 18:15:09.741   01 Jun 2027 18:15:43.091            33.350               CapeTown          1042.188
        53   01 Jun 2027 18:35:44.709   01 Jun 2027 18:36:06.988            22.279              Murmansk2           696.219
        54   01 Jun 2027 18:36:46.960   01 Jun 2027 18:40:37.428           230.468              Murmansk1          7202.125
        55   01 Jun 2027 20:20:01.869   01 Jun 2027 20:21:39.996            98.127                Anadyr1          3066.469
        56   01 Jun 2027 20:22:19.697   01 Jun 2027 20:23:10.201            50.504                Anadyr1          1578.250
        57   01 Jun 2027 20:23:25.408   01 Jun 2027 20:23:41.152            15.744                Anadyr1           492.000
        58   01 Jun 2027 20:24:08.912   01 Jun 2027 20:24:34.468            25.556               Magadan1           798.625
        59   01 Jun 2027 20:25:02.984   01 Jun 2027 20:25:42.397            39.413               Magadan2          1231.656
        60   01 Jun 2027 20:25:52.658   01 Jun 2027 20:25:58.441             5.783                Anadyr2           180.719
        61   01 Jun 2027 20:26:13.556   01 Jun 2027 20:26:16.350             2.794               Magadan2            87.313
        62   01 Jun 2027 20:26:18.777   01 Jun 2027 20:26:35.168            16.391                Anadyr2           512.219
        63   01 Jun 2027 20:26:49.779   01 Jun 2027 20:27:04.247            14.468                Anadyr2           452.125
        64   01 Jun 2027 20:27:04.247   01 Jun 2027 20:27:09.935             5.688                Anadyr1           177.750
        65   01 Jun 2027 20:27:49.063   01 Jun 2027 20:28:28.214            39.151                Anadyr2          1223.469
        66   01 Jun 2027 20:29:11.203   01 Jun 2027 20:29:37.436            26.233                Anadyr2           819.781
        67   01 Jun 2027 20:29:52.656   01 Jun 2027 20:30:25.042            32.386               Magadan2          1012.063
        68   01 Jun 2027 20:31:11.300   01 Jun 2027 20:31:14.310             3.010                Anadyr1            94.062
        69   01 Jun 2027 20:31:16.983   01 Jun 2027 20:31:50.118            33.135               Magadan2          1035.469
        70   01 Jun 2027 20:33:06.923   01 Jun 2027 20:33:22.131            15.208               Magadan1           475.250
        71   01 Jun 2027 20:34:39.294   01 Jun 2027 20:34:58.720            19.426               Magadan2           607.062
        72   01 Jun 2027 21:18:34.921   01 Jun 2027 21:19:25.980            51.059            RioGallegos          1595.594
        73   01 Jun 2027 21:20:53.878   01 Jun 2027 21:21:14.231            20.353            RioGallegos           636.031
        74   01 Jun 2027 21:21:34.052   01 Jun 2027 21:21:44.827            10.775            RioGallegos           336.719
        75   01 Jun 2027 21:55:51.405   01 Jun 2027 21:55:54.315             2.910                Anadyr1            90.937
        76   01 Jun 2027 21:55:54.315   01 Jun 2027 21:56:03.068             8.753                Anadyr2           273.531
        77   01 Jun 2027 21:57:06.645   01 Jun 2027 21:57:59.627            52.982                Anadyr1          1655.687
        78   01 Jun 2027 21:58:15.420   01 Jun 2027 21:58:19.899             4.479               Magadan2           139.969
        79   01 Jun 2027 21:58:19.944   01 Jun 2027 21:58:29.720             9.776                Norilsk           305.500
        80   01 Jun 2027 21:58:51.902   01 Jun 2027 21:59:22.676            30.774                Anadyr1           961.688
        81   01 Jun 2027 21:59:58.854   01 Jun 2027 22:00:25.316            26.462                Norilsk           826.938
        82   01 Jun 2027 22:00:51.558   01 Jun 2027 22:01:23.250            31.692                Norilsk           990.375
        83   01 Jun 2027 22:02:20.523   01 Jun 2027 22:02:28.802             8.279               Magadan1           258.719
        84   01 Jun 2027 22:03:04.571   01 Jun 2027 22:03:14.689            10.118                Anadyr2           316.187
        85   01 Jun 2027 22:03:23.010   01 Jun 2027 22:03:23.477             0.467                Norilsk            14.594
        86   01 Jun 2027 22:03:32.372   01 Jun 2027 22:04:50.967            78.595                Irkutsk          2456.094
        87   01 Jun 2027 22:07:17.447   01 Jun 2027 22:07:40.226            22.779               Magadan1           711.844
        88   01 Jun 2027 22:08:19.904   01 Jun 2027 22:09:22.057            62.153               Magadan1          1942.281
        89   01 Jun 2027 22:20:09.491   01 Jun 2027 22:20:23.586            14.095                Sumatra           440.469
        90   01 Jun 2027 22:21:36.341   01 Jun 2027 22:23:11.795            95.454                Sumatra          2982.937
        91   01 Jun 2027 23:01:02.377   01 Jun 2027 23:01:41.417            39.040            RioGallegos          1220.000
        92   01 Jun 2027 23:31:08.630   01 Jun 2027 23:31:57.262            48.632                Anadyr2          1519.750
        93   01 Jun 2027 23:33:16.463   01 Jun 2027 23:33:39.332            22.869                Anadyr1           714.656
        94   01 Jun 2027 23:33:45.423   01 Jun 2027 23:35:09.040            83.617                Norilsk          2613.031
        95   01 Jun 2027 23:35:23.467   01 Jun 2027 23:35:29.375             5.908                Norilsk           184.625
        96   01 Jun 2027 23:36:00.000   01 Jun 2027 23:36:08.512             8.513               Magadan1           266.031
        97   01 Jun 2027 23:36:40.170   01 Jun 2027 23:37:32.510            52.340               Magadan2          1635.625
        98   01 Jun 2027 23:39:19.667   01 Jun 2027 23:39:53.671            34.004               Magadan1          1062.625
        99   01 Jun 2027 23:41:44.729   01 Jun 2027 23:42:05.276            20.547                Novosib           642.094
       100   01 Jun 2027 23:42:22.398   01 Jun 2027 23:42:59.640            37.242                Novosib          1163.813
       101   01 Jun 2027 23:45:01.184   01 Jun 2027 23:45:45.233            44.049                Novosib          1376.531
       102   01 Jun 2027 23:48:12.926   01 Jun 2027 23:48:16.908             3.982                Irkutsk           124.437
       103   01 Jun 2027 23:49:05.145   01 Jun 2027 23:49:27.097            21.952                Irkutsk           686.000
       104   01 Jun 2027 23:50:29.993   01 Jun 2027 23:51:02.011            32.018                  Delhi          1000.562
       105   01 Jun 2027 23:53:42.663   01 Jun 2027 23:53:45.197             2.534                  Delhi            79.187
       106   02 Jun 2027 00:00:09.436   02 Jun 2027 00:00:28.294            18.858                Sumatra           589.313
       107   02 Jun 2027 00:03:16.116   02 Jun 2027 00:03:56.258            40.142                Sumatra          1254.437
       108   02 Jun 2027 00:33:25.407   02 Jun 2027 00:34:26.756            61.349            RioGallegos          1917.156
       109   02 Jun 2027 00:37:20.018   02 Jun 2027 00:37:36.407            16.389            RioGallegos           512.156
       110   02 Jun 2027 00:37:55.038   02 Jun 2027 00:37:56.410             1.372            RioGallegos            42.875
       111   02 Jun 2027 01:05:16.864   02 Jun 2027 01:05:46.363            29.499                Anadyr1           921.844
       112   02 Jun 2027 01:06:27.760   02 Jun 2027 01:06:44.263            16.503                Anadyr2           515.719
       113   02 Jun 2027 01:06:44.263   02 Jun 2027 01:07:08.795            24.532                Anadyr1           766.625
       114   02 Jun 2027 01:07:39.654   02 Jun 2027 01:07:49.168             9.514                Anadyr1           297.312
       115   02 Jun 2027 01:07:49.168   02 Jun 2027 01:08:16.611            27.443                Anadyr2           857.594
       116   02 Jun 2027 01:09:46.004   02 Jun 2027 01:11:39.101           113.097                Norilsk          3534.281
       117   02 Jun 2027 01:13:15.354   02 Jun 2027 01:13:38.577            23.223              Murmansk1           725.719
       118   02 Jun 2027 01:15:44.388   02 Jun 2027 01:16:02.937            18.549              Murmansk2           579.656
       119   02 Jun 2027 01:16:48.571   02 Jun 2027 01:17:17.884            29.313                Novosib           916.031
       120   02 Jun 2027 01:19:18.658   02 Jun 2027 01:20:01.715            43.057                Novosib          1345.531
       121   02 Jun 2027 01:21:26.867   02 Jun 2027 01:21:49.814            22.947                Irkutsk           717.094
       122   02 Jun 2027 01:23:23.023   02 Jun 2027 01:23:44.227            21.204                Irkutsk           662.625
       123   02 Jun 2027 01:27:42.768   02 Jun 2027 01:28:25.997            43.229                  Delhi          1350.906
       124   02 Jun 2027 01:30:28.924   02 Jun 2027 01:30:51.150            22.226                  Delhi           694.562
       125   02 Jun 2027 01:33:00.756   02 Jun 2027 01:33:23.153            22.397                  Delhi           699.906
       126   02 Jun 2027 02:02:47.915   02 Jun 2027 02:04:08.717            80.802            RioGallegos          2525.063
       127   02 Jun 2027 02:05:13.636   02 Jun 2027 02:05:20.147             6.511            RioGallegos           203.469
       128   02 Jun 2027 02:09:39.265   02 Jun 2027 02:09:45.466             6.201            RioGallegos           193.781
       129   02 Jun 2027 02:38:34.224   02 Jun 2027 02:38:35.774             1.550                Anadyr2            48.438
       130   02 Jun 2027 02:39:36.984   02 Jun 2027 02:40:41.149            64.165                Anadyr2          2005.156
       131   02 Jun 2027 02:41:50.330   02 Jun 2027 02:41:58.453             8.123                Anadyr2           253.844
       132   02 Jun 2027 02:43:01.697   02 Jun 2027 02:43:48.415            46.718                Anadyr2          1459.937
       133   02 Jun 2027 02:44:39.970   02 Jun 2027 02:45:00.560            20.590               Magadan2           643.438
       134   02 Jun 2027 02:45:41.764   02 Jun 2027 02:45:45.374             3.610                Norilsk           112.812
       135   02 Jun 2027 02:46:43.707   02 Jun 2027 02:46:46.343             2.636               Magadan2            82.375
       136   02 Jun 2027 02:46:55.867   02 Jun 2027 02:46:58.416             2.549                Norilsk            79.656
       137   02 Jun 2027 02:47:15.385   02 Jun 2027 02:48:05.876            50.491               Magadan2          1577.844
       138   02 Jun 2027 02:48:46.258   02 Jun 2027 02:48:51.780             5.522              Murmansk2           172.562
       139   02 Jun 2027 02:49:23.143   02 Jun 2027 02:49:36.339            13.196              Murmansk1           412.375
       140   02 Jun 2027 02:50:49.885   02 Jun 2027 02:50:57.886             8.001                Novosib           250.031
       141   02 Jun 2027 02:51:07.276   02 Jun 2027 02:51:58.049            50.773                Irkutsk          1586.656
       142   02 Jun 2027 02:54:02.578   02 Jun 2027 02:54:24.873            22.295                Irkutsk           696.719
       143   02 Jun 2027 02:57:50.881   02 Jun 2027 02:57:54.996             4.115                 Moscow           128.594
       144   02 Jun 2027 02:58:38.739   02 Jun 2027 02:59:38.248            59.509                  Delhi          1859.656
       145   02 Jun 2027 04:33:17.648   02 Jun 2027 04:34:45.106            87.458              Murmansk1          2733.062
       146   02 Jun 2027 04:34:45.106   02 Jun 2027 04:35:11.169            26.063              Murmansk2           814.469
       147   02 Jun 2027 04:36:07.036   02 Jun 2027 04:37:13.992            66.956                 Moscow          2092.375
       148   02 Jun 2027 05:54:47.085   02 Jun 2027 05:55:58.003            70.918                Anadyr2          2216.188
       149   02 Jun 2027 05:56:27.955   02 Jun 2027 05:57:01.671            33.716               Magadan2          1053.625
       150   02 Jun 2027 07:32:45.917   02 Jun 2027 07:35:08.176           142.259                Anadyr2          4445.594
       151   02 Jun 2027 07:36:00.329   02 Jun 2027 07:36:25.155            24.826                Anadyr2           775.813
       152   02 Jun 2027 09:05:52.904   02 Jun 2027 09:11:20.815           327.911               Magadan1         10247.219
       153   02 Jun 2027 09:11:20.815   02 Jun 2027 09:11:54.872            34.057               Magadan2          1064.281
       154   02 Jun 2027 10:41:21.087   02 Jun 2027 10:41:26.123             5.036                Novosib           157.375
       155   02 Jun 2027 10:41:44.534   02 Jun 2027 10:41:51.803             7.269                Norilsk           227.156
       156   02 Jun 2027 10:42:11.773   02 Jun 2027 10:42:41.971            30.198                Novosib           943.688
       157   02 Jun 2027 10:42:43.561   02 Jun 2027 10:43:32.312            48.751                Novosib          1523.469
       158   02 Jun 2027 10:43:40.534   02 Jun 2027 10:44:16.981            36.447                Novosib          1138.969
       159   02 Jun 2027 10:44:34.797   02 Jun 2027 10:45:03.030            28.233                Norilsk           882.281
       160   02 Jun 2027 10:45:14.098   02 Jun 2027 10:45:48.698            34.600              Murmansk2          1081.250
       161   02 Jun 2027 10:45:58.410   02 Jun 2027 10:46:02.553             4.143                Norilsk           129.469
       162   02 Jun 2027 10:46:06.666   02 Jun 2027 10:47:04.165            57.499                Norilsk          1796.844
       163   02 Jun 2027 10:47:10.735   02 Jun 2027 10:47:29.554            18.819                Irkutsk           588.094
       164   02 Jun 2027 10:47:32.020   02 Jun 2027 10:48:28.056            56.036                Norilsk          1751.125
       165   02 Jun 2027 11:23:16.493   02 Jun 2027 11:23:32.277            15.784            RioGallegos           493.250
       166   02 Jun 2027 11:24:07.855   02 Jun 2027 11:24:40.433            32.578            RioGallegos          1018.062
       167   02 Jun 2027 11:27:56.377   02 Jun 2027 11:27:57.492             1.115            RioGallegos            34.844
       168   02 Jun 2027 11:32:12.107   02 Jun 2027 11:32:54.205            42.098            RioGallegos          1315.563
       169   02 Jun 2027 11:57:39.086   02 Jun 2027 11:58:00.284            21.198                Sumatra           662.438
       170   02 Jun 2027 12:00:25.334   02 Jun 2027 12:02:10.005           104.671                Sumatra          3270.969
       171   02 Jun 2027 12:12:30.419   02 Jun 2027 12:13:21.697            51.278                Irkutsk          1602.438
       172   02 Jun 2027 12:15:29.713   02 Jun 2027 12:15:30.527             0.814                Novosib            25.437
       173   02 Jun 2027 12:16:18.111   02 Jun 2027 12:17:14.868            56.757                Norilsk          1773.656
       174   02 Jun 2027 12:23:46.166   02 Jun 2027 12:24:49.647            63.481                Norilsk          1983.781
       175   02 Jun 2027 13:42:18.527   02 Jun 2027 13:43:10.790            52.263                  Delhi          1633.219
       176   02 Jun 2027 13:46:33.164   02 Jun 2027 13:47:20.568            47.404                  Delhi          1481.375
       177   02 Jun 2027 13:49:13.516   02 Jun 2027 13:49:42.158            28.642                  Delhi           895.063
       178   02 Jun 2027 13:50:31.204   02 Jun 2027 13:53:44.558           193.354                Novosib          6042.312
       179   02 Jun 2027 13:54:24.082   02 Jun 2027 13:55:11.574            47.492                Norilsk          1484.125
       180   02 Jun 2027 13:56:44.621   02 Jun 2027 13:57:21.959            37.338                Norilsk          1166.813
       181   02 Jun 2027 14:02:23.893   02 Jun 2027 14:02:40.066            16.173                Norilsk           505.406
       182   02 Jun 2027 15:26:06.967   02 Jun 2027 15:28:18.411           131.444                 Moscow          4107.625
       183   02 Jun 2027 15:29:05.767   02 Jun 2027 15:30:09.514            63.747                 Moscow          1992.094
       184   02 Jun 2027 15:30:48.863   02 Jun 2027 15:32:27.729            98.866              Murmansk1          3089.562
       185   02 Jun 2027 15:35:07.811   02 Jun 2027 15:37:46.629           158.818                Norilsk          4963.063
       186   02 Jun 2027 15:38:25.831   02 Jun 2027 15:39:04.787            38.956                Norilsk          1217.375
       187   02 Jun 2027 16:46:18.986   02 Jun 2027 16:46:25.982             6.996               CapeTown           218.625
       188   02 Jun 2027 16:49:50.969   02 Jun 2027 16:50:17.509            26.540               CapeTown           829.375
       189   02 Jun 2027 17:04:30.760   02 Jun 2027 17:04:51.225            20.465                 Moscow           639.531
       190   02 Jun 2027 17:05:24.209   02 Jun 2027 17:06:03.772            39.563                 Moscow          1236.344
       191   02 Jun 2027 17:07:12.690   02 Jun 2027 17:07:45.161            32.471              Murmansk2          1014.719
       192   02 Jun 2027 17:08:50.919   02 Jun 2027 17:09:34.856            43.937              Murmansk1          1373.031
       193   02 Jun 2027 17:10:55.787   02 Jun 2027 17:11:55.937            60.150              Murmansk2          1879.688
       194   02 Jun 2027 17:20:24.042   02 Jun 2027 17:21:54.209            90.167                Anadyr1          2817.719
       195   02 Jun 2027 17:25:49.655   02 Jun 2027 17:25:58.548             8.893                Anadyr1           277.906
       196   02 Jun 2027 17:26:12.154   02 Jun 2027 17:26:29.428            17.274                Anadyr1           539.813
       197   02 Jun 2027 18:15:50.816   02 Jun 2027 18:16:35.014            44.198               CapeTown          1381.188
       198   02 Jun 2027 18:16:56.232   02 Jun 2027 18:17:35.676            39.444               CapeTown          1232.625
       199   02 Jun 2027 18:26:46.465   02 Jun 2027 18:27:11.903            25.438               CapeTown           794.937
       200   02 Jun 2027 18:47:19.113   02 Jun 2027 18:52:02.512           283.399              Murmansk1          8856.219
       201   02 Jun 2027 18:59:02.404   02 Jun 2027 18:59:31.397            28.993               Magadan1           906.031
       202   02 Jun 2027 19:00:59.411   02 Jun 2027 19:01:33.824            34.413               Magadan2          1075.406
       203   02 Jun 2027 19:07:08.456   02 Jun 2027 19:07:36.015            27.559               Magadan1           861.219
       204   02 Jun 2027 20:32:03.394   02 Jun 2027 20:34:53.507           170.113                Anadyr2          5316.031
       205   02 Jun 2027 20:34:57.039   02 Jun 2027 20:37:26.437           149.398               Magadan1          4668.688
       206   02 Jun 2027 20:37:26.437   02 Jun 2027 20:38:36.095            69.658               Magadan2          2176.813
       207   02 Jun 2027 20:38:58.454   02 Jun 2027 20:39:08.724            10.270               Magadan2           320.937
       208   02 Jun 2027 20:40:03.729   02 Jun 2027 20:40:14.419            10.690               Magadan1           334.062
       209   02 Jun 2027 20:41:22.570   02 Jun 2027 20:42:27.634            65.064               Magadan1          2033.250
       210   02 Jun 2027 21:27:36.010   02 Jun 2027 21:30:26.473           170.463            RioGallegos          5326.969
       211   02 Jun 2027 21:34:30.936   02 Jun 2027 21:34:44.665            13.729            RioGallegos           429.031
       212   02 Jun 2027 22:08:48.294   02 Jun 2027 22:10:07.262            78.968                Anadyr2          2467.750
       213   02 Jun 2027 22:10:13.735   02 Jun 2027 22:11:31.638            77.903                Norilsk          2434.469
       214   02 Jun 2027 22:12:21.342   02 Jun 2027 22:13:06.889            45.547               Magadan1          1423.344
       215   02 Jun 2027 22:13:12.417   02 Jun 2027 22:13:24.867            12.450                Norilsk           389.062
       216   02 Jun 2027 22:14:19.746   02 Jun 2027 22:14:21.623             1.877               Magadan2            58.656
       217   02 Jun 2027 22:14:39.288   02 Jun 2027 22:15:30.334            51.046                Irkutsk          1595.188
       218   02 Jun 2027 22:16:50.739   02 Jun 2027 22:17:19.632            28.893                Irkutsk           902.906
       219   02 Jun 2027 22:29:10.948   02 Jun 2027 22:30:20.761            69.813                Sumatra          2181.656
       220   02 Jun 2027 22:33:13.611   02 Jun 2027 22:34:00.984            47.373                Sumatra          1480.406
       221   02 Jun 2027 22:35:41.120   02 Jun 2027 22:36:24.518            43.398                Sumatra          1356.187
       222   02 Jun 2027 23:43:01.036   02 Jun 2027 23:43:58.041            57.005                Anadyr2          1781.406
       223   02 Jun 2027 23:45:17.373   02 Jun 2027 23:45:29.124            11.751                Anadyr1           367.219
       224   02 Jun 2027 23:45:47.370   02 Jun 2027 23:47:33.361           105.991                Norilsk          3312.219
       225   02 Jun 2027 23:47:53.941   02 Jun 2027 23:48:08.574            14.633               Magadan2           457.281
       226   02 Jun 2027 23:49:40.858   02 Jun 2027 23:51:58.171           137.313                Irkutsk          4291.031
       227   02 Jun 2027 23:54:32.244   02 Jun 2027 23:55:41.342            69.098                Novosib          2159.313
       228   02 Jun 2027 23:59:39.582   03 Jun 2027 00:01:40.364           120.782                  Delhi          3774.437
       229   03 Jun 2027 00:43:17.792   03 Jun 2027 00:43:36.617            18.825            RioGallegos           588.281
       230   03 Jun 2027 00:48:15.602   03 Jun 2027 00:48:50.803            35.201            RioGallegos          1100.031
       231   03 Jun 2027 01:17:16.180   03 Jun 2027 01:17:47.593            31.413                Anadyr1           981.656
       232   03 Jun 2027 01:18:08.674   03 Jun 2027 01:18:40.417            31.743                Anadyr2           991.969
       233   03 Jun 2027 01:18:40.417   03 Jun 2027 01:18:44.509             4.092                Anadyr1           127.875
       234   03 Jun 2027 01:19:09.101   03 Jun 2027 01:19:25.264            16.163                Anadyr1           505.094
       235   03 Jun 2027 01:22:21.519   03 Jun 2027 01:24:11.464           109.945               Magadan1          3435.781
       236   03 Jun 2027 01:24:30.705   03 Jun 2027 01:26:34.116           123.411              Murmansk2          3856.594
       237   03 Jun 2027 01:27:31.092   03 Jun 2027 01:27:44.425            13.333                Irkutsk           416.656
       238   03 Jun 2027 01:28:53.260   03 Jun 2027 01:29:06.035            12.775                Novosib           399.219
       239   03 Jun 2027 01:30:28.457   03 Jun 2027 01:30:52.288            23.831                Novosib           744.719
       240   03 Jun 2027 01:31:20.683   03 Jun 2027 01:31:23.924             3.241                Novosib           101.281
       241   03 Jun 2027 01:31:41.837   03 Jun 2027 01:32:53.286            71.449                Irkutsk          2232.781
       242   03 Jun 2027 01:42:26.513   03 Jun 2027 01:42:32.095             5.582                  Delhi           174.438
       243   03 Jun 2027 01:42:39.966   03 Jun 2027 01:42:50.043            10.077                  Delhi           314.906
       244   03 Jun 2027 02:15:09.462   03 Jun 2027 02:17:28.708           139.246            RioGallegos          4351.438
       245   03 Jun 2027 02:20:16.249   03 Jun 2027 02:20:32.287            16.038            RioGallegos           501.188
       246   03 Jun 2027 02:50:16.448   03 Jun 2027 02:50:18.436             1.988                Anadyr2            62.125
       247   03 Jun 2027 02:50:40.696   03 Jun 2027 02:51:23.219            42.523                Anadyr1          1328.844
       248   03 Jun 2027 02:52:39.537   03 Jun 2027 02:52:51.511            11.974                Anadyr1           374.188
       249   03 Jun 2027 02:56:12.236   03 Jun 2027 02:56:59.135            46.899               Magadan1          1465.594
       250   03 Jun 2027 02:57:42.318   03 Jun 2027 02:58:07.098            24.780                Norilsk           774.375
       251   03 Jun 2027 02:59:56.775   03 Jun 2027 03:00:14.780            18.005              Murmansk2           562.656
       252   03 Jun 2027 03:05:26.980   03 Jun 2027 03:06:18.171            51.191              Murmansk1          1599.719
       253   03 Jun 2027 03:06:23.990   03 Jun 2027 03:07:30.785            66.795                Novosib          2087.344
       254   03 Jun 2027 03:07:50.633   03 Jun 2027 03:09:07.650            77.017                 Moscow          2406.781
       255   03 Jun 2027 03:09:15.257   03 Jun 2027 03:09:31.972            16.715              Murmansk2           522.344
       256   03 Jun 2027 03:09:41.703   03 Jun 2027 03:10:04.922            23.219              Murmansk2           725.594
       257   03 Jun 2027 04:24:14.564   03 Jun 2027 04:25:02.708            48.144                Anadyr2          1504.500
       258   03 Jun 2027 04:43:02.511   03 Jun 2027 04:43:17.732            15.221                Novosib           475.656
       259   03 Jun 2027 04:44:34.218   03 Jun 2027 04:44:46.733            12.515                Norilsk           391.094
       260   03 Jun 2027 04:44:48.110   03 Jun 2027 04:46:42.843           114.733                 Moscow          3585.406
       261   03 Jun 2027 04:46:46.605   03 Jun 2027 04:47:12.337            25.732              Murmansk2           804.125
       262   03 Jun 2027 04:47:32.880   03 Jun 2027 04:48:09.257            36.377              Murmansk2          1136.781
       263   03 Jun 2027 05:03:26.034   03 Jun 2027 05:03:52.349            26.315               CapeTown           822.344
       264   03 Jun 2027 06:06:06.988   03 Jun 2027 06:07:39.049            92.061                Anadyr2          2876.906
       265   03 Jun 2027 06:07:39.049   03 Jun 2027 06:07:44.448             5.399                Anadyr1           168.719
       266   03 Jun 2027 06:07:46.283   03 Jun 2027 06:09:03.411            77.128               Magadan1          2410.250
       267   03 Jun 2027 07:42:24.505   03 Jun 2027 07:42:33.970             9.465                Anadyr1           295.781
       268   03 Jun 2027 07:42:35.674   03 Jun 2027 07:42:55.255            19.581               Magadan1           611.906
       269   03 Jun 2027 07:42:56.328   03 Jun 2027 07:43:01.616             5.288                Anadyr1           165.250
       270   03 Jun 2027 07:43:26.567   03 Jun 2027 07:44:27.113            60.546               Magadan1          1892.063
       271   03 Jun 2027 07:44:32.527   03 Jun 2027 07:44:59.495            26.968               Magadan2           842.750
       272   03 Jun 2027 07:45:09.698   03 Jun 2027 07:45:13.166             3.468                Irkutsk           108.375
       273   03 Jun 2027 07:45:21.125   03 Jun 2027 07:45:50.628            29.503                Anadyr2           921.969
       274   03 Jun 2027 07:46:06.350   03 Jun 2027 07:46:30.581            24.231               Magadan2           757.219
       275   03 Jun 2027 07:46:52.290   03 Jun 2027 07:47:37.551            45.261                Anadyr1          1414.406
       276   03 Jun 2027 08:30:50.954   03 Jun 2027 08:31:00.268             9.314            RioGallegos           291.062
       277   03 Jun 2027 09:16:39.046   03 Jun 2027 09:17:46.222            67.176               Magadan1          2099.250
       278   03 Jun 2027 09:17:53.331   03 Jun 2027 09:18:38.953            45.622               Magadan2          1425.688
       279   03 Jun 2027 09:19:21.005   03 Jun 2027 09:20:18.055            57.050               Magadan2          1782.812
       280   03 Jun 2027 09:20:50.790   03 Jun 2027 09:20:56.887             6.097                Irkutsk           190.531
       281   03 Jun 2027 09:20:58.469   03 Jun 2027 09:21:01.582             3.113               Magadan2            97.281
       282   03 Jun 2027 09:21:01.582   03 Jun 2027 09:22:53.879           112.297               Magadan1          3509.281
       283   03 Jun 2027 09:23:10.040   03 Jun 2027 09:23:32.851            22.811              Murmansk2           712.844
       284   03 Jun 2027 09:23:35.558   03 Jun 2027 09:23:50.305            14.747               Magadan1           460.844
       285   03 Jun 2027 09:24:12.655   03 Jun 2027 09:24:15.632             2.977              Murmansk2            93.031
       286   03 Jun 2027 09:24:15.632   03 Jun 2027 09:25:04.932            49.300              Murmansk1          1540.625
       287   03 Jun 2027 09:58:46.723   03 Jun 2027 09:59:42.687            55.964            RioGallegos          1748.875
       288   03 Jun 2027 10:05:27.489   03 Jun 2027 10:05:35.773             8.284            RioGallegos           258.875
       289   03 Jun 2027 10:34:52.711   03 Jun 2027 10:35:09.540            16.829                Sumatra           525.906
       290   03 Jun 2027 10:38:19.724   03 Jun 2027 10:39:48.629            88.905                Sumatra          2778.281
       291   03 Jun 2027 10:55:10.091   03 Jun 2027 10:55:14.982             4.891                Irkutsk           152.844
       292   03 Jun 2027 10:55:16.754   03 Jun 2027 10:55:44.758            28.004                Norilsk           875.125
       293   03 Jun 2027 10:55:45.030   03 Jun 2027 10:56:14.433            29.403                Irkutsk           918.844
       294   03 Jun 2027 10:56:23.344   03 Jun 2027 10:56:52.705            29.361                Norilsk           917.531
       295   03 Jun 2027 10:57:01.947   03 Jun 2027 10:57:36.877            34.930              Murmansk1          1091.563
       296   03 Jun 2027 10:57:42.479   03 Jun 2027 10:57:59.868            17.389                Irkutsk           543.406
       297   03 Jun 2027 10:58:03.777   03 Jun 2027 10:58:44.463            40.686              Murmansk1          1271.438
       298   03 Jun 2027 10:58:57.355   03 Jun 2027 10:59:04.706             7.351                Novosib           229.719
       299   03 Jun 2027 10:59:05.923   03 Jun 2027 10:59:16.747            10.824                Norilsk           338.250
       300   03 Jun 2027 10:59:26.189   03 Jun 2027 10:59:57.290            31.101                Irkutsk           971.906
       301   03 Jun 2027 11:00:24.914   03 Jun 2027 11:00:34.837             9.923              Murmansk2           310.094
       302   03 Jun 2027 11:00:39.824   03 Jun 2027 11:00:55.034            15.210              Murmansk2           475.312
       303   03 Jun 2027 11:35:38.884   03 Jun 2027 11:35:52.694            13.810            RioGallegos           431.562
       304   03 Jun 2027 11:36:10.349   03 Jun 2027 11:36:47.172            36.823            RioGallegos          1150.719
       305   03 Jun 2027 12:09:55.388   03 Jun 2027 12:10:38.647            43.259                Sumatra          1351.844
       306   03 Jun 2027 12:12:11.404   03 Jun 2027 12:13:22.287            70.883                Sumatra          2215.094
       307   03 Jun 2027 12:24:37.598   03 Jun 2027 12:26:31.587           113.989                Novosib          3562.156
       308   03 Jun 2027 12:28:29.438   03 Jun 2027 12:29:34.070            64.632                Norilsk          2019.750
       309   03 Jun 2027 12:31:06.586   03 Jun 2027 12:31:22.359            15.773              Murmansk1           492.906
       310   03 Jun 2027 12:32:52.970   03 Jun 2027 12:33:17.300            24.330              Murmansk2           760.313
       311   03 Jun 2027 13:54:46.655   03 Jun 2027 14:00:00.226           313.571                  Delhi          9799.094
       312   03 Jun 2027 14:03:08.559   03 Jun 2027 14:03:24.899            16.340                Novosib           510.625
       313   03 Jun 2027 14:03:54.231   03 Jun 2027 14:04:34.522            40.291                Novosib          1259.094
       314   03 Jun 2027 14:06:51.490   03 Jun 2027 14:08:12.884            81.394                Norilsk          2543.563
       315   03 Jun 2027 14:11:17.886   03 Jun 2027 14:11:45.966            28.080                Norilsk           877.500
       316   03 Jun 2027 15:38:14.135   03 Jun 2027 15:40:14.260           120.125                 Moscow          3753.906
       317   03 Jun 2027 15:41:22.922   03 Jun 2027 15:41:54.790            31.868                 Moscow           995.875
       318   03 Jun 2027 15:42:06.327   03 Jun 2027 15:42:49.001            42.674              Murmansk2          1333.562
       319   03 Jun 2027 15:42:49.809   03 Jun 2027 15:44:39.282           109.473              Murmansk1          3421.031
       320   03 Jun 2027 15:48:08.286   03 Jun 2027 15:48:45.541            37.255                Norilsk          1164.219
       321   03 Jun 2027 15:49:32.530   03 Jun 2027 15:50:02.071            29.541                Norilsk           923.156
       322   03 Jun 2027 15:50:51.773   03 Jun 2027 15:51:53.220            61.447                Norilsk          1920.219
       323   03 Jun 2027 16:51:51.249   03 Jun 2027 16:52:42.617            51.368               CapeTown          1605.250
       324   03 Jun 2027 17:01:02.086   03 Jun 2027 17:01:20.172            18.086               CapeTown           565.188
       325   03 Jun 2027 17:17:13.785   03 Jun 2027 17:18:10.998            57.213                 Moscow          1787.906
       326   03 Jun 2027 17:19:09.451   03 Jun 2027 17:21:20.249           130.798                 Moscow          4087.437
       327   03 Jun 2027 17:32:22.084   03 Jun 2027 17:33:31.674            69.590                Anadyr1          2174.687
       328   03 Jun 2027 17:33:36.636   03 Jun 2027 17:33:55.154            18.518                Anadyr1           578.688
       329   03 Jun 2027 17:39:45.175   03 Jun 2027 17:40:07.809            22.634                Anadyr2           707.313
       330   03 Jun 2027 18:28:05.588   03 Jun 2027 18:28:58.526            52.938               CapeTown          1654.312
       331   03 Jun 2027 18:31:48.180   03 Jun 2027 18:32:40.967            52.787               CapeTown          1649.594
       332   03 Jun 2027 19:00:09.908   03 Jun 2027 19:04:35.341           265.433              Murmansk2          8294.781
       333   03 Jun 2027 19:10:54.330   03 Jun 2027 19:13:35.361           161.031               Magadan1          5032.219
       334   03 Jun 2027 20:44:04.786   03 Jun 2027 20:46:09.987           125.201                Anadyr2          3912.531
       335   03 Jun 2027 20:46:21.189   03 Jun 2027 20:49:34.762           193.573               Magadan2          6049.156
       336   03 Jun 2027 20:49:34.762   03 Jun 2027 20:49:44.428             9.666               Magadan1           302.063
       337   03 Jun 2027 20:50:52.813   03 Jun 2027 20:51:21.401            28.588                Anadyr2           893.375
       338   03 Jun 2027 20:54:21.618   03 Jun 2027 20:54:30.100             8.482               Magadan2           265.063
       339   03 Jun 2027 21:39:09.248   03 Jun 2027 21:42:13.682           184.434            RioGallegos          5763.563
       340   03 Jun 2027 21:44:42.227   03 Jun 2027 21:45:37.110            54.883            RioGallegos          1715.094
       341   03 Jun 2027 22:19:49.250   03 Jun 2027 22:20:06.915            17.665                Anadyr2           552.031
       342   03 Jun 2027 22:21:56.508   03 Jun 2027 22:23:32.095            95.587                Norilsk          2987.094
       343   03 Jun 2027 22:23:52.980   03 Jun 2027 22:24:11.131            18.151               Magadan1           567.219
       344   03 Jun 2027 22:24:29.429   03 Jun 2027 22:25:24.272            54.843                Norilsk          1713.844
       345   03 Jun 2027 22:25:40.166   03 Jun 2027 22:26:08.455            28.289               Magadan1           884.031
       346   03 Jun 2027 22:26:26.278   03 Jun 2027 22:26:59.717            33.439                Irkutsk          1044.969
       347   03 Jun 2027 22:28:46.133   03 Jun 2027 22:30:03.099            76.966                Irkutsk          2405.188
       348   03 Jun 2027 22:40:37.216   03 Jun 2027 22:41:45.328            68.112                Sumatra          2128.500
       349   03 Jun 2027 22:46:02.968   03 Jun 2027 22:47:04.962            61.994                Sumatra          1937.312
       350   03 Jun 2027 23:54:52.204   03 Jun 2027 23:57:13.425           141.221                Anadyr2          4413.156
       351   03 Jun 2027 23:58:28.322   03 Jun 2027 23:59:37.501            69.179               Magadan1          2161.844
       352   04 Jun 2027 00:01:41.784   04 Jun 2027 00:03:54.830           133.046                Irkutsk          4157.687
       353   04 Jun 2027 00:04:37.767   04 Jun 2027 00:06:38.906           121.139                Novosib          3785.594
       354   04 Jun 2027 00:14:49.367   04 Jun 2027 00:15:04.812            15.445                  Delhi           482.656
       355   04 Jun 2027 00:17:43.920   04 Jun 2027 00:19:03.518            79.598                  Delhi          2487.437
       356   04 Jun 2027 00:57:58.097   04 Jun 2027 00:58:05.623             7.526            RioGallegos           235.188
       357   04 Jun 2027 01:00:37.504   04 Jun 2027 01:00:52.628            15.124            RioGallegos           472.625
       358   04 Jun 2027 01:28:41.856   04 Jun 2027 01:28:55.244            13.388                Anadyr1           418.375
       359   04 Jun 2027 01:29:13.695   04 Jun 2027 01:30:46.657            92.962                Anadyr2          2905.063
       360   04 Jun 2027 01:34:06.426   04 Jun 2027 01:34:34.320            27.894                Anadyr2           871.687
       361   04 Jun 2027 01:34:40.349   04 Jun 2027 01:35:18.481            38.132               Magadan1          1191.625
       362   04 Jun 2027 01:35:23.054   04 Jun 2027 01:35:37.171            14.117                Norilsk           441.156
       363   04 Jun 2027 01:35:40.261   04 Jun 2027 01:36:10.984            30.723               Magadan2           960.094
       364   04 Jun 2027 01:36:23.317   04 Jun 2027 01:38:42.874           139.557              Murmansk2          4361.156
       365   04 Jun 2027 01:39:09.158   04 Jun 2027 01:39:20.596            11.438                Irkutsk           357.437
       366   04 Jun 2027 01:41:42.089   04 Jun 2027 01:41:59.108            17.019                Irkutsk           531.844
       367   04 Jun 2027 01:44:31.513   04 Jun 2027 01:46:44.521           133.008                Novosib          4156.500
       368   04 Jun 2027 02:27:39.978   04 Jun 2027 02:28:35.094            55.116            RioGallegos          1722.375
       369   04 Jun 2027 02:28:43.633   04 Jun 2027 02:29:36.072            52.439            RioGallegos          1638.719
       370   04 Jun 2027 02:31:26.538   04 Jun 2027 02:31:35.715             9.177            RioGallegos           286.781
       371   04 Jun 2027 03:18:52.271   04 Jun 2027 03:19:07.347            15.076              Murmansk1           471.125
       372   04 Jun 2027 03:19:07.347   04 Jun 2027 03:19:57.896            50.549              Murmansk2          1579.656
       373   04 Jun 2027 03:20:45.489   04 Jun 2027 03:24:41.109           235.620                 Moscow          7363.125
       374   04 Jun 2027 03:25:54.939   04 Jun 2027 03:26:29.648            34.709                 Moscow          1084.656
       375   04 Jun 2027 03:40:35.773   04 Jun 2027 03:43:21.931           166.158               CapeTown          5192.437
       376   04 Jun 2027 04:36:07.372   04 Jun 2027 04:37:17.607            70.235                Anadyr1          2194.844
       377   04 Jun 2027 04:37:30.911   04 Jun 2027 04:37:34.225             3.314                Anadyr2           103.563
       378   04 Jun 2027 04:55:10.622   04 Jun 2027 04:55:26.307            15.685                Novosib           490.156
       379   04 Jun 2027 04:56:29.097   04 Jun 2027 04:56:33.385             4.288              Murmansk1           134.000
       380   04 Jun 2027 04:56:51.742   04 Jun 2027 04:57:31.732            39.990              Murmansk1          1249.687
       381   04 Jun 2027 04:57:33.988   04 Jun 2027 04:58:08.366            34.378              Murmansk1          1074.313
       382   04 Jun 2027 04:58:46.632   04 Jun 2027 04:58:52.858             6.226              Murmansk1           194.562
       383   04 Jun 2027 04:58:52.858   04 Jun 2027 04:59:34.950            42.092              Murmansk2          1315.375
       384   04 Jun 2027 05:15:12.344   04 Jun 2027 05:17:14.739           122.395               CapeTown          3824.844
       385   04 Jun 2027 06:17:52.610   04 Jun 2027 06:18:49.013            56.403                Anadyr2          1762.594
       386   04 Jun 2027 06:18:49.013   04 Jun 2027 06:20:10.399            81.386                Anadyr1          2543.312
       387   04 Jun 2027 06:20:18.780   04 Jun 2027 06:20:30.808            12.028               Magadan2           375.875
       388   04 Jun 2027 06:20:30.808   04 Jun 2027 06:21:24.723            53.915               Magadan1          1684.844
       389   04 Jun 2027 06:23:55.260   04 Jun 2027 06:24:41.141            45.881                Anadyr1          1433.781
       390   04 Jun 2027 07:54:25.252   04 Jun 2027 07:54:38.888            13.636               Magadan2           426.125
       391   04 Jun 2027 07:55:03.233   04 Jun 2027 07:55:11.713             8.480                Anadyr1           265.000
       392   04 Jun 2027 07:55:13.263   04 Jun 2027 07:55:52.562            39.299                Irkutsk          1228.094
       393   04 Jun 2027 07:56:10.189   04 Jun 2027 07:56:45.868            35.679                Anadyr1          1114.969
       394   04 Jun 2027 07:57:05.481   04 Jun 2027 07:57:47.731            42.250               Magadan2          1320.313
       395   04 Jun 2027 07:58:53.316   04 Jun 2027 08:00:09.043            75.727                Anadyr2          2366.469
       396   04 Jun 2027 08:38:33.903   04 Jun 2027 08:39:06.383            32.480            RioGallegos          1015.000
       397   04 Jun 2027 09:29:31.850   04 Jun 2027 09:29:38.443             6.593                Novosib           206.031
       398   04 Jun 2027 09:30:35.134   04 Jun 2027 09:30:35.947             0.813               Magadan1            25.406
       399   04 Jun 2027 09:30:40.467   04 Jun 2027 09:32:15.236            94.769               Magadan2          2961.531
       400   04 Jun 2027 09:32:29.620   04 Jun 2027 09:33:07.248            37.628                Norilsk          1175.875
       401   04 Jun 2027 09:33:12.157   04 Jun 2027 09:33:26.671            14.514                Irkutsk           453.562
       402   04 Jun 2027 09:33:28.499   04 Jun 2027 09:33:45.502            17.003                Irkutsk           531.344
       403   04 Jun 2027 09:33:49.933   04 Jun 2027 09:34:01.954            12.021                Norilsk           375.656
       404   04 Jun 2027 09:34:22.147   04 Jun 2027 09:35:13.464            51.317                Novosib          1603.656
       405   04 Jun 2027 09:35:19.023   04 Jun 2027 09:35:43.374            24.351                Norilsk           760.969
       406   04 Jun 2027 09:35:46.144   04 Jun 2027 09:35:51.324             5.180                Irkutsk           161.875
       407   04 Jun 2027 09:36:04.255   04 Jun 2027 09:36:58.537            54.282              Murmansk1          1696.313
       408   04 Jun 2027 10:10:43.076   04 Jun 2027 10:11:49.104            66.028            RioGallegos          2063.375
       409   04 Jun 2027 10:46:24.079   04 Jun 2027 10:47:31.960            67.881                Sumatra          2121.281
       410   04 Jun 2027 11:06:04.605   04 Jun 2027 11:06:48.960            44.355                Irkutsk          1386.094
       411   04 Jun 2027 11:07:08.827   04 Jun 2027 11:07:21.251            12.424                Novosib           388.250
       412   04 Jun 2027 11:07:31.236   04 Jun 2027 11:07:35.914             4.678                Irkutsk           146.187
       413   04 Jun 2027 11:07:37.110   04 Jun 2027 11:07:40.599             3.489                Novosib           109.031
       414   04 Jun 2027 11:07:41.721   04 Jun 2027 11:07:48.556             6.835                Norilsk           213.594
       415   04 Jun 2027 11:07:56.758   04 Jun 2027 11:08:16.788            20.030                Irkutsk           625.937
       416   04 Jun 2027 11:08:48.893   04 Jun 2027 11:09:16.228            27.335                Irkutsk           854.219
       417   04 Jun 2027 11:09:25.556   04 Jun 2027 11:09:57.278            31.722              Murmansk1           991.312
       418   04 Jun 2027 11:10:02.946   04 Jun 2027 11:10:21.205            18.259              Murmansk1           570.594
       419   04 Jun 2027 11:10:29.557   04 Jun 2027 11:11:07.808            38.251                Norilsk          1195.344
       420   04 Jun 2027 11:11:15.359   04 Jun 2027 11:11:19.200             3.841                Novosib           120.031
       421   04 Jun 2027 11:11:28.406   04 Jun 2027 11:12:01.223            32.817                Novosib          1025.531
       422   04 Jun 2027 11:12:39.394   04 Jun 2027 11:12:45.178             5.784              Murmansk1           180.750
       423   04 Jun 2027 11:48:06.399   04 Jun 2027 11:48:55.512            49.113            RioGallegos          1534.781
       424   04 Jun 2027 11:49:54.992   04 Jun 2027 11:50:40.388            45.396            RioGallegos          1418.625
       425   04 Jun 2027 12:22:19.439   04 Jun 2027 12:23:36.767            77.328                Sumatra          2416.500
       426   04 Jun 2027 12:36:45.428   04 Jun 2027 12:38:07.565            82.137                Novosib          2566.781
       427   04 Jun 2027 12:39:52.268   04 Jun 2027 12:40:31.497            39.229                Novosib          1225.906
       428   04 Jun 2027 12:40:42.547   04 Jun 2027 12:42:12.602            90.055                Norilsk          2814.219
       429   04 Jun 2027 12:44:54.333   04 Jun 2027 12:44:57.926             3.593              Murmansk1           112.281
       430   04 Jun 2027 12:45:15.558   04 Jun 2027 12:45:49.302            33.744              Murmansk2          1054.500
       431   04 Jun 2027 14:07:24.688   04 Jun 2027 14:09:56.432           151.744                  Delhi          4742.000
       432   04 Jun 2027 14:10:55.110   04 Jun 2027 14:12:24.098            88.988                  Delhi          2780.875
       433   04 Jun 2027 14:16:42.423   04 Jun 2027 14:17:34.661            52.238                Novosib          1632.437
       434   04 Jun 2027 14:17:43.437   04 Jun 2027 14:18:13.185            29.748              Murmansk2           929.625
       435   04 Jun 2027 14:19:21.343   04 Jun 2027 14:19:32.886            11.543                Norilsk           360.719
       436   04 Jun 2027 14:19:49.743   04 Jun 2027 14:20:41.256            51.513                Novosib          1609.781
       437   04 Jun 2027 14:21:26.091   04 Jun 2027 14:22:19.754            53.663                Norilsk          1676.969
       438   04 Jun 2027 15:50:24.512   04 Jun 2027 15:52:12.933           108.421                 Moscow          3388.156
       439   04 Jun 2027 15:53:18.087   04 Jun 2027 15:54:20.897            62.810                 Moscow          1962.812
       440   04 Jun 2027 15:54:40.706   04 Jun 2027 15:55:39.884            59.178              Murmansk1          1849.312
       441   04 Jun 2027 15:56:42.051   04 Jun 2027 15:57:11.756            29.705              Murmansk1           928.281
       442   04 Jun 2027 16:00:56.562   04 Jun 2027 16:01:26.312            29.750              Murmansk1           929.688
       443   04 Jun 2027 16:01:31.761   04 Jun 2027 16:03:15.461           103.700                Norilsk          3240.625
       444   04 Jun 2027 16:09:30.094   04 Jun 2027 16:09:54.751            24.657                Anadyr1           770.531
       445   04 Jun 2027 16:09:54.751   04 Jun 2027 16:10:40.481            45.730                Anadyr2          1429.062
       446   04 Jun 2027 17:03:44.770   04 Jun 2027 17:04:37.214            52.444               CapeTown          1638.875
       447   04 Jun 2027 17:05:40.565   04 Jun 2027 17:05:43.217             2.652               CapeTown            82.875
       448   04 Jun 2027 17:07:14.388   04 Jun 2027 17:07:22.430             8.042               CapeTown           251.313
       449   04 Jun 2027 17:30:06.178   04 Jun 2027 17:31:04.226            58.048                 Moscow          1814.000
       450   04 Jun 2027 17:32:01.771   04 Jun 2027 17:33:12.866            71.095              Murmansk2          2221.719
       451   04 Jun 2027 17:34:10.527   04 Jun 2027 17:34:59.640            49.113              Murmansk1          1534.781
       452   04 Jun 2027 17:36:33.167   04 Jun 2027 17:36:52.689            19.522              Murmansk2           610.062
       453   04 Jun 2027 17:44:20.927   04 Jun 2027 17:45:23.634            62.707                Anadyr2          1959.594
       454   04 Jun 2027 17:46:01.511   04 Jun 2027 17:46:29.009            27.498                Anadyr2           859.313
       455   04 Jun 2027 17:50:54.617   04 Jun 2027 17:51:02.157             7.540                Anadyr1           235.625
       456   04 Jun 2027 17:51:11.657   04 Jun 2027 17:51:34.858            23.201                Anadyr2           725.031
       457   04 Jun 2027 18:40:24.928   04 Jun 2027 18:41:43.942            79.014               CapeTown          2469.188
       458   04 Jun 2027 18:44:41.958   04 Jun 2027 18:45:20.133            38.175               CapeTown          1192.969
       459   04 Jun 2027 19:13:09.290   04 Jun 2027 19:17:27.412           258.122              Murmansk1          8066.313
       460   04 Jun 2027 19:22:48.350   04 Jun 2027 19:24:18.272            89.922               Magadan1          2810.062
       461   04 Jun 2027 19:25:34.482   04 Jun 2027 19:25:36.492             2.010               Magadan1            62.813
       462   04 Jun 2027 19:26:43.068   04 Jun 2027 19:27:17.758            34.690               Magadan1          1084.062
       463   04 Jun 2027 19:28:50.679   04 Jun 2027 19:28:55.543             4.864               Magadan2           152.000
       464   04 Jun 2027 20:56:06.011   04 Jun 2027 20:58:11.764           125.753                Anadyr2          3929.781
       465   04 Jun 2027 20:58:22.225   04 Jun 2027 21:01:59.670           217.445               Magadan1          6795.156
       466   04 Jun 2027 21:01:59.670   04 Jun 2027 21:02:24.574            24.904               Magadan2           778.250
       467   04 Jun 2027 21:02:44.874   04 Jun 2027 21:02:50.942             6.068               Magadan2           189.625
       468   04 Jun 2027 21:03:03.501   04 Jun 2027 21:03:14.498            10.997               Magadan2           343.656
       469   04 Jun 2027 21:05:24.572   04 Jun 2027 21:05:38.839            14.267               Magadan1           445.844
       470   04 Jun 2027 21:09:11.597   04 Jun 2027 21:09:26.619            15.022               Magadan1           469.438
       471   04 Jun 2027 21:50:50.259   04 Jun 2027 21:53:49.341           179.082            RioGallegos          5596.312
       472   04 Jun 2027 21:55:24.359   04 Jun 2027 21:55:31.646             7.287            RioGallegos           227.719
       473   04 Jun 2027 22:00:07.204   04 Jun 2027 22:00:13.170             5.966            RioGallegos           186.438
       474   04 Jun 2027 22:31:47.266   04 Jun 2027 22:32:08.746            21.480                Anadyr1           671.250
       475   04 Jun 2027 22:32:30.431   04 Jun 2027 22:32:45.801            15.370                Anadyr1           480.312
       476   04 Jun 2027 22:33:13.120   04 Jun 2027 22:33:38.823            25.703                Anadyr1           803.219
       477   04 Jun 2027 22:33:56.288   04 Jun 2027 22:35:24.920            88.632                Norilsk          2769.750
       478   04 Jun 2027 22:35:38.027   04 Jun 2027 22:35:46.070             8.043               Magadan2           251.344
       479   04 Jun 2027 22:35:54.466   04 Jun 2027 22:36:10.650            16.184               Magadan2           505.750
       480   04 Jun 2027 22:36:43.282   04 Jun 2027 22:37:17.670            34.388               Magadan1          1074.625
       481   04 Jun 2027 22:37:17.670   04 Jun 2027 22:37:26.439             8.769               Magadan2           274.031
       482   04 Jun 2027 22:37:42.248   04 Jun 2027 22:37:51.833             9.585               Magadan2           299.531
