uniorb/output/strategy_2/Drop/Drop_KinoSat_110909.txt

KinoSat_110909
-------------------------
    Access    *     Start Time (UTCG)     *     Stop Time (UTCG)  *   Duration (s)        *       Station  *  Data (Mbytes)
         1   01 Jun 2027 04:29:35.410   01 Jun 2027 04:29:53.992            18.582               Magadan1           580.687
         2   01 Jun 2027 04:30:02.398   01 Jun 2027 04:30:14.773            12.375                Anadyr1           386.719
         3   01 Jun 2027 04:30:43.239   01 Jun 2027 04:31:22.771            39.532               Magadan2          1235.375
         4   01 Jun 2027 04:31:22.771   01 Jun 2027 04:31:33.704            10.933               Magadan1           341.656
         5   01 Jun 2027 04:31:33.704   01 Jun 2027 04:31:38.672             4.968               Magadan2           155.250
         6   01 Jun 2027 04:31:42.230   01 Jun 2027 04:32:15.610            33.380                Anadyr1          1043.125
         7   01 Jun 2027 04:32:50.922   01 Jun 2027 04:35:24.229           153.307               Magadan1          4790.844
         8   01 Jun 2027 04:35:26.008   01 Jun 2027 04:35:53.877            27.869                Norilsk           870.906
         9   01 Jun 2027 04:41:54.980   01 Jun 2027 04:42:18.909            23.929              Murmansk2           747.781
        10   01 Jun 2027 05:17:19.004   01 Jun 2027 05:18:07.711            48.707            RioGallegos          1522.094
        11   01 Jun 2027 06:03:34.963   01 Jun 2027 06:04:01.692            26.729               Magadan2           835.281
        12   01 Jun 2027 06:04:03.283   01 Jun 2027 06:04:27.521            24.238                Anadyr2           757.437
        13   01 Jun 2027 06:05:15.318   01 Jun 2027 06:05:40.373            25.055                Irkutsk           782.969
        14   01 Jun 2027 06:05:52.721   01 Jun 2027 06:07:18.820            86.099               Magadan1          2690.594
        15   01 Jun 2027 06:07:40.832   01 Jun 2027 06:08:51.840            71.008                Anadyr1          2219.000
        16   01 Jun 2027 06:08:51.840   01 Jun 2027 06:10:19.687            87.847                Anadyr2          2745.219
        17   01 Jun 2027 06:10:34.205   01 Jun 2027 06:11:28.208            54.003                Norilsk          1687.594
        18   01 Jun 2027 07:41:15.511   01 Jun 2027 07:41:37.861            22.350               Magadan2           698.438
        19   01 Jun 2027 07:41:59.187   01 Jun 2027 07:45:43.349           224.162               Magadan2          7005.063
        20   01 Jun 2027 07:45:43.548   01 Jun 2027 07:46:40.625            57.077                Irkutsk          1783.656
        21   01 Jun 2027 09:18:36.818   01 Jun 2027 09:19:23.494            46.676                Irkutsk          1458.625
        22   01 Jun 2027 09:19:49.452   01 Jun 2027 09:23:09.143           199.691                Novosib          6240.344
        23   01 Jun 2027 09:23:11.225   01 Jun 2027 09:24:19.033            67.808              Murmansk2          2119.000
        24   01 Jun 2027 10:40:55.444   01 Jun 2027 10:42:53.989           118.545                  Delhi          3704.531
        25   01 Jun 2027 10:43:56.725   01 Jun 2027 10:45:31.366            94.641                  Delhi          2957.531
        26   01 Jun 2027 10:56:32.509   01 Jun 2027 10:57:26.849            54.340                 Moscow          1698.125
        27   01 Jun 2027 10:57:32.453   01 Jun 2027 10:58:19.457            47.004                Novosib          1468.875
        28   01 Jun 2027 10:58:25.621   01 Jun 2027 11:00:10.903           105.282              Murmansk1          3290.063
        29   01 Jun 2027 11:01:00.274   01 Jun 2027 11:01:48.688            48.414              Murmansk2          1512.938
        30   01 Jun 2027 12:25:13.773   01 Jun 2027 12:27:32.446           138.673                 Moscow          4333.531
        31   01 Jun 2027 12:28:39.995   01 Jun 2027 12:32:31.631           231.636              Murmansk1          7238.625
        32   01 Jun 2027 13:39:52.006   01 Jun 2027 13:43:07.091           195.085               CapeTown          6096.406
        33   01 Jun 2027 14:02:33.967   01 Jun 2027 14:03:02.015            28.048                 Moscow           876.500
        34   01 Jun 2027 14:05:43.370   01 Jun 2027 14:07:50.325           126.955              Murmansk1          3967.344
        35   01 Jun 2027 14:07:50.325   01 Jun 2027 14:08:23.178            32.853              Murmansk2          1026.656
        36   01 Jun 2027 14:19:45.576   01 Jun 2027 14:22:19.716           154.140                Anadyr1          4816.875
        37   01 Jun 2027 15:14:42.865   01 Jun 2027 15:16:32.782           109.917               CapeTown          3434.906
        38   01 Jun 2027 15:45:02.731   01 Jun 2027 15:45:09.359             6.628              Murmansk2           207.125
        39   01 Jun 2027 15:45:35.660   01 Jun 2027 15:46:31.904            56.244              Murmansk1          1757.625
        40   01 Jun 2027 15:55:17.402   01 Jun 2027 15:58:14.132           176.730                Anadyr2          5522.813
        41   01 Jun 2027 15:58:44.682   01 Jun 2027 16:04:31.303           346.621               Magadan2         10831.906
        42   01 Jun 2027 17:31:11.873   01 Jun 2027 17:32:53.524           101.651                Anadyr2          3176.594
        43   01 Jun 2027 17:32:58.772   01 Jun 2027 17:34:04.753            65.981                Anadyr1          2061.906
        44   01 Jun 2027 17:34:44.410   01 Jun 2027 17:35:36.856            52.446               Magadan1          1638.938
        45   01 Jun 2027 17:35:50.037   01 Jun 2027 17:36:58.146            68.109               Magadan2          2128.406
        46   01 Jun 2027 19:07:02.856   01 Jun 2027 19:08:49.044           106.188                Anadyr1          3318.375
        47   01 Jun 2027 19:08:56.662   01 Jun 2027 19:11:01.026           124.364                Anadyr2          3886.375
        48   01 Jun 2027 19:11:04.521   01 Jun 2027 19:11:05.796             1.275               Magadan1            39.844
        49   01 Jun 2027 19:11:12.644   01 Jun 2027 19:13:11.378           118.734                Norilsk          3710.438
        50   01 Jun 2027 19:13:31.392   01 Jun 2027 19:14:21.288            49.896               Magadan2          1559.250
        51   01 Jun 2027 19:14:39.354   01 Jun 2027 19:17:43.850           184.496                Irkutsk          5765.500
        52   01 Jun 2027 19:30:31.579   01 Jun 2027 19:31:59.380            87.801                Sumatra          2743.781
        53   01 Jun 2027 19:34:46.195   01 Jun 2027 19:35:08.401            22.206                Sumatra           693.938
        54   01 Jun 2027 20:44:56.538   01 Jun 2027 20:46:41.736           105.198                Norilsk          3287.437
        55   01 Jun 2027 20:48:13.420   01 Jun 2027 20:48:32.514            19.094               Magadan2           596.687
        56   01 Jun 2027 20:48:54.557   01 Jun 2027 20:50:14.177            79.620                Irkutsk          2488.125
        57   01 Jun 2027 20:51:08.948   01 Jun 2027 20:54:09.608           180.660                Novosib          5645.625
        58   01 Jun 2027 22:18:03.534   01 Jun 2027 22:18:28.370            24.836                Anadyr2           776.125
        59   01 Jun 2027 22:21:30.974   01 Jun 2027 22:22:13.927            42.953               Magadan1          1342.281
        60   01 Jun 2027 22:24:22.431   01 Jun 2027 22:27:56.213           213.782              Murmansk1          6680.687
        61   01 Jun 2027 22:32:10.078   01 Jun 2027 22:33:28.469            78.391                  Delhi          2449.719
        62   01 Jun 2027 23:50:05.525   01 Jun 2027 23:50:41.349            35.824                Anadyr1          1119.500
        63   01 Jun 2027 23:52:26.849   01 Jun 2027 23:52:48.716            21.867                Anadyr1           683.344
        64   01 Jun 2027 23:55:46.833   01 Jun 2027 23:56:05.918            19.085                Anadyr1           596.406
        65   01 Jun 2027 23:56:13.512   01 Jun 2027 23:57:22.584            69.072               Magadan2          2158.500
        66   01 Jun 2027 23:57:43.758   01 Jun 2027 23:58:05.450            21.692               Magadan1           677.875
        67   01 Jun 2027 23:58:31.017   01 Jun 2027 23:58:46.504            15.487               Magadan1           483.969
        68   01 Jun 2027 23:59:09.092   02 Jun 2027 00:02:04.421           175.329              Murmansk2          5479.031
        69   02 Jun 2027 00:02:50.880   02 Jun 2027 00:03:11.105            20.225              Murmansk2           632.031
        70   02 Jun 2027 00:03:24.797   02 Jun 2027 00:06:45.781           200.984                 Moscow          6280.750
        71   02 Jun 2027 00:30:11.120   02 Jun 2027 00:31:57.840           106.720               CapeTown          3335.000
        72   02 Jun 2027 01:28:01.123   02 Jun 2027 01:28:15.963            14.840               Magadan1           463.750
        73   02 Jun 2027 01:28:48.316   02 Jun 2027 01:29:20.108            31.792               Magadan2           993.500
        74   02 Jun 2027 01:35:01.994   02 Jun 2027 01:35:59.950            57.956              Murmansk2          1811.125
        75   02 Jun 2027 01:35:59.950   02 Jun 2027 01:36:43.150            43.200              Murmansk1          1350.000
        76   02 Jun 2027 01:37:21.503   02 Jun 2027 01:37:45.703            24.200                Novosib           756.250
        77   02 Jun 2027 01:38:16.618   02 Jun 2027 01:40:01.279           104.661                 Moscow          3270.656
        78   02 Jun 2027 02:58:52.237   02 Jun 2027 03:00:04.636            72.399                Anadyr1          2262.469
        79   02 Jun 2027 03:00:04.636   02 Jun 2027 03:00:18.807            14.171                Anadyr2           442.844
        80   02 Jun 2027 03:05:00.578   02 Jun 2027 03:05:16.081            15.503               Magadan1           484.469
        81   02 Jun 2027 03:05:30.345   02 Jun 2027 03:05:38.710             8.365               Magadan1           261.406
        82   02 Jun 2027 03:05:53.667   02 Jun 2027 03:06:17.498            23.831                Anadyr1           744.719
        83   02 Jun 2027 03:06:38.322   02 Jun 2027 03:06:55.241            16.919               Magadan1           528.719
        84   02 Jun 2027 03:06:55.241   02 Jun 2027 03:06:59.898             4.657               Magadan2           145.531
        85   02 Jun 2027 03:07:19.124   02 Jun 2027 03:07:56.348            37.224               Magadan2          1163.250
        86   02 Jun 2027 03:07:56.348   02 Jun 2027 03:08:35.208            38.860               Magadan1          1214.375
        87   02 Jun 2027 03:08:35.208   02 Jun 2027 03:09:16.677            41.469               Magadan2          1295.906
        88   02 Jun 2027 03:09:18.201   02 Jun 2027 03:09:39.908            21.707                Anadyr1           678.344
        89   02 Jun 2027 03:09:56.325   02 Jun 2027 03:10:10.366            14.041                Anadyr2           438.781
        90   02 Jun 2027 03:11:04.252   02 Jun 2027 03:11:07.239             2.987               Magadan2            93.344
        91   02 Jun 2027 04:41:07.965   02 Jun 2027 04:42:13.701            65.736                Anadyr2          2054.250
        92   02 Jun 2027 04:43:04.181   02 Jun 2027 04:43:51.365            47.184               Magadan2          1474.500
        93   02 Jun 2027 04:43:53.297   02 Jun 2027 04:45:53.586           120.289                Anadyr2          3759.031
        94   02 Jun 2027 04:45:53.586   02 Jun 2027 04:47:37.336           103.750                Anadyr1          3242.187
        95   02 Jun 2027 05:27:26.971   02 Jun 2027 05:28:02.031            35.060            RioGallegos          1095.625
        96   02 Jun 2027 05:28:19.046   02 Jun 2027 05:28:36.844            17.798            RioGallegos           556.188
        97   02 Jun 2027 05:29:16.073   02 Jun 2027 05:29:43.173            27.100            RioGallegos           846.875
        98   02 Jun 2027 05:32:32.919   02 Jun 2027 05:33:09.724            36.805            RioGallegos          1150.156
        99   02 Jun 2027 06:15:27.436   02 Jun 2027 06:15:38.132            10.696               Magadan2           334.250
       100   02 Jun 2027 06:16:28.071   02 Jun 2027 06:23:09.475           401.404               Magadan2         12543.875
       101   02 Jun 2027 06:23:20.538   02 Jun 2027 06:24:31.772            71.234                Norilsk          2226.063
       102   02 Jun 2027 07:53:56.043   02 Jun 2027 07:54:51.726            55.683                Norilsk          1740.094
       103   02 Jun 2027 07:54:54.183   02 Jun 2027 07:55:03.628             9.445                Irkutsk           295.156
       104   02 Jun 2027 07:55:20.895   02 Jun 2027 07:57:09.208           108.313               Magadan2          3384.781
       105   02 Jun 2027 07:57:22.242   02 Jun 2027 07:58:13.906            51.664                Novosib          1614.500
       106   02 Jun 2027 07:58:21.316   02 Jun 2027 08:01:18.607           177.291              Murmansk2          5540.344
       107   02 Jun 2027 08:34:08.968   02 Jun 2027 08:35:26.552            77.584            RioGallegos          2424.500
       108   02 Jun 2027 09:08:40.357   02 Jun 2027 09:10:59.671           139.314                Sumatra          4353.562
       109   02 Jun 2027 09:18:17.235   02 Jun 2027 09:20:12.236           115.001                  Delhi          3593.781
       110   02 Jun 2027 09:29:34.137   02 Jun 2027 09:30:19.774            45.637                Novosib          1426.156
       111   02 Jun 2027 09:30:22.895   02 Jun 2027 09:30:27.245             4.350                Norilsk           135.937
       112   02 Jun 2027 09:30:36.795   02 Jun 2027 09:30:56.438            19.643                Irkutsk           613.844
       113   02 Jun 2027 09:32:00.281   02 Jun 2027 09:32:11.065            10.784                Novosib           337.000
       114   02 Jun 2027 09:32:32.994   02 Jun 2027 09:32:50.975            17.981                Irkutsk           561.906
       115   02 Jun 2027 09:32:55.588   02 Jun 2027 09:33:07.809            12.221                Irkutsk           381.906
       116   02 Jun 2027 09:33:09.566   02 Jun 2027 09:33:17.391             7.825                Novosib           244.531
       117   02 Jun 2027 09:33:17.730   02 Jun 2027 09:33:48.378            30.648              Murmansk2           957.750
       118   02 Jun 2027 09:33:48.378   02 Jun 2027 09:34:02.971            14.593              Murmansk1           456.031
       119   02 Jun 2027 09:34:05.979   02 Jun 2027 09:34:32.339            26.360                Norilsk           823.750
       120   02 Jun 2027 09:34:41.806   02 Jun 2027 09:35:06.476            24.670                Novosib           770.938
       121   02 Jun 2027 09:35:11.218   02 Jun 2027 09:35:56.913            45.695              Murmansk2          1427.969
       122   02 Jun 2027 10:15:31.304   02 Jun 2027 10:16:31.584            60.280            RioGallegos          1883.750
       123   02 Jun 2027 10:53:08.182   02 Jun 2027 10:53:11.127             2.945                  Delhi            92.031
       124   02 Jun 2027 10:53:23.838   02 Jun 2027 10:54:42.313            78.475                  Delhi          2452.344
       125   02 Jun 2027 10:57:40.265   02 Jun 2027 10:58:12.423            32.158                  Delhi          1004.937
       126   02 Jun 2027 11:06:17.633   02 Jun 2027 11:06:46.616            28.983              Murmansk1           905.719
       127   02 Jun 2027 11:06:51.763   02 Jun 2027 11:07:35.450            43.687                 Moscow          1365.219
       128   02 Jun 2027 11:07:46.434   02 Jun 2027 11:07:57.734            11.300              Murmansk1           353.125
       129   02 Jun 2027 11:08:09.017   02 Jun 2027 11:08:41.429            32.412              Murmansk1          1012.875
       130   02 Jun 2027 11:08:41.429   02 Jun 2027 11:08:56.457            15.028              Murmansk2           469.625
       131   02 Jun 2027 11:09:00.904   02 Jun 2027 11:09:39.810            38.906                 Moscow          1215.812
       132   02 Jun 2027 11:09:50.353   02 Jun 2027 11:09:55.135             4.782                Norilsk           149.438
       133   02 Jun 2027 11:09:59.521   02 Jun 2027 11:10:05.551             6.030              Murmansk2           188.437
       134   02 Jun 2027 11:10:07.104   02 Jun 2027 11:10:25.451            18.347                Norilsk           573.344
       135   02 Jun 2027 11:10:27.141   02 Jun 2027 11:11:01.640            34.499              Murmansk1          1078.094
       136   02 Jun 2027 12:37:14.438   02 Jun 2027 12:39:57.697           163.259                 Moscow          5101.844
       137   02 Jun 2027 12:40:33.245   02 Jun 2027 12:41:33.464            60.219                 Moscow          1881.844
       138   02 Jun 2027 12:41:39.629   02 Jun 2027 12:44:19.595           159.966              Murmansk2          4998.938
       139   02 Jun 2027 12:50:09.082   02 Jun 2027 12:51:03.902            54.820                Norilsk          1713.125
       140   02 Jun 2027 13:51:30.711   02 Jun 2027 13:53:53.122           142.411               CapeTown          4450.344
       141   02 Jun 2027 13:54:59.181   02 Jun 2027 13:56:35.049            95.868               CapeTown          2995.875
       142   02 Jun 2027 14:18:01.775   02 Jun 2027 14:18:16.053            14.278              Murmansk2           446.188
       143   02 Jun 2027 14:18:35.598   02 Jun 2027 14:18:52.645            17.047              Murmansk1           532.719
       144   02 Jun 2027 14:19:51.779   02 Jun 2027 14:21:40.106           108.327              Murmansk1          3385.219
       145   02 Jun 2027 14:31:40.748   02 Jun 2027 14:34:09.046           148.298                Anadyr2          4634.312
       146   02 Jun 2027 14:40:28.454   02 Jun 2027 14:40:44.444            15.990                Anadyr1           499.687
       147   02 Jun 2027 15:27:01.390   02 Jun 2027 15:28:27.338            85.948               CapeTown          2685.875
       148   02 Jun 2027 15:57:42.916   02 Jun 2027 15:58:40.813            57.897              Murmansk1          1809.281
       149   02 Jun 2027 15:58:40.813   02 Jun 2027 15:58:41.798             0.985              Murmansk2            30.781
       150   02 Jun 2027 15:59:19.459   02 Jun 2027 15:59:55.490            36.031              Murmansk1          1125.969
       151   02 Jun 2027 16:01:40.786   02 Jun 2027 16:02:01.158            20.372              Murmansk2           636.625
       152   02 Jun 2027 16:07:18.100   02 Jun 2027 16:09:05.313           107.213                Anadyr1          3350.406
       153   02 Jun 2027 16:09:18.290   02 Jun 2027 16:09:29.170            10.880                Anadyr2           340.000
       154   02 Jun 2027 16:09:32.498   02 Jun 2027 16:10:07.149            34.651                Anadyr2          1082.844
       155   02 Jun 2027 16:10:28.584   02 Jun 2027 16:14:03.687           215.103               Magadan2          6721.969
       156   02 Jun 2027 16:14:51.085   02 Jun 2027 16:15:28.869            37.784               Magadan1          1180.750
       157   02 Jun 2027 17:43:13.212   02 Jun 2027 17:43:42.485            29.273                Anadyr1           914.781
       158   02 Jun 2027 17:43:42.485   02 Jun 2027 17:44:42.989            60.504                Anadyr2          1890.750
       159   02 Jun 2027 17:45:32.837   02 Jun 2027 17:47:31.279           118.442               Magadan2          3701.312
       160   02 Jun 2027 17:48:44.006   02 Jun 2027 17:48:59.069            15.063               Magadan1           470.719
       161   02 Jun 2027 17:49:20.782   02 Jun 2027 17:50:11.803            51.021               Magadan1          1594.406
       162   02 Jun 2027 18:39:39.341   02 Jun 2027 18:42:09.649           150.308            RioGallegos          4697.125
       163   02 Jun 2027 19:19:02.303   02 Jun 2027 19:20:41.362            99.059                Anadyr2          3095.594
       164   02 Jun 2027 19:20:47.260   02 Jun 2027 19:20:49.979             2.719                Anadyr2            84.969
       165   02 Jun 2027 19:21:14.274   02 Jun 2027 19:24:34.012           199.738                Norilsk          6241.813
       166   02 Jun 2027 19:27:17.912   02 Jun 2027 19:29:42.051           144.139                Irkutsk          4504.344
       167   02 Jun 2027 19:30:09.480   02 Jun 2027 19:30:34.933            25.453                Irkutsk           795.406
       168   02 Jun 2027 19:31:02.918   02 Jun 2027 19:32:11.443            68.525                Irkutsk          2141.406
       169   02 Jun 2027 19:41:17.143   02 Jun 2027 19:43:32.349           135.206                Sumatra          4225.188
       170   02 Jun 2027 19:47:01.768   02 Jun 2027 19:48:01.693            59.925                Sumatra          1872.656
       171   02 Jun 2027 21:01:36.571   02 Jun 2027 21:03:12.145            95.574                Novosib          2986.688
       172   02 Jun 2027 21:11:54.599   02 Jun 2027 21:15:41.435           226.836                  Delhi          7088.625
       173   02 Jun 2027 22:33:45.193   02 Jun 2027 22:34:10.762            25.569               Magadan1           799.031
       174   02 Jun 2027 22:35:59.880   02 Jun 2027 22:39:34.697           214.817              Murmansk2          6713.031
       175   02 Jun 2027 22:40:10.277   02 Jun 2027 22:41:01.458            51.181              Murmansk1          1599.406
       176   02 Jun 2027 22:52:34.855   02 Jun 2027 22:53:09.733            34.878                  Delhi          1089.938
       177   03 Jun 2027 00:01:47.118   03 Jun 2027 00:01:57.642            10.524                Anadyr1           328.875
       178   03 Jun 2027 00:06:08.315   03 Jun 2027 00:06:33.709            25.394                Anadyr2           793.562
       179   03 Jun 2027 00:07:47.722   03 Jun 2027 00:08:01.193            13.471                Anadyr1           420.969
       180   03 Jun 2027 00:08:29.585   03 Jun 2027 00:09:28.666            59.081               Magadan2          1846.281
       181   03 Jun 2027 00:09:59.199   03 Jun 2027 00:10:39.176            39.977               Magadan1          1249.281
       182   03 Jun 2027 00:11:08.987   03 Jun 2027 00:15:12.058           243.071              Murmansk2          7595.969
       183   03 Jun 2027 00:15:22.730   03 Jun 2027 00:15:56.889            34.159                 Moscow          1067.469
       184   03 Jun 2027 00:16:45.802   03 Jun 2027 00:17:02.077            16.275                 Moscow           508.594
       185   03 Jun 2027 00:21:36.577   03 Jun 2027 00:21:44.840             8.263                 Moscow           258.219
       186   03 Jun 2027 00:22:40.383   03 Jun 2027 00:22:52.654            12.271                 Moscow           383.469
       187   03 Jun 2027 00:41:12.226   03 Jun 2027 00:43:28.058           135.832               CapeTown          4244.750
       188   03 Jun 2027 00:44:56.231   03 Jun 2027 00:46:06.249            70.018               CapeTown          2188.062
       189   03 Jun 2027 01:39:30.548   03 Jun 2027 01:40:48.494            77.946               Magadan2          2435.813
       190   03 Jun 2027 01:46:45.648   03 Jun 2027 01:46:50.168             4.520                Norilsk           141.250
       191   03 Jun 2027 01:47:03.709   03 Jun 2027 01:47:54.890            51.181              Murmansk1          1599.406
       192   03 Jun 2027 01:47:54.890   03 Jun 2027 01:48:44.397            49.507              Murmansk2          1547.094
       193   03 Jun 2027 01:49:32.181   03 Jun 2027 01:50:48.341            76.160                Novosib          2380.000
       194   03 Jun 2027 01:53:27.203   03 Jun 2027 01:53:34.352             7.149                 Moscow           223.406
       195   03 Jun 2027 01:55:20.327   03 Jun 2027 01:55:42.679            22.352              Murmansk1           698.500
       196   03 Jun 2027 01:55:55.753   03 Jun 2027 01:57:35.233            99.480                 Moscow          3108.750
       197   03 Jun 2027 03:17:17.435   03 Jun 2027 03:17:39.541            22.106               Magadan2           690.812
       198   03 Jun 2027 03:17:54.440   03 Jun 2027 03:18:38.719            44.279                Anadyr2          1383.719
       199   03 Jun 2027 03:19:01.845   03 Jun 2027 03:19:25.148            23.303               Magadan1           728.219
       200   03 Jun 2027 03:19:25.148   03 Jun 2027 03:21:58.126           152.978               Magadan2          4780.562
       201   03 Jun 2027 03:22:15.640   03 Jun 2027 03:23:49.779            94.139                Anadyr2          2941.844
       202   03 Jun 2027 04:56:07.572   03 Jun 2027 04:56:59.329            51.757               Magadan2          1617.406
       203   03 Jun 2027 04:57:45.200   03 Jun 2027 04:59:35.945           110.745                Anadyr2          3460.781
       204   03 Jun 2027 06:28:43.949   03 Jun 2027 06:29:26.891            42.942               Magadan1          1341.938
       205   03 Jun 2027 06:29:29.299   03 Jun 2027 06:30:25.819            56.520                Irkutsk          1766.250
       206   03 Jun 2027 06:30:36.210   03 Jun 2027 06:30:58.451            22.241                Anadyr2           695.031
       207   03 Jun 2027 06:31:17.459   03 Jun 2027 06:31:29.164            11.705               Magadan2           365.781
       208   03 Jun 2027 06:31:35.450   03 Jun 2027 06:31:38.491             3.041                Novosib            95.031
       209   03 Jun 2027 06:31:39.088   03 Jun 2027 06:31:47.663             8.575                Irkutsk           267.969
       210   03 Jun 2027 06:31:50.467   03 Jun 2027 06:32:40.431            49.964                Anadyr1          1561.375
       211   03 Jun 2027 06:32:40.431   03 Jun 2027 06:33:09.702            29.271                Anadyr2           914.719
       212   03 Jun 2027 06:33:14.367   03 Jun 2027 06:33:28.406            14.039               Magadan1           438.719
       213   03 Jun 2027 06:33:34.507   03 Jun 2027 06:34:02.255            27.748               Magadan2           867.125
       214   03 Jun 2027 06:34:02.255   03 Jun 2027 06:34:55.550            53.295               Magadan1          1665.469
       215   03 Jun 2027 06:35:02.546   03 Jun 2027 06:36:10.132            67.586              Murmansk2          2112.062
       216   03 Jun 2027 07:10:06.126   03 Jun 2027 07:10:53.705            47.579            RioGallegos          1486.844
       217   03 Jun 2027 07:11:45.933   03 Jun 2027 07:13:03.633            77.700            RioGallegos          2428.125
       218   03 Jun 2027 07:46:50.350   03 Jun 2027 07:47:52.559            62.209                Sumatra          1944.031
       219   03 Jun 2027 08:05:12.099   03 Jun 2027 08:05:20.565             8.466                Norilsk           264.562
       220   03 Jun 2027 08:05:49.259   03 Jun 2027 08:07:03.311            74.052                Irkutsk          2314.125
       221   03 Jun 2027 08:07:14.392   03 Jun 2027 08:07:17.562             3.170                Norilsk            99.063
       222   03 Jun 2027 08:07:25.121   03 Jun 2027 08:07:33.412             8.291                Novosib           259.094
       223   03 Jun 2027 08:07:35.397   03 Jun 2027 08:07:36.542             1.145                Irkutsk            35.781
       224   03 Jun 2027 08:07:58.407   03 Jun 2027 08:08:17.373            18.966                Norilsk           592.688
       225   03 Jun 2027 08:08:21.266   03 Jun 2027 08:09:10.065            48.799                Novosib          1524.969
       226   03 Jun 2027 08:09:21.602   03 Jun 2027 08:09:38.086            16.484                Irkutsk           515.125
       227   03 Jun 2027 08:10:08.070   03 Jun 2027 08:10:11.090             3.020                Irkutsk            94.375
       228   03 Jun 2027 08:10:19.720   03 Jun 2027 08:10:38.726            19.006              Murmansk1           593.937
       229   03 Jun 2027 08:10:50.742   03 Jun 2027 08:11:01.612            10.870                Irkutsk           339.687
       230   03 Jun 2027 08:11:26.355   03 Jun 2027 08:11:34.264             7.909              Murmansk2           247.156
       231   03 Jun 2027 08:11:44.746   03 Jun 2027 08:12:33.620            48.874              Murmansk1          1527.313
       232   03 Jun 2027 08:46:26.097   03 Jun 2027 08:46:52.968            26.871            RioGallegos           839.719
       233   03 Jun 2027 08:48:13.428   03 Jun 2027 08:48:16.381             2.953            RioGallegos            92.281
       234   03 Jun 2027 08:48:49.932   03 Jun 2027 08:49:47.985            58.053            RioGallegos          1814.156
       235   03 Jun 2027 09:20:49.092   03 Jun 2027 09:22:30.345           101.253                Sumatra          3164.156
       236   03 Jun 2027 09:30:14.362   03 Jun 2027 09:30:48.170            33.808                  Delhi          1056.500
       237   03 Jun 2027 09:42:19.113   03 Jun 2027 09:42:35.681            16.568                 Moscow           517.750
       238   03 Jun 2027 09:42:49.724   03 Jun 2027 09:42:52.713             2.989                Irkutsk            93.406
       239   03 Jun 2027 09:42:58.016   03 Jun 2027 09:43:08.493            10.477              Murmansk1           327.406
       240   03 Jun 2027 09:43:45.473   03 Jun 2027 09:44:04.326            18.853              Murmansk1           589.156
       241   03 Jun 2027 09:44:10.764   03 Jun 2027 09:44:12.031             1.267                 Moscow            39.594
       242   03 Jun 2027 09:44:20.666   03 Jun 2027 09:44:44.095            23.429                Irkutsk           732.156
       243   03 Jun 2027 09:44:56.579   03 Jun 2027 09:45:01.862             5.283                Novosib           165.094
       244   03 Jun 2027 09:45:07.504   03 Jun 2027 09:45:15.145             7.641              Murmansk1           238.781
       245   03 Jun 2027 09:45:21.800   03 Jun 2027 09:45:32.109            10.309                Novosib           322.156
       246   03 Jun 2027 09:45:35.598   03 Jun 2027 09:45:52.275            16.677              Murmansk1           521.156
       247   03 Jun 2027 09:46:00.023   03 Jun 2027 09:46:30.549            30.526              Murmansk2           953.938
       248   03 Jun 2027 09:46:35.644   03 Jun 2027 09:46:51.063            15.419                Norilsk           481.844
       249   03 Jun 2027 09:47:22.971   03 Jun 2027 09:47:28.623             5.652                 Moscow           176.625
       250   03 Jun 2027 09:48:03.022   03 Jun 2027 09:48:39.477            36.455                 Moscow          1139.219
       251   03 Jun 2027 11:05:27.393   03 Jun 2027 11:07:28.179           120.786                  Delhi          3774.563
       252   03 Jun 2027 11:07:39.728   03 Jun 2027 11:09:40.810           121.082                  Delhi          3783.813
       253   03 Jun 2027 11:18:15.167   03 Jun 2027 11:18:47.937            32.770              Murmansk1          1024.062
       254   03 Jun 2027 11:19:09.065   03 Jun 2027 11:20:37.668            88.603                 Moscow          2768.844
       255   03 Jun 2027 11:20:39.485   03 Jun 2027 11:20:56.131            16.646                Novosib           520.188
       256   03 Jun 2027 11:21:13.381   03 Jun 2027 11:22:23.752            70.371                Novosib          2199.094
       257   03 Jun 2027 11:22:28.545   03 Jun 2027 11:22:33.375             4.830              Murmansk2           150.937
       258   03 Jun 2027 11:25:47.801   03 Jun 2027 11:25:53.696             5.895              Murmansk2           184.219
       259   03 Jun 2027 11:26:00.540   03 Jun 2027 11:26:05.774             5.234                 Moscow           163.563
       260   03 Jun 2027 12:49:18.021   03 Jun 2027 12:53:45.938           267.917                 Moscow          8372.406
       261   03 Jun 2027 12:53:50.197   03 Jun 2027 12:54:25.184            34.987              Murmansk2          1093.344
       262   03 Jun 2027 12:54:42.871   03 Jun 2027 12:55:48.732            65.861              Murmansk1          2058.156
       263   03 Jun 2027 12:56:02.796   03 Jun 2027 12:56:08.035             5.239              Murmansk1           163.719
       264   03 Jun 2027 12:56:39.545   03 Jun 2027 12:56:42.417             2.872              Murmansk1            89.750
       265   03 Jun 2027 12:57:04.313   03 Jun 2027 12:57:14.572            10.259              Murmansk2           320.594
       266   03 Jun 2027 14:03:15.223   03 Jun 2027 14:06:03.698           168.475               CapeTown          5264.844
       267   03 Jun 2027 14:06:54.567   03 Jun 2027 14:07:17.901            23.334               CapeTown           729.188
       268   03 Jun 2027 14:14:09.345   03 Jun 2027 14:15:05.998            56.653               CapeTown          1770.406
       269   03 Jun 2027 14:30:22.349   03 Jun 2027 14:33:43.218           200.869              Murmansk2          6277.156
       270   03 Jun 2027 14:43:37.271   03 Jun 2027 14:45:26.682           109.411                Anadyr1          3419.094
       271   03 Jun 2027 14:45:26.682   03 Jun 2027 14:46:21.264            54.582                Anadyr2          1705.688
       272   03 Jun 2027 15:49:09.226   03 Jun 2027 15:49:22.728            13.502               CapeTown           421.938
       273   03 Jun 2027 16:10:27.475   03 Jun 2027 16:13:22.680           175.205              Murmansk1          5475.156
       274   03 Jun 2027 16:19:19.030   03 Jun 2027 16:19:43.984            24.954                Anadyr2           779.812
       275   03 Jun 2027 16:20:57.008   03 Jun 2027 16:21:04.774             7.766                Anadyr2           242.687
       276   03 Jun 2027 16:21:10.264   03 Jun 2027 16:22:16.565            66.301                Anadyr1          2071.906
       277   03 Jun 2027 16:22:16.824   03 Jun 2027 16:25:59.736           222.912               Magadan2          6966.000
       278   03 Jun 2027 17:55:14.463   03 Jun 2027 17:58:36.305           201.842                Anadyr2          6307.562
       279   03 Jun 2027 17:59:27.007   03 Jun 2027 18:01:58.110           151.103               Magadan2          4721.969
       280   03 Jun 2027 18:50:54.164   03 Jun 2027 18:53:53.827           179.663            RioGallegos          5614.469
       281   03 Jun 2027 18:56:14.669   03 Jun 2027 18:56:23.118             8.449            RioGallegos           264.031
       282   03 Jun 2027 18:57:33.797   03 Jun 2027 18:57:58.812            25.015            RioGallegos           781.719
       283   03 Jun 2027 19:33:11.497   03 Jun 2027 19:37:06.189           234.692                Norilsk          7334.125
       284   03 Jun 2027 19:37:54.305   03 Jun 2027 19:39:00.462            66.157                Irkutsk          2067.406
       285   03 Jun 2027 19:39:22.317   03 Jun 2027 19:39:54.649            32.332                Irkutsk          1010.375
       286   03 Jun 2027 19:40:44.356   03 Jun 2027 19:41:24.509            40.153                Irkutsk          1254.781
       287   03 Jun 2027 19:52:27.897   03 Jun 2027 19:52:34.297             6.400                Sumatra           200.000
       288   03 Jun 2027 19:55:04.531   03 Jun 2027 19:56:32.606            88.075                Sumatra          2752.344
       289   03 Jun 2027 19:57:39.220   03 Jun 2027 19:59:00.768            81.548                Sumatra          2548.375
       290   03 Jun 2027 21:12:52.569   03 Jun 2027 21:14:51.599           119.030                Irkutsk          3719.687
       291   03 Jun 2027 21:15:03.497   03 Jun 2027 21:17:09.108           125.611                Novosib          3925.344
       292   03 Jun 2027 21:22:39.339   03 Jun 2027 21:25:04.578           145.239                  Delhi          4538.719
       293   03 Jun 2027 22:44:59.592   03 Jun 2027 22:46:14.319            74.727                Norilsk          2335.219
       294   03 Jun 2027 22:46:37.266   03 Jun 2027 22:46:43.977             6.711               Magadan2           209.719
       295   03 Jun 2027 22:46:43.977   03 Jun 2027 22:47:06.018            22.041               Magadan1           688.781
       296   03 Jun 2027 22:47:46.738   03 Jun 2027 22:51:30.541           223.803              Murmansk1          6993.844
       297   03 Jun 2027 22:52:23.098   03 Jun 2027 22:53:55.248            92.150              Murmansk2          2879.687
       298   04 Jun 2027 00:13:29.247   04 Jun 2027 00:13:39.796            10.549                Anadyr2           329.656
       299   04 Jun 2027 00:15:59.569   04 Jun 2027 00:16:10.934            11.365                Anadyr2           355.156
       300   04 Jun 2027 00:18:34.137   04 Jun 2027 00:19:10.805            36.668                Anadyr2          1145.875
       301   04 Jun 2027 00:19:22.848   04 Jun 2027 00:20:52.584            89.736               Magadan1          2804.250
       302   04 Jun 2027 00:21:16.081   04 Jun 2027 00:21:26.386            10.305               Magadan2           322.031
       303   04 Jun 2027 00:21:57.306   04 Jun 2027 00:22:34.087            36.781               Magadan1          1149.406
       304   04 Jun 2027 00:23:09.350   04 Jun 2027 00:26:07.739           178.389              Murmansk1          5574.656
       305   04 Jun 2027 00:26:50.018   04 Jun 2027 00:27:58.327            68.309                 Moscow          2134.656
       306   04 Jun 2027 00:29:10.492   04 Jun 2027 00:29:20.130             9.638                 Moscow           301.187
       307   04 Jun 2027 00:31:07.814   04 Jun 2027 00:32:29.766            81.952                 Moscow          2561.000
       308   04 Jun 2027 00:52:26.834   04 Jun 2027 00:53:16.139            49.305               CapeTown          1540.781
       309   04 Jun 2027 00:54:13.751   04 Jun 2027 00:55:04.767            51.016               CapeTown          1594.250
       310   04 Jun 2027 00:57:11.521   04 Jun 2027 00:58:29.655            78.134               CapeTown          2441.687
       311   04 Jun 2027 01:51:00.999   04 Jun 2027 01:51:29.041            28.042               Magadan1           876.313
       312   04 Jun 2027 01:52:19.827   04 Jun 2027 01:52:53.646            33.819               Magadan2          1056.844
       313   04 Jun 2027 01:59:05.442   04 Jun 2027 01:59:48.668            43.226              Murmansk1          1350.813
       314   04 Jun 2027 01:59:48.668   04 Jun 2027 02:00:35.056            46.388              Murmansk2          1449.625
       315   04 Jun 2027 02:01:45.076   04 Jun 2027 02:02:06.546            21.470                Novosib           670.938
       316   04 Jun 2027 02:02:17.941   04 Jun 2027 02:03:16.323            58.382                 Moscow          1824.438
       317   04 Jun 2027 02:10:42.563   04 Jun 2027 02:10:48.732             6.169              Murmansk2           192.781
       318   04 Jun 2027 02:12:10.022   04 Jun 2027 02:12:27.720            17.698                 Moscow           553.063
       319   04 Jun 2027 02:26:13.339   04 Jun 2027 02:26:35.472            22.133               CapeTown           691.656
       320   04 Jun 2027 02:28:57.775   04 Jun 2027 02:29:22.960            25.185               CapeTown           787.031
       321   04 Jun 2027 02:30:51.676   04 Jun 2027 02:31:23.160            31.484               CapeTown           983.875
       322   04 Jun 2027 02:36:02.437   04 Jun 2027 02:36:15.386            12.949               CapeTown           404.656
       323   04 Jun 2027 03:28:55.274   04 Jun 2027 03:29:13.140            17.866               Magadan2           558.313
       324   04 Jun 2027 03:30:05.504   04 Jun 2027 03:32:04.159           118.655                Anadyr1          3707.969
       325   04 Jun 2027 03:32:24.444   04 Jun 2027 03:34:12.826           108.382               Magadan2          3386.937
       326   04 Jun 2027 03:34:12.826   04 Jun 2027 03:35:08.609            55.783               Magadan1          1743.219
       327   04 Jun 2027 05:05:54.233   04 Jun 2027 05:06:21.643            27.410                Irkutsk           856.562
       328   04 Jun 2027 05:07:08.646   04 Jun 2027 05:07:40.815            32.169                Irkutsk          1005.281
       329   04 Jun 2027 05:08:39.581   04 Jun 2027 05:08:57.681            18.100                Irkutsk           565.625
       330   04 Jun 2027 06:41:00.765   04 Jun 2027 06:41:12.667            11.902               Magadan2           371.937
       331   04 Jun 2027 06:41:28.624   04 Jun 2027 06:42:02.091            33.467               Magadan1          1045.844
       332   04 Jun 2027 06:42:02.959   04 Jun 2027 06:42:31.034            28.075                Irkutsk           877.344
       333   04 Jun 2027 06:42:35.147   04 Jun 2027 06:42:40.746             5.599                Norilsk           174.969
       334   04 Jun 2027 06:42:42.917   04 Jun 2027 06:43:03.723            20.806                Novosib           650.188
       335   04 Jun 2027 06:43:15.694   04 Jun 2027 06:43:31.860            16.166               Magadan1           505.187
       336   04 Jun 2027 06:43:33.636   04 Jun 2027 06:44:14.987            41.351               Magadan1          1292.219
       337   04 Jun 2027 06:44:31.341   04 Jun 2027 06:45:15.205            43.864               Magadan1          1370.750
       338   04 Jun 2027 06:45:18.582   04 Jun 2027 06:45:55.931            37.349                Novosib          1167.156
       339   04 Jun 2027 06:45:57.428   04 Jun 2027 06:46:29.620            32.192              Murmansk1          1006.000
       340   04 Jun 2027 06:46:32.841   04 Jun 2027 06:47:09.888            37.047                Novosib          1157.719
       341   04 Jun 2027 06:48:06.139   04 Jun 2027 06:48:24.804            18.665              Murmansk2           583.281
       342   04 Jun 2027 06:51:20.185   04 Jun 2027 06:51:29.953             9.768              Murmansk2           305.250
       343   04 Jun 2027 06:51:59.760   04 Jun 2027 06:52:24.056            24.296              Murmansk2           759.250
       344   04 Jun 2027 07:22:06.547   04 Jun 2027 07:22:23.323            16.776            RioGallegos           524.250
       345   04 Jun 2027 07:23:26.513   04 Jun 2027 07:24:44.274            77.761            RioGallegos          2430.031
       346   04 Jun 2027 07:58:08.870   04 Jun 2027 07:58:34.351            25.481                Sumatra           796.281
       347   04 Jun 2027 08:02:14.560   04 Jun 2027 08:02:24.732            10.172                Sumatra           317.875
       348   04 Jun 2027 08:04:59.330   04 Jun 2027 08:05:02.363             3.033                Sumatra            94.781
       349   04 Jun 2027 08:16:46.455   04 Jun 2027 08:17:36.387            49.932                Irkutsk          1560.375
       350   04 Jun 2027 08:17:42.178   04 Jun 2027 08:18:32.491            50.313                Norilsk          1572.281
       351   04 Jun 2027 08:18:43.220   04 Jun 2027 08:18:45.634             2.414                Norilsk            75.438
       352   04 Jun 2027 08:18:57.556   04 Jun 2027 08:19:17.091            19.535                Norilsk           610.469
       353   04 Jun 2027 08:19:31.129   04 Jun 2027 08:19:53.824            22.695                Irkutsk           709.219
       354   04 Jun 2027 08:20:33.271   04 Jun 2027 08:21:11.538            38.267                Norilsk          1195.844
       355   04 Jun 2027 08:21:19.394   04 Jun 2027 08:22:16.771            57.377              Murmansk2          1793.031
       356   04 Jun 2027 08:22:23.147   04 Jun 2027 08:22:37.563            14.416                Norilsk           450.500
       357   04 Jun 2027 08:22:38.693   04 Jun 2027 08:23:31.679            52.986              Murmansk1          1655.812
       358   04 Jun 2027 08:28:39.724   04 Jun 2027 08:28:59.461            19.737              Murmansk2           616.781
       359   04 Jun 2027 08:58:47.691   04 Jun 2027 08:59:31.507            43.816            RioGallegos          1369.250
       360   04 Jun 2027 09:33:04.163   04 Jun 2027 09:34:31.056            86.893                Sumatra          2715.406
       361   04 Jun 2027 09:41:29.403   04 Jun 2027 09:42:45.229            75.826                  Delhi          2369.563
       362   04 Jun 2027 09:54:18.868   04 Jun 2027 09:54:57.643            38.775              Murmansk1          1211.719
       363   04 Jun 2027 09:55:01.301   04 Jun 2027 09:55:59.784            58.483              Murmansk1          1827.594
       364   04 Jun 2027 09:56:01.043   04 Jun 2027 09:56:29.782            28.739              Murmansk2           898.094
       365   04 Jun 2027 09:56:35.470   04 Jun 2027 09:56:59.408            23.938                Norilsk           748.063
       366   04 Jun 2027 09:57:13.824   04 Jun 2027 09:57:30.313            16.489                Norilsk           515.281
       367   04 Jun 2027 09:57:42.232   04 Jun 2027 09:57:50.105             7.873              Murmansk1           246.031
       368   04 Jun 2027 09:57:54.977   04 Jun 2027 09:58:08.027            13.050                Norilsk           407.813
       369   04 Jun 2027 09:58:15.800   04 Jun 2027 09:58:17.272             1.472                Irkutsk            46.000
       370   04 Jun 2027 09:58:22.184   04 Jun 2027 09:58:32.086             9.902              Murmansk1           309.438
       371   04 Jun 2027 09:59:12.065   04 Jun 2027 10:00:15.000            62.935              Murmansk2          1966.719
       372   04 Jun 2027 11:17:54.176   04 Jun 2027 11:19:24.411            90.235                  Delhi          2819.844
       373   04 Jun 2027 11:21:16.569   04 Jun 2027 11:21:47.757            31.188                  Delhi           974.625
       374   04 Jun 2027 11:27:49.823   04 Jun 2027 11:27:56.724             6.901                  Delhi           215.656
       375   04 Jun 2027 11:30:13.240   04 Jun 2027 11:30:49.390            36.150              Murmansk2          1129.688
       376   04 Jun 2027 11:30:50.898   04 Jun 2027 11:31:24.497            33.599                Novosib          1049.969
       377   04 Jun 2027 11:31:28.792   04 Jun 2027 11:32:10.956            42.164                Norilsk          1317.625
       378   04 Jun 2027 11:32:24.847   04 Jun 2027 11:32:44.971            20.124                Norilsk           628.875
       379   04 Jun 2027 11:33:24.284   04 Jun 2027 11:33:57.436            33.152              Murmansk1          1036.000
       380   04 Jun 2027 11:34:02.153   04 Jun 2027 11:35:30.506            88.353                 Moscow          2761.031
       381   04 Jun 2027 13:01:24.633   04 Jun 2027 13:03:05.873           101.240                 Moscow          3163.750
       382   04 Jun 2027 13:04:11.022   04 Jun 2027 13:05:54.085           103.063                 Moscow          3220.719
       383   04 Jun 2027 13:05:56.603   04 Jun 2027 13:06:39.927            43.324              Murmansk1          1353.875
       384   04 Jun 2027 13:06:39.927   04 Jun 2027 13:08:58.631           138.704              Murmansk2          4334.500
       385   04 Jun 2027 13:21:19.240   04 Jun 2027 13:24:19.441           180.201                Anadyr2          5631.281
       386   04 Jun 2027 14:16:27.735   04 Jun 2027 14:17:35.407            67.672               CapeTown          2114.750
       387   04 Jun 2027 14:42:45.194   04 Jun 2027 14:44:02.238            77.044              Murmansk2          2407.625
       388   04 Jun 2027 14:44:19.292   04 Jun 2027 14:45:12.531            53.239              Murmansk2          1663.719
       389   04 Jun 2027 14:55:34.849   04 Jun 2027 14:58:22.329           167.480                Anadyr1          5233.750
       390   04 Jun 2027 15:51:37.468   04 Jun 2027 15:51:43.277             5.809               CapeTown           181.531
       391   04 Jun 2027 15:52:57.980   04 Jun 2027 15:53:33.061            35.081               CapeTown          1096.281
       392   04 Jun 2027 16:23:17.689   04 Jun 2027 16:25:44.710           147.021              Murmansk2          4594.406
       393   04 Jun 2027 16:27:23.786   04 Jun 2027 16:27:26.311             2.525              Murmansk2            78.906
       394   04 Jun 2027 16:31:20.141   04 Jun 2027 16:33:04.718           104.577                Anadyr2          3268.031
       395   04 Jun 2027 16:33:15.410   04 Jun 2027 16:33:31.632            16.222                Anadyr1           506.938
       396   04 Jun 2027 16:34:08.038   04 Jun 2027 16:37:09.341           181.303               Magadan2          5665.719
       397   04 Jun 2027 16:40:38.724   04 Jun 2027 16:40:48.847            10.123               Magadan1           316.344
       398   04 Jun 2027 16:40:58.614   04 Jun 2027 16:41:56.103            57.489               Magadan1          1796.531
       399   04 Jun 2027 18:07:15.582   04 Jun 2027 18:10:01.255           165.673                Anadyr1          5177.281
       400   04 Jun 2027 18:10:30.012   04 Jun 2027 18:10:54.010            23.998                Anadyr1           749.938
       401   04 Jun 2027 18:11:23.077   04 Jun 2027 18:12:07.813            44.736               Magadan1          1398.000
       402   04 Jun 2027 18:12:33.494   04 Jun 2027 18:13:32.726            59.232               Magadan1          1851.000
       403   04 Jun 2027 18:16:44.352   04 Jun 2027 18:16:56.041            11.689               Magadan2           365.281
       404   04 Jun 2027 18:18:40.523   04 Jun 2027 18:19:57.271            76.748               Magadan2          2398.375
       405   04 Jun 2027 19:02:25.472   04 Jun 2027 19:05:41.970           196.498            RioGallegos          6140.563
       406   04 Jun 2027 19:45:29.964   04 Jun 2027 19:45:42.006            12.042                Norilsk           376.312
       407   04 Jun 2027 19:45:52.851   04 Jun 2027 19:49:10.590           197.739                Norilsk          6179.344
       408   04 Jun 2027 19:49:40.405   04 Jun 2027 19:51:55.172           134.767                Irkutsk          4211.469
       409   04 Jun 2027 19:52:09.885   04 Jun 2027 19:53:18.353            68.468                Irkutsk          2139.625
       410   04 Jun 2027 20:03:52.673   04 Jun 2027 20:04:52.848            60.175                Sumatra          1880.469
       411   04 Jun 2027 20:07:00.926   04 Jun 2027 20:08:57.949           117.023                Sumatra          3656.969
       412   04 Jun 2027 20:09:53.214   04 Jun 2027 20:10:30.046            36.832                Sumatra          1151.000
       413   04 Jun 2027 21:24:53.055   04 Jun 2027 21:25:26.465            33.410                Irkutsk          1044.062
       414   04 Jun 2027 21:25:45.779   04 Jun 2027 21:27:41.616           115.837                Novosib          3619.906
       415   04 Jun 2027 21:28:36.974   04 Jun 2027 21:29:33.807            56.833                Novosib          1776.031
       416   04 Jun 2027 21:33:53.965   04 Jun 2027 21:36:15.363           141.398                  Delhi          4418.688
       417   04 Jun 2027 21:40:08.644   04 Jun 2027 21:40:29.991            21.347                  Delhi           667.094
       418   04 Jun 2027 22:57:21.247   04 Jun 2027 22:58:07.757            46.510                Norilsk          1453.437
       419   04 Jun 2027 22:58:50.089   04 Jun 2027 22:59:26.143            36.054               Magadan2          1126.688
       420   04 Jun 2027 22:59:38.231   04 Jun 2027 23:03:27.814           229.583              Murmansk1          7174.469
       421   04 Jun 2027 23:03:47.611   04 Jun 2027 23:06:12.392           144.781              Murmansk2          4524.406
       422   05 Jun 2027 00:30:53.452   05 Jun 2027 00:32:10.412            76.960               Magadan1          2405.000
       423   05 Jun 2027 00:32:29.420   05 Jun 2027 00:32:54.811            25.391               Magadan2           793.469
       424   05 Jun 2027 00:33:18.695   05 Jun 2027 00:34:06.798            48.103               Magadan2          1503.219
       425   05 Jun 2027 00:35:10.090   05 Jun 2027 00:37:10.090           120.000              Murmansk1          3750.000
       426   05 Jun 2027 00:38:43.582   05 Jun 2027 00:39:04.770            21.188                 Moscow           662.125
       427   05 Jun 2027 00:39:10.361   05 Jun 2027 00:39:21.752            11.391                 Moscow           355.969
       428   05 Jun 2027 00:39:34.023   05 Jun 2027 00:40:17.353            43.330                 Moscow          1354.062
       429   05 Jun 2027 00:42:34.701   05 Jun 2027 00:43:26.473            51.772              Murmansk1          1617.875
       430   05 Jun 2027 00:49:56.505   05 Jun 2027 00:50:19.376            22.871                 Moscow           714.719
       431   05 Jun 2027 01:03:50.855   05 Jun 2027 01:04:39.079            48.224               CapeTown          1507.000
       432   05 Jun 2027 01:08:20.837   05 Jun 2027 01:09:22.234            61.397               CapeTown          1918.656
       433   05 Jun 2027 02:00:06.097   05 Jun 2027 02:00:19.027            12.930                Anadyr2           404.062
       434   05 Jun 2027 02:01:01.453   05 Jun 2027 02:01:23.315            21.862                Anadyr1           683.187
       435   05 Jun 2027 02:01:41.020   05 Jun 2027 02:01:59.015            17.995                Anadyr1           562.344
       436   05 Jun 2027 02:02:32.670   05 Jun 2027 02:03:43.742            71.072               Magadan2          2221.000
       437   05 Jun 2027 02:04:01.383   05 Jun 2027 02:04:08.625             7.242               Magadan1           226.313
       438   05 Jun 2027 02:07:55.325   05 Jun 2027 02:08:32.123            36.798               Magadan1          1149.937
       439   05 Jun 2027 02:11:07.162   05 Jun 2027 02:12:29.681            82.519              Murmansk1          2578.719
       440   05 Jun 2027 02:12:29.681   05 Jun 2027 02:13:07.853            38.172              Murmansk2          1192.875
       441   05 Jun 2027 02:14:01.596   05 Jun 2027 02:14:12.176            10.580                Novosib           330.625
       442   05 Jun 2027 02:17:36.539   05 Jun 2027 02:17:37.913             1.374                 Moscow            42.937
       443   05 Jun 2027 02:18:40.972   05 Jun 2027 02:19:03.200            22.228                 Moscow           694.625
       444   05 Jun 2027 02:19:55.915   05 Jun 2027 02:21:19.085            83.170                 Moscow          2599.062
       445   05 Jun 2027 02:47:39.262   05 Jun 2027 02:48:07.699            28.437               CapeTown           888.656
       446   05 Jun 2027 02:50:47.747   05 Jun 2027 02:50:49.046             1.299               CapeTown            40.594
       447   05 Jun 2027 03:41:51.868   05 Jun 2027 03:41:56.650             4.782                Anadyr2           149.437
       448   05 Jun 2027 03:42:01.761   05 Jun 2027 03:42:25.740            23.979               Magadan1           749.344
       449   05 Jun 2027 03:42:30.263   05 Jun 2027 03:47:47.281           317.018                Anadyr2          9906.813
       450   05 Jun 2027 05:20:13.712   05 Jun 2027 05:21:32.173            78.461               Magadan1          2451.906
       451   05 Jun 2027 06:53:30.042   05 Jun 2027 06:53:42.849            12.807               Magadan2           400.219
       452   05 Jun 2027 06:53:42.849   05 Jun 2027 06:54:10.426            27.577               Magadan1           861.781
       453   05 Jun 2027 06:54:23.896   05 Jun 2027 06:55:13.025            49.129               Magadan2          1535.281
       454   05 Jun 2027 06:55:18.013   05 Jun 2027 06:55:23.816             5.803                Novosib           181.344
       455   05 Jun 2027 06:55:24.376   05 Jun 2027 06:55:33.834             9.458                Norilsk           295.562
       456   05 Jun 2027 06:55:34.377   05 Jun 2027 06:55:56.945            22.568               Magadan2           705.250
       457   05 Jun 2027 06:56:01.278   05 Jun 2027 06:57:15.602            74.324               Magadan1          2322.625
       458   05 Jun 2027 06:57:34.764   05 Jun 2027 06:58:30.222            55.458               Magadan2          1733.063
       459   05 Jun 2027 06:58:32.769   05 Jun 2027 07:00:00.102            87.333              Murmansk1          2729.156
       460   05 Jun 2027 07:33:54.592   05 Jun 2027 07:34:33.236            38.644            RioGallegos          1207.625
       461   05 Jun 2027 08:09:38.899   05 Jun 2027 08:10:33.890            54.991                Sumatra          1718.469
       462   05 Jun 2027 08:11:08.369   05 Jun 2027 08:12:31.792            83.423                Sumatra          2606.969
       463   05 Jun 2027 08:29:15.709   05 Jun 2027 08:29:36.268            20.559                Norilsk           642.469
       464   05 Jun 2027 08:29:54.325   05 Jun 2027 08:30:05.097            10.772                Novosib           336.625
       465   05 Jun 2027 08:30:25.421   05 Jun 2027 08:30:27.810             2.389                Irkutsk            74.656
       466   05 Jun 2027 08:30:33.903   05 Jun 2027 08:30:42.430             8.527                Novosib           266.469
       467   05 Jun 2027 08:31:12.836   05 Jun 2027 08:32:00.807            47.971                Novosib          1499.094
       468   05 Jun 2027 08:32:04.738   05 Jun 2027 08:32:07.224             2.486                Norilsk            77.687
       469   05 Jun 2027 08:32:17.630   05 Jun 2027 08:32:29.336            11.706                Norilsk           365.813
       470   05 Jun 2027 08:32:54.158   05 Jun 2027 08:33:26.463            32.305                Irkutsk          1009.531
       471   05 Jun 2027 08:33:35.156   05 Jun 2027 08:33:48.564            13.408                Norilsk           419.000
       472   05 Jun 2027 08:33:57.296   05 Jun 2027 08:34:01.672             4.376                Novosib           136.750
       473   05 Jun 2027 08:34:12.541   05 Jun 2027 08:34:25.596            13.055              Murmansk2           407.969
       474   05 Jun 2027 08:34:25.596   05 Jun 2027 08:34:58.725            33.129              Murmansk1          1035.281
       475   05 Jun 2027 08:35:05.522   05 Jun 2027 08:35:19.122            13.600              Murmansk1           425.000
       476   05 Jun 2027 08:36:20.303   05 Jun 2027 08:36:57.285            36.982              Murmansk1          1155.687
       477   05 Jun 2027 08:38:44.804   05 Jun 2027 08:39:09.362            24.558              Murmansk1           767.438
       478   05 Jun 2027 09:11:14.296   05 Jun 2027 09:11:39.169            24.873            RioGallegos           777.281
       479   05 Jun 2027 09:12:36.860   05 Jun 2027 09:12:53.461            16.601            RioGallegos           518.781
       480   05 Jun 2027 09:45:26.701   05 Jun 2027 09:46:25.905            59.204                Sumatra          1850.125
       481   05 Jun 2027 09:49:13.909   05 Jun 2027 09:49:30.700            16.791                Sumatra           524.719
       482   05 Jun 2027 09:53:14.808   05 Jun 2027 09:54:38.694            83.886                  Delhi          2621.438
