uniorb/output/strategy_2/Drop/Drop_KinoSat_111502.txt

KinoSat_111502
-------------------------
    Access    *     Start Time (UTCG)     *     Stop Time (UTCG)  *   Duration (s)        *       Station  *  Data (Mbytes)
         1   01 Jun 2027 03:50:50.891   01 Jun 2027 03:51:38.001            47.110              Murmansk2          1472.188
         2   01 Jun 2027 03:52:37.137   01 Jun 2027 03:52:53.900            16.763                Novosib           523.844
         3   01 Jun 2027 03:52:57.480   01 Jun 2027 03:53:25.628            28.148              Murmansk1           879.625
         4   01 Jun 2027 03:53:42.087   01 Jun 2027 03:53:45.065             2.978              Murmansk1            93.063
         5   01 Jun 2027 03:54:18.031   01 Jun 2027 03:54:21.124             3.093                Novosib            96.656
         6   01 Jun 2027 03:54:22.736   01 Jun 2027 03:55:12.502            49.766              Murmansk2          1555.188
         7   01 Jun 2027 03:55:56.187   01 Jun 2027 03:58:54.191           178.004                 Moscow          5562.625
         8   01 Jun 2027 04:10:37.699   01 Jun 2027 04:20:01.511           563.812               CapeTown         17619.125
         9   01 Jun 2027 04:21:50.062   01 Jun 2027 04:22:05.670            15.608               CapeTown           487.750
        10   01 Jun 2027 05:13:43.477   01 Jun 2027 05:14:54.290            70.813               Magadan1          2212.906
        11   01 Jun 2027 05:14:54.290   01 Jun 2027 05:15:27.407            33.117               Magadan2          1034.906
        12   01 Jun 2027 05:15:34.321   01 Jun 2027 05:16:04.857            30.536                Anadyr1           954.250
        13   01 Jun 2027 05:18:39.019   01 Jun 2027 05:18:50.763            11.744                Anadyr1           367.000
        14   01 Jun 2027 05:19:33.918   01 Jun 2027 05:19:49.888            15.970                Anadyr1           499.063
        15   01 Jun 2027 05:30:32.210   01 Jun 2027 05:30:37.301             5.091              Murmansk1           159.094
        16   01 Jun 2027 05:31:32.411   01 Jun 2027 05:31:58.335            25.924              Murmansk2           810.125
        17   01 Jun 2027 06:50:02.918   01 Jun 2027 06:51:38.676            95.758               Magadan2          2992.438
        18   01 Jun 2027 06:51:38.676   01 Jun 2027 06:55:10.340           211.664               Magadan1          6614.500
        19   01 Jun 2027 06:55:10.340   01 Jun 2027 06:55:15.538             5.198               Magadan2           162.437
        20   01 Jun 2027 08:26:06.026   01 Jun 2027 08:27:32.339            86.313                Anadyr2          2697.281
        21   01 Jun 2027 08:27:32.339   01 Jun 2027 08:28:44.441            72.102                Anadyr1          2253.188
        22   01 Jun 2027 08:28:51.498   01 Jun 2027 08:31:18.894           147.396               Magadan1          4606.125
        23   01 Jun 2027 10:01:41.989   01 Jun 2027 10:06:16.694           274.705               Magadan2          8584.531
        24   01 Jun 2027 11:17:24.635   01 Jun 2027 11:18:57.179            92.544                Sumatra          2892.000
        25   01 Jun 2027 11:38:09.975   01 Jun 2027 11:40:16.911           126.936                Irkutsk          3966.750
        26   01 Jun 2027 11:40:40.534   01 Jun 2027 11:42:31.923           111.389                Novosib          3480.906
        27   01 Jun 2027 11:42:36.073   01 Jun 2027 11:42:55.916            19.843                Irkutsk           620.094
        28   01 Jun 2027 12:20:47.716   01 Jun 2027 12:22:24.497            96.781            RioGallegos          3024.406
        29   01 Jun 2027 12:22:46.589   01 Jun 2027 12:24:59.329           132.740            RioGallegos          4148.125
        30   01 Jun 2027 12:56:43.179   01 Jun 2027 12:57:28.085            44.906                Sumatra          1403.313
        31   01 Jun 2027 12:59:41.937   01 Jun 2027 12:59:48.498             6.561                Sumatra           205.031
        32   01 Jun 2027 13:09:15.182   01 Jun 2027 13:10:49.025            93.843                Novosib          2932.594
        33   01 Jun 2027 13:11:19.220   01 Jun 2027 13:13:20.966           121.746                Irkutsk          3804.563
        34   01 Jun 2027 13:14:04.516   01 Jun 2027 13:15:05.973            61.457                Irkutsk          1920.531
        35   01 Jun 2027 13:16:31.296   01 Jun 2027 13:17:19.053            47.757                Norilsk          1492.406
        36   01 Jun 2027 14:41:45.799   01 Jun 2027 14:44:01.396           135.597                  Delhi          4237.406
        37   01 Jun 2027 14:46:28.194   01 Jun 2027 14:47:10.140            41.946                 Moscow          1310.812
        38   01 Jun 2027 14:48:42.143   01 Jun 2027 14:50:04.481            82.338              Murmansk1          2573.063
        39   01 Jun 2027 14:50:21.159   01 Jun 2027 14:51:57.594            96.435              Murmansk2          3013.594
        40   01 Jun 2027 14:52:30.132   01 Jun 2027 14:52:43.262            13.130                Norilsk           410.312
        41   01 Jun 2027 14:53:52.065   01 Jun 2027 14:55:55.621           123.556                Norilsk          3861.125
        42   01 Jun 2027 16:00:34.720   01 Jun 2027 16:01:27.200            52.480               CapeTown          1640.000
        43   01 Jun 2027 16:08:59.198   01 Jun 2027 16:09:11.084            11.886               CapeTown           371.438
        44   01 Jun 2027 16:22:07.477   01 Jun 2027 16:23:22.818            75.341                 Moscow          2354.406
        45   01 Jun 2027 16:25:27.143   01 Jun 2027 16:26:54.293            87.150              Murmansk2          2723.438
        46   01 Jun 2027 16:27:36.275   01 Jun 2027 16:28:02.416            26.141              Murmansk1           816.906
        47   01 Jun 2027 16:28:38.963   01 Jun 2027 16:29:16.550            37.587              Murmansk2          1174.594
        48   01 Jun 2027 16:39:57.073   01 Jun 2027 16:41:10.085            73.012                Anadyr1          2281.625
        49   01 Jun 2027 16:41:54.309   01 Jun 2027 16:42:17.724            23.415                Anadyr2           731.719
        50   01 Jun 2027 16:42:57.780   01 Jun 2027 16:43:13.864            16.084                Anadyr2           502.625
        51   01 Jun 2027 16:43:20.064   01 Jun 2027 16:43:25.419             5.355                Anadyr1           167.344
        52   01 Jun 2027 16:44:25.121   01 Jun 2027 16:44:38.353            13.232                Anadyr1           413.500
        53   01 Jun 2027 16:45:03.997   01 Jun 2027 16:45:23.209            19.212                Anadyr2           600.375
        54   01 Jun 2027 16:48:01.865   01 Jun 2027 16:48:23.567            21.702                Anadyr2           678.188
        55   01 Jun 2027 17:34:42.536   01 Jun 2027 17:37:05.281           142.745               CapeTown          4460.781
        56   01 Jun 2027 18:04:20.020   01 Jun 2027 18:04:49.829            29.809              Murmansk2           931.531
        57   01 Jun 2027 18:05:23.309   01 Jun 2027 18:08:36.169           192.860              Murmansk1          6026.875
        58   01 Jun 2027 18:09:13.948   01 Jun 2027 18:09:47.052            33.104              Murmansk1          1034.500
        59   01 Jun 2027 18:10:54.142   01 Jun 2027 18:11:10.435            16.293              Murmansk1           509.156
        60   01 Jun 2027 18:16:26.185   01 Jun 2027 18:16:42.440            16.255                Anadyr1           507.969
        61   01 Jun 2027 18:18:51.220   01 Jun 2027 18:19:03.923            12.703                Anadyr1           396.969
        62   01 Jun 2027 18:19:17.472   01 Jun 2027 18:20:55.037            97.565               Magadan1          3048.906
        63   01 Jun 2027 18:23:18.502   01 Jun 2027 18:23:47.054            28.552               Magadan1           892.250
        64   01 Jun 2027 18:24:43.394   01 Jun 2027 18:25:16.678            33.284               Magadan1          1040.125
        65   01 Jun 2027 19:12:52.195   01 Jun 2027 19:13:12.054            19.859               CapeTown           620.594
        66   01 Jun 2027 19:14:39.358   01 Jun 2027 19:15:02.209            22.851               CapeTown           714.094
        67   01 Jun 2027 19:17:31.866   01 Jun 2027 19:17:52.229            20.363               CapeTown           636.344
        68   01 Jun 2027 19:18:41.945   01 Jun 2027 19:19:05.023            23.078               CapeTown           721.187
        69   01 Jun 2027 19:51:14.901   01 Jun 2027 19:53:07.012           112.111                Anadyr1          3503.469
        70   01 Jun 2027 19:53:19.503   01 Jun 2027 19:55:17.365           117.862                Anadyr1          3683.188
        71   01 Jun 2027 19:55:24.519   01 Jun 2027 19:56:50.884            86.365               Magadan1          2698.906
        72   01 Jun 2027 19:58:14.929   01 Jun 2027 19:58:41.464            26.535               Magadan1           829.219
        73   01 Jun 2027 19:59:37.324   01 Jun 2027 20:00:12.414            35.090               Magadan1          1096.563
        74   01 Jun 2027 20:00:34.525   01 Jun 2027 20:01:00.366            25.841               Magadan1           807.531
        75   01 Jun 2027 20:02:09.667   01 Jun 2027 20:02:12.709             3.042               Magadan1            95.062
        76   01 Jun 2027 20:02:16.928   01 Jun 2027 20:02:27.361            10.433               Magadan1           326.031
        77   01 Jun 2027 20:03:04.099   01 Jun 2027 20:04:02.420            58.321               Magadan1          1822.531
        78   01 Jun 2027 21:27:08.454   01 Jun 2027 21:31:11.787           243.333                Anadyr1          7604.156
        79   01 Jun 2027 21:31:24.028   01 Jun 2027 21:33:13.109           109.081               Magadan1          3408.781
        80   01 Jun 2027 21:33:19.576   01 Jun 2027 21:34:20.419            60.843               Magadan2          1901.344
        81   01 Jun 2027 21:34:20.419   01 Jun 2027 21:34:43.833            23.414               Magadan1           731.687
        82   01 Jun 2027 21:35:09.075   01 Jun 2027 21:35:23.900            14.825               Magadan2           463.281
        83   01 Jun 2027 21:35:36.324   01 Jun 2027 21:35:59.216            22.892                Irkutsk           715.375
        84   01 Jun 2027 21:36:25.245   01 Jun 2027 21:37:35.433            70.188               Magadan2          2193.375
        85   01 Jun 2027 21:40:35.275   01 Jun 2027 21:40:51.649            16.374               Magadan1           511.687
        86   01 Jun 2027 21:41:45.037   01 Jun 2027 21:41:57.562            12.525               Magadan2           391.406
        87   01 Jun 2027 21:42:09.149   01 Jun 2027 21:42:15.757             6.608               Magadan1           206.500
        88   01 Jun 2027 22:21:21.641   01 Jun 2027 22:21:58.129            36.488            RioGallegos          1140.250
        89   01 Jun 2027 22:24:27.437   01 Jun 2027 22:24:50.518            23.081            RioGallegos           721.281
        90   01 Jun 2027 22:25:06.440   01 Jun 2027 22:25:56.614            50.174            RioGallegos          1567.937
        91   01 Jun 2027 22:28:02.165   01 Jun 2027 22:28:28.396            26.231            RioGallegos           819.719
        92   01 Jun 2027 22:29:33.214   01 Jun 2027 22:30:31.707            58.493            RioGallegos          1827.906
        93   01 Jun 2027 22:31:39.616   01 Jun 2027 22:31:57.092            17.476            RioGallegos           546.125
        94   01 Jun 2027 22:32:51.065   01 Jun 2027 22:32:52.700             1.635            RioGallegos            51.094
        95   01 Jun 2027 23:02:39.130   01 Jun 2027 23:03:48.436            69.306                Anadyr1          2165.813
        96   01 Jun 2027 23:04:30.099   01 Jun 2027 23:05:28.254            58.155                Anadyr1          1817.344
        97   01 Jun 2027 23:05:31.983   01 Jun 2027 23:06:47.151            75.168               Magadan1          2349.000
        98   01 Jun 2027 23:08:10.191   01 Jun 2027 23:08:44.738            34.547                Norilsk          1079.594
        99   01 Jun 2027 23:08:46.149   01 Jun 2027 23:08:50.297             4.148               Magadan1           129.625
       100   01 Jun 2027 23:09:00.034   01 Jun 2027 23:09:12.167            12.133               Magadan1           379.156
       101   01 Jun 2027 23:09:53.403   01 Jun 2027 23:10:11.110            17.707               Magadan1           553.344
       102   01 Jun 2027 23:10:19.474   01 Jun 2027 23:10:36.000            16.526                Novosib           516.437
       103   01 Jun 2027 23:11:04.005   01 Jun 2027 23:11:58.099            54.094                Novosib          1690.438
       104   01 Jun 2027 23:13:40.247   01 Jun 2027 23:14:05.130            24.883                Norilsk           777.594
       105   01 Jun 2027 23:15:17.780   01 Jun 2027 23:15:26.628             8.848                Norilsk           276.500
       106   01 Jun 2027 23:15:40.814   01 Jun 2027 23:16:16.126            35.312               Magadan2          1103.500
       107   01 Jun 2027 23:17:14.905   01 Jun 2027 23:17:42.690            27.785                Irkutsk           868.281
       108   01 Jun 2027 23:18:34.851   01 Jun 2027 23:19:40.199            65.348                Irkutsk          2042.125
       109   01 Jun 2027 23:30:53.167   01 Jun 2027 23:31:26.284            33.117                Sumatra          1034.906
       110   01 Jun 2027 23:32:16.631   01 Jun 2027 23:34:53.843           157.212                Sumatra          4912.875
       111   02 Jun 2027 00:08:34.204   02 Jun 2027 00:08:42.657             8.453            RioGallegos           264.156
       112   02 Jun 2027 00:09:12.275   02 Jun 2027 00:09:27.268            14.993            RioGallegos           468.531
       113   02 Jun 2027 00:38:07.428   02 Jun 2027 00:38:26.030            18.602                Anadyr1           581.313
       114   02 Jun 2027 00:38:54.281   02 Jun 2027 00:39:26.574            32.293                Anadyr1          1009.156
       115   02 Jun 2027 00:39:41.204   02 Jun 2027 00:39:55.020            13.816                Anadyr1           431.750
       116   02 Jun 2027 00:40:57.735   02 Jun 2027 00:42:14.159            76.424                Norilsk          2388.250
       117   02 Jun 2027 00:43:23.259   02 Jun 2027 00:43:42.395            19.136               Magadan1           598.000
       118   02 Jun 2027 00:43:49.262   02 Jun 2027 00:44:00.814            11.552               Magadan2           361.000
       119   02 Jun 2027 00:44:15.818   02 Jun 2027 00:44:46.258            30.440               Magadan1           951.250
       120   02 Jun 2027 00:44:46.258   02 Jun 2027 00:44:56.190             9.932               Magadan2           310.375
       121   02 Jun 2027 00:45:14.035   02 Jun 2027 00:46:00.218            46.183               Magadan1          1443.219
       122   02 Jun 2027 00:47:41.629   02 Jun 2027 00:47:52.533            10.904                Novosib           340.750
       123   02 Jun 2027 00:48:12.817   02 Jun 2027 00:48:28.879            16.062                Novosib           501.937
       124   02 Jun 2027 00:49:39.617   02 Jun 2027 00:49:58.701            19.084                Novosib           596.375
       125   02 Jun 2027 00:50:15.252   02 Jun 2027 00:50:48.560            33.308                Novosib          1040.875
       126   02 Jun 2027 00:51:46.082   02 Jun 2027 00:52:16.607            30.525                Novosib           953.906
       127   02 Jun 2027 00:53:51.188   02 Jun 2027 00:54:50.369            59.181                Irkutsk          1849.406
       128   02 Jun 2027 00:57:06.463   02 Jun 2027 00:57:26.029            19.566                Novosib           611.438
       129   02 Jun 2027 00:59:40.197   02 Jun 2027 01:00:08.820            28.623                  Delhi           894.469
       130   02 Jun 2027 01:01:51.975   02 Jun 2027 01:02:41.844            49.869                  Delhi          1558.406
       131   02 Jun 2027 01:37:44.007   02 Jun 2027 01:39:07.433            83.426            RioGallegos          2607.062
       132   02 Jun 2027 01:41:35.067   02 Jun 2027 01:42:29.453            54.386            RioGallegos          1699.563
       133   02 Jun 2027 02:13:23.827   02 Jun 2027 02:13:33.013             9.186                Anadyr2           287.062
       134   02 Jun 2027 02:13:49.885   02 Jun 2027 02:13:59.704             9.819                Anadyr2           306.844
       135   02 Jun 2027 02:14:14.924   02 Jun 2027 02:14:23.450             8.526                Anadyr2           266.438
       136   02 Jun 2027 02:15:13.356   02 Jun 2027 02:15:58.310            44.954                Anadyr1          1404.812
       137   02 Jun 2027 02:16:47.915   02 Jun 2027 02:17:28.675            40.760               Magadan2          1273.750
       138   02 Jun 2027 02:18:30.887   02 Jun 2027 02:18:36.309             5.422                Norilsk           169.438
       139   02 Jun 2027 02:18:39.155   02 Jun 2027 02:19:29.491            50.336                Norilsk          1573.000
       140   02 Jun 2027 02:19:55.293   02 Jun 2027 02:20:08.115            12.822              Murmansk1           400.687
       141   02 Jun 2027 02:20:42.389   02 Jun 2027 02:20:50.249             7.860              Murmansk2           245.625
       142   02 Jun 2027 02:20:56.148   02 Jun 2027 02:21:32.958            36.810                Novosib          1150.313
       143   02 Jun 2027 02:24:37.326   02 Jun 2027 02:24:48.502            11.176                Novosib           349.250
       144   02 Jun 2027 02:25:54.247   02 Jun 2027 02:26:14.153            19.906                 Moscow           622.062
       145   02 Jun 2027 02:26:34.903   02 Jun 2027 02:26:49.914            15.011                Novosib           469.094
       146   02 Jun 2027 02:28:31.506   02 Jun 2027 02:28:36.895             5.389              Murmansk1           168.406
       147   02 Jun 2027 02:28:36.895   02 Jun 2027 02:28:47.100            10.205              Murmansk2           318.906
       148   02 Jun 2027 02:29:24.417   02 Jun 2027 02:29:41.095            16.678                Irkutsk           521.187
       149   02 Jun 2027 02:30:09.350   02 Jun 2027 02:31:05.507            56.157                 Moscow          1754.906
       150   02 Jun 2027 02:34:50.454   02 Jun 2027 02:35:55.649            65.195                  Delhi          2037.344
       151   02 Jun 2027 02:39:06.813   02 Jun 2027 02:39:17.366            10.553                  Delhi           329.781
       152   02 Jun 2027 04:02:05.981   02 Jun 2027 04:02:13.874             7.893                Norilsk           246.656
       153   02 Jun 2027 04:02:57.929   02 Jun 2027 04:03:35.448            37.519                Novosib          1172.469
       154   02 Jun 2027 04:03:50.069   02 Jun 2027 04:04:39.937            49.868              Murmansk1          1558.375
       155   02 Jun 2027 04:06:26.134   02 Jun 2027 04:09:03.971           157.837                 Moscow          4932.406
       156   02 Jun 2027 04:09:32.547   02 Jun 2027 04:09:58.574            26.027                 Moscow           813.344
       157   02 Jun 2027 04:25:55.993   02 Jun 2027 04:28:39.903           163.910               CapeTown          5122.187
       158   02 Jun 2027 05:25:33.856   02 Jun 2027 05:30:08.184           274.328                Anadyr2          8572.750
       159   02 Jun 2027 05:31:32.355   02 Jun 2027 05:31:51.585            19.230                Anadyr2           600.937
       160   02 Jun 2027 05:37:38.109   02 Jun 2027 05:38:03.537            25.428              Murmansk1           794.625
       161   02 Jun 2027 05:40:40.015   02 Jun 2027 05:41:15.898            35.883              Murmansk2          1121.344
       162   02 Jun 2027 07:02:45.751   02 Jun 2027 07:02:55.532             9.781                Anadyr1           305.656
       163   02 Jun 2027 07:03:18.405   02 Jun 2027 07:07:28.342           249.937               Magadan1          7810.531
       164   02 Jun 2027 07:15:14.763   02 Jun 2027 07:15:20.407             5.644              Murmansk1           176.375
       165   02 Jun 2027 07:16:57.645   02 Jun 2027 07:18:10.706            73.061                 Moscow          2283.156
       166   02 Jun 2027 07:53:05.017   02 Jun 2027 07:53:22.052            17.035            RioGallegos           532.344
       167   02 Jun 2027 08:35:39.787   02 Jun 2027 08:40:18.037           278.250                Anadyr2          8695.312
       168   02 Jun 2027 08:40:37.733   02 Jun 2027 08:41:41.714            63.981               Magadan2          1999.406
       169   02 Jun 2027 08:42:14.658   02 Jun 2027 08:43:17.876            63.218               Magadan1          1975.562
       170   02 Jun 2027 10:12:15.757   02 Jun 2027 10:12:40.502            24.745                Irkutsk           773.281
       171   02 Jun 2027 10:12:42.172   02 Jun 2027 10:12:45.739             3.567                Irkutsk           111.469
       172   02 Jun 2027 10:12:47.553   02 Jun 2027 10:12:50.766             3.213                Novosib           100.406
       173   02 Jun 2027 10:12:51.089   02 Jun 2027 10:13:06.471            15.382                Novosib           480.688
       174   02 Jun 2027 10:13:20.229   02 Jun 2027 10:13:29.087             8.858                Irkutsk           276.812
       175   02 Jun 2027 10:13:41.757   02 Jun 2027 10:14:53.003            71.246               Magadan2          2226.437
       176   02 Jun 2027 10:15:34.007   02 Jun 2027 10:17:57.692           143.685               Magadan1          4490.156
       177   02 Jun 2027 10:18:17.564   02 Jun 2027 10:18:27.486             9.922                Norilsk           310.063
       178   02 Jun 2027 10:18:32.043   02 Jun 2027 10:18:47.992            15.949                Novosib           498.406
       179   02 Jun 2027 10:18:50.503   02 Jun 2027 10:19:18.796            28.293              Murmansk1           884.156
       180   02 Jun 2027 10:19:47.225   02 Jun 2027 10:20:18.664            31.439              Murmansk2           982.469
       181   02 Jun 2027 10:53:57.712   02 Jun 2027 10:54:34.570            36.858            RioGallegos          1151.813
       182   02 Jun 2027 10:55:39.209   02 Jun 2027 10:55:55.371            16.162            RioGallegos           505.062
       183   02 Jun 2027 11:00:36.407   02 Jun 2027 11:00:52.866            16.459            RioGallegos           514.344
       184   02 Jun 2027 11:28:42.367   02 Jun 2027 11:29:38.008            55.641                Sumatra          1738.781
       185   02 Jun 2027 11:39:32.556   02 Jun 2027 11:41:34.864           122.308                  Delhi          3822.125
       186   02 Jun 2027 11:48:48.543   02 Jun 2027 11:50:07.234            78.691                Irkutsk          2459.094
       187   02 Jun 2027 11:50:24.984   02 Jun 2027 11:51:15.430            50.446                Norilsk          1576.438
       188   02 Jun 2027 11:51:18.114   02 Jun 2027 11:52:36.221            78.107                Irkutsk          2440.844
       189   02 Jun 2027 11:52:40.879   02 Jun 2027 11:54:46.630           125.751                Irkutsk          3929.719
       190   02 Jun 2027 11:55:02.737   02 Jun 2027 11:55:26.485            23.748                Norilsk           742.125
       191   02 Jun 2027 11:55:45.795   02 Jun 2027 11:55:51.106             5.311                Novosib           165.969
       192   02 Jun 2027 11:56:04.270   02 Jun 2027 11:56:11.496             7.226              Murmansk2           225.813
       193   02 Jun 2027 12:00:52.900   02 Jun 2027 12:01:10.227            17.327              Murmansk1           541.469
       194   02 Jun 2027 12:01:41.292   02 Jun 2027 12:01:43.159             1.867              Murmansk1            58.344
       195   02 Jun 2027 12:33:45.387   02 Jun 2027 12:36:59.032           193.645            RioGallegos          6051.406
       196   02 Jun 2027 13:09:49.918   02 Jun 2027 13:11:13.288            83.370                Sumatra          2605.313
       197   02 Jun 2027 13:20:41.489   02 Jun 2027 13:22:45.615           124.126                Novosib          3878.938
       198   02 Jun 2027 13:24:44.946   02 Jun 2027 13:25:51.332            66.386                Norilsk          2074.562
       199   02 Jun 2027 13:25:54.768   02 Jun 2027 13:26:27.622            32.854                Irkutsk          1026.687
       200   02 Jun 2027 13:33:58.477   02 Jun 2027 13:34:20.019            21.542                Norilsk           673.187
       201   02 Jun 2027 13:35:34.997   02 Jun 2027 13:36:00.648            25.651                Norilsk           801.594
       202   02 Jun 2027 14:57:19.023   02 Jun 2027 15:01:04.531           225.508                 Moscow          7047.125
       203   02 Jun 2027 15:02:01.165   02 Jun 2027 15:03:01.503            60.338              Murmansk2          1885.563
       204   02 Jun 2027 15:04:30.798   02 Jun 2027 15:05:52.107            81.309                Norilsk          2540.906
       205   02 Jun 2027 15:08:13.010   02 Jun 2027 15:09:26.850            73.840                Norilsk          2307.500
       206   02 Jun 2027 15:09:55.955   02 Jun 2027 15:10:03.100             7.145                Norilsk           223.281
       207   02 Jun 2027 15:11:20.308   02 Jun 2027 15:11:48.419            28.111                Norilsk           878.469
       208   02 Jun 2027 16:12:02.795   02 Jun 2027 16:12:30.121            27.326               CapeTown           853.938
       209   02 Jun 2027 16:15:00.156   02 Jun 2027 16:15:43.758            43.602               CapeTown          1362.563
       210   02 Jun 2027 16:18:23.311   02 Jun 2027 16:18:50.039            26.728               CapeTown           835.250
       211   02 Jun 2027 16:21:18.397   02 Jun 2027 16:21:24.370             5.973               CapeTown           186.656
       212   02 Jun 2027 16:34:31.181   02 Jun 2027 16:35:32.211            61.030                 Moscow          1907.187
       213   02 Jun 2027 16:38:18.714   02 Jun 2027 16:39:02.995            44.281              Murmansk1          1383.781
       214   02 Jun 2027 16:41:41.132   02 Jun 2027 16:41:47.146             6.014              Murmansk1           187.937
       215   02 Jun 2027 16:42:07.945   02 Jun 2027 16:42:38.466            30.521              Murmansk1           953.781
       216   02 Jun 2027 16:45:23.216   02 Jun 2027 16:45:54.808            31.592              Murmansk2           987.250
       217   02 Jun 2027 16:51:50.291   02 Jun 2027 16:53:09.858            79.567                Anadyr2          2486.469
       218   02 Jun 2027 16:53:55.510   02 Jun 2027 16:54:26.661            31.151                Anadyr2           973.469
       219   02 Jun 2027 16:54:26.661   02 Jun 2027 16:54:47.324            20.663                Anadyr1           645.719
       220   02 Jun 2027 16:58:11.817   02 Jun 2027 16:58:29.468            17.651                Anadyr1           551.594
       221   02 Jun 2027 16:59:52.881   02 Jun 2027 17:00:17.058            24.177                Anadyr1           755.531
       222   02 Jun 2027 17:00:43.848   02 Jun 2027 17:00:47.490             3.642                Anadyr2           113.812
       223   02 Jun 2027 17:46:46.503   02 Jun 2027 17:47:12.124            25.621               CapeTown           800.656
       224   02 Jun 2027 17:51:48.782   02 Jun 2027 17:51:53.004             4.222               CapeTown           131.937
       225   02 Jun 2027 17:52:34.836   02 Jun 2027 17:53:04.027            29.191               CapeTown           912.219
       226   02 Jun 2027 17:55:48.628   02 Jun 2027 17:56:26.010            37.382               CapeTown          1168.188
       227   02 Jun 2027 18:16:55.753   02 Jun 2027 18:17:44.474            48.721              Murmansk1          1522.531
       228   02 Jun 2027 18:18:04.520   02 Jun 2027 18:20:01.705           117.185              Murmansk2          3662.031
       229   02 Jun 2027 18:21:07.139   02 Jun 2027 18:22:15.320            68.181              Murmansk1          2130.656
       230   02 Jun 2027 18:23:52.991   02 Jun 2027 18:25:23.800            90.809              Murmansk1          2837.781
       231   02 Jun 2027 18:31:04.607   02 Jun 2027 18:31:12.405             7.798               Magadan2           243.688
       232   02 Jun 2027 18:33:27.542   02 Jun 2027 18:33:34.256             6.714               Magadan1           209.812
       233   02 Jun 2027 18:34:50.443   02 Jun 2027 18:35:01.185            10.742               Magadan1           335.688
       234   02 Jun 2027 18:35:41.034   02 Jun 2027 18:35:46.222             5.188               Magadan2           162.125
       235   02 Jun 2027 18:36:31.275   02 Jun 2027 18:36:46.676            15.401               Magadan2           481.281
       236   02 Jun 2027 19:26:10.622   02 Jun 2027 19:26:36.198            25.576               CapeTown           799.250
       237   02 Jun 2027 19:28:46.420   02 Jun 2027 19:29:21.489            35.069               CapeTown          1095.906
       238   02 Jun 2027 20:03:16.587   02 Jun 2027 20:04:56.353            99.766                Anadyr2          3117.688
       239   02 Jun 2027 20:05:21.128   02 Jun 2027 20:07:34.975           133.847                Anadyr1          4182.719
       240   02 Jun 2027 20:07:45.216   02 Jun 2027 20:08:34.409            49.193                Anadyr1          1537.281
       241   02 Jun 2027 20:08:51.069   02 Jun 2027 20:09:49.112            58.043               Magadan1          1813.844
       242   02 Jun 2027 20:10:33.192   02 Jun 2027 20:10:48.078            14.886               Magadan2           465.188
       243   02 Jun 2027 20:12:23.683   02 Jun 2027 20:12:36.157            12.474               Magadan2           389.813
       244   02 Jun 2027 20:13:55.771   02 Jun 2027 20:14:00.262             4.491               Magadan2           140.344
       245   02 Jun 2027 20:14:11.854   02 Jun 2027 20:14:43.957            32.103               Magadan2          1003.219
       246   02 Jun 2027 20:16:33.984   02 Jun 2027 20:17:00.096            26.112               Magadan1           816.000
       247   02 Jun 2027 21:39:08.700   02 Jun 2027 21:42:38.609           209.909                Anadyr2          6559.656
       248   02 Jun 2027 21:42:45.931   02 Jun 2027 21:45:02.839           136.908               Magadan1          4278.375
       249   02 Jun 2027 21:46:02.779   02 Jun 2027 21:46:50.395            47.616               Magadan1          1488.000
       250   02 Jun 2027 21:46:50.720   02 Jun 2027 21:47:22.049            31.329                Irkutsk           979.031
       251   02 Jun 2027 21:48:05.526   02 Jun 2027 21:48:49.036            43.510                Irkutsk          1359.688
       252   02 Jun 2027 21:52:35.387   02 Jun 2027 21:52:54.336            18.949                Irkutsk           592.156
       253   02 Jun 2027 22:03:04.931   02 Jun 2027 22:04:11.313            66.382                Sumatra          2074.438
       254   02 Jun 2027 22:06:47.349   02 Jun 2027 22:08:05.311            77.962                Sumatra          2436.313
       255   02 Jun 2027 22:41:45.595   02 Jun 2027 22:42:33.845            48.250            RioGallegos          1507.813
       256   02 Jun 2027 23:14:34.175   02 Jun 2027 23:15:07.480            33.305                Anadyr1          1040.781
       257   02 Jun 2027 23:15:33.149   02 Jun 2027 23:16:31.357            58.208                Anadyr2          1819.000
       258   02 Jun 2027 23:17:31.286   02 Jun 2027 23:18:28.847            57.561                Norilsk          1798.781
       259   02 Jun 2027 23:18:35.194   02 Jun 2027 23:18:43.768             8.574                Norilsk           267.938
       260   02 Jun 2027 23:18:50.617   02 Jun 2027 23:19:57.487            66.870               Magadan2          2089.687
       261   02 Jun 2027 23:21:58.592   02 Jun 2027 23:23:12.544            73.952                Novosib          2311.000
       262   02 Jun 2027 23:25:19.837   02 Jun 2027 23:25:51.026            31.189                Novosib           974.656
       263   02 Jun 2027 23:28:23.867   02 Jun 2027 23:28:26.899             3.032                Novosib            94.750
       264   02 Jun 2027 23:30:39.188   02 Jun 2027 23:30:44.236             5.048                Novosib           157.750
       265   02 Jun 2027 23:34:42.527   02 Jun 2027 23:35:10.115            27.588                Sumatra           862.125
       266   02 Jun 2027 23:37:31.249   02 Jun 2027 23:37:52.089            20.840                Sumatra           651.250
       267   02 Jun 2027 23:38:57.417   02 Jun 2027 23:39:16.549            19.132                Sumatra           597.875
       268   02 Jun 2027 23:41:17.851   02 Jun 2027 23:43:04.150           106.299                Sumatra          3321.844
       269   03 Jun 2027 00:20:58.398   03 Jun 2027 00:21:29.327            30.929            RioGallegos           966.531
       270   03 Jun 2027 00:48:55.945   03 Jun 2027 00:49:30.318            34.373                Anadyr1          1074.156
       271   03 Jun 2027 00:50:03.373   03 Jun 2027 00:50:56.462            53.089                Anadyr2          1659.031
       272   03 Jun 2027 00:52:59.969   03 Jun 2027 00:53:01.403             1.434                Norilsk            44.813
       273   03 Jun 2027 00:53:38.602   03 Jun 2027 00:53:43.580             4.978               Magadan2           155.562
       274   03 Jun 2027 00:53:50.229   03 Jun 2027 00:54:43.260            53.031               Magadan1          1657.219
       275   03 Jun 2027 00:54:56.331   03 Jun 2027 00:55:34.428            38.097               Magadan2          1190.531
       276   03 Jun 2027 00:56:14.796   03 Jun 2027 00:56:57.220            42.424               Magadan1          1325.750
       277   03 Jun 2027 00:57:19.666   03 Jun 2027 00:58:39.102            79.436                Novosib          2482.375
       278   03 Jun 2027 00:59:12.966   03 Jun 2027 00:59:46.436            33.470              Murmansk1          1045.937
       279   03 Jun 2027 01:02:12.119   03 Jun 2027 01:02:25.642            13.523                Irkutsk           422.594
       280   03 Jun 2027 01:04:09.398   03 Jun 2027 01:04:11.592             2.194                Novosib            68.562
       281   03 Jun 2027 01:04:16.300   03 Jun 2027 01:05:05.790            49.490                  Delhi          1546.563
       282   03 Jun 2027 01:10:40.397   03 Jun 2027 01:11:05.144            24.747                  Delhi           773.344
       283   03 Jun 2027 01:11:42.085   03 Jun 2027 01:11:48.325             6.240                  Delhi           195.000
       284   03 Jun 2027 01:13:46.997   03 Jun 2027 01:14:16.414            29.417                  Delhi           919.281
       285   03 Jun 2027 01:45:42.587   03 Jun 2027 01:46:11.493            28.906            RioGallegos           903.313
       286   03 Jun 2027 01:47:13.392   03 Jun 2027 01:48:13.652            60.260            RioGallegos          1883.125
       287   03 Jun 2027 01:52:29.895   03 Jun 2027 01:52:53.341            23.446            RioGallegos           732.688
       288   03 Jun 2027 02:22:16.641   03 Jun 2027 02:22:40.211            23.570                Anadyr2           736.563
       289   03 Jun 2027 02:23:06.215   03 Jun 2027 02:23:58.709            52.494                Anadyr2          1640.438
       290   03 Jun 2027 02:27:57.754   03 Jun 2027 02:27:59.004             1.250                Anadyr1            39.063
       291   03 Jun 2027 02:28:20.462   03 Jun 2027 02:28:39.043            18.581                Anadyr2           580.656
       292   03 Jun 2027 02:28:53.736   03 Jun 2027 02:29:25.792            32.056               Magadan1          1001.750
       293   03 Jun 2027 02:29:39.259   03 Jun 2027 02:30:06.988            27.729                Norilsk           866.531
       294   03 Jun 2027 02:30:29.630   03 Jun 2027 02:30:29.895             0.265                Norilsk             8.281
       295   03 Jun 2027 02:30:45.491   03 Jun 2027 02:31:18.979            33.488               Magadan2          1046.500
       296   03 Jun 2027 02:31:22.945   03 Jun 2027 02:32:41.496            78.551              Murmansk2          2454.719
       297   03 Jun 2027 02:32:50.579   03 Jun 2027 02:33:44.327            53.748                Novosib          1679.625
       298   03 Jun 2027 02:39:50.691   03 Jun 2027 02:40:56.447            65.756                Irkutsk          2054.875
       299   03 Jun 2027 02:46:26.545   03 Jun 2027 02:46:29.274             2.729                  Delhi            85.281
       300   03 Jun 2027 02:47:06.782   03 Jun 2027 02:48:13.917            67.135                  Delhi          2097.969
       301   03 Jun 2027 04:14:09.302   03 Jun 2027 04:14:11.862             2.560                Norilsk            80.000
       302   03 Jun 2027 04:14:35.268   03 Jun 2027 04:15:02.709            27.441                Norilsk           857.531
       303   03 Jun 2027 04:15:39.611   03 Jun 2027 04:15:47.301             7.690                Norilsk           240.313
       304   03 Jun 2027 04:16:15.813   03 Jun 2027 04:16:41.920            26.107              Murmansk1           815.844
       305   03 Jun 2027 04:17:04.095   03 Jun 2027 04:17:57.270            53.175              Murmansk1          1661.719
       306   03 Jun 2027 04:18:25.966   03 Jun 2027 04:18:51.438            25.472              Murmansk1           796.000
       307   03 Jun 2027 04:19:06.989   03 Jun 2027 04:21:43.475           156.486                 Moscow          4890.187
       308   03 Jun 2027 04:37:04.499   03 Jun 2027 04:37:25.073            20.574               CapeTown           642.938
       309   03 Jun 2027 04:38:00.065   03 Jun 2027 04:38:18.543            18.478               CapeTown           577.437
       310   03 Jun 2027 04:38:26.369   03 Jun 2027 04:38:54.173            27.804               CapeTown           868.875
       311   03 Jun 2027 04:40:24.373   03 Jun 2027 04:41:08.416            44.043               CapeTown          1376.344
       312   03 Jun 2027 04:42:13.028   03 Jun 2027 04:42:36.343            23.315               CapeTown           728.594
       313   03 Jun 2027 04:42:50.407   03 Jun 2027 04:43:07.799            17.392               CapeTown           543.500
       314   03 Jun 2027 04:43:49.293   03 Jun 2027 04:44:07.372            18.079               CapeTown           564.969
       315   03 Jun 2027 04:44:38.047   03 Jun 2027 04:46:43.135           125.088               CapeTown          3909.000
       316   03 Jun 2027 05:38:02.138   03 Jun 2027 05:39:15.634            73.496                Anadyr2          2296.750
       317   03 Jun 2027 05:39:43.732   03 Jun 2027 05:43:53.247           249.515                Anadyr2          7797.344
       318   03 Jun 2027 07:11:33.115   03 Jun 2027 07:11:55.454            22.339               Magadan2           698.094
       319   03 Jun 2027 07:12:18.321   03 Jun 2027 07:12:37.108            18.787                Anadyr2           587.094
       320   03 Jun 2027 07:13:02.567   03 Jun 2027 07:13:10.642             8.075               Magadan2           252.344
       321   03 Jun 2027 07:13:10.642   03 Jun 2027 07:13:38.154            27.512               Magadan1           859.750
       322   03 Jun 2027 07:13:39.617   03 Jun 2027 07:14:14.751            35.134               Magadan1          1097.938
       323   03 Jun 2027 07:14:40.670   03 Jun 2027 07:14:51.552            10.882                Anadyr2           340.063
       324   03 Jun 2027 07:15:09.820   03 Jun 2027 07:15:46.969            37.149                Norilsk          1160.906
       325   03 Jun 2027 07:15:56.178   03 Jun 2027 07:15:59.451             3.273                Norilsk           102.281
       326   03 Jun 2027 07:16:02.560   03 Jun 2027 07:17:23.120            80.560                Anadyr2          2517.500
       327   03 Jun 2027 07:58:17.007   03 Jun 2027 07:58:41.086            24.079            RioGallegos           752.469
       328   03 Jun 2027 08:00:28.714   03 Jun 2027 08:00:46.154            17.440            RioGallegos           545.000
       329   03 Jun 2027 08:45:53.439   03 Jun 2027 08:47:52.857           119.418               Magadan2          3731.812
       330   03 Jun 2027 08:48:10.705   03 Jun 2027 08:48:48.116            37.411               Magadan1          1169.094
       331   03 Jun 2027 08:49:17.609   03 Jun 2027 08:49:27.221             9.612               Magadan1           300.375
       332   03 Jun 2027 08:49:27.221   03 Jun 2027 08:49:51.352            24.131               Magadan2           754.094
       333   03 Jun 2027 08:50:07.094   03 Jun 2027 08:51:28.239            81.145                Anadyr1          2535.781
       334   03 Jun 2027 08:51:38.139   03 Jun 2027 08:52:29.452            51.313               Magadan1          1603.531
       335   03 Jun 2027 08:52:43.777   03 Jun 2027 08:53:10.357            26.580                Anadyr1           830.625
       336   03 Jun 2027 08:53:10.357   03 Jun 2027 08:53:52.489            42.132                Anadyr2          1316.625
       337   03 Jun 2027 08:54:22.534   03 Jun 2027 08:54:48.739            26.205               Magadan1           818.906
       338   03 Jun 2027 08:54:53.120   03 Jun 2027 08:55:11.018            17.898              Murmansk2           559.313
       339   03 Jun 2027 08:55:16.849   03 Jun 2027 08:55:34.305            17.456              Murmansk1           545.500
       340   03 Jun 2027 08:55:34.305   03 Jun 2027 08:55:52.370            18.065              Murmansk2           564.531
       341   03 Jun 2027 08:56:39.294   03 Jun 2027 08:56:40.851             1.557              Murmansk2            48.656
       342   03 Jun 2027 08:57:51.878   03 Jun 2027 08:58:21.459            29.581              Murmansk2           924.406
       343   03 Jun 2027 09:30:25.336   03 Jun 2027 09:30:51.987            26.651            RioGallegos           832.844
       344   03 Jun 2027 09:33:44.879   03 Jun 2027 09:33:51.717             6.838            RioGallegos           213.687
       345   03 Jun 2027 09:34:44.408   03 Jun 2027 09:34:50.761             6.353            RioGallegos           198.531
       346   03 Jun 2027 09:38:54.603   03 Jun 2027 09:39:50.440            55.837            RioGallegos          1744.906
       347   03 Jun 2027 10:09:36.611   03 Jun 2027 10:09:49.812            13.201                Sumatra           412.531
       348   03 Jun 2027 10:10:22.936   03 Jun 2027 10:10:24.660             1.724                Sumatra            53.875
       349   03 Jun 2027 10:24:01.414   03 Jun 2027 10:26:40.886           159.472               Magadan1          4983.500
       350   03 Jun 2027 10:26:40.886   03 Jun 2027 10:27:59.689            78.803               Magadan2          2462.594
       351   03 Jun 2027 10:28:15.599   03 Jun 2027 10:28:17.018             1.419                Norilsk            44.344
       352   03 Jun 2027 10:28:21.576   03 Jun 2027 10:28:31.124             9.548               Magadan2           298.375
       353   03 Jun 2027 10:28:33.079   03 Jun 2027 10:28:42.598             9.519                Novosib           297.469
       354   03 Jun 2027 10:28:44.621   03 Jun 2027 10:29:04.595            19.974                Norilsk           624.187
       355   03 Jun 2027 10:29:09.380   03 Jun 2027 10:29:21.160            11.780                Norilsk           368.125
       356   03 Jun 2027 10:29:21.478   03 Jun 2027 10:29:28.961             7.483               Magadan1           233.844
       357   03 Jun 2027 10:29:30.291   03 Jun 2027 10:29:33.458             3.167              Murmansk1            98.969
       358   03 Jun 2027 10:29:39.998   03 Jun 2027 10:29:46.746             6.748              Murmansk1           210.875
       359   03 Jun 2027 10:29:46.746   03 Jun 2027 10:29:56.979            10.233              Murmansk2           319.781
       360   03 Jun 2027 10:30:02.785   03 Jun 2027 10:30:35.891            33.106                Novosib          1034.563
       361   03 Jun 2027 10:30:36.422   03 Jun 2027 10:30:51.042            14.620              Murmansk2           456.875
       362   03 Jun 2027 10:30:54.934   03 Jun 2027 10:31:12.845            17.911                Novosib           559.719
       363   03 Jun 2027 10:32:38.182   03 Jun 2027 10:32:52.779            14.597              Murmansk2           456.156
       364   03 Jun 2027 11:06:09.921   03 Jun 2027 11:07:07.094            57.173            RioGallegos          1786.656
       365   03 Jun 2027 11:08:50.056   03 Jun 2027 11:09:00.069            10.013            RioGallegos           312.906
       366   03 Jun 2027 11:40:44.106   03 Jun 2027 11:42:37.501           113.395                Sumatra          3543.594
       367   03 Jun 2027 12:05:25.954   03 Jun 2027 12:05:28.291             2.337                Irkutsk            73.031
       368   03 Jun 2027 12:06:18.075   03 Jun 2027 12:06:20.538             2.463                Norilsk            76.969
       369   03 Jun 2027 12:06:47.769   03 Jun 2027 12:07:32.073            44.304                Novosib          1384.500
       370   03 Jun 2027 12:09:43.208   03 Jun 2027 12:09:47.021             3.813              Murmansk2           119.156
       371   03 Jun 2027 12:09:49.462   03 Jun 2027 12:10:24.592            35.130              Murmansk2          1097.812
       372   03 Jun 2027 12:47:04.365   03 Jun 2027 12:48:57.538           113.173            RioGallegos          3536.656
       373   03 Jun 2027 13:28:40.689   03 Jun 2027 13:29:42.548            61.859                  Delhi          1933.094
       374   03 Jun 2027 13:33:06.128   03 Jun 2027 13:34:16.067            69.939                Novosib          2185.594
       375   03 Jun 2027 13:37:03.586   03 Jun 2027 13:38:04.119            60.533                Novosib          1891.656
       376   03 Jun 2027 13:38:05.421   03 Jun 2027 13:38:33.010            27.589              Murmansk2           862.156
       377   03 Jun 2027 13:38:45.622   03 Jun 2027 13:39:31.259            45.637              Murmansk2          1426.156
       378   03 Jun 2027 13:41:34.348   03 Jun 2027 13:42:43.038            68.690                Novosib          2146.563
       379   03 Jun 2027 13:46:22.431   03 Jun 2027 13:46:43.707            21.276                Norilsk           664.875
       380   03 Jun 2027 15:09:19.058   03 Jun 2027 15:12:38.035           198.977                 Moscow          6218.031
       381   03 Jun 2027 15:12:47.589   03 Jun 2027 15:14:03.073            75.484              Murmansk2          2358.875
       382   03 Jun 2027 15:17:15.058   03 Jun 2027 15:18:30.170            75.112                Norilsk          2347.250
       383   03 Jun 2027 15:21:02.182   03 Jun 2027 15:21:54.535            52.353                Norilsk          1636.031
       384   03 Jun 2027 15:22:20.929   03 Jun 2027 15:23:03.064            42.135                Norilsk          1316.719
       385   03 Jun 2027 16:25:26.879   03 Jun 2027 16:26:49.697            82.818               CapeTown          2588.063
       386   03 Jun 2027 16:46:59.537   03 Jun 2027 16:47:42.620            43.083                 Moscow          1346.344
       387   03 Jun 2027 16:50:01.161   03 Jun 2027 16:51:22.103            80.942              Murmansk2          2529.437
       388   03 Jun 2027 16:56:24.612   03 Jun 2027 16:57:00.157            35.545                 Moscow          1110.781
       389   03 Jun 2027 17:00:57.436   03 Jun 2027 17:01:41.438            44.002              Murmansk2          1375.062
       390   03 Jun 2027 17:03:45.441   03 Jun 2027 17:04:57.554            72.113                Anadyr1          2253.531
       391   03 Jun 2027 17:10:11.614   03 Jun 2027 17:11:21.506            69.892                Anadyr1          2184.125
       392   03 Jun 2027 18:03:36.753   03 Jun 2027 18:03:59.993            23.240               CapeTown           726.250
       393   03 Jun 2027 18:04:36.259   03 Jun 2027 18:04:37.417             1.158               CapeTown            36.188
       394   03 Jun 2027 18:04:42.617   03 Jun 2027 18:06:51.924           129.307               CapeTown          4040.844
       395   03 Jun 2027 18:29:34.984   03 Jun 2027 18:33:45.944           250.960              Murmansk2          7842.500
       396   03 Jun 2027 18:45:48.199   03 Jun 2027 18:45:52.865             4.666               Magadan1           145.813
       397   03 Jun 2027 18:46:50.641   03 Jun 2027 18:47:13.930            23.289               Magadan1           727.781
       398   03 Jun 2027 18:50:12.147   03 Jun 2027 18:50:18.106             5.959               Magadan2           186.219
       399   03 Jun 2027 20:15:18.233   03 Jun 2027 20:19:03.264           225.031                Anadyr2          7032.219
       400   03 Jun 2027 20:19:25.509   03 Jun 2027 20:21:20.557           115.048               Magadan2          3595.250
       401   03 Jun 2027 20:21:20.557   03 Jun 2027 20:22:31.358            70.801               Magadan1          2212.531
       402   03 Jun 2027 20:26:21.540   03 Jun 2027 20:27:30.341            68.801               Magadan2          2150.031
       403   03 Jun 2027 21:11:57.917   03 Jun 2027 21:14:08.830           130.913            RioGallegos          4091.031
       404   03 Jun 2027 21:51:08.547   03 Jun 2027 21:52:25.333            76.786                Anadyr2          2399.562
       405   03 Jun 2027 21:53:17.848   03 Jun 2027 21:54:48.247            90.399                Norilsk          2824.969
       406   03 Jun 2027 21:54:56.360   03 Jun 2027 21:56:06.862            70.502               Magadan2          2203.187
       407   03 Jun 2027 21:56:44.154   03 Jun 2027 21:56:53.150             8.996               Magadan2           281.125
       408   03 Jun 2027 21:58:22.269   03 Jun 2027 21:58:50.215            27.946                Irkutsk           873.312
       409   03 Jun 2027 21:59:58.659   03 Jun 2027 22:00:51.966            53.307                Irkutsk          1665.844
       410   03 Jun 2027 22:03:56.350   03 Jun 2027 22:04:03.882             7.532                Irkutsk           235.375
       411   03 Jun 2027 22:05:44.570   03 Jun 2027 22:06:09.329            24.759                Irkutsk           773.719
       412   03 Jun 2027 22:13:38.305   03 Jun 2027 22:15:24.640           106.335                Sumatra          3322.969
       413   03 Jun 2027 22:16:41.205   03 Jun 2027 22:17:08.553            27.348                Sumatra           854.625
       414   03 Jun 2027 23:26:28.177   03 Jun 2027 23:28:44.664           136.487                Anadyr2          4265.219
       415   03 Jun 2027 23:29:09.363   03 Jun 2027 23:29:18.108             8.745                Anadyr2           273.281
       416   03 Jun 2027 23:29:27.462   03 Jun 2027 23:29:50.286            22.824                Anadyr2           713.250
       417   03 Jun 2027 23:29:57.550   03 Jun 2027 23:30:31.110            33.560               Magadan2          1048.750
       418   03 Jun 2027 23:30:31.110   03 Jun 2027 23:31:24.772            53.662               Magadan1          1676.938
       419   03 Jun 2027 23:32:50.216   03 Jun 2027 23:32:55.641             5.425               Magadan2           169.531
       420   03 Jun 2027 23:32:58.133   03 Jun 2027 23:34:04.757            66.624                Irkutsk          2082.000
       421   03 Jun 2027 23:36:03.181   03 Jun 2027 23:37:09.664            66.483                Novosib          2077.594
       422   03 Jun 2027 23:42:32.340   03 Jun 2027 23:42:59.839            27.499                Novosib           859.344
       423   03 Jun 2027 23:44:29.580   03 Jun 2027 23:45:37.010            67.430                  Delhi          2107.187
       424   03 Jun 2027 23:47:30.004   03 Jun 2027 23:48:12.356            42.352                  Delhi          1323.500
       425   04 Jun 2027 00:27:46.212   04 Jun 2027 00:28:33.294            47.082            RioGallegos          1471.312
       426   04 Jun 2027 01:00:40.133   04 Jun 2027 01:01:39.782            59.649                Anadyr1          1864.031
       427   04 Jun 2027 01:01:39.782   04 Jun 2027 01:02:01.072            21.290                Anadyr2           665.313
       428   04 Jun 2027 01:03:04.072   04 Jun 2027 01:03:18.284            14.212                Anadyr2           444.125
       429   04 Jun 2027 01:05:02.159   04 Jun 2027 01:05:22.375            20.216                Norilsk           631.750
       430   04 Jun 2027 01:05:39.276   04 Jun 2027 01:06:27.880            48.604               Magadan1          1518.875
       431   04 Jun 2027 01:06:27.959   04 Jun 2027 01:07:16.739            48.780               Magadan2          1524.375
       432   04 Jun 2027 01:08:05.223   04 Jun 2027 01:09:02.410            57.187              Murmansk2          1787.094
       433   04 Jun 2027 01:09:38.534   04 Jun 2027 01:11:04.431            85.897              Murmansk2          2684.281
       434   04 Jun 2027 01:16:12.078   04 Jun 2027 01:16:32.147            20.069                  Delhi           627.156
       435   04 Jun 2027 01:16:54.426   04 Jun 2027 01:18:38.249           103.823                  Delhi          3244.469
       436   04 Jun 2027 01:57:58.025   04 Jun 2027 01:59:22.404            84.379            RioGallegos          2636.844
       437   04 Jun 2027 02:03:16.924   04 Jun 2027 02:03:29.213            12.289            RioGallegos           384.031
       438   04 Jun 2027 02:34:18.403   04 Jun 2027 02:34:57.641            39.238                Anadyr2          1226.188
       439   04 Jun 2027 02:36:11.018   04 Jun 2027 02:36:27.306            16.288                Anadyr2           509.000
       440   04 Jun 2027 02:36:27.306   04 Jun 2027 02:36:57.646            30.340                Anadyr1           948.125
       441   04 Jun 2027 02:40:06.666   04 Jun 2027 02:40:55.680            49.014               Magadan2          1531.688
       442   04 Jun 2027 02:40:58.445   04 Jun 2027 02:41:01.823             3.378                Norilsk           105.562
       443   04 Jun 2027 02:41:56.571   04 Jun 2027 02:42:02.266             5.695               Magadan2           177.969
       444   04 Jun 2027 02:42:13.203   04 Jun 2027 02:42:24.396            11.193               Magadan2           349.781
       445   04 Jun 2027 02:42:28.462   04 Jun 2027 02:42:35.146             6.684                Norilsk           208.875
       446   04 Jun 2027 02:43:12.825   04 Jun 2027 02:44:40.177            87.352              Murmansk1          2729.750
       447   04 Jun 2027 02:44:40.177   04 Jun 2027 02:44:53.322            13.145              Murmansk2           410.781
       448   04 Jun 2027 02:44:55.003   04 Jun 2027 02:45:17.431            22.428                Novosib           700.875
       449   04 Jun 2027 02:45:56.350   04 Jun 2027 02:46:05.164             8.814                Novosib           275.437
       450   04 Jun 2027 02:47:21.689   04 Jun 2027 02:48:07.276            45.587                 Moscow          1424.594
       451   04 Jun 2027 02:51:17.051   04 Jun 2027 02:51:35.963            18.912                Irkutsk           591.000
       452   04 Jun 2027 02:53:59.511   04 Jun 2027 02:54:24.851            25.340                  Delhi           791.875
       453   04 Jun 2027 03:00:00.927   04 Jun 2027 03:01:49.473           108.546                  Delhi          3392.063
       454   04 Jun 2027 04:28:39.348   04 Jun 2027 04:29:17.557            38.209              Murmansk1          1194.031
       455   04 Jun 2027 04:29:52.996   04 Jun 2027 04:33:47.658           234.662                 Moscow          7333.187
       456   04 Jun 2027 04:46:14.830   04 Jun 2027 04:49:04.521           169.691               CapeTown          5302.844
       457   04 Jun 2027 05:49:36.747   04 Jun 2027 05:53:01.786           205.039                Anadyr2          6407.469
       458   04 Jun 2027 05:53:01.786   04 Jun 2027 05:53:44.968            43.182                Anadyr1          1349.437
       459   04 Jun 2027 07:26:16.498   04 Jun 2027 07:26:59.490            42.992                Anadyr2          1343.500
       460   04 Jun 2027 07:27:13.275   04 Jun 2027 07:27:17.995             4.720               Magadan2           147.500
       461   04 Jun 2027 07:27:17.995   04 Jun 2027 07:27:41.450            23.455               Magadan1           732.969
       462   04 Jun 2027 07:27:46.585   04 Jun 2027 07:28:12.436            25.851               Magadan1           807.844
       463   04 Jun 2027 07:28:12.436   04 Jun 2027 07:29:23.890            71.454               Magadan2          2232.937
       464   04 Jun 2027 08:09:35.315   04 Jun 2027 08:09:54.206            18.891            RioGallegos           590.344
       465   04 Jun 2027 08:59:21.764   04 Jun 2027 08:59:24.977             3.213                Irkutsk           100.406
       466   04 Jun 2027 08:59:56.102   04 Jun 2027 09:00:31.146            35.044               Magadan1          1095.125
       467   04 Jun 2027 09:01:03.358   04 Jun 2027 09:01:05.902             2.544               Magadan2            79.500
       468   04 Jun 2027 09:01:10.916   04 Jun 2027 09:01:25.337            14.421                Irkutsk           450.656
       469   04 Jun 2027 09:01:40.321   04 Jun 2027 09:02:31.092            50.771                Norilsk          1586.594
       470   04 Jun 2027 09:03:15.369   04 Jun 2027 09:03:20.624             5.255                Irkutsk           164.219
       471   04 Jun 2027 09:03:37.412   04 Jun 2027 09:04:23.431            46.019               Magadan2          1438.094
       472   04 Jun 2027 09:04:35.125   04 Jun 2027 09:05:32.394            57.269               Magadan1          1789.656
       473   04 Jun 2027 09:05:32.507   04 Jun 2027 09:05:44.933            12.426               Magadan1           388.313
       474   04 Jun 2027 09:05:46.555   04 Jun 2027 09:06:19.999            33.444                Anadyr1          1045.125
       475   04 Jun 2027 09:06:31.054   04 Jun 2027 09:06:31.507             0.453                Norilsk            14.156
       476   04 Jun 2027 09:06:33.190   04 Jun 2027 09:07:13.221            40.031               Magadan1          1250.969
       477   04 Jun 2027 09:07:14.794   04 Jun 2027 09:07:15.518             0.724              Murmansk2            22.625
       478   04 Jun 2027 09:11:07.330   04 Jun 2027 09:11:18.898            11.568              Murmansk2           361.500
       479   04 Jun 2027 09:42:14.031   04 Jun 2027 09:42:47.806            33.775            RioGallegos          1055.469
       480   04 Jun 2027 09:43:06.571   04 Jun 2027 09:43:20.277            13.706            RioGallegos           428.313
       481   04 Jun 2027 09:45:07.397   04 Jun 2027 09:45:27.455            20.058            RioGallegos           626.812
       482   04 Jun 2027 10:19:08.614   04 Jun 2027 10:20:54.214           105.600                Sumatra          3300.000
