uniorb/output/strategy_2/Drop/Drop_KinoSat_110605.txt

KinoSat_110605
-------------------------
    Access    *     Start Time (UTCG)     *     Stop Time (UTCG)  *   Duration (s)        *       Station  *  Data (Mbytes)
         1   01 Jun 2027 03:45:02.657   01 Jun 2027 03:45:09.020             6.363               Magadan1           198.844
         2   01 Jun 2027 03:45:35.443   01 Jun 2027 03:45:56.590            21.147               Magadan2           660.844
         3   01 Jun 2027 03:46:06.013   01 Jun 2027 03:47:39.106            93.093                Anadyr2          2909.156
         4   01 Jun 2027 03:47:39.106   01 Jun 2027 03:47:44.407             5.301                Anadyr1           165.656
         5   01 Jun 2027 03:47:58.178   01 Jun 2027 03:48:57.009            58.831               Magadan2          1838.469
         6   01 Jun 2027 03:49:20.654   01 Jun 2027 03:49:26.767             6.113                Anadyr2           191.031
         7   01 Jun 2027 03:49:26.767   01 Jun 2027 03:50:05.662            38.895                Anadyr1          1215.469
         8   01 Jun 2027 03:50:05.662   01 Jun 2027 03:50:24.552            18.890                Anadyr2           590.313
         9   01 Jun 2027 04:30:25.803   01 Jun 2027 04:31:56.948            91.145            RioGallegos          2848.281
        10   01 Jun 2027 04:32:25.036   01 Jun 2027 04:33:42.068            77.032            RioGallegos          2407.250
        11   01 Jun 2027 05:22:20.298   01 Jun 2027 05:23:07.799            47.501               Magadan1          1484.406
        12   01 Jun 2027 05:23:07.799   01 Jun 2027 05:23:21.694            13.895               Magadan2           434.219
        13   01 Jun 2027 05:23:51.255   01 Jun 2027 05:25:58.031           126.776                Irkutsk          3961.750
        14   01 Jun 2027 06:00:48.963   01 Jun 2027 06:02:59.070           130.107            RioGallegos          4065.844
        15   01 Jun 2027 06:36:30.859   01 Jun 2027 06:37:59.771            88.912                Sumatra          2778.500
        16   01 Jun 2027 06:40:08.092   01 Jun 2027 06:43:16.646           188.554                Sumatra          5892.312
        17   01 Jun 2027 06:57:49.203   01 Jun 2027 06:58:21.032            31.829                Irkutsk           994.656
        18   01 Jun 2027 07:00:10.264   01 Jun 2027 07:01:25.816            75.552              Murmansk1          2361.000
        19   01 Jun 2027 07:01:30.317   01 Jun 2027 07:01:50.623            20.306                Norilsk           634.562
        20   01 Jun 2027 07:02:10.590   01 Jun 2027 07:03:13.623            63.033              Murmansk1          1969.781
        21   01 Jun 2027 07:03:22.530   01 Jun 2027 07:03:34.756            12.226                Norilsk           382.063
        22   01 Jun 2027 07:39:30.315   01 Jun 2027 07:39:58.524            28.209            RioGallegos           881.531
        23   01 Jun 2027 07:40:54.575   01 Jun 2027 07:42:35.277           100.702            RioGallegos          3146.937
        24   01 Jun 2027 07:44:06.522   01 Jun 2027 07:44:50.589            44.067            RioGallegos          1377.094
        25   01 Jun 2027 07:45:06.420   01 Jun 2027 07:45:28.930            22.510            RioGallegos           703.438
        26   01 Jun 2027 07:46:38.309   01 Jun 2027 07:47:35.122            56.813            RioGallegos          1775.406
        27   01 Jun 2027 08:12:24.289   01 Jun 2027 08:12:49.645            25.356                Sumatra           792.375
        28   01 Jun 2027 08:13:56.472   01 Jun 2027 08:15:22.080            85.608                Sumatra          2675.250
        29   01 Jun 2027 08:16:16.833   01 Jun 2027 08:17:02.414            45.581                Sumatra          1424.406
        30   01 Jun 2027 08:19:55.739   01 Jun 2027 08:22:20.822           145.083                Sumatra          4533.844
        31   01 Jun 2027 08:22:59.064   01 Jun 2027 08:23:55.289            56.225                  Delhi          1757.031
        32   01 Jun 2027 08:36:07.910   01 Jun 2027 08:36:27.365            19.455                Irkutsk           607.969
        33   01 Jun 2027 08:36:32.280   01 Jun 2027 08:37:28.898            56.618                Novosib          1769.312
        34   01 Jun 2027 08:37:29.861   01 Jun 2027 08:40:24.481           174.620                 Moscow          5456.875
        35   01 Jun 2027 09:57:29.869   01 Jun 2027 09:59:18.965           109.096                  Delhi          3409.250
        36   01 Jun 2027 10:00:26.964   01 Jun 2027 10:01:10.688            43.724                  Delhi          1366.375
        37   01 Jun 2027 10:11:25.931   01 Jun 2027 10:11:46.725            20.794                 Moscow           649.812
        38   01 Jun 2027 10:11:54.084   01 Jun 2027 10:12:29.639            35.555                Novosib          1111.094
        39   01 Jun 2027 10:12:45.884   01 Jun 2027 10:14:19.400            93.516                Norilsk          2922.375
        40   01 Jun 2027 10:14:29.815   01 Jun 2027 10:16:52.659           142.844                 Moscow          4463.875
        41   01 Jun 2027 11:59:40.666   01 Jun 2027 12:05:25.274           344.608                Anadyr2         10769.000
        42   01 Jun 2027 15:12:55.700   01 Jun 2027 15:16:31.153           215.453               Magadan1          6732.906
        43   01 Jun 2027 15:17:51.068   01 Jun 2027 15:18:51.587            60.519               Magadan1          1891.219
        44   01 Jun 2027 15:21:24.701   01 Jun 2027 15:22:26.264            61.563               Magadan1          1923.844
        45   01 Jun 2027 17:42:05.482   01 Jun 2027 17:47:17.857           312.375            RioGallegos          9761.719
        46   01 Jun 2027 17:50:20.839   01 Jun 2027 17:50:37.690            16.851            RioGallegos           526.594
        47   01 Jun 2027 18:25:21.090   01 Jun 2027 18:27:34.178           133.088                Norilsk          4159.000
        48   01 Jun 2027 18:28:23.819   01 Jun 2027 18:30:29.591           125.772                Irkutsk          3930.375
        49   01 Jun 2027 18:37:52.055   01 Jun 2027 18:38:57.824            65.769                Irkutsk          2055.281
        50   01 Jun 2027 18:42:19.624   01 Jun 2027 18:46:07.192           227.568                Sumatra          7111.500
        51   01 Jun 2027 18:47:49.552   01 Jun 2027 18:48:52.522            62.970                Sumatra          1967.813
        52   01 Jun 2027 18:51:07.712   01 Jun 2027 18:51:40.027            32.315                Sumatra          1009.844
        53   01 Jun 2027 18:53:15.236   01 Jun 2027 18:54:08.878            53.642                Sumatra          1676.312
        54   01 Jun 2027 20:05:27.088   01 Jun 2027 20:07:48.932           141.844                Novosib          4432.625
        55   01 Jun 2027 20:12:14.462   01 Jun 2027 20:12:41.601            27.139                  Delhi           848.094
        56   01 Jun 2027 20:12:43.001   01 Jun 2027 20:13:20.962            37.961                Novosib          1186.281
        57   01 Jun 2027 20:13:41.034   01 Jun 2027 20:19:07.501           326.467                  Delhi         10202.094
        58   01 Jun 2027 21:38:27.131   01 Jun 2027 21:44:05.236           338.105              Murmansk1         10565.781
        59   01 Jun 2027 21:44:11.841   01 Jun 2027 21:48:14.977           243.136                 Moscow          7598.000
        60   01 Jun 2027 23:17:33.178   01 Jun 2027 23:18:45.320            72.142                 Moscow          2254.437
        61   01 Jun 2027 23:21:22.071   01 Jun 2027 23:21:46.610            24.539                 Moscow           766.844
        62   01 Jun 2027 23:24:18.040   01 Jun 2027 23:24:53.840            35.800                 Moscow          1118.750
        63   01 Jun 2027 23:26:06.719   01 Jun 2027 23:27:04.981            58.262                 Moscow          1820.688
        64   01 Jun 2027 23:28:05.548   01 Jun 2027 23:29:33.479            87.931                 Moscow          2747.844
        65   01 Jun 2027 23:43:33.860   01 Jun 2027 23:45:44.073           130.213               CapeTown          4069.156
        66   01 Jun 2027 23:47:49.535   01 Jun 2027 23:48:03.966            14.431               CapeTown           450.969
        67   01 Jun 2027 23:53:16.874   01 Jun 2027 23:53:40.856            23.982               CapeTown           749.438
        68   02 Jun 2027 00:50:03.685   02 Jun 2027 00:51:08.705            65.020              Murmansk1          2031.875
        69   02 Jun 2027 00:53:16.517   02 Jun 2027 00:53:24.101             7.584                 Moscow           237.000
        70   02 Jun 2027 00:53:37.702   02 Jun 2027 00:53:53.564            15.862              Murmansk2           495.688
        71   02 Jun 2027 00:54:28.676   02 Jun 2027 00:55:20.779            52.103              Murmansk1          1628.219
        72   02 Jun 2027 00:58:27.069   02 Jun 2027 00:58:58.837            31.768              Murmansk2           992.750
        73   02 Jun 2027 00:58:58.837   02 Jun 2027 00:59:39.466            40.629              Murmansk1          1269.656
        74   02 Jun 2027 01:02:20.333   02 Jun 2027 01:02:31.036            10.703                 Moscow           334.469
        75   02 Jun 2027 01:03:09.588   02 Jun 2027 01:03:41.896            32.308                 Moscow          1009.625
        76   02 Jun 2027 01:05:49.857   02 Jun 2027 01:05:57.295             7.438                 Moscow           232.438
        77   02 Jun 2027 01:21:47.796   02 Jun 2027 01:21:54.249             6.453               CapeTown           201.656
        78   02 Jun 2027 01:22:27.809   02 Jun 2027 01:22:57.765            29.956               CapeTown           936.125
        79   02 Jun 2027 01:25:38.915   02 Jun 2027 01:26:20.312            41.397               CapeTown          1293.656
        80   02 Jun 2027 01:27:24.251   02 Jun 2027 01:27:56.013            31.762               CapeTown           992.563
        81   02 Jun 2027 01:29:05.230   02 Jun 2027 01:29:32.839            27.609               CapeTown           862.781
        82   02 Jun 2027 02:14:10.572   02 Jun 2027 02:15:03.962            53.390               Magadan1          1668.438
        83   02 Jun 2027 02:17:35.088   02 Jun 2027 02:17:51.115            16.027               Magadan2           500.844
        84   02 Jun 2027 02:18:05.661   02 Jun 2027 02:19:16.756            71.095               Magadan2          2221.719
        85   02 Jun 2027 02:22:01.275   02 Jun 2027 02:22:14.443            13.168                Norilsk           411.500
        86   02 Jun 2027 02:23:23.022   02 Jun 2027 02:23:49.361            26.339                Norilsk           823.094
        87   02 Jun 2027 02:24:56.865   02 Jun 2027 02:25:23.682            26.817               Magadan2           838.031
        88   02 Jun 2027 02:26:19.096   02 Jun 2027 02:26:38.346            19.250              Murmansk2           601.563
        89   02 Jun 2027 02:27:27.395   02 Jun 2027 02:28:21.206            53.811              Murmansk2          1681.594
        90   02 Jun 2027 02:31:27.891   02 Jun 2027 02:31:47.200            19.309                Norilsk           603.406
        91   02 Jun 2027 02:32:37.134   02 Jun 2027 02:32:50.375            13.241              Murmansk2           413.781
        92   02 Jun 2027 02:33:37.527   02 Jun 2027 02:33:45.334             7.807              Murmansk1           243.969
        93   02 Jun 2027 02:33:53.409   02 Jun 2027 02:34:04.516            11.107              Murmansk2           347.094
        94   02 Jun 2027 02:34:30.976   02 Jun 2027 02:34:37.110             6.134              Murmansk2           191.687
        95   02 Jun 2027 02:34:59.439   02 Jun 2027 02:35:31.809            32.370              Murmansk1          1011.563
        96   02 Jun 2027 02:37:11.593   02 Jun 2027 02:37:58.321            46.728              Murmansk1          1460.250
        97   02 Jun 2027 03:56:48.921   02 Jun 2027 03:57:37.546            48.625                Anadyr1          1519.531
        98   02 Jun 2027 03:57:57.507   02 Jun 2027 03:59:25.307            87.800               Magadan2          2743.750
        99   02 Jun 2027 03:59:25.307   02 Jun 2027 03:59:42.296            16.989               Magadan1           530.906
       100   02 Jun 2027 03:59:45.181   02 Jun 2027 03:59:53.015             7.834                Anadyr1           244.812
       101   02 Jun 2027 04:00:14.352   02 Jun 2027 04:01:10.006            55.654               Magadan2          1739.187
       102   02 Jun 2027 04:01:28.230   02 Jun 2027 04:02:19.900            51.670                Anadyr1          1614.687
       103   02 Jun 2027 04:41:19.976   02 Jun 2027 04:43:01.323           101.347            RioGallegos          3167.094
       104   02 Jun 2027 05:32:59.553   02 Jun 2027 05:33:29.711            30.158                Irkutsk           942.438
       105   02 Jun 2027 05:34:16.205   02 Jun 2027 05:35:42.820            86.615                Irkutsk          2706.719
       106   02 Jun 2027 05:36:18.050   02 Jun 2027 05:37:05.473            47.423               Magadan1          1481.969
       107   02 Jun 2027 05:37:05.473   02 Jun 2027 05:37:10.825             5.352               Magadan2           167.250
       108   02 Jun 2027 05:37:32.973   02 Jun 2027 05:38:03.529            30.556                Irkutsk           954.875
       109   02 Jun 2027 05:39:57.059   02 Jun 2027 05:40:41.697            44.638                Norilsk          1394.938
       110   02 Jun 2027 05:42:53.321   02 Jun 2027 05:43:13.693            20.372                Norilsk           636.625
       111   02 Jun 2027 06:12:48.345   02 Jun 2027 06:17:30.558           282.213            RioGallegos          8819.156
       112   02 Jun 2027 06:18:19.095   02 Jun 2027 06:18:57.710            38.615            RioGallegos          1206.719
       113   02 Jun 2027 06:20:53.785   02 Jun 2027 06:21:22.165            28.380            RioGallegos           886.875
       114   02 Jun 2027 06:22:21.057   02 Jun 2027 06:22:24.756             3.699            RioGallegos           115.594
       115   02 Jun 2027 06:48:10.258   02 Jun 2027 06:52:07.675           237.417                Sumatra          7419.281
       116   02 Jun 2027 07:01:01.537   02 Jun 2027 07:05:52.741           291.204                  Delhi          9100.125
       117   02 Jun 2027 07:09:50.944   02 Jun 2027 07:10:23.839            32.895                Irkutsk          1027.969
       118   02 Jun 2027 07:11:00.670   02 Jun 2027 07:12:15.115            74.445                Irkutsk          2326.406
       119   02 Jun 2027 07:13:14.101   02 Jun 2027 07:14:04.275            50.174                Irkutsk          1567.937
       120   02 Jun 2027 07:14:07.979   02 Jun 2027 07:14:21.102            13.123              Murmansk1           410.094
       121   02 Jun 2027 07:14:23.263   02 Jun 2027 07:15:11.084            47.821                Norilsk          1494.406
       122   02 Jun 2027 07:15:14.763   02 Jun 2027 07:15:20.407             5.644              Murmansk2           176.375
       123   02 Jun 2027 07:15:47.119   02 Jun 2027 07:16:06.275            19.156                Norilsk           598.625
       124   02 Jun 2027 07:16:07.582   02 Jun 2027 07:16:07.664             0.082              Murmansk1             2.563
       125   02 Jun 2027 07:16:31.275   02 Jun 2027 07:16:32.010             0.735              Murmansk2            22.969
       126   02 Jun 2027 07:16:39.380   02 Jun 2027 07:17:40.899            61.519              Murmansk1          1922.469
       127   02 Jun 2027 07:50:45.409   02 Jun 2027 07:51:29.552            44.143            RioGallegos          1379.469
       128   02 Jun 2027 07:52:09.571   02 Jun 2027 07:53:05.017            55.446            RioGallegos          1732.687
       129   02 Jun 2027 07:54:58.477   02 Jun 2027 07:55:22.219            23.742            RioGallegos           741.937
       130   02 Jun 2027 08:24:57.590   02 Jun 2027 08:25:26.963            29.373                Sumatra           917.906
       131   02 Jun 2027 08:28:09.585   02 Jun 2027 08:29:16.029            66.444                Sumatra          2076.375
       132   02 Jun 2027 08:31:59.677   02 Jun 2027 08:34:13.345           133.668                  Delhi          4177.125
       133   02 Jun 2027 08:40:45.255   02 Jun 2027 08:41:31.245            45.990                  Delhi          1437.188
       134   02 Jun 2027 08:47:52.987   02 Jun 2027 08:48:03.933            10.946                Norilsk           342.062
       135   02 Jun 2027 08:48:07.830   02 Jun 2027 08:49:11.285            63.455                 Moscow          1982.969
       136   02 Jun 2027 08:49:22.482   02 Jun 2027 08:49:48.365            25.883                Norilsk           808.844
       137   02 Jun 2027 08:49:59.684   02 Jun 2027 08:50:34.995            35.311              Murmansk1          1103.469
       138   02 Jun 2027 08:50:52.628   02 Jun 2027 08:52:24.926            92.298                 Moscow          2884.313
       139   02 Jun 2027 10:10:21.221   02 Jun 2027 10:12:06.012           104.791                  Delhi          3274.719
       140   02 Jun 2027 10:13:25.206   02 Jun 2027 10:14:03.508            38.302                  Delhi          1196.938
       141   02 Jun 2027 10:21:16.349   02 Jun 2027 10:21:25.546             9.197              Murmansk1           287.406
       142   02 Jun 2027 10:21:26.143   02 Jun 2027 10:21:40.509            14.366                 Moscow           448.938
       143   02 Jun 2027 10:21:43.683   02 Jun 2027 10:22:03.168            19.485                Novosib           608.906
       144   02 Jun 2027 10:22:11.348   02 Jun 2027 10:22:23.526            12.178                Novosib           380.562
       145   02 Jun 2027 10:22:24.413   02 Jun 2027 10:22:57.872            33.459                Novosib          1045.594
       146   02 Jun 2027 10:23:06.530   02 Jun 2027 10:23:43.718            37.188              Murmansk2          1162.125
       147   02 Jun 2027 10:23:49.129   02 Jun 2027 10:24:32.966            43.837              Murmansk2          1369.906
       148   02 Jun 2027 10:24:41.178   02 Jun 2027 10:26:00.790            79.612              Murmansk1          2487.875
       149   02 Jun 2027 10:26:02.730   02 Jun 2027 10:26:05.393             2.663                 Moscow            83.219
       150   02 Jun 2027 10:26:10.432   02 Jun 2027 10:26:18.948             8.516                Norilsk           266.125
       151   02 Jun 2027 10:26:37.193   02 Jun 2027 10:26:43.782             6.589                Norilsk           205.906
       152   02 Jun 2027 10:26:56.257   02 Jun 2027 10:27:16.406            20.149              Murmansk1           629.656
       153   02 Jun 2027 10:27:34.273   02 Jun 2027 10:27:46.396            12.123                 Moscow           378.844
       154   02 Jun 2027 10:27:52.978   02 Jun 2027 10:28:03.468            10.490                Norilsk           327.813
       155   02 Jun 2027 10:28:25.440   02 Jun 2027 10:29:00.245            34.805              Murmansk1          1087.656
       156   02 Jun 2027 11:33:11.438   02 Jun 2027 11:38:29.462           318.024               CapeTown          9938.250
       157   02 Jun 2027 12:11:22.486   02 Jun 2027 12:17:45.869           383.383                Anadyr2         11980.719
       158   02 Jun 2027 12:17:46.636   02 Jun 2027 12:18:20.525            33.889                Anadyr1          1059.031
       159   02 Jun 2027 13:46:27.033   02 Jun 2027 13:47:09.507            42.474                Anadyr2          1327.313
       160   02 Jun 2027 13:48:27.741   02 Jun 2027 13:48:57.185            29.444                Anadyr1           920.125
       161   02 Jun 2027 13:51:12.780   02 Jun 2027 13:51:51.096            38.316                Anadyr2          1197.375
       162   02 Jun 2027 13:52:16.314   02 Jun 2027 13:53:28.122            71.808               Magadan1          2244.000
       163   02 Jun 2027 15:17:22.900   02 Jun 2027 15:17:28.884             5.984              Murmansk1           187.000
       164   02 Jun 2027 15:17:29.396   02 Jun 2027 15:17:44.577            15.181              Murmansk2           474.406
       165   02 Jun 2027 15:22:17.468   02 Jun 2027 15:24:31.492           134.024                Anadyr2          4188.250
       166   02 Jun 2027 15:24:50.865   02 Jun 2027 15:26:56.861           125.996               Magadan2          3937.375
       167   02 Jun 2027 15:27:07.603   02 Jun 2027 15:29:03.170           115.567               Magadan1          3611.469
       168   02 Jun 2027 15:30:30.672   02 Jun 2027 15:30:35.819             5.147               Magadan2           160.844
       169   02 Jun 2027 15:31:46.927   02 Jun 2027 15:33:20.661            93.734               Magadan2          2929.187
       170   02 Jun 2027 16:59:20.185   02 Jun 2027 16:59:46.165            25.980                Anadyr1           811.875
       171   02 Jun 2027 17:00:17.058   02 Jun 2027 17:00:37.322            20.264                Anadyr1           633.250
       172   02 Jun 2027 17:01:48.976   02 Jun 2027 17:04:06.034           137.058                Norilsk          4283.062
       173   02 Jun 2027 17:04:38.908   02 Jun 2027 17:04:45.736             6.828                Norilsk           213.375
       174   02 Jun 2027 17:09:30.021   02 Jun 2027 17:09:38.729             8.708               Magadan2           272.125
       175   02 Jun 2027 17:52:43.698   02 Jun 2027 17:56:28.998           225.300            RioGallegos          7040.625
       176   02 Jun 2027 17:56:37.365   02 Jun 2027 17:58:46.583           129.218            RioGallegos          4038.063
       177   02 Jun 2027 18:37:39.101   02 Jun 2027 18:40:04.153           145.052                Norilsk          4532.875
       178   02 Jun 2027 18:40:16.152   02 Jun 2027 18:42:33.345           137.193                Irkutsk          4287.281
       179   02 Jun 2027 18:43:55.191   02 Jun 2027 18:47:04.707           189.516                Novosib          5922.375
       180   02 Jun 2027 18:55:36.718   02 Jun 2027 18:57:46.255           129.537                Sumatra          4048.031
       181   02 Jun 2027 20:19:51.828   02 Jun 2027 20:20:28.921            37.093                Novosib          1159.156
       182   02 Jun 2027 20:21:35.074   02 Jun 2027 20:22:43.005            67.931                Novosib          2122.844
       183   02 Jun 2027 20:23:52.516   02 Jun 2027 20:27:37.970           225.454                  Delhi          7045.437
       184   02 Jun 2027 20:28:51.253   02 Jun 2027 20:30:17.879            86.626                  Delhi          2707.062
       185   02 Jun 2027 21:50:23.388   02 Jun 2027 21:55:55.824           332.436              Murmansk2         10388.625
       186   02 Jun 2027 21:56:45.880   02 Jun 2027 21:59:00.929           135.049              Murmansk1          4220.281
       187   02 Jun 2027 22:00:25.625   02 Jun 2027 22:01:38.339            72.714                 Moscow          2272.313
       188   02 Jun 2027 23:30:27.155   02 Jun 2027 23:31:58.612            91.457                 Moscow          2858.031
       189   02 Jun 2027 23:36:07.685   02 Jun 2027 23:36:36.156            28.471                 Moscow           889.719
       190   02 Jun 2027 23:39:45.274   02 Jun 2027 23:40:54.414            69.140                 Moscow          2160.625
       191   02 Jun 2027 23:53:52.607   02 Jun 2027 23:55:41.362           108.755               CapeTown          3398.594
       192   02 Jun 2027 23:57:12.427   02 Jun 2027 23:58:31.608            79.181               CapeTown          2474.406
       193   03 Jun 2027 01:02:05.236   03 Jun 2027 01:02:57.920            52.684              Murmansk2          1646.375
       194   03 Jun 2027 01:04:32.221   03 Jun 2027 01:04:41.399             9.178              Murmansk2           286.813
       195   03 Jun 2027 01:05:19.157   03 Jun 2027 01:06:25.218            66.061                 Moscow          2064.406
       196   03 Jun 2027 01:08:21.290   03 Jun 2027 01:08:54.829            33.539                 Moscow          1048.094
       197   03 Jun 2027 01:12:02.436   03 Jun 2027 01:13:21.515            79.079                 Moscow          2471.219
       198   03 Jun 2027 01:31:55.823   03 Jun 2027 01:33:19.069            83.246               CapeTown          2601.437
       199   03 Jun 2027 02:26:00.394   03 Jun 2027 02:28:13.280           132.886               Magadan1          4152.687
       200   03 Jun 2027 02:30:07.952   03 Jun 2027 02:30:45.491            37.539               Magadan2          1173.094
       201   03 Jun 2027 02:34:38.487   03 Jun 2027 02:35:21.646            43.159               Magadan1          1348.719
       202   03 Jun 2027 02:37:57.248   03 Jun 2027 02:39:39.431           102.183              Murmansk2          3193.219
       203   03 Jun 2027 02:42:28.025   03 Jun 2027 02:42:54.797            26.772              Murmansk2           836.625
       204   03 Jun 2027 02:47:53.785   03 Jun 2027 02:48:04.434            10.649                 Moscow           332.781
       205   03 Jun 2027 02:49:32.449   03 Jun 2027 02:49:43.781            11.332                 Moscow           354.125
       206   03 Jun 2027 02:50:47.939   03 Jun 2027 02:50:52.115             4.176                 Moscow           130.500
       207   03 Jun 2027 03:19:45.150   03 Jun 2027 03:20:21.830            36.680            RioGallegos          1146.250
       208   03 Jun 2027 03:21:11.164   03 Jun 2027 03:22:27.225            76.061            RioGallegos          2376.906
       209   03 Jun 2027 04:08:30.598   03 Jun 2027 04:08:41.286            10.688                Anadyr2           334.000
       210   03 Jun 2027 04:08:58.473   03 Jun 2027 04:09:05.568             7.095               Magadan1           221.719
       211   03 Jun 2027 04:09:05.568   03 Jun 2027 04:11:06.657           121.089               Magadan2          3784.031
       212   03 Jun 2027 04:11:06.657   03 Jun 2027 04:11:27.644            20.987               Magadan1           655.844
       213   03 Jun 2027 04:11:31.361   03 Jun 2027 04:12:11.672            40.311                Anadyr1          1259.719
       214   03 Jun 2027 04:12:11.672   03 Jun 2027 04:12:14.101             2.429                Anadyr2            75.906
       215   03 Jun 2027 04:12:15.822   03 Jun 2027 04:12:58.691            42.869               Magadan2          1339.656
       216   03 Jun 2027 04:13:10.611   03 Jun 2027 04:13:42.539            31.928               Magadan2           997.750
       217   03 Jun 2027 04:13:49.591   03 Jun 2027 04:14:13.519            23.928                Anadyr1           747.750
       218   03 Jun 2027 04:52:00.623   03 Jun 2027 04:53:41.652           101.029            RioGallegos          3157.156
       219   03 Jun 2027 04:55:52.931   03 Jun 2027 04:56:30.951            38.020            RioGallegos          1188.125
       220   03 Jun 2027 05:46:01.580   03 Jun 2027 05:46:09.660             8.080                Novosib           252.500
       221   03 Jun 2027 05:46:19.939   03 Jun 2027 05:47:41.905            81.966                Novosib          2561.438
       222   03 Jun 2027 05:47:53.888   03 Jun 2027 05:48:17.465            23.577                Irkutsk           736.781
       223   03 Jun 2027 05:48:38.284   03 Jun 2027 05:50:08.230            89.946                Irkutsk          2810.812
       224   03 Jun 2027 05:50:15.562   03 Jun 2027 05:51:19.167            63.605                Novosib          1987.656
       225   03 Jun 2027 05:51:26.963   03 Jun 2027 05:51:51.626            24.663              Murmansk1           770.719
       226   03 Jun 2027 05:51:52.772   03 Jun 2027 05:52:08.207            15.435                Norilsk           482.344
       227   03 Jun 2027 06:24:51.038   03 Jun 2027 06:30:35.388           344.350            RioGallegos         10760.937
       228   03 Jun 2027 06:30:55.198   03 Jun 2027 06:32:21.980            86.782            RioGallegos          2711.938
       229   03 Jun 2027 06:33:24.956   03 Jun 2027 06:34:20.742            55.786            RioGallegos          1743.313
       230   03 Jun 2027 07:00:10.631   03 Jun 2027 07:01:25.501            74.870                Sumatra          2339.688
       231   03 Jun 2027 07:03:04.832   03 Jun 2027 07:04:11.521            66.689                Sumatra          2084.031
       232   03 Jun 2027 07:08:33.106   03 Jun 2027 07:09:24.515            51.409                Sumatra          1606.531
       233   03 Jun 2027 07:11:38.232   03 Jun 2027 07:18:54.044           435.812                  Delhi         13619.125
       234   03 Jun 2027 07:21:01.474   03 Jun 2027 07:21:51.863            50.389                Irkutsk          1574.656
       235   03 Jun 2027 07:22:28.744   03 Jun 2027 07:22:29.431             0.687              Murmansk2            21.469
       236   03 Jun 2027 07:22:31.729   03 Jun 2027 07:23:17.064            45.335                Novosib          1416.719
       237   03 Jun 2027 07:23:33.188   03 Jun 2027 07:24:01.720            28.532                Irkutsk           891.625
       238   03 Jun 2027 07:24:01.752   03 Jun 2027 07:24:15.972            14.220                Novosib           444.375
       239   03 Jun 2027 07:24:22.274   03 Jun 2027 07:24:24.576             2.302                Irkutsk            71.938
       240   03 Jun 2027 07:24:28.928   03 Jun 2027 07:24:41.262            12.334              Murmansk2           385.438
       241   03 Jun 2027 07:24:48.631   03 Jun 2027 07:25:20.985            32.354                 Moscow          1011.062
       242   03 Jun 2027 07:25:26.048   03 Jun 2027 07:25:35.884             9.836                Irkutsk           307.375
       243   03 Jun 2027 07:25:51.478   03 Jun 2027 07:27:19.132            87.654                 Moscow          2739.187
       244   03 Jun 2027 08:04:19.007   03 Jun 2027 08:05:02.786            43.779            RioGallegos          1368.094
       245   03 Jun 2027 08:37:45.791   03 Jun 2027 08:39:07.706            81.915                Sumatra          2559.844
       246   03 Jun 2027 08:43:56.494   03 Jun 2027 08:44:44.543            48.049                  Delhi          1501.531
       247   03 Jun 2027 08:46:11.911   03 Jun 2027 08:46:31.206            19.295                  Delhi           602.969
       248   03 Jun 2027 08:48:44.874   03 Jun 2027 08:49:32.982            48.108                  Delhi          1503.375
       249   03 Jun 2027 08:51:45.905   03 Jun 2027 08:52:17.116            31.211                  Delhi           975.344
       250   03 Jun 2027 08:57:59.697   03 Jun 2027 08:58:08.179             8.482                Novosib           265.062
       251   03 Jun 2027 08:58:12.977   03 Jun 2027 08:58:35.433            22.456                Norilsk           701.750
       252   03 Jun 2027 08:58:39.930   03 Jun 2027 08:59:29.657            49.727                 Moscow          1553.969
       253   03 Jun 2027 08:59:43.083   03 Jun 2027 09:00:14.571            31.488                Novosib           984.000
       254   03 Jun 2027 09:00:35.907   03 Jun 2027 09:01:21.510            45.603              Murmansk2          1425.094
       255   03 Jun 2027 09:01:29.877   03 Jun 2027 09:01:43.335            13.458                Novosib           420.563
       256   03 Jun 2027 09:01:47.027   03 Jun 2027 09:02:00.191            13.164              Murmansk2           411.375
       257   03 Jun 2027 09:02:33.122   03 Jun 2027 09:03:03.515            30.393                 Moscow           949.781
       258   03 Jun 2027 10:23:37.378   03 Jun 2027 10:26:13.033           155.655                  Delhi          4864.219
       259   03 Jun 2027 10:32:12.345   03 Jun 2027 10:32:16.926             4.581              Murmansk1           143.156
       260   03 Jun 2027 10:32:17.545   03 Jun 2027 10:32:38.182            20.637              Murmansk2           644.906
       261   03 Jun 2027 10:32:45.246   03 Jun 2027 10:33:35.834            50.588                 Moscow          1580.875
       262   03 Jun 2027 10:34:00.345   03 Jun 2027 10:34:12.587            12.242                Novosib           382.563
       263   03 Jun 2027 10:34:13.980   03 Jun 2027 10:34:18.167             4.187              Murmansk2           130.844
       264   03 Jun 2027 10:34:20.529   03 Jun 2027 10:34:27.007             6.478                Novosib           202.437
       265   03 Jun 2027 10:34:29.694   03 Jun 2027 10:35:07.709            38.015              Murmansk1          1187.969
       266   03 Jun 2027 10:35:17.647   03 Jun 2027 10:36:50.948            93.301                 Moscow          2915.656
       267   03 Jun 2027 10:37:11.050   03 Jun 2027 10:37:58.814            47.764              Murmansk2          1492.625
       268   03 Jun 2027 10:38:39.218   03 Jun 2027 10:38:44.226             5.008                Norilsk           156.500
       269   03 Jun 2027 10:38:47.282   03 Jun 2027 10:39:04.035            16.753              Murmansk1           523.531
       270   03 Jun 2027 10:39:19.976   03 Jun 2027 10:40:11.608            51.632                 Moscow          1613.500
       271   03 Jun 2027 11:44:07.120   03 Jun 2027 11:51:50.349           463.229               CapeTown         14475.906
       272   03 Jun 2027 12:23:10.062   03 Jun 2027 12:31:07.539           477.477                Anadyr2         14921.156
       273   03 Jun 2027 14:02:49.256   03 Jun 2027 14:07:33.825           284.569               Magadan2          8892.781
       274   03 Jun 2027 15:36:47.321   03 Jun 2027 15:40:34.467           227.146               Magadan1          7098.313
       275   03 Jun 2027 15:40:43.109   03 Jun 2027 15:41:02.431            19.322               Magadan1           603.813
       276   03 Jun 2027 15:42:18.088   03 Jun 2027 15:42:18.464             0.376               Magadan1            11.750
       277   03 Jun 2027 15:43:46.814   03 Jun 2027 15:44:55.465            68.651               Magadan2          2145.344
       278   03 Jun 2027 17:12:30.558   03 Jun 2027 17:14:18.307           107.749               Magadan2          3367.156
       279   03 Jun 2027 17:16:43.193   03 Jun 2027 17:17:18.372            35.179                Norilsk          1099.344
       280   03 Jun 2027 17:19:39.623   03 Jun 2027 17:22:15.318           155.695                Irkutsk          4865.469
       281   03 Jun 2027 18:04:32.741   03 Jun 2027 18:06:37.146           124.405            RioGallegos          3887.656
       282   03 Jun 2027 18:15:00.320   03 Jun 2027 18:15:42.201            41.881            RioGallegos          1308.781
       283   03 Jun 2027 18:48:04.437   03 Jun 2027 18:49:23.704            79.267                Norilsk          2477.094
       284   03 Jun 2027 18:52:10.493   03 Jun 2027 18:52:54.818            44.325                Irkutsk          1385.156
       285   03 Jun 2027 18:53:44.454   03 Jun 2027 19:00:21.295           396.841                Novosib         12401.281
       286   03 Jun 2027 19:07:04.953   03 Jun 2027 19:08:06.065            61.112                Sumatra          1909.750
       287   03 Jun 2027 19:08:49.627   03 Jun 2027 19:09:36.205            46.578                Sumatra          1455.563
       288   03 Jun 2027 20:29:25.205   03 Jun 2027 20:29:47.442            22.237                Novosib           694.906
       289   03 Jun 2027 20:30:37.201   03 Jun 2027 20:31:55.464            78.263                Novosib          2445.719
       290   03 Jun 2027 20:35:31.487   03 Jun 2027 20:36:47.622            76.135                Novosib          2379.219
       291   03 Jun 2027 20:37:29.668   03 Jun 2027 20:40:23.601           173.933                  Delhi          5435.406
       292   03 Jun 2027 22:02:20.951   03 Jun 2027 22:04:11.857           110.906              Murmansk1          3465.812
       293   03 Jun 2027 22:04:34.458   03 Jun 2027 22:07:49.531           195.073              Murmansk2          6096.031
       294   03 Jun 2027 22:07:53.288   03 Jun 2027 22:14:32.650           399.362                 Moscow         12480.063
       295   03 Jun 2027 23:42:06.342   03 Jun 2027 23:43:27.495            81.153                 Moscow          2536.031
       296   04 Jun 2027 00:05:36.641   04 Jun 2027 00:07:34.547           117.906               CapeTown          3684.563
       297   04 Jun 2027 00:07:40.290   04 Jun 2027 00:09:29.689           109.399               CapeTown          3418.719
       298   04 Jun 2027 01:14:06.693   04 Jun 2027 01:14:55.022            48.329              Murmansk2          1510.281
       299   04 Jun 2027 01:15:05.254   04 Jun 2027 01:15:11.993             6.739              Murmansk1           210.594
       300   04 Jun 2027 01:16:52.314   04 Jun 2027 01:17:28.213            35.899              Murmansk2          1121.844
       301   04 Jun 2027 01:20:19.946   04 Jun 2027 01:21:42.147            82.201                 Moscow          2568.781
       302   04 Jun 2027 01:43:40.705   04 Jun 2027 01:44:51.207            70.502               CapeTown          2203.188
       303   04 Jun 2027 02:37:52.379   04 Jun 2027 02:40:45.478           173.099               Magadan1          5409.344
       304   04 Jun 2027 02:42:02.266   04 Jun 2027 02:42:13.203            10.937               Magadan2           341.781
       305   04 Jun 2027 02:44:40.739   04 Jun 2027 02:44:48.232             7.493               Magadan2           234.156
       306   04 Jun 2027 02:46:26.294   04 Jun 2027 02:46:38.445            12.151                Norilsk           379.719
       307   04 Jun 2027 02:47:05.128   04 Jun 2027 02:47:38.822            33.694                Norilsk          1052.938
       308   04 Jun 2027 02:49:56.923   04 Jun 2027 02:51:49.623           112.700              Murmansk2          3521.875
       309   04 Jun 2027 02:53:51.581   04 Jun 2027 02:54:53.176            61.595                 Moscow          1924.844
       310   04 Jun 2027 03:30:39.695   04 Jun 2027 03:32:45.882           126.187            RioGallegos          3943.344
       311   04 Jun 2027 03:33:44.567   04 Jun 2027 03:34:00.884            16.317            RioGallegos           509.906
       312   04 Jun 2027 03:35:21.961   04 Jun 2027 03:36:15.677            53.716            RioGallegos          1678.625
       313   04 Jun 2027 04:20:07.302   04 Jun 2027 04:20:35.265            27.963                Anadyr2           873.844
       314   04 Jun 2027 04:20:56.045   04 Jun 2027 04:22:43.622           107.577               Magadan2          3361.781
       315   04 Jun 2027 04:23:09.347   04 Jun 2027 04:23:29.799            20.452               Magadan2           639.125
       316   04 Jun 2027 04:23:41.817   04 Jun 2027 04:23:44.011             2.194                Norilsk            68.563
       317   04 Jun 2027 04:23:45.159   04 Jun 2027 04:23:45.254             0.095               Magadan2             2.969
       318   04 Jun 2027 04:23:45.839   04 Jun 2027 04:26:04.765           138.926                Anadyr1          4341.437
       319   04 Jun 2027 04:26:13.753   04 Jun 2027 04:26:22.661             8.908               Magadan1           278.375
       320   04 Jun 2027 04:26:36.865   04 Jun 2027 04:27:03.443            26.578                Norilsk           830.563
       321   04 Jun 2027 05:01:54.365   04 Jun 2027 05:05:33.651           219.286            RioGallegos          6852.688
       322   04 Jun 2027 05:08:05.361   04 Jun 2027 05:08:06.458             1.097            RioGallegos            34.281
       323   04 Jun 2027 05:49:45.550   04 Jun 2027 05:50:11.468            25.918                Irkutsk           809.938
       324   04 Jun 2027 05:57:13.275   04 Jun 2027 05:57:43.690            30.415                Irkutsk           950.469
       325   04 Jun 2027 05:57:49.251   04 Jun 2027 05:59:20.912            91.661               Magadan2          2864.406
       326   04 Jun 2027 05:59:27.949   04 Jun 2027 05:59:50.476            22.527                Novosib           703.969
       327   04 Jun 2027 05:59:53.000   04 Jun 2027 06:01:11.759            78.759               Magadan1          2461.219
       328   04 Jun 2027 06:01:37.276   04 Jun 2027 06:02:21.190            43.914                Norilsk          1372.313
       329   04 Jun 2027 06:02:31.737   04 Jun 2027 06:02:57.428            25.691              Murmansk1           802.844
       330   04 Jun 2027 06:36:57.153   04 Jun 2027 06:38:16.231            79.078            RioGallegos          2471.188
       331   04 Jun 2027 06:40:06.752   04 Jun 2027 06:41:11.512            64.760            RioGallegos          2023.750
       332   04 Jun 2027 06:42:03.157   04 Jun 2027 06:42:09.129             5.972            RioGallegos           186.625
       333   04 Jun 2027 07:11:48.905   04 Jun 2027 07:15:07.607           198.702                Sumatra          6209.438
       334   04 Jun 2027 07:22:40.614   04 Jun 2027 07:27:03.468           262.854                  Delhi          8214.188
       335   04 Jun 2027 07:27:14.165   04 Jun 2027 07:31:01.866           227.701                  Delhi          7115.656
       336   04 Jun 2027 07:33:05.747   04 Jun 2027 07:33:45.674            39.927                Novosib          1247.719
       337   04 Jun 2027 07:33:51.874   04 Jun 2027 07:35:08.974            77.100                Irkutsk          2409.375
       338   04 Jun 2027 07:35:20.937   04 Jun 2027 07:35:35.559            14.622                Novosib           456.937
       339   04 Jun 2027 07:35:52.875   04 Jun 2027 07:35:59.554             6.679              Murmansk2           208.719
       340   04 Jun 2027 07:35:59.554   04 Jun 2027 07:36:45.733            46.179              Murmansk1          1443.094
       341   04 Jun 2027 07:36:50.073   04 Jun 2027 07:36:54.151             4.078                 Moscow           127.437
       342   04 Jun 2027 07:37:12.728   04 Jun 2027 07:37:39.667            26.939                 Moscow           841.844
       343   04 Jun 2027 07:37:47.778   04 Jun 2027 07:37:52.581             4.803                Irkutsk           150.094
       344   04 Jun 2027 07:38:01.141   04 Jun 2027 07:38:20.408            19.267              Murmansk1           602.094
       345   04 Jun 2027 07:38:53.206   04 Jun 2027 07:39:17.511            24.305              Murmansk1           759.531
       346   04 Jun 2027 07:39:43.007   04 Jun 2027 07:39:52.575             9.568                 Moscow           299.000
       347   04 Jun 2027 08:16:15.634   04 Jun 2027 08:16:35.237            19.603            RioGallegos           612.594
       348   04 Jun 2027 08:18:25.154   04 Jun 2027 08:18:40.273            15.119            RioGallegos           472.469
       349   04 Jun 2027 08:20:26.184   04 Jun 2027 08:20:44.491            18.307            RioGallegos           572.094
       350   04 Jun 2027 08:51:04.191   04 Jun 2027 08:51:32.445            28.254                Sumatra           882.938
       351   04 Jun 2027 08:53:05.577   04 Jun 2027 08:54:06.570            60.993                Sumatra          1906.031
       352   04 Jun 2027 08:56:53.725   04 Jun 2027 08:57:44.951            51.226                  Delhi          1600.812
       353   04 Jun 2027 08:59:08.905   04 Jun 2027 08:59:43.322            34.417                  Delhi          1075.531
       354   04 Jun 2027 09:01:06.926   04 Jun 2027 09:01:22.765            15.839                  Delhi           494.969
       355   04 Jun 2027 09:09:58.913   04 Jun 2027 09:10:09.311            10.398                 Moscow           324.937
       356   04 Jun 2027 09:10:14.359   04 Jun 2027 09:11:18.123            63.764                Novosib          1992.625
       357   04 Jun 2027 09:11:25.061   04 Jun 2027 09:11:43.559            18.498                 Moscow           578.062
       358   04 Jun 2027 09:11:53.214   04 Jun 2027 09:11:57.778             4.564                Novosib           142.625
       359   04 Jun 2027 09:11:59.376   04 Jun 2027 09:12:46.749            47.373                 Moscow          1480.406
       360   04 Jun 2027 09:12:53.120   04 Jun 2027 09:13:11.575            18.455              Murmansk2           576.719
       361   04 Jun 2027 09:13:11.575   04 Jun 2027 09:13:18.856             7.281              Murmansk1           227.531
       362   04 Jun 2027 09:13:25.674   04 Jun 2027 09:13:29.500             3.826                Novosib           119.562
       363   04 Jun 2027 09:13:30.351   04 Jun 2027 09:13:33.290             2.939                 Moscow            91.844
       364   04 Jun 2027 09:13:34.246   04 Jun 2027 09:13:49.093            14.847              Murmansk1           463.969
       365   04 Jun 2027 09:14:14.784   04 Jun 2027 09:14:40.235            25.451              Murmansk1           795.344
       366   04 Jun 2027 09:15:16.477   04 Jun 2027 09:15:46.677            30.200                 Moscow           943.750
       367   04 Jun 2027 10:43:39.726   04 Jun 2027 10:44:35.509            55.783                 Moscow          1743.219
       368   04 Jun 2027 10:44:50.000   04 Jun 2027 10:45:44.259            54.259                 Moscow          1695.594
       369   04 Jun 2027 10:46:00.790   04 Jun 2027 10:46:52.152            51.362                 Moscow          1605.062
       370   04 Jun 2027 10:46:59.576   04 Jun 2027 10:47:09.034             9.458              Murmansk2           295.562
       371   04 Jun 2027 10:47:11.111   04 Jun 2027 10:48:03.729            52.618                 Moscow          1644.313
       372   04 Jun 2027 10:48:17.816   04 Jun 2027 10:48:29.678            11.862              Murmansk1           370.688
       373   04 Jun 2027 10:48:47.473   04 Jun 2027 10:49:57.834            70.361                 Moscow          2198.781
       374   04 Jun 2027 10:50:19.164   04 Jun 2027 10:50:24.471             5.307                Norilsk           165.844
       375   04 Jun 2027 10:50:35.214   04 Jun 2027 10:50:59.165            23.951              Murmansk1           748.469
       376   04 Jun 2027 10:50:59.165   04 Jun 2027 10:51:05.776             6.611              Murmansk2           206.594
       377   04 Jun 2027 10:52:03.220   04 Jun 2027 10:52:27.124            23.904              Murmansk1           747.000
       378   04 Jun 2027 11:55:26.843   04 Jun 2027 12:03:04.811           457.968               CapeTown         14311.500
       379   04 Jun 2027 12:35:01.176   04 Jun 2027 12:40:48.352           347.176                Anadyr2         10849.250
       380   04 Jun 2027 12:41:24.742   04 Jun 2027 12:43:48.570           143.828                Anadyr1          4494.625
       381   04 Jun 2027 14:10:26.664   04 Jun 2027 14:11:23.456            56.792                Anadyr2          1774.750
       382   04 Jun 2027 14:14:14.417   04 Jun 2027 14:20:44.341           389.924               Magadan2         12185.125
       383   04 Jun 2027 15:48:44.824   04 Jun 2027 15:50:27.303           102.479               Magadan2          3202.469
       384   04 Jun 2027 15:51:05.534   04 Jun 2027 15:52:36.481            90.947               Magadan1          2842.094
       385   04 Jun 2027 17:24:32.201   04 Jun 2027 17:26:03.497            91.296               Magadan1          2853.000
       386   04 Jun 2027 17:27:11.951   04 Jun 2027 17:28:08.329            56.378                Norilsk          1761.813
       387   04 Jun 2027 17:29:41.319   04 Jun 2027 17:30:31.979            50.660                Norilsk          1583.125
       388   04 Jun 2027 17:32:04.173   04 Jun 2027 17:36:04.446           240.273                Irkutsk          7508.531
       389   04 Jun 2027 17:48:14.218   04 Jun 2027 17:49:11.170            56.952                Sumatra          1779.750
       390   04 Jun 2027 19:00:05.260   04 Jun 2027 19:01:03.708            58.448                Norilsk          1826.500
       391   04 Jun 2027 19:03:33.603   04 Jun 2027 19:04:07.901            34.298                Norilsk          1071.813
       392   04 Jun 2027 19:04:37.083   04 Jun 2027 19:05:24.526            47.443                Irkutsk          1482.594
       393   04 Jun 2027 19:05:45.655   04 Jun 2027 19:12:40.831           415.176                Novosib         12974.250
       394   04 Jun 2027 19:27:21.958   04 Jun 2027 19:28:33.346            71.388                Sumatra          2230.875
       395   04 Jun 2027 20:42:23.489   04 Jun 2027 20:42:51.344            27.855                Novosib           870.469
       396   04 Jun 2027 20:43:59.448   04 Jun 2027 20:44:16.378            16.930                Novosib           529.062
       397   04 Jun 2027 20:44:34.582   04 Jun 2027 20:45:23.777            49.195                Novosib          1537.344
       398   04 Jun 2027 20:47:25.781   04 Jun 2027 20:50:05.766           159.985                  Delhi          4999.531
       399   04 Jun 2027 20:58:07.031   04 Jun 2027 20:59:51.317           104.286                  Delhi          3258.937
       400   04 Jun 2027 22:14:19.501   04 Jun 2027 22:19:45.289           325.788              Murmansk2         10180.875
       401   04 Jun 2027 22:19:48.373   04 Jun 2027 22:26:13.489           385.116                 Moscow         12034.875
       402   04 Jun 2027 22:46:31.310   04 Jun 2027 22:51:24.835           293.525               CapeTown          9172.656
       403   05 Jun 2027 01:26:08.028   05 Jun 2027 01:26:13.149             5.121              Murmansk1           160.031
       404   05 Jun 2027 01:26:53.318   05 Jun 2027 01:28:19.914            86.596              Murmansk1          2706.125
       405   05 Jun 2027 01:33:06.964   05 Jun 2027 01:33:45.176            38.212                 Moscow          1194.125
       406   05 Jun 2027 01:39:49.261   05 Jun 2027 01:40:01.881            12.620                 Moscow           394.375
       407   05 Jun 2027 01:55:01.853   05 Jun 2027 01:56:29.620            87.767               CapeTown          2742.719
       408   05 Jun 2027 02:49:46.583   05 Jun 2027 02:52:16.947           150.364               Magadan1          4698.875
       409   05 Jun 2027 02:53:40.579   05 Jun 2027 02:53:59.273            18.694               Magadan1           584.188
       410   05 Jun 2027 02:54:09.729   05 Jun 2027 02:54:44.124            34.395               Magadan1          1074.844
       411   05 Jun 2027 02:57:23.187   05 Jun 2027 02:58:13.628            50.441               Magadan1          1576.281
       412   05 Jun 2027 03:41:47.217   05 Jun 2027 03:45:21.902           214.685            RioGallegos          6708.906
       413   05 Jun 2027 04:32:42.021   05 Jun 2027 04:36:56.570           254.549                Irkutsk          7954.656
       414   05 Jun 2027 04:37:53.407   05 Jun 2027 04:38:05.315            11.908               Magadan1           372.125
       415   05 Jun 2027 04:38:15.746   05 Jun 2027 04:38:38.238            22.492                Norilsk           702.875
       416   05 Jun 2027 04:38:41.455   05 Jun 2027 04:38:47.659             6.204              Murmansk1           193.875
       417   05 Jun 2027 04:39:00.602   05 Jun 2027 04:39:52.883            52.281              Murmansk1          1633.781
       418   05 Jun 2027 05:13:37.844   05 Jun 2027 05:15:47.872           130.028            RioGallegos          4063.375
       419   05 Jun 2027 05:16:04.324   05 Jun 2027 05:16:32.558            28.234            RioGallegos           882.312
       420   05 Jun 2027 05:52:22.643   05 Jun 2027 05:56:58.923           276.280                Sumatra          8633.750
       421   05 Jun 2027 06:08:26.878   05 Jun 2027 06:09:05.614            38.736                Irkutsk          1210.500
       422   05 Jun 2027 06:09:19.466   05 Jun 2027 06:09:30.633            11.167               Magadan2           348.969
       423   05 Jun 2027 06:09:30.633   05 Jun 2027 06:09:52.212            21.579               Magadan1           674.344
       424   05 Jun 2027 06:09:53.109   05 Jun 2027 06:11:19.314            86.205               Magadan2          2693.906
       425   05 Jun 2027 06:11:20.485   05 Jun 2027 06:11:34.520            14.035               Magadan2           438.594
       426   05 Jun 2027 06:11:55.041   05 Jun 2027 06:12:25.774            30.733               Magadan1           960.406
       427   05 Jun 2027 06:12:29.113   05 Jun 2027 06:12:58.316            29.203              Murmansk1           912.594
       428   05 Jun 2027 06:13:29.689   05 Jun 2027 06:13:30.241             0.552                Irkutsk            17.250
       429   05 Jun 2027 06:13:51.618   05 Jun 2027 06:14:15.337            23.719                Irkutsk           741.219
       430   05 Jun 2027 06:14:30.373   05 Jun 2027 06:14:31.514             1.141              Murmansk1            35.656
       431   05 Jun 2027 06:14:59.550   05 Jun 2027 06:15:12.091            12.541              Murmansk1           391.906
       432   05 Jun 2027 06:16:04.679   05 Jun 2027 06:16:17.434            12.755              Murmansk1           398.594
       433   05 Jun 2027 06:18:26.489   05 Jun 2027 06:18:34.803             8.314                Norilsk           259.813
       434   05 Jun 2027 06:20:36.439   05 Jun 2027 06:20:43.063             6.624              Murmansk1           207.000
       435   05 Jun 2027 06:49:06.861   05 Jun 2027 06:50:08.311            61.450            RioGallegos          1920.312
       436   05 Jun 2027 06:53:15.147   05 Jun 2027 06:54:10.754            55.607            RioGallegos          1737.719
       437   05 Jun 2027 07:23:46.931   05 Jun 2027 07:25:36.998           110.067                Sumatra          3439.594
       438   05 Jun 2027 07:33:07.678   05 Jun 2027 07:33:23.894            16.216                Sumatra           506.750
       439   05 Jun 2027 07:33:56.830   05 Jun 2027 07:36:30.928           154.098                  Delhi          4815.562
       440   05 Jun 2027 07:37:28.529   05 Jun 2027 07:41:22.033           233.504                  Delhi          7297.000
       441   05 Jun 2027 07:44:15.153   05 Jun 2027 07:44:25.838            10.685                Novosib           333.906
       442   05 Jun 2027 07:44:33.167   05 Jun 2027 07:45:46.653            73.486                Irkutsk          2296.438
       443   05 Jun 2027 07:46:03.063   05 Jun 2027 07:46:30.480            27.417              Murmansk1           856.781
       444   05 Jun 2027 07:46:32.950   05 Jun 2027 07:47:12.073            39.123                Novosib          1222.594
       445   05 Jun 2027 07:47:27.884   05 Jun 2027 07:47:54.977            27.093                Irkutsk           846.656
       446   05 Jun 2027 07:47:59.217   05 Jun 2027 07:48:24.513            25.296              Murmansk2           790.500
       447   05 Jun 2027 07:48:28.700   05 Jun 2027 07:48:31.017             2.317                Novosib            72.406
       448   05 Jun 2027 07:48:34.979   05 Jun 2027 07:49:33.425            58.446              Murmansk2          1826.437
       449   05 Jun 2027 07:49:56.744   05 Jun 2027 07:50:53.951            57.207              Murmansk1          1787.719
       450   05 Jun 2027 08:29:20.224   05 Jun 2027 08:29:35.544            15.320            RioGallegos           478.750
       451   05 Jun 2027 08:30:07.298   05 Jun 2027 08:30:43.953            36.655            RioGallegos          1145.469
       452   05 Jun 2027 09:08:06.205   05 Jun 2027 09:10:58.870           172.665                  Delhi          5395.781
       453   05 Jun 2027 09:16:55.150   05 Jun 2027 09:17:50.990            55.840                  Delhi          1745.000
       454   05 Jun 2027 09:22:01.201   05 Jun 2027 09:22:02.373             1.172                Novosib            36.625
       455   05 Jun 2027 09:22:06.896   05 Jun 2027 09:23:06.524            59.628                 Moscow          1863.375
       456   05 Jun 2027 09:23:16.482   05 Jun 2027 09:23:43.630            27.148                Novosib           848.375
       457   05 Jun 2027 09:23:44.236   05 Jun 2027 09:24:26.592            42.356                 Moscow          1323.625
       458   05 Jun 2027 09:24:34.022   05 Jun 2027 09:25:07.104            33.082                 Moscow          1033.812
       459   05 Jun 2027 09:25:10.573   05 Jun 2027 09:25:38.610            28.037              Murmansk1           876.156
       460   05 Jun 2027 09:25:38.610   05 Jun 2027 09:26:04.836            26.226              Murmansk2           819.562
       461   05 Jun 2027 10:55:41.537   05 Jun 2027 10:56:06.302            24.765                 Moscow           773.906
       462   05 Jun 2027 10:56:16.091   05 Jun 2027 10:56:55.038            38.947              Murmansk2          1217.094
       463   05 Jun 2027 10:57:07.491   05 Jun 2027 10:57:43.833            36.342              Murmansk2          1135.688
       464   05 Jun 2027 10:57:51.717   05 Jun 2027 10:58:37.041            45.324                 Moscow          1416.375
       465   05 Jun 2027 10:58:46.772   05 Jun 2027 10:59:10.484            23.712              Murmansk2           741.000
       466   05 Jun 2027 10:59:17.915   05 Jun 2027 11:00:18.330            60.415              Murmansk2          1887.969
       467   05 Jun 2027 11:00:25.005   05 Jun 2027 11:01:07.631            42.626              Murmansk1          1332.063
       468   05 Jun 2027 11:01:26.054   05 Jun 2027 11:02:00.673            34.619              Murmansk1          1081.844
       469   05 Jun 2027 11:02:03.806   05 Jun 2027 11:02:17.890            14.084                 Moscow           440.125
       470   05 Jun 2027 11:02:23.596   05 Jun 2027 11:02:52.016            28.420              Murmansk1           888.125
       471   05 Jun 2027 12:06:58.593   05 Jun 2027 12:13:44.898           406.305               CapeTown         12697.031
       472   05 Jun 2027 12:46:54.702   05 Jun 2027 12:49:36.442           161.740                Anadyr1          5054.375
       473   05 Jun 2027 12:50:00.948   05 Jun 2027 12:56:24.805           383.857                Anadyr2         11995.531
       474   05 Jun 2027 14:22:27.047   05 Jun 2027 14:23:33.270            66.223                Anadyr1          2069.469
       475   05 Jun 2027 14:25:52.286   05 Jun 2027 14:32:26.691           394.405               Magadan1         12325.156
       476   05 Jun 2027 14:33:25.777   05 Jun 2027 14:33:39.290            13.513               Magadan2           422.281
       477   05 Jun 2027 16:00:43.190   05 Jun 2027 16:02:04.072            80.882               Magadan1          2527.563
       478   05 Jun 2027 16:04:38.677   05 Jun 2027 16:05:24.984            46.307               Magadan2          1447.094
       479   05 Jun 2027 16:56:23.229   05 Jun 2027 16:57:49.848            86.619            RioGallegos          2706.844
       480   05 Jun 2027 17:34:34.313   05 Jun 2027 17:35:06.081            31.768                Anadyr2           992.750
       481   05 Jun 2027 17:36:28.088   05 Jun 2027 17:37:16.620            48.532                Norilsk          1516.625
       482   05 Jun 2027 17:38:26.022   05 Jun 2027 17:38:38.526            12.504               Magadan1           390.750
