uniorb/output/strategy_2/Drop/Drop_KinoSat_110702.txt

KinoSat_110702
-------------------------
    Access    *     Start Time (UTCG)     *     Stop Time (UTCG)  *   Duration (s)        *       Station  *  Data (Mbytes)
         1   01 Jun 2027 04:09:53.453   01 Jun 2027 04:10:23.040            29.587                Anadyr2           924.594
         2   01 Jun 2027 04:10:33.298   01 Jun 2027 04:10:42.595             9.297               Magadan2           290.531
         3   01 Jun 2027 04:10:42.595   01 Jun 2027 04:11:37.005            54.410               Magadan1          1700.313
         4   01 Jun 2027 04:11:49.704   01 Jun 2027 04:12:03.810            14.106               Magadan2           440.812
         5   01 Jun 2027 04:12:09.803   01 Jun 2027 04:12:19.489             9.686               Magadan2           302.688
         6   01 Jun 2027 04:12:31.983   01 Jun 2027 04:13:21.893            49.910                Anadyr2          1559.688
         7   01 Jun 2027 04:13:21.893   01 Jun 2027 04:14:57.084            95.191                Anadyr1          2974.719
         8   01 Jun 2027 04:51:55.696   01 Jun 2027 04:54:49.526           173.830            RioGallegos          5432.188
         9   01 Jun 2027 05:41:28.211   01 Jun 2027 05:42:36.234            68.023                Irkutsk          2125.719
        10   01 Jun 2027 05:46:06.713   01 Jun 2027 05:47:14.612            67.899                Irkutsk          2121.844
        11   01 Jun 2027 05:47:29.728   01 Jun 2027 05:48:21.745            52.017                Novosib          1625.531
        12   01 Jun 2027 05:48:34.774   01 Jun 2027 05:49:08.193            33.419                Irkutsk          1044.344
        13   01 Jun 2027 05:49:15.995   01 Jun 2027 05:49:59.678            43.683               Magadan2          1365.094
        14   01 Jun 2027 05:53:58.534   01 Jun 2027 05:54:39.370            40.836              Murmansk2          1276.125
        15   01 Jun 2027 05:54:44.540   01 Jun 2027 05:55:22.776            38.236                Norilsk          1194.875
        16   01 Jun 2027 06:27:49.948   01 Jun 2027 06:29:34.625           104.677            RioGallegos          3271.156
        17   01 Jun 2027 07:01:20.819   01 Jun 2027 07:04:36.430           195.611                Sumatra          6112.844
        18   01 Jun 2027 07:21:12.146   01 Jun 2027 07:21:44.618            32.472                Irkutsk          1014.750
        19   01 Jun 2027 07:22:49.137   01 Jun 2027 07:23:41.202            52.065                Novosib          1627.031
        20   01 Jun 2027 07:24:59.074   01 Jun 2027 07:26:35.565            96.491                Irkutsk          3015.344
        21   01 Jun 2027 07:27:15.790   01 Jun 2027 07:28:02.235            46.445                Novosib          1451.406
        22   01 Jun 2027 08:02:22.104   01 Jun 2027 08:02:33.806            11.702            RioGallegos           365.687
        23   01 Jun 2027 08:04:59.538   01 Jun 2027 08:05:48.570            49.032            RioGallegos          1532.250
        24   01 Jun 2027 08:36:36.534   01 Jun 2027 08:37:35.291            58.757                Sumatra          1836.156
        25   01 Jun 2027 08:40:03.595   01 Jun 2027 08:40:28.881            25.286                Sumatra           790.187
        26   01 Jun 2027 08:44:47.718   01 Jun 2027 08:47:22.030           154.312                  Delhi          4822.250
        27   01 Jun 2027 09:00:18.706   01 Jun 2027 09:00:56.522            37.816                Novosib          1181.750
        28   01 Jun 2027 09:01:02.590   01 Jun 2027 09:01:36.084            33.494                Irkutsk          1046.688
        29   01 Jun 2027 09:01:46.496   01 Jun 2027 09:04:02.265           135.769                Novosib          4242.781
        30   01 Jun 2027 10:22:41.479   01 Jun 2027 10:24:15.748            94.269                  Delhi          2945.906
        31   01 Jun 2027 10:36:15.230   01 Jun 2027 10:38:56.184           160.954              Murmansk1          5029.813
        32   01 Jun 2027 10:39:13.959   01 Jun 2027 10:39:51.821            37.862              Murmansk1          1183.187
        33   01 Jun 2027 10:40:33.835   01 Jun 2027 10:41:01.188            27.353              Murmansk1           854.781
        34   01 Jun 2027 10:41:16.092   01 Jun 2027 10:41:38.915            22.823              Murmansk2           713.219
        35   01 Jun 2027 10:42:55.643   01 Jun 2027 10:43:01.793             6.150                Norilsk           192.187
        36   01 Jun 2027 10:44:17.025   01 Jun 2027 10:44:25.119             8.094              Murmansk2           252.937
        37   01 Jun 2027 12:07:46.596   01 Jun 2027 12:07:58.513            11.917                 Moscow           372.406
        38   01 Jun 2027 12:08:26.483   01 Jun 2027 12:09:52.273            85.790                 Moscow          2680.937
        39   01 Jun 2027 12:11:31.100   01 Jun 2027 12:12:49.512            78.412              Murmansk1          2450.375
        40   01 Jun 2027 12:12:49.512   01 Jun 2027 12:15:08.237           138.725              Murmansk2          4335.156
        41   01 Jun 2027 12:15:09.813   01 Jun 2027 12:16:52.088           102.275                Norilsk          3196.094
        42   01 Jun 2027 12:17:50.414   01 Jun 2027 12:18:19.015            28.601              Murmansk1           893.781
        43   01 Jun 2027 12:19:37.682   01 Jun 2027 12:19:54.947            17.265              Murmansk1           539.531
        44   01 Jun 2027 12:24:30.116   01 Jun 2027 12:27:49.794           199.678                Anadyr1          6239.937
        45   01 Jun 2027 12:28:24.679   01 Jun 2027 12:29:07.372            42.693                Anadyr2          1334.156
        46   01 Jun 2027 13:53:33.316   01 Jun 2027 13:54:23.287            49.971              Murmansk2          1561.594
        47   01 Jun 2027 13:58:58.977   01 Jun 2027 13:59:48.434            49.457                Anadyr2          1545.531
        48   01 Jun 2027 14:00:18.472   01 Jun 2027 14:00:48.549            30.077                Anadyr2           939.906
        49   01 Jun 2027 14:02:15.400   01 Jun 2027 14:04:43.055           147.655                Anadyr1          4614.219
        50   01 Jun 2027 14:05:09.346   01 Jun 2027 14:05:37.081            27.735                Anadyr1           866.719
        51   01 Jun 2027 14:05:47.452   01 Jun 2027 14:06:51.889            64.437                Anadyr1          2013.656
        52   01 Jun 2027 15:37:28.664   01 Jun 2027 15:37:59.412            30.748                Anadyr1           960.875
        53   01 Jun 2027 15:38:00.632   01 Jun 2027 15:40:18.326           137.694               Magadan2          4302.937
        54   01 Jun 2027 15:41:29.828   01 Jun 2027 15:43:09.018            99.190               Magadan1          3099.687
        55   01 Jun 2027 15:45:18.824   01 Jun 2027 15:46:54.088            95.264               Magadan1          2977.000
        56   01 Jun 2027 17:16:05.224   01 Jun 2027 17:16:32.781            27.557               Magadan2           861.156
        57   01 Jun 2027 17:16:32.781   01 Jun 2027 17:16:37.420             4.639               Magadan1           144.969
        58   01 Jun 2027 17:16:40.630   01 Jun 2027 17:16:40.998             0.368               Magadan2            11.500
        59   01 Jun 2027 17:17:01.853   01 Jun 2027 17:17:10.462             8.609                Anadyr2           269.031
        60   01 Jun 2027 17:17:14.782   01 Jun 2027 17:18:24.846            70.064               Magadan2          2189.500
        61   01 Jun 2027 17:21:20.155   01 Jun 2027 17:21:41.580            21.425               Magadan1           669.531
        62   01 Jun 2027 17:22:24.731   01 Jun 2027 17:22:32.755             8.024               Magadan1           250.750
        63   01 Jun 2027 17:24:00.534   01 Jun 2027 17:24:28.083            27.549               Magadan2           860.906
        64   01 Jun 2027 17:24:35.132   01 Jun 2027 17:25:32.284            57.152               Magadan2          1786.000
        65   01 Jun 2027 18:05:41.786   01 Jun 2027 18:06:19.239            37.453            RioGallegos          1170.406
        66   01 Jun 2027 18:06:56.469   01 Jun 2027 18:08:05.780            69.311            RioGallegos          2165.969
        67   01 Jun 2027 18:10:16.630   01 Jun 2027 18:12:19.357           122.727            RioGallegos          3835.219
        68   01 Jun 2027 18:50:17.209   01 Jun 2027 18:51:47.414            90.205                Norilsk          2818.906
        69   01 Jun 2027 18:53:44.067   01 Jun 2027 18:54:38.591            54.524                Irkutsk          1703.875
        70   01 Jun 2027 18:56:00.942   01 Jun 2027 18:56:50.265            49.323                Irkutsk          1541.344
        71   01 Jun 2027 19:00:26.355   01 Jun 2027 19:01:36.742            70.387                Irkutsk          2199.594
        72   01 Jun 2027 19:03:22.284   01 Jun 2027 19:03:44.360            22.076                Irkutsk           689.875
        73   01 Jun 2027 19:10:25.436   01 Jun 2027 19:11:02.306            36.870                Sumatra          1152.187
        74   01 Jun 2027 19:11:43.643   01 Jun 2027 19:12:19.173            35.530                Sumatra          1110.313
        75   01 Jun 2027 19:13:36.318   01 Jun 2027 19:15:06.173            89.855                Sumatra          2807.969
        76   01 Jun 2027 19:17:47.985   01 Jun 2027 19:18:24.846            36.861                Sumatra          1151.906
        77   01 Jun 2027 20:34:25.010   01 Jun 2027 20:35:09.771            44.761                Novosib          1398.781
        78   01 Jun 2027 20:35:26.834   01 Jun 2027 20:36:30.867            64.033                Novosib          2001.031
        79   01 Jun 2027 20:38:03.084   01 Jun 2027 20:39:25.364            82.280                  Delhi          2571.250
        80   01 Jun 2027 20:42:08.471   01 Jun 2027 20:42:38.310            29.839                  Delhi           932.469
        81   01 Jun 2027 20:44:19.337   01 Jun 2027 20:44:25.443             6.106                  Delhi           190.812
        82   01 Jun 2027 20:45:04.774   01 Jun 2027 20:46:17.048            72.274                  Delhi          2258.563
        83   01 Jun 2027 22:03:00.827   01 Jun 2027 22:08:48.864           348.037              Murmansk2         10876.156
        84   01 Jun 2027 23:34:05.640   01 Jun 2027 23:34:15.010             9.370               Magadan1           292.812
        85   01 Jun 2027 23:34:38.886   01 Jun 2027 23:34:53.911            15.025               Magadan1           469.531
        86   01 Jun 2027 23:35:09.884   01 Jun 2027 23:36:00.000            50.115               Magadan2          1566.094
        87   01 Jun 2027 23:38:16.796   01 Jun 2027 23:38:35.862            19.066                Norilsk           595.812
        88   01 Jun 2027 23:39:18.223   01 Jun 2027 23:40:39.477            81.254              Murmansk2          2539.188
        89   01 Jun 2027 23:40:42.719   01 Jun 2027 23:41:48.792            66.073              Murmansk2          2064.781
        90   01 Jun 2027 23:42:02.105   01 Jun 2027 23:42:10.472             8.367              Murmansk2           261.469
        91   01 Jun 2027 23:42:16.230   01 Jun 2027 23:42:33.213            16.983                 Moscow           530.719
        92   01 Jun 2027 23:42:52.841   01 Jun 2027 23:43:52.697            59.856              Murmansk1          1870.500
        93   01 Jun 2027 23:45:28.438   01 Jun 2027 23:46:10.724            42.286                 Moscow          1321.438
        94   01 Jun 2027 23:48:36.830   01 Jun 2027 23:49:35.457            58.627                 Moscow          1832.094
        95   01 Jun 2027 23:50:14.615   01 Jun 2027 23:50:50.564            35.949                 Moscow          1123.406
        96   01 Jun 2027 23:52:34.481   01 Jun 2027 23:53:47.214            72.733                 Moscow          2272.906
        97   02 Jun 2027 00:09:50.664   02 Jun 2027 00:10:15.377            24.713               CapeTown           772.281
        98   02 Jun 2027 00:12:14.482   02 Jun 2027 00:13:53.172            98.690               CapeTown          3084.063
        99   02 Jun 2027 01:13:30.056   02 Jun 2027 01:13:39.606             9.550               Magadan2           298.437
       100   02 Jun 2027 01:14:04.052   02 Jun 2027 01:14:43.375            39.323               Magadan1          1228.844
       101   02 Jun 2027 01:17:39.869   02 Jun 2027 01:17:47.874             8.005              Murmansk1           250.156
       102   02 Jun 2027 01:17:53.822   02 Jun 2027 01:19:01.323            67.501                 Moscow          2109.406
       103   02 Jun 2027 01:22:40.091   02 Jun 2027 01:22:58.242            18.151              Murmansk1           567.219
       104   02 Jun 2027 01:23:09.202   02 Jun 2027 01:24:14.567            65.365                 Moscow          2042.656
       105   02 Jun 2027 01:46:34.842   02 Jun 2027 01:46:54.059            19.217               CapeTown           600.531
       106   02 Jun 2027 01:47:21.005   02 Jun 2027 01:48:16.846            55.841               CapeTown          1745.031
       107   02 Jun 2027 02:38:35.774   02 Jun 2027 02:39:36.984            61.210                Anadyr2          1912.812
       108   02 Jun 2027 02:39:57.986   02 Jun 2027 02:41:19.545            81.559               Magadan1          2548.719
       109   02 Jun 2027 02:41:52.152   02 Jun 2027 02:42:28.900            36.748               Magadan2          1148.375
       110   02 Jun 2027 02:45:20.819   02 Jun 2027 02:45:27.605             6.786               Magadan1           212.062
       111   02 Jun 2027 02:46:27.445   02 Jun 2027 02:46:41.188            13.743               Magadan1           429.469
       112   02 Jun 2027 02:46:58.416   02 Jun 2027 02:47:11.072            12.656                Norilsk           395.500
       113   02 Jun 2027 02:47:48.182   02 Jun 2027 02:48:00.017            11.835                Norilsk           369.844
       114   02 Jun 2027 02:48:25.327   02 Jun 2027 02:48:43.048            17.721                Norilsk           553.781
       115   02 Jun 2027 02:49:38.109   02 Jun 2027 02:49:42.672             4.563                Norilsk           142.594
       116   02 Jun 2027 02:50:20.210   02 Jun 2027 02:50:21.959             1.749                Norilsk            54.656
       117   02 Jun 2027 02:50:27.062   02 Jun 2027 02:51:05.386            38.324              Murmansk2          1197.625
       118   02 Jun 2027 02:52:22.705   02 Jun 2027 02:52:36.521            13.816              Murmansk1           431.750
       119   02 Jun 2027 02:53:23.316   02 Jun 2027 02:53:29.034             5.718              Murmansk2           178.687
       120   02 Jun 2027 02:53:32.954   02 Jun 2027 02:53:35.064             2.110              Murmansk1            65.938
       121   02 Jun 2027 02:53:41.164   02 Jun 2027 02:53:48.662             7.498              Murmansk1           234.313
       122   02 Jun 2027 02:55:03.467   02 Jun 2027 02:55:04.828             1.361                 Moscow            42.531
       123   02 Jun 2027 02:55:10.108   02 Jun 2027 02:55:25.053            14.945              Murmansk1           467.031
       124   02 Jun 2027 02:57:07.148   02 Jun 2027 02:57:42.063            34.915                 Moscow          1091.094
       125   02 Jun 2027 02:59:09.138   02 Jun 2027 02:59:20.359            11.221              Murmansk1           350.656
       126   02 Jun 2027 04:22:15.195   02 Jun 2027 04:22:50.918            35.723                Irkutsk          1116.344
       127   02 Jun 2027 04:23:43.475   02 Jun 2027 04:23:55.130            11.655               Magadan1           364.219
       128   02 Jun 2027 04:23:55.130   02 Jun 2027 04:24:12.357            17.227               Magadan2           538.344
       129   02 Jun 2027 04:24:32.864   02 Jun 2027 04:25:09.022            36.158                Anadyr2          1129.937
       130   02 Jun 2027 04:25:38.857   02 Jun 2027 04:25:50.379            11.522                Norilsk           360.062
       131   02 Jun 2027 04:26:53.751   02 Jun 2027 04:27:37.432            43.681              Murmansk2          1365.031
       132   02 Jun 2027 05:03:26.301   02 Jun 2027 05:06:31.039           184.738            RioGallegos          5773.063
       133   02 Jun 2027 05:57:12.782   02 Jun 2027 05:57:19.736             6.954                Irkutsk           217.313
       134   02 Jun 2027 05:58:01.291   02 Jun 2027 05:58:16.969            15.678                Irkutsk           489.938
       135   02 Jun 2027 05:58:34.128   02 Jun 2027 05:59:08.588            34.460                Irkutsk          1076.875
       136   02 Jun 2027 06:00:04.295   02 Jun 2027 06:02:16.344           132.049               Magadan2          4126.531
       137   02 Jun 2027 06:02:22.858   02 Jun 2027 06:03:28.737            65.879                Norilsk          2058.719
       138   02 Jun 2027 06:03:32.467   02 Jun 2027 06:03:48.367            15.900              Murmansk2           496.875
       139   02 Jun 2027 06:03:48.367   02 Jun 2027 06:05:06.827            78.460              Murmansk1          2451.875
       140   02 Jun 2027 06:06:19.890   02 Jun 2027 06:06:21.599             1.709                Norilsk            53.406
       141   02 Jun 2027 06:06:37.393   02 Jun 2027 06:07:41.001            63.608              Murmansk2          1987.750
       142   02 Jun 2027 06:08:03.276   02 Jun 2027 06:08:09.873             6.597              Murmansk2           206.156
       143   02 Jun 2027 06:37:18.462   02 Jun 2027 06:41:44.165           265.703            RioGallegos          8303.219
       144   02 Jun 2027 07:12:54.389   02 Jun 2027 07:16:31.063           216.674                Sumatra          6771.063
       145   02 Jun 2027 07:33:27.347   02 Jun 2027 07:34:26.467            59.120                Irkutsk          1847.500
       146   02 Jun 2027 07:35:46.378   02 Jun 2027 07:36:00.588            14.210                Novosib           444.063
       147   02 Jun 2027 07:36:17.595   02 Jun 2027 07:38:15.605           118.010                Irkutsk          3687.813
       148   02 Jun 2027 07:38:26.749   02 Jun 2027 07:39:16.479            49.730                Novosib          1554.062
       149   02 Jun 2027 07:40:59.375   02 Jun 2027 07:41:04.873             5.498                Norilsk           171.813
       150   02 Jun 2027 08:56:35.282   02 Jun 2027 08:58:18.312           103.030                  Delhi          3219.687
       151   02 Jun 2027 09:11:36.658   02 Jun 2027 09:12:45.867            69.209                Irkutsk          2162.781
       152   02 Jun 2027 09:12:52.429   02 Jun 2027 09:13:02.413             9.984                Irkutsk           312.000
       153   02 Jun 2027 09:13:07.544   02 Jun 2027 09:13:22.556            15.012                Novosib           469.125
       154   02 Jun 2027 09:13:32.894   02 Jun 2027 09:15:47.630           134.736              Murmansk2          4210.500
       155   02 Jun 2027 10:34:12.393   02 Jun 2027 10:36:49.852           157.459                  Delhi          4920.594
       156   02 Jun 2027 10:46:11.342   02 Jun 2027 10:46:17.753             6.411              Murmansk2           200.344
       157   02 Jun 2027 10:46:18.144   02 Jun 2027 10:46:52.841            34.697                 Moscow          1084.281
       158   02 Jun 2027 10:46:57.684   02 Jun 2027 10:47:35.771            38.087              Murmansk1          1190.219
       159   02 Jun 2027 10:47:36.317   02 Jun 2027 10:48:08.182            31.865                 Moscow           995.781
       160   02 Jun 2027 10:48:17.802   02 Jun 2027 10:49:16.515            58.713                Novosib          1834.781
       161   02 Jun 2027 10:49:41.962   02 Jun 2027 10:49:53.848            11.886              Murmansk1           371.437
       162   02 Jun 2027 10:50:02.646   02 Jun 2027 10:50:29.521            26.875                Norilsk           839.844
       163   02 Jun 2027 10:50:30.716   02 Jun 2027 10:50:59.951            29.235                 Moscow           913.594
       164   02 Jun 2027 10:53:01.534   02 Jun 2027 10:53:07.942             6.408              Murmansk1           200.250
       165   02 Jun 2027 11:59:28.638   02 Jun 2027 11:59:58.132            29.494               CapeTown           921.687
       166   02 Jun 2027 12:00:52.947   02 Jun 2027 12:00:58.676             5.729               CapeTown           179.031
       167   02 Jun 2027 12:17:03.722   02 Jun 2027 12:18:05.732            62.010                 Moscow          1937.812
       168   02 Jun 2027 12:19:57.426   02 Jun 2027 12:20:31.638            34.212                 Moscow          1069.125
       169   02 Jun 2027 12:20:33.525   02 Jun 2027 12:23:32.784           179.259              Murmansk1          5601.844
       170   02 Jun 2027 12:24:50.943   02 Jun 2027 12:25:30.236            39.293              Murmansk2          1227.906
       171   02 Jun 2027 12:25:52.375   02 Jun 2027 12:26:14.094            21.719              Murmansk2           678.719
       172   02 Jun 2027 12:31:18.022   02 Jun 2027 12:31:34.123            16.101              Murmansk1           503.156
       173   02 Jun 2027 12:36:04.708   02 Jun 2027 12:39:41.969           217.261                Anadyr2          6789.406
       174   02 Jun 2027 12:40:45.462   02 Jun 2027 12:42:11.697            86.235                Anadyr1          2694.844
       175   02 Jun 2027 13:58:45.619   02 Jun 2027 13:59:27.191            41.572              Murmansk1          1299.125
       176   02 Jun 2027 14:00:40.809   02 Jun 2027 14:01:04.599            23.790              Murmansk1           743.437
       177   02 Jun 2027 14:02:29.638   02 Jun 2027 14:02:35.529             5.891              Murmansk2           184.094
       178   02 Jun 2027 14:02:49.825   02 Jun 2027 14:03:21.682            31.857              Murmansk2           995.531
       179   02 Jun 2027 14:10:57.604   02 Jun 2027 14:14:16.329           198.725                Anadyr2          6210.156
       180   02 Jun 2027 14:14:29.000   02 Jun 2027 14:15:10.382            41.382                Anadyr2          1293.187
       181   02 Jun 2027 15:40:08.324   02 Jun 2027 15:42:17.599           129.275              Murmansk1          4039.844
       182   02 Jun 2027 15:46:46.523   02 Jun 2027 15:48:08.122            81.599                Anadyr1          2549.969
       183   02 Jun 2027 15:49:24.167   02 Jun 2027 15:51:48.338           144.171               Magadan2          4505.344
       184   02 Jun 2027 15:52:33.704   02 Jun 2027 15:54:45.413           131.709               Magadan1          4115.906
       185   02 Jun 2027 15:57:20.913   02 Jun 2027 15:58:33.733            72.820               Magadan1          2275.625
       186   02 Jun 2027 17:22:41.379   02 Jun 2027 17:23:03.964            22.585                Anadyr2           705.781
       187   02 Jun 2027 17:24:58.419   02 Jun 2027 17:26:58.725           120.306               Magadan1          3759.562
       188   02 Jun 2027 17:27:52.187   02 Jun 2027 17:28:17.109            24.922               Magadan2           778.813
       189   02 Jun 2027 17:37:45.273   02 Jun 2027 17:37:53.638             8.365               Magadan1           261.406
       190   02 Jun 2027 18:17:23.752   02 Jun 2027 18:20:13.903           170.151            RioGallegos          5317.219
       191   02 Jun 2027 18:20:36.254   02 Jun 2027 18:23:39.086           182.832            RioGallegos          5713.500
       192   02 Jun 2027 19:01:36.711   02 Jun 2027 19:06:03.313           266.602                Norilsk          8331.312
       193   02 Jun 2027 19:06:15.734   02 Jun 2027 19:07:51.910            96.176                Irkutsk          3005.500
       194   02 Jun 2027 19:08:03.915   02 Jun 2027 19:09:52.898           108.983                Novosib          3405.719
       195   02 Jun 2027 19:18:44.215   02 Jun 2027 19:20:10.885            86.670                Sumatra          2708.437
       196   02 Jun 2027 19:22:30.484   02 Jun 2027 19:23:05.032            34.548                Sumatra          1079.625
       197   02 Jun 2027 19:23:47.451   02 Jun 2027 19:24:37.811            50.360                Sumatra          1573.750
       198   02 Jun 2027 20:40:34.581   02 Jun 2027 20:40:41.172             6.591                Novosib           205.969
       199   02 Jun 2027 20:47:57.545   02 Jun 2027 20:48:44.742            47.197                Novosib          1474.906
       200   02 Jun 2027 20:49:22.999   02 Jun 2027 20:52:06.215           163.216                  Delhi          5100.500
       201   02 Jun 2027 20:52:43.485   02 Jun 2027 20:53:52.377            68.892                  Delhi          2152.875
       202   02 Jun 2027 20:54:55.326   02 Jun 2027 20:55:19.798            24.472                  Delhi           764.750
       203   02 Jun 2027 22:14:55.843   02 Jun 2027 22:19:02.746           246.903              Murmansk1          7715.719
       204   02 Jun 2027 22:19:03.552   02 Jun 2027 22:20:36.905            93.353              Murmansk2          2917.281
       205   02 Jun 2027 22:21:21.517   02 Jun 2027 22:25:12.041           230.524                 Moscow          7203.875
       206   02 Jun 2027 23:50:36.327   02 Jun 2027 23:50:51.501            15.174              Murmansk2           474.187
       207   02 Jun 2027 23:51:51.987   02 Jun 2027 23:52:36.478            44.491              Murmansk2          1390.344
       208   02 Jun 2027 23:54:02.113   02 Jun 2027 23:55:09.913            67.800                 Moscow          2118.750
       209   02 Jun 2027 23:56:21.572   02 Jun 2027 23:57:31.248            69.676                 Moscow          2177.375
       210   03 Jun 2027 00:02:19.167   03 Jun 2027 00:02:28.971             9.804                 Moscow           306.375
       211   03 Jun 2027 00:18:37.616   03 Jun 2027 00:19:12.498            34.882               CapeTown          1090.062
       212   03 Jun 2027 00:20:01.632   03 Jun 2027 00:22:06.618           124.986               CapeTown          3905.812
       213   03 Jun 2027 01:18:08.570   03 Jun 2027 01:18:15.728             7.158               Magadan2           223.688
       214   03 Jun 2027 01:18:32.781   03 Jun 2027 01:18:41.197             8.416               Magadan2           263.000
       215   03 Jun 2027 01:19:55.251   03 Jun 2027 01:20:21.766            26.515               Magadan1           828.594
       216   03 Jun 2027 01:22:38.189   03 Jun 2027 01:23:19.545            41.356               Magadan2          1292.375
       217   03 Jun 2027 01:26:34.116   03 Jun 2027 01:28:53.320           139.204              Murmansk2          4350.125
       218   03 Jun 2027 01:33:57.360   03 Jun 2027 01:34:11.073            13.713                 Moscow           428.531
       219   03 Jun 2027 01:38:47.278   03 Jun 2027 01:39:07.016            19.738                 Moscow           616.812
       220   03 Jun 2027 01:54:08.424   03 Jun 2027 01:55:05.337            56.913               CapeTown          1778.531
       221   03 Jun 2027 01:59:53.292   03 Jun 2027 02:00:04.017            10.725               CapeTown           335.156
       222   03 Jun 2027 02:03:33.390   03 Jun 2027 02:03:59.062            25.672               CapeTown           802.250
       223   03 Jun 2027 02:50:37.560   03 Jun 2027 02:53:31.342           173.782               Magadan2          5430.688
       224   03 Jun 2027 02:54:25.104   03 Jun 2027 02:54:28.518             3.414               Magadan2           106.688
       225   03 Jun 2027 02:55:42.847   03 Jun 2027 02:56:07.968            25.121               Magadan1           785.031
       226   03 Jun 2027 02:59:23.003   03 Jun 2027 02:59:49.792            26.789                Norilsk           837.156
       227   03 Jun 2027 04:35:52.639   03 Jun 2027 04:36:41.286            48.647               Magadan1          1520.219
       228   03 Jun 2027 04:36:54.226   03 Jun 2027 04:37:10.284            16.058                Irkutsk           501.812
       229   03 Jun 2027 05:15:00.599   03 Jun 2027 05:18:07.770           187.171            RioGallegos          5849.094
       230   03 Jun 2027 06:08:07.186   03 Jun 2027 06:08:51.555            44.369                Novosib          1386.531
       231   03 Jun 2027 06:10:14.798   03 Jun 2027 06:10:43.813            29.015               Magadan2           906.719
       232   03 Jun 2027 06:10:53.739   03 Jun 2027 06:11:35.258            41.519                Irkutsk          1297.469
       233   03 Jun 2027 06:11:37.903   03 Jun 2027 06:12:09.787            31.884               Magadan2           996.375
       234   03 Jun 2027 06:12:09.787   03 Jun 2027 06:12:15.931             6.144               Magadan1           192.000
       235   03 Jun 2027 06:12:53.778   03 Jun 2027 06:12:55.570             1.792                Irkutsk            56.000
       236   03 Jun 2027 06:12:56.696   03 Jun 2027 06:13:24.766            28.070              Murmansk1           877.187
       237   03 Jun 2027 06:13:24.766   03 Jun 2027 06:13:57.416            32.650              Murmansk2          1020.313
       238   03 Jun 2027 06:13:57.416   03 Jun 2027 06:14:41.244            43.828              Murmansk1          1369.625
       239   03 Jun 2027 06:49:18.754   03 Jun 2027 06:50:30.419            71.665            RioGallegos          2239.531
       240   03 Jun 2027 07:24:35.816   03 Jun 2027 07:28:31.297           235.481                Sumatra          7358.781
       241   03 Jun 2027 07:37:04.395   03 Jun 2027 07:38:25.916            81.521                  Delhi          2547.531
       242   03 Jun 2027 07:41:30.463   03 Jun 2027 07:42:43.463            73.000                  Delhi          2281.250
       243   03 Jun 2027 07:44:47.936   03 Jun 2027 07:45:32.680            44.744                Novosib          1398.250
       244   03 Jun 2027 07:45:36.366   03 Jun 2027 07:46:04.976            28.610                Novosib           894.062
       245   03 Jun 2027 07:46:27.889   03 Jun 2027 07:47:37.233            69.344                Irkutsk          2167.000
       246   03 Jun 2027 07:47:45.233   03 Jun 2027 07:48:03.968            18.735                Norilsk           585.469
       247   03 Jun 2027 07:48:07.180   03 Jun 2027 07:48:57.931            50.751                Novosib          1585.969
       248   03 Jun 2027 07:49:09.259   03 Jun 2027 07:49:28.455            19.196                Norilsk           599.875
       249   03 Jun 2027 07:49:42.597   03 Jun 2027 07:49:57.424            14.827              Murmansk1           463.344
       250   03 Jun 2027 07:50:14.279   03 Jun 2027 07:50:18.982             4.703                Novosib           146.969
       251   03 Jun 2027 07:51:11.616   03 Jun 2027 07:51:30.417            18.801              Murmansk2           587.531
       252   03 Jun 2027 07:51:47.699   03 Jun 2027 07:52:07.425            19.726              Murmansk1           616.438
       253   03 Jun 2027 08:27:25.734   03 Jun 2027 08:28:04.753            39.019            RioGallegos          1219.344
       254   03 Jun 2027 08:29:20.381   03 Jun 2027 08:29:46.372            25.991            RioGallegos           812.219
       255   03 Jun 2027 09:01:39.124   03 Jun 2027 09:01:57.104            17.980                Sumatra           561.875
       256   03 Jun 2027 09:04:38.013   03 Jun 2027 09:05:29.905            51.892                Sumatra          1621.625
       257   03 Jun 2027 09:08:28.277   03 Jun 2027 09:09:54.292            86.015                  Delhi          2687.969
       258   03 Jun 2027 09:16:47.490   03 Jun 2027 09:18:01.006            73.516                  Delhi          2297.375
       259   03 Jun 2027 09:22:41.182   03 Jun 2027 09:23:14.144            32.962                Norilsk          1030.062
       260   03 Jun 2027 09:23:17.111   03 Jun 2027 09:23:26.734             9.623                Norilsk           300.719
       261   03 Jun 2027 09:23:32.851   03 Jun 2027 09:23:41.268             8.417              Murmansk1           263.031
       262   03 Jun 2027 09:23:47.062   03 Jun 2027 09:24:11.596            24.534                Norilsk           766.687
       263   03 Jun 2027 09:24:15.632   03 Jun 2027 09:25:04.932            49.300              Murmansk2          1540.625
       264   03 Jun 2027 09:25:12.598   03 Jun 2027 09:25:21.989             9.391                Novosib           293.469
       265   03 Jun 2027 09:25:25.716   03 Jun 2027 09:25:41.398            15.682                Novosib           490.062
       266   03 Jun 2027 09:25:52.732   03 Jun 2027 09:26:18.747            26.015                Norilsk           812.969
       267   03 Jun 2027 09:26:24.852   03 Jun 2027 09:27:32.449            67.597                 Moscow          2112.406
       268   03 Jun 2027 10:47:08.953   03 Jun 2027 10:48:45.556            96.603                  Delhi          3018.844
       269   03 Jun 2027 10:50:26.514   03 Jun 2027 10:50:53.368            26.854                  Delhi           839.187
       270   03 Jun 2027 10:57:54.098   03 Jun 2027 10:58:55.454            61.356                 Moscow          1917.375
       271   03 Jun 2027 10:59:04.706   03 Jun 2027 10:59:10.791             6.085                Novosib           190.156
       272   03 Jun 2027 10:59:17.015   03 Jun 2027 10:59:26.278             9.263                Novosib           289.469
       273   03 Jun 2027 10:59:34.692   03 Jun 2027 10:59:36.841             2.149              Murmansk1            67.156
       274   03 Jun 2027 10:59:36.841   03 Jun 2027 11:00:24.914            48.073              Murmansk2          1502.281
       275   03 Jun 2027 11:00:32.588   03 Jun 2027 11:01:35.908            63.320              Murmansk1          1978.750
       276   03 Jun 2027 11:01:45.427   03 Jun 2027 11:02:07.044            21.617                 Moscow           675.531
       277   03 Jun 2027 11:02:33.706   03 Jun 2027 11:03:35.397            61.691                 Moscow          1927.844
       278   03 Jun 2027 12:09:19.577   03 Jun 2027 12:11:33.288           133.711               CapeTown          4178.469
       279   03 Jun 2027 12:14:55.246   03 Jun 2027 12:15:26.112            30.866               CapeTown           964.563
       280   03 Jun 2027 12:29:18.148   03 Jun 2027 12:30:04.697            46.549                 Moscow          1454.656
       281   03 Jun 2027 12:32:44.780   03 Jun 2027 12:34:22.865            98.085              Murmansk1          3065.156
       282   03 Jun 2027 12:34:22.865   03 Jun 2027 12:34:36.457            13.592              Murmansk2           424.750
       283   03 Jun 2027 12:34:40.690   03 Jun 2027 12:34:45.777             5.087              Murmansk2           158.969
       284   03 Jun 2027 12:35:34.437   03 Jun 2027 12:36:14.379            39.942              Murmansk2          1248.188
       285   03 Jun 2027 12:47:48.495   03 Jun 2027 12:55:04.316           435.821                Anadyr1         13619.406
       286   03 Jun 2027 14:22:56.847   03 Jun 2027 14:26:17.041           200.194                Anadyr1          6256.063
       287   03 Jun 2027 14:28:05.872   03 Jun 2027 14:30:49.534           163.662               Magadan2          5114.438
       288   03 Jun 2027 15:58:47.837   03 Jun 2027 15:58:56.997             9.160                Anadyr2           286.250
       289   03 Jun 2027 15:58:56.997   03 Jun 2027 16:00:48.409           111.412                Anadyr1          3481.625
       290   03 Jun 2027 16:01:19.739   03 Jun 2027 16:02:46.105            86.366               Magadan2          2698.938
       291   03 Jun 2027 16:02:46.105   03 Jun 2027 16:04:36.342           110.237               Magadan1          3444.906
       292   03 Jun 2027 16:04:43.276   03 Jun 2027 16:05:26.353            43.077               Magadan1          1346.156
       293   03 Jun 2027 16:08:00.187   03 Jun 2027 16:08:11.892            11.705               Magadan2           365.781
       294   03 Jun 2027 16:09:23.178   03 Jun 2027 16:09:33.194            10.016               Magadan2           313.000
       295   03 Jun 2027 16:09:46.477   03 Jun 2027 16:09:52.628             6.151               Magadan2           192.219
       296   03 Jun 2027 17:34:41.989   03 Jun 2027 17:35:24.836            42.847                Anadyr1          1338.969
       297   03 Jun 2027 17:35:51.599   03 Jun 2027 17:36:01.378             9.779                Anadyr1           305.594
       298   03 Jun 2027 17:36:59.219   03 Jun 2027 17:37:45.157            45.938                Anadyr2          1435.563
       299   03 Jun 2027 17:38:05.101   03 Jun 2027 17:40:04.971           119.870                Norilsk          3745.937
       300   03 Jun 2027 17:41:10.220   03 Jun 2027 17:41:37.192            26.972                Norilsk           842.875
       301   03 Jun 2027 18:29:10.309   03 Jun 2027 18:32:08.449           178.140            RioGallegos          5566.875
       302   03 Jun 2027 18:32:21.811   03 Jun 2027 18:33:00.137            38.326            RioGallegos          1197.688
       303   03 Jun 2027 18:39:26.212   03 Jun 2027 18:39:51.767            25.555            RioGallegos           798.594
       304   03 Jun 2027 19:11:36.430   03 Jun 2027 19:11:53.682            17.252                Anadyr2           539.125
       305   03 Jun 2027 19:12:34.037   03 Jun 2027 19:14:07.686            93.649                Norilsk          2926.531
       306   03 Jun 2027 19:16:44.378   03 Jun 2027 19:20:06.575           202.197                Irkutsk          6318.656
       307   03 Jun 2027 19:20:08.887   03 Jun 2027 19:23:59.036           230.149                Novosib          7192.156
       308   03 Jun 2027 19:31:54.200   03 Jun 2027 19:33:11.542            77.342                Sumatra          2416.938
       309   03 Jun 2027 19:34:10.454   03 Jun 2027 19:34:47.996            37.542                Sumatra          1173.187
       310   03 Jun 2027 20:52:30.632   03 Jun 2027 20:53:20.596            49.964                Novosib          1561.375
       311   03 Jun 2027 20:56:40.232   03 Jun 2027 20:57:39.658            59.426                Novosib          1857.063
       312   03 Jun 2027 20:58:57.121   03 Jun 2027 20:59:21.064            23.943                Novosib           748.219
       313   03 Jun 2027 20:59:49.066   03 Jun 2027 21:00:49.397            60.331                Novosib          1885.344
       314   03 Jun 2027 21:01:54.788   03 Jun 2027 21:05:30.181           215.393                  Delhi          6731.031
       315   03 Jun 2027 22:26:52.527   03 Jun 2027 22:31:02.288           249.761              Murmansk2          7805.031
       316   03 Jun 2027 22:31:42.861   03 Jun 2027 22:36:27.133           284.272                 Moscow          8883.500
       317   03 Jun 2027 22:38:12.253   03 Jun 2027 22:38:26.646            14.393                 Moscow           449.781
       318   04 Jun 2027 00:03:37.872   04 Jun 2027 00:03:59.991            22.119              Murmansk1           691.219
       319   04 Jun 2027 00:05:59.159   04 Jun 2027 00:07:53.757           114.598                 Moscow          3581.188
       320   04 Jun 2027 00:30:17.667   04 Jun 2027 00:34:02.817           225.150               CapeTown          7035.938
       321   04 Jun 2027 01:29:43.682   04 Jun 2027 01:29:51.615             7.933               Magadan1           247.906
       322   04 Jun 2027 01:30:01.288   04 Jun 2027 01:30:09.128             7.840               Magadan2           245.000
       323   04 Jun 2027 01:32:16.078   04 Jun 2027 01:32:23.556             7.478               Magadan2           233.688
       324   04 Jun 2027 01:33:07.732   04 Jun 2027 01:33:40.325            32.593               Magadan2          1018.531
       325   04 Jun 2027 01:38:35.657   04 Jun 2027 01:39:43.347            67.690              Murmansk1          2115.313
       326   04 Jun 2027 01:41:33.188   04 Jun 2027 01:41:34.723             1.535              Murmansk2            47.969
       327   04 Jun 2027 01:41:50.006   04 Jun 2027 01:43:07.669            77.663                 Moscow          2426.969
       328   04 Jun 2027 01:46:05.528   04 Jun 2027 01:46:15.343             9.815                 Moscow           306.719
       329   04 Jun 2027 01:47:25.540   04 Jun 2027 01:47:38.344            12.804                 Moscow           400.125
       330   04 Jun 2027 01:50:28.128   04 Jun 2027 01:50:53.315            25.187                 Moscow           787.094
       331   04 Jun 2027 02:06:31.773   04 Jun 2027 02:07:00.985            29.212               CapeTown           912.875
       332   04 Jun 2027 02:08:22.163   04 Jun 2027 02:09:48.301            86.138               CapeTown          2691.812
       333   04 Jun 2027 03:03:25.383   04 Jun 2027 03:03:53.080            27.697               Magadan2           865.531
       334   04 Jun 2027 03:05:44.589   04 Jun 2027 03:05:54.874            10.285               Magadan1           321.406
       335   04 Jun 2027 03:07:42.156   04 Jun 2027 03:08:18.827            36.671               Magadan2          1145.969
       336   04 Jun 2027 03:08:18.827   04 Jun 2027 03:08:32.032            13.205               Magadan1           412.656
       337   04 Jun 2027 03:08:32.032   04 Jun 2027 03:08:46.864            14.832               Magadan2           463.500
       338   04 Jun 2027 03:09:17.339   04 Jun 2027 03:10:45.152            87.813                Anadyr2          2744.156
       339   04 Jun 2027 03:10:46.478   04 Jun 2027 03:11:20.242            33.764               Magadan2          1055.125
       340   04 Jun 2027 03:11:28.693   04 Jun 2027 03:11:56.419            27.726               Magadan1           866.438
       341   04 Jun 2027 03:11:56.419   04 Jun 2027 03:12:01.300             4.881               Magadan2           152.531
       342   04 Jun 2027 03:12:10.748   04 Jun 2027 03:12:55.798            45.050                Anadyr1          1407.812
       343   04 Jun 2027 03:13:24.465   04 Jun 2027 03:15:00.640            96.175               Magadan2          3005.469
       344   04 Jun 2027 04:46:05.499   04 Jun 2027 04:46:39.957            34.458                Anadyr1          1076.812
       345   04 Jun 2027 04:46:46.348   04 Jun 2027 04:48:11.375            85.027               Magadan2          2657.094
       346   04 Jun 2027 04:48:20.151   04 Jun 2027 04:48:33.790            13.639                Anadyr1           426.219
       347   04 Jun 2027 04:48:43.966   04 Jun 2027 04:49:43.478            59.512                Novosib          1859.750
       348   04 Jun 2027 04:50:02.844   04 Jun 2027 04:50:09.809             6.965               Magadan2           217.656
       349   04 Jun 2027 05:26:38.380   04 Jun 2027 05:27:48.517            70.137            RioGallegos          2191.781
       350   04 Jun 2027 05:28:23.357   04 Jun 2027 05:28:51.373            28.016            RioGallegos           875.500
       351   04 Jun 2027 05:28:53.593   04 Jun 2027 05:30:03.731            70.138            RioGallegos          2191.813
       352   04 Jun 2027 06:20:30.808   04 Jun 2027 06:21:24.723            53.915               Magadan2          1684.844
       353   04 Jun 2027 06:21:41.679   04 Jun 2027 06:22:01.126            19.447               Magadan2           607.719
       354   04 Jun 2027 06:22:07.953   04 Jun 2027 06:22:09.101             1.148                Norilsk            35.875
       355   04 Jun 2027 06:22:16.236   04 Jun 2027 06:22:25.815             9.579               Magadan1           299.344
       356   04 Jun 2027 06:22:25.815   04 Jun 2027 06:24:08.632           102.817               Magadan2          3213.031
       357   04 Jun 2027 06:24:17.835   04 Jun 2027 06:24:45.106            27.271                Norilsk           852.219
       358   04 Jun 2027 06:24:45.259   04 Jun 2027 06:25:20.927            35.668              Murmansk2          1114.625
       359   04 Jun 2027 06:25:29.567   04 Jun 2027 06:25:57.871            28.304              Murmansk1           884.500
       360   04 Jun 2027 06:26:23.996   04 Jun 2027 06:27:26.468            62.472                Norilsk          1952.250
       361   04 Jun 2027 06:27:34.331   04 Jun 2027 06:28:08.793            34.462                Norilsk          1076.938
       362   04 Jun 2027 07:01:22.392   04 Jun 2027 07:01:53.105            30.713            RioGallegos           959.781
       363   04 Jun 2027 07:05:52.131   04 Jun 2027 07:06:10.455            18.324            RioGallegos           572.625
       364   04 Jun 2027 07:36:23.855   04 Jun 2027 07:39:17.482           173.627                Sumatra          5425.844
       365   04 Jun 2027 07:47:50.538   04 Jun 2027 07:49:55.077           124.539                  Delhi          3891.844
       366   04 Jun 2027 07:53:20.292   04 Jun 2027 07:55:17.366           117.074                  Delhi          3658.563
       367   04 Jun 2027 07:56:58.476   04 Jun 2027 07:57:02.044             3.568                Irkutsk           111.500
       368   04 Jun 2027 07:57:28.248   04 Jun 2027 07:58:25.279            57.031                Irkutsk          1782.219
       369   04 Jun 2027 07:58:44.385   04 Jun 2027 07:59:17.275            32.890                Norilsk          1027.813
       370   04 Jun 2027 07:59:51.227   04 Jun 2027 07:59:56.350             5.123                Irkutsk           160.094
       371   04 Jun 2027 08:00:07.404   04 Jun 2027 08:00:07.734             0.330                Irkutsk            10.313
       372   04 Jun 2027 08:00:16.926   04 Jun 2027 08:00:30.927            14.001                Novosib           437.531
       373   04 Jun 2027 08:00:39.648   04 Jun 2027 08:00:42.889             3.241                Irkutsk           101.281
       374   04 Jun 2027 08:00:58.318   04 Jun 2027 08:01:31.014            32.696              Murmansk2          1021.750
       375   04 Jun 2027 08:01:40.204   04 Jun 2027 08:02:15.989            35.785                Irkutsk          1118.281
       376   04 Jun 2027 08:02:21.182   04 Jun 2027 08:02:37.138            15.956                Norilsk           498.625
       377   04 Jun 2027 08:03:12.399   04 Jun 2027 08:03:12.813             0.414              Murmansk1            12.938
       378   04 Jun 2027 08:03:29.832   04 Jun 2027 08:03:48.793            18.961              Murmansk2           592.531
       379   04 Jun 2027 08:03:48.793   04 Jun 2027 08:04:23.294            34.501              Murmansk1          1078.156
       380   04 Jun 2027 08:40:08.407   04 Jun 2027 08:40:17.562             9.155            RioGallegos           286.094
       381   04 Jun 2027 08:40:24.901   04 Jun 2027 08:41:28.539            63.638            RioGallegos          1988.687
       382   04 Jun 2027 09:14:33.245   04 Jun 2027 09:15:42.772            69.527                Sumatra          2172.719
       383   04 Jun 2027 09:20:26.561   04 Jun 2027 09:20:48.305            21.744                  Delhi           679.500
       384   04 Jun 2027 09:21:41.497   04 Jun 2027 09:22:56.343            74.846                  Delhi          2338.938
       385   04 Jun 2027 09:34:49.440   04 Jun 2027 09:34:58.112             8.672              Murmansk1           271.000
       386   04 Jun 2027 09:35:13.464   04 Jun 2027 09:35:40.610            27.146                Novosib           848.313
       387   04 Jun 2027 09:35:43.374   04 Jun 2027 09:36:06.613            23.239                Norilsk           726.219
       388   04 Jun 2027 09:36:28.090   04 Jun 2027 09:36:58.537            30.447              Murmansk2           951.469
       389   04 Jun 2027 09:37:25.197   04 Jun 2027 09:38:05.124            39.927              Murmansk1          1247.719
       390   04 Jun 2027 09:38:15.279   04 Jun 2027 09:38:19.950             4.671                Norilsk           145.969
       391   04 Jun 2027 09:38:34.509   04 Jun 2027 09:39:10.716            36.207              Murmansk1          1131.469
       392   04 Jun 2027 11:00:37.269   04 Jun 2027 11:03:21.279           164.010                  Delhi          5125.312
       393   04 Jun 2027 11:08:08.083   04 Jun 2027 11:09:08.955            60.872                 Moscow          1902.250
       394   04 Jun 2027 11:09:15.851   04 Jun 2027 11:09:40.805            24.954                 Moscow           779.813
       395   04 Jun 2027 11:09:57.278   04 Jun 2027 11:10:02.946             5.668              Murmansk1           177.125
       396   04 Jun 2027 11:10:02.946   04 Jun 2027 11:10:06.228             3.282              Murmansk2           102.562
       397   04 Jun 2027 11:10:21.205   04 Jun 2027 11:11:07.707            46.502              Murmansk2          1453.188
       398   04 Jun 2027 11:11:15.497   04 Jun 2027 11:11:18.052             2.555                Norilsk            79.844
       399   04 Jun 2027 11:11:28.567   04 Jun 2027 11:12:26.707            58.140                 Moscow          1816.875
       400   04 Jun 2027 11:12:28.506   04 Jun 2027 11:13:10.836            42.330                Novosib          1322.813
       401   04 Jun 2027 11:13:28.940   04 Jun 2027 11:14:04.362            35.422                 Moscow          1106.938
       402   04 Jun 2027 11:14:29.310   04 Jun 2027 11:14:44.254            14.944                 Moscow           467.000
       403   04 Jun 2027 11:14:50.045   04 Jun 2027 11:15:01.842            11.797              Murmansk1           368.656
       404   04 Jun 2027 11:15:01.842   04 Jun 2027 11:15:12.528            10.686              Murmansk2           333.937
       405   04 Jun 2027 11:15:17.796   04 Jun 2027 11:15:20.837             3.041                Norilsk            95.031
       406   04 Jun 2027 11:15:31.763   04 Jun 2027 11:15:49.380            17.617              Murmansk1           550.531
       407   04 Jun 2027 11:15:56.271   04 Jun 2027 11:16:07.125            10.854              Murmansk2           339.187
       408   04 Jun 2027 12:20:24.290   04 Jun 2027 12:23:15.165           170.875               CapeTown          5339.844
       409   04 Jun 2027 12:27:06.756   04 Jun 2027 12:28:37.323            90.567               CapeTown          2830.219
       410   04 Jun 2027 12:41:57.124   04 Jun 2027 12:42:06.530             9.406                 Moscow           293.938
       411   04 Jun 2027 12:44:57.926   04 Jun 2027 12:47:24.187           146.261              Murmansk1          4570.656
       412   04 Jun 2027 12:59:37.233   04 Jun 2027 13:03:32.085           234.852                Anadyr1          7339.125
       413   04 Jun 2027 13:03:53.546   04 Jun 2027 13:05:44.457           110.911                Anadyr2          3465.969
       414   04 Jun 2027 14:25:12.327   04 Jun 2027 14:26:33.253            80.926              Murmansk1          2528.938
       415   04 Jun 2027 14:34:56.594   04 Jun 2027 14:36:30.201            93.607                Anadyr2          2925.219
       416   04 Jun 2027 14:36:34.983   04 Jun 2027 14:37:18.678            43.695                Anadyr1          1365.469
       417   04 Jun 2027 14:38:17.507   04 Jun 2027 14:38:53.314            35.807                Anadyr1          1118.969
       418   04 Jun 2027 14:39:07.472   04 Jun 2027 14:42:15.390           187.918               Magadan2          5872.437
       419   04 Jun 2027 14:43:22.632   04 Jun 2027 14:44:25.777            63.145               Magadan1          1973.281
       420   04 Jun 2027 16:10:49.188   04 Jun 2027 16:12:39.480           110.292                Anadyr2          3446.625
       421   04 Jun 2027 16:13:16.522   04 Jun 2027 16:15:21.277           124.755               Magadan1          3898.594
       422   04 Jun 2027 16:16:39.041   04 Jun 2027 16:17:25.692            46.651               Magadan1          1457.844
       423   04 Jun 2027 17:46:42.329   04 Jun 2027 17:48:01.467            79.138                Anadyr1          2473.063
       424   04 Jun 2027 17:48:58.402   04 Jun 2027 17:49:46.572            48.170                Anadyr2          1505.312
       425   04 Jun 2027 17:49:55.172   04 Jun 2027 17:54:34.430           279.258                Norilsk          8726.813
       426   04 Jun 2027 17:55:39.561   04 Jun 2027 17:57:55.902           136.341                Irkutsk          4260.656
       427   04 Jun 2027 18:42:53.422   04 Jun 2027 18:44:09.055            75.633            RioGallegos          2363.531
       428   04 Jun 2027 19:25:04.735   04 Jun 2027 19:25:34.482            29.747               Magadan2           929.594
       429   04 Jun 2027 19:28:05.404   04 Jun 2027 19:28:15.496            10.092                Norilsk           315.375
       430   04 Jun 2027 19:28:39.223   04 Jun 2027 19:29:46.098            66.875                Irkutsk          2089.844
       431   04 Jun 2027 19:30:05.801   04 Jun 2027 19:37:08.614           422.813                Novosib         13212.906
       432   04 Jun 2027 19:52:23.865   04 Jun 2027 19:52:38.774            14.909                Sumatra           465.906
       433   04 Jun 2027 21:04:27.916   04 Jun 2027 21:05:02.842            34.926                Novosib          1091.437
       434   04 Jun 2027 21:06:22.876   04 Jun 2027 21:07:11.501            48.625                Novosib          1519.531
       435   04 Jun 2027 21:08:04.496   04 Jun 2027 21:10:02.717           118.221                Novosib          3694.406
       436   04 Jun 2027 21:12:03.241   04 Jun 2027 21:15:58.964           235.723                  Delhi          7366.344
       437   04 Jun 2027 22:38:50.409   04 Jun 2027 22:40:44.831           114.422              Murmansk1          3575.687
       438   04 Jun 2027 22:42:11.797   04 Jun 2027 22:44:23.786           131.989              Murmansk2          4124.656
       439   04 Jun 2027 22:45:27.289   04 Jun 2027 22:50:30.384           303.095                 Moscow          9471.719
       440   04 Jun 2027 23:12:48.254   04 Jun 2027 23:14:27.343            99.089               CapeTown          3096.531
       441   05 Jun 2027 00:17:57.286   05 Jun 2027 00:18:13.414            16.128                 Moscow           504.000
       442   05 Jun 2027 00:18:17.652   05 Jun 2027 00:20:12.039           114.387                 Moscow          3574.594
       443   05 Jun 2027 00:42:03.179   05 Jun 2027 00:43:51.461           108.282               CapeTown          3383.813
       444   05 Jun 2027 01:40:32.088   05 Jun 2027 01:40:43.776            11.688               Magadan2           365.250
       445   05 Jun 2027 01:40:43.776   05 Jun 2027 01:41:12.576            28.800               Magadan1           900.000
       446   05 Jun 2027 01:41:21.011   05 Jun 2027 01:41:56.244            35.233               Magadan1          1101.031
       447   05 Jun 2027 01:43:44.873   05 Jun 2027 01:43:50.527             5.654               Magadan2           176.687
       448   05 Jun 2027 01:45:09.695   05 Jun 2027 01:45:26.619            16.924               Magadan2           528.875
       449   05 Jun 2027 01:45:43.001   05 Jun 2027 01:45:48.733             5.732               Magadan1           179.125
       450   05 Jun 2027 01:50:37.094   05 Jun 2027 01:51:07.548            30.454              Murmansk2           951.687
       451   05 Jun 2027 01:51:07.787   05 Jun 2027 01:51:55.411            47.624              Murmansk1          1488.250
       452   05 Jun 2027 01:53:28.900   05 Jun 2027 01:53:58.640            29.740              Murmansk1           929.375
       453   05 Jun 2027 01:53:58.721   05 Jun 2027 01:55:08.276            69.555                 Moscow          2173.594
       454   05 Jun 2027 01:59:26.693   05 Jun 2027 01:59:31.038             4.345                 Moscow           135.781
       455   05 Jun 2027 02:00:05.954   05 Jun 2027 02:00:46.585            40.631                 Moscow          1269.719
       456   05 Jun 2027 02:05:38.601   05 Jun 2027 02:05:42.269             3.668                 Moscow           114.625
       457   05 Jun 2027 02:19:03.059   05 Jun 2027 02:20:05.636            62.577               CapeTown          1955.531
       458   05 Jun 2027 02:25:48.339   05 Jun 2027 02:26:02.984            14.645               CapeTown           457.656
       459   05 Jun 2027 02:28:55.286   05 Jun 2027 02:29:09.772            14.486               CapeTown           452.688
       460   05 Jun 2027 03:19:05.791   05 Jun 2027 03:19:59.301            53.510                Anadyr1          1672.187
       461   05 Jun 2027 03:21:32.596   05 Jun 2027 03:21:36.025             3.429               Magadan1           107.156
       462   05 Jun 2027 03:21:45.487   05 Jun 2027 03:22:48.990            63.503               Magadan1          1984.469
       463   05 Jun 2027 03:23:05.382   05 Jun 2027 03:27:17.695           252.313                Anadyr2          7884.781
       464   05 Jun 2027 04:57:25.368   05 Jun 2027 04:58:14.767            49.399               Magadan2          1543.719
       465   05 Jun 2027 04:58:23.315   05 Jun 2027 04:59:05.792            42.477                Anadyr2          1327.406
       466   05 Jun 2027 04:59:05.792   05 Jun 2027 05:02:28.505           202.713                Anadyr1          6334.781
       467   05 Jun 2027 05:02:28.505   05 Jun 2027 05:02:31.915             3.410                Anadyr2           106.562
       468   05 Jun 2027 05:38:19.502   05 Jun 2027 05:41:54.831           215.329            RioGallegos          6729.031
       469   05 Jun 2027 06:32:08.844   05 Jun 2027 06:32:32.484            23.640                Irkutsk           738.750
       470   05 Jun 2027 06:32:49.452   05 Jun 2027 06:32:51.252             1.800                Norilsk            56.250
       471   05 Jun 2027 06:33:27.524   05 Jun 2027 06:33:27.885             0.361                Irkutsk            11.281
       472   05 Jun 2027 06:33:38.238   05 Jun 2027 06:33:40.745             2.507               Magadan2            78.344
       473   05 Jun 2027 06:33:57.356   05 Jun 2027 06:34:21.081            23.725                Novosib           741.406
       474   05 Jun 2027 06:34:22.640   05 Jun 2027 06:35:03.968            41.328                Irkutsk          1291.500
       475   05 Jun 2027 06:36:07.883   05 Jun 2027 06:36:56.225            48.342               Magadan2          1510.687
       476   05 Jun 2027 06:37:06.754   05 Jun 2027 06:37:37.951            31.197                Norilsk           974.906
       477   05 Jun 2027 06:37:48.452   05 Jun 2027 06:38:22.202            33.750                Irkutsk          1054.687
       478   05 Jun 2027 06:38:24.936   05 Jun 2027 06:38:29.318             4.382                Norilsk           136.938
       479   05 Jun 2027 06:38:52.536   05 Jun 2027 06:39:04.062            11.526              Murmansk1           360.188
       480   05 Jun 2027 06:39:24.120   05 Jun 2027 06:39:27.690             3.570              Murmansk2           111.563
       481   05 Jun 2027 06:39:54.980   05 Jun 2027 06:39:58.234             3.254              Murmansk1           101.688
       482   05 Jun 2027 06:39:58.234   05 Jun 2027 06:40:59.366            61.132              Murmansk2          1910.375
