uniorb/output/strategy_2/Drop/Drop_KinoSat_110608.txt

KinoSat_110608
-------------------------
    Access    *     Start Time (UTCG)     *     Stop Time (UTCG)  *   Duration (s)        *       Station  *  Data (Mbytes)
         1   01 Jun 2027 03:15:13.067   01 Jun 2027 03:15:40.641            27.574                Anadyr1           338.000
         2   01 Jun 2027 03:16:14.608   01 Jun 2027 03:16:26.047            11.439               Magadan1           357.469
         3   01 Jun 2027 03:16:26.047   01 Jun 2027 03:16:33.932             7.885               Magadan2           246.406
         4   01 Jun 2027 03:16:37.644   01 Jun 2027 03:17:18.269            40.625               Magadan2          1269.531
         5   01 Jun 2027 03:17:18.269   01 Jun 2027 03:17:18.499             0.230               Magadan1             7.188
         6   01 Jun 2027 03:17:25.819   01 Jun 2027 03:17:29.651             3.832                Anadyr1           119.750
         7   01 Jun 2027 03:17:35.876   01 Jun 2027 03:18:54.211            78.335                Anadyr1          2447.969
         8   01 Jun 2027 03:18:58.277   01 Jun 2027 03:19:50.727            52.450                Anadyr2          1639.062
         9   01 Jun 2027 03:20:35.805   01 Jun 2027 03:20:51.089            15.284               Magadan2           477.625
        10   01 Jun 2027 04:52:10.323   01 Jun 2027 04:55:58.760           228.437                Irkutsk          7138.656
        11   01 Jun 2027 04:56:31.341   01 Jun 2027 04:57:18.073            46.732               Magadan2          1460.375
        12   01 Jun 2027 04:57:20.278   01 Jun 2027 04:57:28.891             8.613              Murmansk2           269.156
        13   01 Jun 2027 05:02:05.187   01 Jun 2027 05:02:06.966             1.779                Norilsk            55.594
        14   01 Jun 2027 05:32:19.893   01 Jun 2027 05:35:29.399           189.506            RioGallegos          5922.063
        15   01 Jun 2027 05:35:52.041   01 Jun 2027 05:36:12.173            20.132            RioGallegos           629.125
        16   01 Jun 2027 05:37:06.418   01 Jun 2027 05:38:12.273            65.855            RioGallegos          2057.969
        17   01 Jun 2027 06:09:16.141   01 Jun 2027 06:17:58.630           522.489                Sumatra         16327.781
        18   01 Jun 2027 06:28:07.496   01 Jun 2027 06:28:58.284            50.788                Irkutsk          1587.125
        19   01 Jun 2027 06:30:16.562   01 Jun 2027 06:30:23.864             7.302               Magadan1           228.188
        20   01 Jun 2027 06:30:24.757   01 Jun 2027 06:30:34.197             9.440               Magadan1           295.000
        21   01 Jun 2027 06:30:43.963   01 Jun 2027 06:32:25.195           101.232                Irkutsk          3163.500
        22   01 Jun 2027 06:33:17.781   01 Jun 2027 06:33:48.121            30.340                Novosib           948.125
        23   01 Jun 2027 06:34:13.749   01 Jun 2027 06:34:41.467            27.718                Novosib           866.187
        24   01 Jun 2027 07:08:32.023   01 Jun 2027 07:09:03.892            31.869            RioGallegos           995.906
        25   01 Jun 2027 07:42:57.128   01 Jun 2027 07:44:39.225           102.097                Sumatra          3190.531
        26   01 Jun 2027 07:49:07.572   01 Jun 2027 07:49:12.549             4.977                Sumatra           155.531
        27   01 Jun 2027 07:50:50.322   01 Jun 2027 07:51:19.609            29.287                Sumatra           915.219
        28   01 Jun 2027 07:52:08.079   01 Jun 2027 07:56:14.820           246.741                  Delhi          7710.656
        29   01 Jun 2027 07:57:31.770   01 Jun 2027 07:58:50.359            78.589                  Delhi          2455.906
        30   01 Jun 2027 08:05:35.677   01 Jun 2027 08:06:26.552            50.875                 Moscow          1589.844
        31   01 Jun 2027 08:07:09.579   01 Jun 2027 08:07:17.314             7.735              Murmansk1           241.719
        32   01 Jun 2027 08:07:17.529   01 Jun 2027 08:08:14.499            56.970                Norilsk          1780.313
        33   01 Jun 2027 08:08:23.542   01 Jun 2027 08:09:57.053            93.511              Murmansk1          2922.219
        34   01 Jun 2027 09:27:32.397   01 Jun 2027 09:30:49.510           197.113                  Delhi          6159.781
        35   01 Jun 2027 09:39:36.680   01 Jun 2027 09:39:39.176             2.496                 Moscow            78.000
        36   01 Jun 2027 09:39:49.284   01 Jun 2027 09:40:02.547            13.263                 Moscow           414.469
        37   01 Jun 2027 09:41:25.584   01 Jun 2027 09:42:02.647            37.063                 Moscow          1158.219
        38   01 Jun 2027 09:42:52.487   01 Jun 2027 09:43:37.166            44.679              Murmansk1          1396.219
        39   01 Jun 2027 09:43:37.166   01 Jun 2027 09:43:42.892             5.726              Murmansk2           178.937
        40   01 Jun 2027 09:43:46.150   01 Jun 2027 09:45:59.316           133.166                 Moscow          4161.437
        41   01 Jun 2027 11:18:45.104   01 Jun 2027 11:22:24.456           219.352                 Moscow          6854.750
        42   01 Jun 2027 11:22:27.343   01 Jun 2027 11:22:37.847            10.504                Norilsk           328.250
        43   01 Jun 2027 11:23:15.127   01 Jun 2027 11:23:57.792            42.665                 Moscow          1333.281
        44   01 Jun 2027 12:25:30.394   01 Jun 2027 12:29:24.341           233.947               CapeTown          7310.844
        45   01 Jun 2027 12:31:03.971   01 Jun 2027 12:31:04.464             0.493               CapeTown            15.406
        46   01 Jun 2027 12:36:53.983   01 Jun 2027 12:37:11.182            17.199               CapeTown           537.469
        47   01 Jun 2027 12:52:27.583   01 Jun 2027 12:54:12.062           104.479              Murmansk2          3264.969
        48   01 Jun 2027 12:56:48.216   01 Jun 2027 12:57:05.537            17.321              Murmansk1           541.281
        49   01 Jun 2027 12:57:06.040   01 Jun 2027 12:57:32.146            26.106              Murmansk2           815.813
        50   01 Jun 2027 13:05:49.559   01 Jun 2027 13:07:49.392           119.833                Anadyr2          3744.781
        51   01 Jun 2027 13:08:02.556   01 Jun 2027 13:12:02.060           239.504                Anadyr1          7484.500
        52   01 Jun 2027 13:13:58.943   01 Jun 2027 13:16:15.991           137.048                Anadyr1          4282.750
        53   01 Jun 2027 14:41:29.954   01 Jun 2027 14:42:42.974            73.020                Anadyr2          2281.875
        54   01 Jun 2027 14:42:53.838   01 Jun 2027 14:43:44.263            50.425                Anadyr1          1575.781
        55   01 Jun 2027 14:44:31.304   01 Jun 2027 14:53:50.298           558.994               Magadan1         17468.563
        56   01 Jun 2027 16:19:43.777   01 Jun 2027 16:20:35.131            51.354               Magadan2          1604.813
        57   01 Jun 2027 16:20:35.131   01 Jun 2027 16:21:55.551            80.420               Magadan1          2513.125
        58   01 Jun 2027 17:13:16.373   01 Jun 2027 17:19:50.836           394.463            RioGallegos         12326.969
        59   01 Jun 2027 17:57:02.662   01 Jun 2027 17:59:14.211           131.549                Norilsk          4110.906
        60   01 Jun 2027 18:00:10.515   01 Jun 2027 18:01:20.037            69.522                Irkutsk          2172.562
        61   01 Jun 2027 18:01:29.961   01 Jun 2027 18:03:32.095           122.134                Norilsk          3816.687
        62   01 Jun 2027 18:03:53.634   01 Jun 2027 18:06:33.832           160.198                Irkutsk          5006.188
        63   01 Jun 2027 18:14:51.374   01 Jun 2027 18:23:20.152           508.778                Sumatra         15899.313
        64   01 Jun 2027 19:39:38.113   01 Jun 2027 19:39:44.222             6.109                Novosib           190.906
        65   01 Jun 2027 19:45:07.772   01 Jun 2027 19:52:01.235           413.463                  Delhi         12920.719
        66   01 Jun 2027 21:10:01.743   01 Jun 2027 21:15:51.263           349.520              Murmansk1         10922.500
        67   01 Jun 2027 22:48:43.475   01 Jun 2027 22:49:19.936            36.461              Murmansk2          1139.406
        68   01 Jun 2027 22:50:34.556   01 Jun 2027 22:51:04.880            30.324                 Moscow           947.625
        69   01 Jun 2027 22:52:21.520   01 Jun 2027 22:54:55.531           154.011              Murmansk1          4812.844
        70   01 Jun 2027 23:16:13.646   01 Jun 2027 23:16:37.609            23.963               CapeTown           748.844
        71   01 Jun 2027 23:17:20.899   01 Jun 2027 23:22:29.061           308.162               CapeTown          9630.062
        72   02 Jun 2027 01:45:59.830   02 Jun 2027 01:46:21.812            21.982               Magadan2           686.938
        73   02 Jun 2027 01:46:38.428   02 Jun 2027 01:47:12.254            33.826               Magadan1          1057.062
        74   02 Jun 2027 01:47:28.191   02 Jun 2027 01:47:38.239            10.048               Magadan1           314.000
        75   02 Jun 2027 01:57:12.470   02 Jun 2027 01:57:53.160            40.690              Murmansk1          1271.562
        76   02 Jun 2027 01:58:07.364   02 Jun 2027 01:58:39.980            32.616              Murmansk2          1019.250
        77   02 Jun 2027 02:00:39.248   02 Jun 2027 02:01:32.773            53.525                 Moscow          1672.656
        78   02 Jun 2027 02:02:20.301   02 Jun 2027 02:03:04.448            44.147                 Moscow          1379.594
        79   02 Jun 2027 02:11:09.513   02 Jun 2027 02:11:27.167            17.654                 Moscow           551.687
        80   02 Jun 2027 02:29:20.763   02 Jun 2027 02:30:30.056            69.293               CapeTown          2165.406
        81   02 Jun 2027 02:31:16.721   02 Jun 2027 02:31:35.806            19.085               CapeTown           596.406
        82   02 Jun 2027 03:27:46.589   02 Jun 2027 03:28:56.210            69.621                Anadyr1          2175.656
        83   02 Jun 2027 03:29:21.143   02 Jun 2027 03:29:57.860            36.717               Magadan2          1147.406
        84   02 Jun 2027 03:29:57.860   02 Jun 2027 03:30:20.537            22.677               Magadan1           708.656
        85   02 Jun 2027 03:30:31.115   02 Jun 2027 03:30:42.111            10.996               Magadan2           343.625
        86   02 Jun 2027 03:30:54.771   02 Jun 2027 03:30:59.483             4.712                Anadyr1           147.250
        87   02 Jun 2027 03:31:33.310   02 Jun 2027 03:31:35.111             1.801               Magadan1            56.281
        88   02 Jun 2027 03:31:37.288   02 Jun 2027 03:31:44.613             7.325                Anadyr2           228.906
        89   02 Jun 2027 03:31:49.511   02 Jun 2027 03:31:51.283             1.772               Magadan2            55.375
        90   02 Jun 2027 03:32:10.949   02 Jun 2027 03:32:29.836            18.887               Magadan2           590.219
        91   02 Jun 2027 03:32:30.789   02 Jun 2027 03:32:48.932            18.143               Magadan2           566.969
        92   02 Jun 2027 03:32:49.476   02 Jun 2027 03:33:45.337            55.861                Anadyr2          1745.656
        93   02 Jun 2027 04:16:13.791   02 Jun 2027 04:17:06.939            53.148            RioGallegos          1660.875
        94   02 Jun 2027 05:04:17.342   02 Jun 2027 05:05:07.881            50.539               Magadan2          1579.344
        95   02 Jun 2027 05:05:09.671   02 Jun 2027 05:06:43.762            94.091                Anadyr2          2940.344
        96   02 Jun 2027 05:06:43.762   02 Jun 2027 05:07:27.787            44.025                Anadyr1          1375.781
        97   02 Jun 2027 05:07:38.395   02 Jun 2027 05:08:17.158            38.763               Magadan1          1211.344
        98   02 Jun 2027 05:08:52.417   02 Jun 2027 05:09:13.662            21.245               Magadan1           663.906
        99   02 Jun 2027 05:09:39.971   02 Jun 2027 05:10:13.234            33.263                Norilsk          1039.469
       100   02 Jun 2027 05:11:21.907   02 Jun 2027 05:11:48.336            26.429                Norilsk           825.906
       101   02 Jun 2027 05:44:11.606   02 Jun 2027 05:52:28.421           496.815            RioGallegos         15525.469
       102   02 Jun 2027 05:53:14.340   02 Jun 2027 05:53:41.802            27.462            RioGallegos           858.187
       103   02 Jun 2027 06:20:30.485   02 Jun 2027 06:28:14.031           463.546                Sumatra         14485.813
       104   02 Jun 2027 06:41:01.875   02 Jun 2027 06:41:14.936            13.061                Irkutsk           408.156
       105   02 Jun 2027 06:41:15.342   02 Jun 2027 06:41:40.733            25.391                Novosib           793.469
       106   02 Jun 2027 06:42:16.611   02 Jun 2027 06:42:56.318            39.707                Novosib          1240.844
       107   02 Jun 2027 06:43:02.444   02 Jun 2027 06:43:51.398            48.954                Novosib          1529.813
       108   02 Jun 2027 06:44:19.133   02 Jun 2027 06:45:21.692            62.559                Irkutsk          1954.969
       109   02 Jun 2027 06:45:31.411   02 Jun 2027 06:46:39.670            68.259              Murmansk1          2133.094
       110   02 Jun 2027 06:47:47.619   02 Jun 2027 06:48:21.299            33.680                Norilsk          1052.500
       111   02 Jun 2027 07:20:52.256   02 Jun 2027 07:21:04.287            12.031            RioGallegos           375.969
       112   02 Jun 2027 07:55:10.237   02 Jun 2027 07:56:20.862            70.625                Sumatra          2207.031
       113   02 Jun 2027 07:57:40.271   02 Jun 2027 07:58:49.898            69.627                Sumatra          2175.844
       114   02 Jun 2027 08:03:45.695   02 Jun 2027 08:08:47.455           301.760                  Delhi          9430.000
       115   02 Jun 2027 08:17:26.582   02 Jun 2027 08:18:29.130            62.548              Murmansk1          1954.625
       116   02 Jun 2027 08:18:36.585   02 Jun 2027 08:19:19.475            42.890                 Moscow          1340.313
       117   02 Jun 2027 08:19:23.037   02 Jun 2027 08:19:55.299            32.262                Irkutsk          1008.187
       118   02 Jun 2027 08:20:15.756   02 Jun 2027 08:20:31.826            16.070                Irkutsk           502.187
       119   02 Jun 2027 08:21:42.838   02 Jun 2027 08:22:29.937            47.099                Novosib          1471.844
       120   02 Jun 2027 08:24:10.028   02 Jun 2027 08:24:19.106             9.078              Murmansk1           283.687
       121   02 Jun 2027 08:27:22.374   02 Jun 2027 08:27:55.157            32.783              Murmansk1          1024.469
       122   02 Jun 2027 09:39:56.818   02 Jun 2027 09:43:14.535           197.717                  Delhi          6178.656
       123   02 Jun 2027 09:52:18.614   02 Jun 2027 09:53:52.789            94.175                 Moscow          2942.969
       124   02 Jun 2027 09:54:08.633   02 Jun 2027 09:54:15.652             7.019                Novosib           219.344
       125   02 Jun 2027 09:54:20.876   02 Jun 2027 09:54:45.022            24.146              Murmansk1           754.562
       126   02 Jun 2027 09:54:45.022   02 Jun 2027 09:55:11.516            26.494              Murmansk2           827.938
       127   02 Jun 2027 09:55:19.842   02 Jun 2027 09:55:30.830            10.988              Murmansk1           343.375
       128   02 Jun 2027 09:55:35.761   02 Jun 2027 09:55:49.803            14.042              Murmansk1           438.813
       129   02 Jun 2027 09:55:51.879   02 Jun 2027 09:56:28.876            36.997                 Moscow          1156.156
       130   02 Jun 2027 09:56:44.897   02 Jun 2027 09:57:07.306            22.409              Murmansk1           700.281
       131   02 Jun 2027 09:57:10.651   02 Jun 2027 09:57:28.323            17.672                Novosib           552.250
       132   02 Jun 2027 09:57:42.215   02 Jun 2027 09:57:45.089             2.874                 Moscow            89.812
       133   02 Jun 2027 09:58:10.367   02 Jun 2027 09:59:12.146            61.779                 Moscow          1930.594
       134   02 Jun 2027 11:30:36.012   02 Jun 2027 11:30:44.632             8.620                 Moscow           269.375
       135   02 Jun 2027 11:31:00.294   02 Jun 2027 11:31:21.823            21.529                 Moscow           672.781
       136   02 Jun 2027 11:31:52.951   02 Jun 2027 11:32:04.604            11.653                 Moscow           364.156
       137   02 Jun 2027 11:32:32.508   02 Jun 2027 11:32:56.374            23.866              Murmansk2           745.812
       138   02 Jun 2027 11:43:45.785   02 Jun 2027 11:46:56.965           191.180                Anadyr2          5974.375
       139   02 Jun 2027 12:38:48.782   02 Jun 2027 12:39:40.903            52.121               CapeTown          1628.781
       140   02 Jun 2027 12:48:41.349   02 Jun 2027 12:49:29.738            48.389               CapeTown          1512.156
       141   02 Jun 2027 13:04:54.994   02 Jun 2027 13:05:20.037            25.043              Murmansk1           782.594
       142   02 Jun 2027 13:06:05.433   02 Jun 2027 13:06:54.158            48.725              Murmansk2          1522.656
       143   02 Jun 2027 13:08:55.412   02 Jun 2027 13:09:05.226             9.814              Murmansk1           306.687
       144   02 Jun 2027 13:09:23.915   02 Jun 2027 13:09:42.936            19.021              Murmansk2           594.406
       145   02 Jun 2027 13:17:46.783   02 Jun 2027 13:19:33.414           106.631                Anadyr1          3332.219
       146   02 Jun 2027 13:19:43.799   02 Jun 2027 13:24:21.321           277.522                Anadyr2          8672.562
       147   02 Jun 2027 14:53:30.953   02 Jun 2027 14:56:03.078           152.125                Anadyr2          4753.906
       148   02 Jun 2027 14:56:21.683   02 Jun 2027 15:02:26.671           364.988               Magadan1         11405.875
       149   02 Jun 2027 15:02:39.268   02 Jun 2027 15:06:25.721           226.453               Magadan1          7076.656
       150   02 Jun 2027 17:24:44.091   02 Jun 2027 17:32:00.970           436.879            RioGallegos         13652.469
       151   02 Jun 2027 18:09:29.922   02 Jun 2027 18:12:49.290           199.368                Norilsk          6230.250
       152   02 Jun 2027 18:13:35.092   02 Jun 2027 18:15:07.135            92.043                Irkutsk          2876.344
       153   02 Jun 2027 18:15:27.301   02 Jun 2027 18:18:00.239           152.938                Irkutsk          4779.313
       154   02 Jun 2027 18:29:18.288   02 Jun 2027 18:33:29.743           251.455                Sumatra          7857.969
       155   02 Jun 2027 19:48:36.157   02 Jun 2027 19:49:35.708            59.551                Novosib          1860.969
       156   02 Jun 2027 19:51:01.953   02 Jun 2027 19:51:19.806            17.853                Novosib           557.906
       157   02 Jun 2027 19:56:16.463   02 Jun 2027 20:05:04.255           527.792                  Delhi         16493.500
       158   02 Jun 2027 21:21:51.995   02 Jun 2027 21:28:40.034           408.039              Murmansk2         12751.219
       159   02 Jun 2027 23:03:11.420   02 Jun 2027 23:03:27.261            15.841                 Moscow           495.031
       160   02 Jun 2027 23:09:27.530   02 Jun 2027 23:10:26.706            59.176                 Moscow          1849.250
       161   02 Jun 2027 23:26:11.267   02 Jun 2027 23:27:01.700            50.433               CapeTown          1576.031
       162   02 Jun 2027 23:28:53.531   02 Jun 2027 23:33:17.634           264.103               CapeTown          8253.219
       163   03 Jun 2027 01:09:56.542   03 Jun 2027 01:10:14.412            17.870               CapeTown           558.437
       164   03 Jun 2027 01:57:44.691   03 Jun 2027 01:59:30.347           105.656               Magadan2          3301.750
       165   03 Jun 2027 02:00:04.268   03 Jun 2027 02:00:36.704            32.436               Magadan1          1013.625
       166   03 Jun 2027 02:02:57.042   03 Jun 2027 02:03:16.275            19.233               Magadan2           601.031
       167   03 Jun 2027 02:05:30.666   03 Jun 2027 02:05:37.143             6.477                Norilsk           202.406
       168   03 Jun 2027 02:05:47.318   03 Jun 2027 02:06:27.731            40.413               Magadan2          1262.906
       169   03 Jun 2027 02:09:13.137   03 Jun 2027 02:10:21.182            68.045              Murmansk2          2126.406
       170   03 Jun 2027 02:11:05.960   03 Jun 2027 02:11:25.224            19.264              Murmansk1           602.000
       171   03 Jun 2027 02:12:44.649   03 Jun 2027 02:13:59.258            74.609                 Moscow          2331.531
       172   03 Jun 2027 02:22:19.129   03 Jun 2027 02:22:23.916             4.787                 Moscow           149.594
       173   03 Jun 2027 03:40:52.182   03 Jun 2027 03:41:22.449            30.267                Anadyr2           945.844
       174   03 Jun 2027 03:41:22.903   03 Jun 2027 03:41:25.697             2.794               Magadan2            87.313
       175   03 Jun 2027 03:41:58.715   03 Jun 2027 03:42:25.243            26.528               Magadan2           829.000
       176   03 Jun 2027 03:42:55.607   03 Jun 2027 03:43:36.277            40.670                Anadyr1          1270.937
       177   03 Jun 2027 03:43:41.735   03 Jun 2027 03:44:13.781            32.046               Magadan2          1001.438
       178   03 Jun 2027 03:44:30.692   03 Jun 2027 03:45:42.415            71.723                Anadyr2          2241.344
       179   03 Jun 2027 04:26:03.840   03 Jun 2027 04:29:51.836           227.996            RioGallegos          7124.875
       180   03 Jun 2027 05:12:27.069   03 Jun 2027 05:12:40.705            13.636                Irkutsk           426.125
       181   03 Jun 2027 05:13:23.509   03 Jun 2027 05:13:51.953            28.444                Irkutsk           888.875
       182   03 Jun 2027 05:16:51.979   03 Jun 2027 05:16:56.862             4.883                Norilsk           152.594
       183   03 Jun 2027 05:17:02.852   03 Jun 2027 05:17:48.257            45.405               Magadan1          1418.906
       184   03 Jun 2027 05:17:48.257   03 Jun 2027 05:18:37.957            49.700               Magadan2          1553.125
       185   03 Jun 2027 05:18:37.957   03 Jun 2027 05:19:50.490            72.533               Magadan1          2266.656
       186   03 Jun 2027 05:20:10.287   03 Jun 2027 05:20:20.378            10.091                Novosib           315.344
       187   03 Jun 2027 05:20:23.629   03 Jun 2027 05:21:07.729            44.100               Magadan1          1378.125
       188   03 Jun 2027 05:21:19.810   03 Jun 2027 05:21:33.126            13.316                Novosib           416.125
       189   03 Jun 2027 05:21:46.899   03 Jun 2027 05:22:07.331            20.432              Murmansk1           638.500
       190   03 Jun 2027 05:22:08.655   03 Jun 2027 05:22:16.463             7.808                Novosib           244.000
       191   03 Jun 2027 05:22:54.019   03 Jun 2027 05:23:19.078            25.059                Norilsk           783.094
       192   03 Jun 2027 05:23:20.463   03 Jun 2027 05:23:24.866             4.403              Murmansk1           137.594
       193   03 Jun 2027 05:23:54.947   03 Jun 2027 05:24:46.400            51.453              Murmansk1          1607.906
       194   03 Jun 2027 05:26:20.064   03 Jun 2027 05:26:30.711            10.647                Norilsk           332.719
       195   03 Jun 2027 05:26:53.901   03 Jun 2027 05:27:14.711            20.810              Murmansk1           650.313
       196   03 Jun 2027 05:27:14.711   03 Jun 2027 05:27:42.816            28.105              Murmansk2           878.281
       197   03 Jun 2027 05:56:06.493   03 Jun 2027 06:00:28.079           261.586            RioGallegos          8174.563
       198   03 Jun 2027 06:00:32.955   03 Jun 2027 06:00:55.262            22.307            RioGallegos           697.094
       199   03 Jun 2027 06:02:35.723   03 Jun 2027 06:03:43.528            67.805            RioGallegos          2118.906
       200   03 Jun 2027 06:31:57.608   03 Jun 2027 06:33:10.990            73.382                Sumatra          2293.187
       201   03 Jun 2027 06:35:26.187   03 Jun 2027 06:38:55.527           209.340                Sumatra          6541.875
       202   03 Jun 2027 06:52:03.504   03 Jun 2027 06:52:03.921             0.417                Irkutsk            13.031
       203   03 Jun 2027 06:52:18.804   03 Jun 2027 06:52:49.505            30.701                Novosib           959.406
       204   03 Jun 2027 06:53:04.707   03 Jun 2027 06:53:55.723            51.016                Irkutsk          1594.250
       205   03 Jun 2027 06:54:08.462   03 Jun 2027 06:55:34.517            86.055                Irkutsk          2689.219
       206   03 Jun 2027 06:55:43.440   03 Jun 2027 06:56:17.169            33.729                Novosib          1054.031
       207   03 Jun 2027 06:56:32.389   03 Jun 2027 06:57:40.051            67.662                Novosib          2114.438
       208   03 Jun 2027 06:58:06.054   03 Jun 2027 06:58:29.722            23.668              Murmansk2           739.625
       209   03 Jun 2027 07:33:17.316   03 Jun 2027 07:33:45.379            28.063            RioGallegos           876.969
       210   03 Jun 2027 07:35:57.500   03 Jun 2027 07:36:22.603            25.103            RioGallegos           784.469
       211   03 Jun 2027 08:07:30.400   03 Jun 2027 08:08:09.088            38.688                Sumatra          1209.000
       212   03 Jun 2027 08:09:22.109   03 Jun 2027 08:10:13.711            51.602                Sumatra          1612.563
       213   03 Jun 2027 08:11:03.259   03 Jun 2027 08:11:32.682            29.423                Sumatra           919.469
       214   03 Jun 2027 08:15:29.433   03 Jun 2027 08:18:11.869           162.436                  Delhi          5076.125
       215   03 Jun 2027 08:28:59.853   03 Jun 2027 08:29:19.592            19.739                Irkutsk           616.844
       216   03 Jun 2027 08:29:22.878   03 Jun 2027 08:29:47.893            25.015              Murmansk2           781.719
       217   03 Jun 2027 08:30:07.100   03 Jun 2027 08:30:55.270            48.170              Murmansk1          1505.312
       218   03 Jun 2027 08:30:57.881   03 Jun 2027 08:30:58.406             0.525                 Moscow            16.406
       219   03 Jun 2027 08:31:04.714   03 Jun 2027 08:31:25.153            20.439              Murmansk1           638.719
       220   03 Jun 2027 08:31:25.153   03 Jun 2027 08:31:38.405            13.252              Murmansk2           414.125
       221   03 Jun 2027 08:31:41.305   03 Jun 2027 08:31:50.208             8.903                Norilsk           278.219
       222   03 Jun 2027 08:31:59.399   03 Jun 2027 08:32:02.980             3.581                Irkutsk           111.906
       223   03 Jun 2027 08:32:09.692   03 Jun 2027 08:32:58.895            49.203              Murmansk2          1537.594
       224   03 Jun 2027 08:39:44.135   03 Jun 2027 08:39:57.328            13.193              Murmansk1           412.281
       225   03 Jun 2027 09:52:30.061   03 Jun 2027 09:54:45.099           135.038                  Delhi          4219.938
       226   03 Jun 2027 09:55:15.950   03 Jun 2027 09:55:24.775             8.825                  Delhi           275.781
       227   03 Jun 2027 09:56:20.254   03 Jun 2027 09:56:47.071            26.817                  Delhi           838.031
       228   03 Jun 2027 10:01:19.602   03 Jun 2027 10:01:26.631             7.029                  Delhi           219.656
       229   03 Jun 2027 10:04:53.620   03 Jun 2027 10:05:32.045            38.425              Murmansk2          1200.781
       230   03 Jun 2027 10:05:32.045   03 Jun 2027 10:05:39.783             7.738              Murmansk1           241.812
       231   03 Jun 2027 10:06:02.217   03 Jun 2027 10:07:26.949            84.732                Novosib          2647.875
       232   03 Jun 2027 10:07:34.798   03 Jun 2027 10:07:37.937             3.139              Murmansk2            98.094
       233   03 Jun 2027 10:07:46.511   03 Jun 2027 10:08:55.180            68.669                Novosib          2145.906
       234   03 Jun 2027 10:09:37.857   03 Jun 2027 10:10:11.858            34.001                 Moscow          1062.531
       235   03 Jun 2027 11:55:06.867   03 Jun 2027 12:00:16.479           309.612                Anadyr2          9675.375
       236   03 Jun 2027 13:17:14.207   03 Jun 2027 13:17:52.960            38.753              Murmansk2          1211.031
       237   03 Jun 2027 13:18:13.411   03 Jun 2027 13:18:18.992             5.581              Murmansk1           174.406
       238   03 Jun 2027 13:18:18.992   03 Jun 2027 13:18:54.920            35.928              Murmansk2          1122.750
       239   03 Jun 2027 13:29:44.900   03 Jun 2027 13:31:22.304            97.404                Anadyr2          3043.875
       240   03 Jun 2027 13:31:58.855   03 Jun 2027 13:35:28.639           209.784                Anadyr1          6555.750
       241   03 Jun 2027 13:36:37.961   03 Jun 2027 13:36:56.103            18.142                Anadyr1           566.937
       242   03 Jun 2027 14:58:10.356   03 Jun 2027 14:59:01.177            50.821              Murmansk1          1588.156
       243   03 Jun 2027 15:00:46.291   03 Jun 2027 15:01:01.578            15.287              Murmansk2           477.719
       244   03 Jun 2027 15:02:46.470   03 Jun 2027 15:02:52.414             5.944              Murmansk2           185.750
       245   03 Jun 2027 15:05:32.094   03 Jun 2027 15:06:42.040            69.946                Anadyr1          2185.813
       246   03 Jun 2027 15:07:57.397   03 Jun 2027 15:08:49.769            52.372                Anadyr2          1636.625
       247   03 Jun 2027 15:08:57.695   03 Jun 2027 15:14:40.047           342.352               Magadan2         10698.500
       248   03 Jun 2027 15:16:13.610   03 Jun 2027 15:17:44.510            90.900               Magadan1          2840.625
       249   03 Jun 2027 16:43:44.261   03 Jun 2027 16:44:00.232            15.971               Magadan1           499.094
       250   03 Jun 2027 16:46:01.772   03 Jun 2027 16:47:07.562            65.790               Magadan2          2055.938
       251   03 Jun 2027 16:47:07.923   03 Jun 2027 16:47:49.358            41.435               Magadan1          1294.844
       252   03 Jun 2027 16:50:33.243   03 Jun 2027 16:51:01.851            28.608               Magadan2           894.000
       253   03 Jun 2027 17:36:21.736   03 Jun 2027 17:42:51.032           389.296            RioGallegos         12165.500
       254   03 Jun 2027 18:19:20.698   03 Jun 2027 18:24:37.442           316.744                Norilsk          9898.250
       255   03 Jun 2027 18:24:41.481   03 Jun 2027 18:24:58.450            16.969                Irkutsk           530.281
       256   03 Jun 2027 18:25:43.576   03 Jun 2027 18:27:09.437            85.861                Irkutsk          2683.156
       257   03 Jun 2027 18:37:44.755   03 Jun 2027 18:39:25.341           100.586                Sumatra          3143.313
       258   03 Jun 2027 18:41:24.177   03 Jun 2027 18:44:27.674           183.497                Sumatra          5734.281
       259   03 Jun 2027 20:00:49.156   03 Jun 2027 20:01:50.290            61.134                Novosib          1910.438
       260   03 Jun 2027 20:07:41.704   03 Jun 2027 20:08:57.170            75.466                  Delhi          2358.313
       261   03 Jun 2027 20:09:37.056   03 Jun 2027 20:14:51.261           314.205                  Delhi          9818.906
       262   03 Jun 2027 21:33:45.480   03 Jun 2027 21:39:26.660           341.180              Murmansk2         10661.875
       263   03 Jun 2027 21:39:40.029   03 Jun 2027 21:41:23.493           103.464              Murmansk1          3233.250
       264   03 Jun 2027 21:42:11.572   03 Jun 2027 21:42:41.084            29.512                 Moscow           922.250
       265   03 Jun 2027 23:15:14.938   03 Jun 2027 23:16:37.264            82.326                 Moscow          2572.687
       266   03 Jun 2027 23:23:29.275   03 Jun 2027 23:24:44.903            75.628                 Moscow          2363.375
       267   03 Jun 2027 23:38:23.428   03 Jun 2027 23:39:02.038            38.610               CapeTown          1206.562
       268   03 Jun 2027 23:41:03.558   03 Jun 2027 23:43:11.613           128.055               CapeTown          4001.719
       269   03 Jun 2027 23:43:26.581   03 Jun 2027 23:44:24.905            58.324               CapeTown          1822.625
       270   04 Jun 2027 00:48:32.002   04 Jun 2027 00:49:49.010            77.008                 Moscow          2406.500
       271   04 Jun 2027 01:12:42.902   04 Jun 2027 01:13:48.352            65.450               CapeTown          2045.313
       272   04 Jun 2027 01:16:19.055   04 Jun 2027 01:16:37.352            18.297               CapeTown           571.781
       273   04 Jun 2027 01:20:55.676   04 Jun 2027 01:21:11.413            15.737               CapeTown           491.781
       274   04 Jun 2027 01:24:47.495   04 Jun 2027 01:24:53.622             6.127               CapeTown           191.469
       275   04 Jun 2027 02:09:31.585   04 Jun 2027 02:10:58.615            87.030               Magadan2          2719.687
       276   04 Jun 2027 02:11:09.159   04 Jun 2027 02:11:31.283            22.124               Magadan1           691.375
       277   04 Jun 2027 02:12:06.795   04 Jun 2027 02:12:10.639             3.844               Magadan2           120.125
       278   04 Jun 2027 02:12:47.422   04 Jun 2027 02:13:03.087            15.665               Magadan2           489.531
       279   04 Jun 2027 02:13:23.825   04 Jun 2027 02:13:25.770             1.945               Magadan1            60.781
       280   04 Jun 2027 02:14:32.538   04 Jun 2027 02:15:26.074            53.536               Magadan1          1673.000
       281   04 Jun 2027 02:21:13.551   04 Jun 2027 02:21:54.699            41.148              Murmansk1          1285.875
       282   04 Jun 2027 02:22:38.730   04 Jun 2027 02:23:29.514            50.784              Murmansk2          1587.000
       283   04 Jun 2027 02:23:51.632   04 Jun 2027 02:23:56.052             4.420              Murmansk2           138.125
       284   04 Jun 2027 02:24:50.636   04 Jun 2027 02:25:35.510            44.874                 Moscow          1402.312
       285   04 Jun 2027 02:25:35.560   04 Jun 2027 02:26:18.535            42.975                 Moscow          1342.969
       286   04 Jun 2027 03:52:15.007   04 Jun 2027 03:52:53.670            38.663                Anadyr2          1208.219
       287   04 Jun 2027 03:53:24.404   04 Jun 2027 03:54:20.246            55.842               Magadan1          1745.062
       288   04 Jun 2027 03:54:30.135   04 Jun 2027 03:54:32.579             2.444               Magadan1            76.375
       289   04 Jun 2027 03:54:52.325   04 Jun 2027 03:55:09.261            16.936               Magadan1           529.250
       290   04 Jun 2027 03:55:17.338   04 Jun 2027 03:55:34.142            16.804                Anadyr2           525.125
       291   04 Jun 2027 03:55:34.142   04 Jun 2027 03:57:38.311           124.169                Anadyr1          3880.281
       292   04 Jun 2027 04:37:04.152   04 Jun 2027 04:38:38.447            94.295            RioGallegos          2946.719
       293   04 Jun 2027 05:29:20.026   04 Jun 2027 05:30:26.548            66.522               Magadan2          2078.813
       294   04 Jun 2027 05:30:38.426   04 Jun 2027 05:32:57.261           138.835               Magadan2          4338.594
       295   04 Jun 2027 05:35:15.655   04 Jun 2027 05:35:33.062            17.407                Norilsk           543.969
       296   04 Jun 2027 05:38:41.140   04 Jun 2027 05:39:15.815            34.675              Murmansk1          1083.594
       297   04 Jun 2027 05:39:38.860   04 Jun 2027 05:39:39.637             0.777              Murmansk2            24.281
       298   04 Jun 2027 05:39:52.919   04 Jun 2027 05:40:24.116            31.197              Murmansk1           974.906
       299   04 Jun 2027 06:08:04.592   04 Jun 2027 06:12:42.234           277.642            RioGallegos          8676.313
       300   04 Jun 2027 06:13:09.981   04 Jun 2027 06:13:34.867            24.886            RioGallegos           777.688
       301   04 Jun 2027 06:43:33.926   04 Jun 2027 06:47:23.562           229.636                Sumatra          7176.125
       302   04 Jun 2027 06:49:12.379   04 Jun 2027 06:50:04.406            52.027                Sumatra          1625.844
       303   04 Jun 2027 06:57:08.508   04 Jun 2027 07:00:28.143           199.635                  Delhi          6238.594
       304   04 Jun 2027 07:03:59.855   04 Jun 2027 07:04:30.244            30.389                Novosib           949.656
       305   04 Jun 2027 07:05:06.766   04 Jun 2027 07:05:08.054             1.288                Irkutsk            40.250
       306   04 Jun 2027 07:05:12.089   04 Jun 2027 07:05:39.443            27.354                Novosib           854.813
       307   04 Jun 2027 07:05:54.723   04 Jun 2027 07:05:58.315             3.592                Norilsk           112.250
       308   04 Jun 2027 07:06:03.148   04 Jun 2027 07:07:11.465            68.317              Murmansk1          2134.906
       309   04 Jun 2027 07:07:22.634   04 Jun 2027 07:08:03.038            40.404              Murmansk1          1262.625
       310   04 Jun 2027 07:08:07.568   04 Jun 2027 07:08:31.915            24.347                Norilsk           760.844
       311   04 Jun 2027 07:08:34.609   04 Jun 2027 07:09:20.706            46.097              Murmansk1          1440.531
       312   04 Jun 2027 07:10:07.605   04 Jun 2027 07:10:30.789            23.184              Murmansk1           724.500
       313   04 Jun 2027 07:45:47.920   04 Jun 2027 07:46:40.718            52.798            RioGallegos          1649.937
       314   04 Jun 2027 07:55:30.253   04 Jun 2027 07:55:51.600            21.347            RioGallegos           667.094
       315   04 Jun 2027 08:19:59.374   04 Jun 2027 08:20:56.198            56.824                Sumatra          1775.750
       316   04 Jun 2027 08:22:03.033   04 Jun 2027 08:22:08.908             5.875                Sumatra           183.594
       317   04 Jun 2027 08:27:18.798   04 Jun 2027 08:30:27.856           189.058                  Delhi          5908.063
       318   04 Jun 2027 08:40:52.430   04 Jun 2027 08:41:47.854            55.424                Irkutsk          1732.000
       319   04 Jun 2027 08:41:54.340   04 Jun 2027 08:42:34.583            40.243                 Moscow          1257.594
       320   04 Jun 2027 08:42:40.822   04 Jun 2027 08:43:05.036            24.214                Norilsk           756.687
       321   04 Jun 2027 08:43:20.023   04 Jun 2027 08:43:33.090            13.067                Norilsk           408.344
       322   04 Jun 2027 08:43:35.979   04 Jun 2027 08:44:01.703            25.724              Murmansk1           803.875
       323   04 Jun 2027 08:44:06.887   04 Jun 2027 08:44:51.090            44.203              Murmansk1          1381.344
       324   04 Jun 2027 08:44:59.832   04 Jun 2027 08:45:11.712            11.880                 Moscow           371.250
       325   04 Jun 2027 08:45:21.502   04 Jun 2027 08:45:33.239            11.737              Murmansk2           366.781
       326   04 Jun 2027 08:45:33.239   04 Jun 2027 08:45:52.704            19.465              Murmansk1           608.281
       327   04 Jun 2027 08:46:06.251   04 Jun 2027 08:47:28.377            82.126                 Moscow          2566.437
       328   04 Jun 2027 10:05:15.175   04 Jun 2027 10:07:23.787           128.612                  Delhi          4019.125
       329   04 Jun 2027 10:16:38.486   04 Jun 2027 10:16:40.429             1.943                 Moscow            60.719
       330   04 Jun 2027 10:16:45.098   04 Jun 2027 10:17:33.281            48.183              Murmansk1          1505.719
       331   04 Jun 2027 10:17:35.497   04 Jun 2027 10:17:43.756             8.259              Murmansk1           258.094
       332   04 Jun 2027 10:17:43.756   04 Jun 2027 10:18:22.502            38.746              Murmansk2          1210.812
       333   04 Jun 2027 10:18:39.854   04 Jun 2027 10:18:40.415             0.561                 Moscow            17.531
       334   04 Jun 2027 10:19:05.784   04 Jun 2027 10:19:10.212             4.428              Murmansk1           138.375
       335   04 Jun 2027 10:19:26.566   04 Jun 2027 10:19:34.234             7.668              Murmansk1           239.625
       336   04 Jun 2027 10:19:34.234   04 Jun 2027 10:19:43.745             9.511              Murmansk2           297.219
       337   04 Jun 2027 10:20:00.546   04 Jun 2027 10:20:32.971            32.425              Murmansk2          1013.281
       338   04 Jun 2027 10:20:41.756   04 Jun 2027 10:20:45.447             3.691                 Moscow           115.344
       339   04 Jun 2027 10:20:54.050   04 Jun 2027 10:20:56.629             2.579                Norilsk            80.594
       340   04 Jun 2027 10:21:06.068   04 Jun 2027 10:21:24.579            18.511                 Moscow           578.469
       341   04 Jun 2027 10:21:39.990   04 Jun 2027 10:21:57.715            17.725                 Moscow           553.906
       342   04 Jun 2027 10:22:47.121   04 Jun 2027 10:22:55.321             8.200                 Moscow           256.250
       343   04 Jun 2027 10:23:41.634   04 Jun 2027 10:24:13.066            31.432              Murmansk1           982.250
       344   04 Jun 2027 11:29:09.953   04 Jun 2027 11:32:56.499           226.546               CapeTown          7079.562
       345   04 Jun 2027 12:06:45.209   04 Jun 2027 12:13:16.206           390.997                Anadyr2         12218.656
       346   04 Jun 2027 13:41:43.727   04 Jun 2027 13:43:14.304            90.577                Anadyr2          2830.531
       347   04 Jun 2027 13:43:35.866   04 Jun 2027 13:43:54.377            18.511                Anadyr1           578.469
       348   04 Jun 2027 13:44:10.955   04 Jun 2027 13:45:36.232            85.277                Anadyr1          2664.906
       349   04 Jun 2027 13:52:15.813   04 Jun 2027 13:53:24.118            68.305                Anadyr2          2134.531
       350   04 Jun 2027 15:11:20.363   04 Jun 2027 15:12:33.311            72.948              Murmansk2          2279.625
       351   04 Jun 2027 15:17:33.342   04 Jun 2027 15:18:42.219            68.877                Anadyr1          2152.406
       352   04 Jun 2027 15:19:51.033   04 Jun 2027 15:20:47.829            56.796                Anadyr2          1774.875
       353   04 Jun 2027 15:21:27.278   04 Jun 2027 15:25:58.757           271.479               Magadan2          8483.719
       354   04 Jun 2027 15:28:36.167   04 Jun 2027 15:29:22.745            46.578               Magadan2          1455.562
       355   04 Jun 2027 16:55:45.150   04 Jun 2027 16:56:59.709            74.559               Magadan2          2329.969
       356   04 Jun 2027 16:57:51.948   04 Jun 2027 16:58:39.320            47.372               Magadan1          1480.375
       357   04 Jun 2027 16:59:22.136   04 Jun 2027 16:59:36.912            14.776                Norilsk           461.750
       358   04 Jun 2027 17:00:10.531   04 Jun 2027 17:01:04.657            54.126               Magadan1          1691.438
       359   04 Jun 2027 17:04:45.419   04 Jun 2027 17:04:52.066             6.647               Magadan1           207.719
       360   04 Jun 2027 17:07:50.155   04 Jun 2027 17:08:40.398            50.243               Magadan1          1570.094
       361   04 Jun 2027 17:48:05.371   04 Jun 2027 17:49:42.979            97.608            RioGallegos          3050.250
       362   04 Jun 2027 17:51:14.625   04 Jun 2027 17:54:13.919           179.294            RioGallegos          5602.938
       363   04 Jun 2027 18:31:20.379   04 Jun 2027 18:35:42.940           262.561                Norilsk          8205.031
       364   04 Jun 2027 18:36:43.078   04 Jun 2027 18:39:12.509           149.431                Irkutsk          4669.719
       365   04 Jun 2027 18:39:15.856   04 Jun 2027 18:41:38.992           143.136                Novosib          4473.000
       366   04 Jun 2027 18:51:00.670   04 Jun 2027 18:53:24.339           143.669                Sumatra          4489.656
       367   04 Jun 2027 20:11:19.568   04 Jun 2027 20:11:33.159            13.591                Novosib           424.719
       368   04 Jun 2027 20:13:44.524   04 Jun 2027 20:14:22.768            38.244                Novosib          1195.125
       369   04 Jun 2027 20:19:16.779   04 Jun 2027 20:22:56.217           219.438                  Delhi          6857.438
       370   04 Jun 2027 20:23:38.224   04 Jun 2027 20:25:51.466           133.242                  Delhi          4163.812
       371   04 Jun 2027 21:45:41.089   04 Jun 2027 21:54:02.767           501.678              Murmansk1         15677.437
       372   04 Jun 2027 21:55:39.050   04 Jun 2027 21:56:25.748            46.698                 Moscow          1459.312
       373   04 Jun 2027 23:24:47.435   04 Jun 2027 23:25:45.216            57.781                 Moscow          1805.656
       374   04 Jun 2027 23:31:28.514   04 Jun 2027 23:32:15.004            46.490                 Moscow          1452.813
       375   04 Jun 2027 23:35:55.170   04 Jun 2027 23:36:48.539            53.369                 Moscow          1667.781
       376   04 Jun 2027 23:49:16.843   04 Jun 2027 23:50:59.560           102.717               CapeTown          3209.906
       377   04 Jun 2027 23:52:57.224   04 Jun 2027 23:53:46.094            48.870               CapeTown          1527.187
       378   05 Jun 2027 00:57:21.026   05 Jun 2027 00:58:26.124            65.098              Murmansk1          2034.313
       379   05 Jun 2027 00:59:50.498   05 Jun 2027 01:00:40.777            50.279              Murmansk1          1571.219
       380   05 Jun 2027 01:00:48.685   05 Jun 2027 01:01:28.132            39.447                 Moscow          1232.719
       381   05 Jun 2027 01:09:51.023   05 Jun 2027 01:09:54.692             3.669                 Moscow           114.656
       382   05 Jun 2027 01:09:58.221   05 Jun 2027 01:10:11.293            13.072                 Moscow           408.500
       383   05 Jun 2027 01:25:01.675   05 Jun 2027 01:25:39.153            37.478               CapeTown          1171.188
       384   05 Jun 2027 01:27:16.937   05 Jun 2027 01:28:43.870            86.933               CapeTown          2716.656
       385   05 Jun 2027 02:21:20.564   05 Jun 2027 02:23:32.369           131.805               Magadan2          4118.906
       386   05 Jun 2027 02:25:18.716   05 Jun 2027 02:26:14.718            56.002               Magadan2          1750.063
       387   05 Jun 2027 02:31:51.510   05 Jun 2027 02:32:06.017            14.507                Norilsk           453.344
       388   05 Jun 2027 02:33:13.677   05 Jun 2027 02:34:27.302            73.625              Murmansk1          2300.781
       389   05 Jun 2027 02:36:57.296   05 Jun 2027 02:38:26.786            89.490                 Moscow          2796.563
       390   05 Jun 2027 02:44:28.736   05 Jun 2027 02:44:48.369            19.633                 Moscow           613.531
       391   05 Jun 2027 02:46:19.552   05 Jun 2027 02:46:20.621             1.069                 Moscow            33.406
       392   05 Jun 2027 03:15:34.827   05 Jun 2027 03:16:33.909            59.082            RioGallegos          1846.313
       393   05 Jun 2027 03:17:05.838   05 Jun 2027 03:17:53.463            47.625            RioGallegos          1488.281
       394   05 Jun 2027 04:04:46.044   05 Jun 2027 04:06:22.582            96.538               Magadan1          3016.812
       395   05 Jun 2027 04:06:22.582   05 Jun 2027 04:06:33.707            11.125               Magadan2           347.656
       396   05 Jun 2027 04:06:53.247   05 Jun 2027 04:08:45.727           112.480                Anadyr2          3515.000
       397   05 Jun 2027 04:09:51.990   05 Jun 2027 04:10:19.237            27.247                Norilsk           851.469
       398   05 Jun 2027 04:47:39.192   05 Jun 2027 04:49:48.554           129.362            RioGallegos          4042.563
       399   05 Jun 2027 04:56:23.805   05 Jun 2027 04:56:45.213            21.408            RioGallegos           669.000
       400   05 Jun 2027 05:39:24.266   05 Jun 2027 05:39:44.110            19.844                Irkutsk           620.125
       401   05 Jun 2027 05:40:17.723   05 Jun 2027 05:40:50.781            33.058                Irkutsk          1033.063
       402   05 Jun 2027 05:41:49.065   05 Jun 2027 05:43:19.436            90.371                Irkutsk          2824.094
       403   05 Jun 2027 05:43:28.525   05 Jun 2027 05:44:49.350            80.825               Magadan1          2525.781
       404   05 Jun 2027 05:44:49.442   05 Jun 2027 05:45:22.853            33.411                Irkutsk          1044.094
       405   05 Jun 2027 05:46:18.138   05 Jun 2027 05:47:11.613            53.475                Norilsk          1671.094
       406   05 Jun 2027 05:50:05.940   05 Jun 2027 05:50:30.031            24.091                Norilsk           752.844
       407   05 Jun 2027 06:23:23.291   05 Jun 2027 06:24:21.457            58.166            RioGallegos          1817.688
       408   05 Jun 2027 06:25:09.350   05 Jun 2027 06:25:22.167            12.817            RioGallegos           400.531
       409   05 Jun 2027 06:55:17.612   05 Jun 2027 06:58:54.917           217.305                Sumatra          6790.781
       410   05 Jun 2027 07:07:23.245   05 Jun 2027 07:13:50.177           386.932                  Delhi         12091.625
       411   05 Jun 2027 07:15:31.866   05 Jun 2027 07:15:43.061            11.195                Irkutsk           349.844
       412   05 Jun 2027 07:15:54.952   05 Jun 2027 07:16:32.142            37.190                Irkutsk          1162.188
       413   05 Jun 2027 07:17:01.409   05 Jun 2027 07:17:08.874             7.465                Novosib           233.281
       414   05 Jun 2027 07:17:11.855   05 Jun 2027 07:18:02.706            50.851                Norilsk          1589.094
       415   05 Jun 2027 07:18:05.858   05 Jun 2027 07:18:43.926            38.068                Norilsk          1189.625
       416   05 Jun 2027 07:18:45.007   05 Jun 2027 07:19:00.177            15.170                Irkutsk           474.062
       417   05 Jun 2027 07:19:16.553   05 Jun 2027 07:20:21.740            65.187              Murmansk1          2037.094
       418   05 Jun 2027 07:20:35.436   05 Jun 2027 07:20:46.717            11.281                Norilsk           352.531
       419   05 Jun 2027 07:20:47.546   05 Jun 2027 07:21:13.320            25.774                 Moscow           805.438
       420   05 Jun 2027 07:21:37.636   05 Jun 2027 07:22:15.234            37.598                 Moscow          1174.938
       421   05 Jun 2027 07:58:25.162   05 Jun 2027 07:58:43.392            18.230            RioGallegos           569.688
       422   05 Jun 2027 07:59:32.334   05 Jun 2027 08:00:20.271            47.937            RioGallegos          1498.031
       423   05 Jun 2027 08:32:40.756   05 Jun 2027 08:34:34.529           113.773                Sumatra          3555.406
       424   05 Jun 2027 08:39:13.519   05 Jun 2027 08:40:30.880            77.361                  Delhi          2417.531
       425   05 Jun 2027 08:43:54.466   05 Jun 2027 08:44:54.968            60.502                  Delhi          1890.687
       426   05 Jun 2027 08:53:22.317   05 Jun 2027 08:54:35.374            73.057                Novosib          2283.031
       427   05 Jun 2027 08:54:55.641   05 Jun 2027 08:55:38.076            42.435                Novosib          1326.094
       428   05 Jun 2027 08:55:48.673   05 Jun 2027 08:56:42.328            53.655              Murmansk1          1676.719
       429   05 Jun 2027 08:57:01.003   05 Jun 2027 08:57:07.271             6.268                Novosib           195.875
       430   05 Jun 2027 08:57:08.921   05 Jun 2027 08:57:21.423            12.502              Murmansk2           390.687
       431   05 Jun 2027 08:57:21.423   05 Jun 2027 08:58:05.995            44.572              Murmansk1          1392.875
       432   05 Jun 2027 08:59:36.924   05 Jun 2027 08:59:41.300             4.376                 Moscow           136.750
       433   05 Jun 2027 10:18:19.196   05 Jun 2027 10:20:48.536           149.340                  Delhi          4666.875
       434   05 Jun 2027 10:27:34.350   05 Jun 2027 10:27:34.438             0.088              Murmansk1             2.750
       435   05 Jun 2027 10:27:34.438   05 Jun 2027 10:27:38.333             3.895              Murmansk2           121.719
       436   05 Jun 2027 10:27:44.895   05 Jun 2027 10:28:00.569            15.674                 Moscow           489.812
       437   05 Jun 2027 10:28:28.304   05 Jun 2027 10:29:31.867            63.563              Murmansk2          1986.344
       438   05 Jun 2027 10:29:33.077   05 Jun 2027 10:30:04.040            30.963                 Moscow           967.594
       439   05 Jun 2027 10:30:15.528   05 Jun 2027 10:30:32.423            16.895                Novosib           527.969
       440   05 Jun 2027 10:30:36.157   05 Jun 2027 10:31:19.348            43.191                 Moscow          1349.719
       441   05 Jun 2027 10:31:26.872   05 Jun 2027 10:31:49.656            22.784                Norilsk           712.000
       442   05 Jun 2027 10:31:54.137   05 Jun 2027 10:31:58.572             4.435              Murmansk2           138.594
       443   05 Jun 2027 10:32:05.851   05 Jun 2027 10:33:05.987            60.136                 Moscow          1879.250
       444   05 Jun 2027 10:33:16.094   05 Jun 2027 10:33:47.101            31.007              Murmansk2           968.969
       445   05 Jun 2027 10:33:59.608   05 Jun 2027 10:34:10.602            10.994                Norilsk           343.563
       446   05 Jun 2027 10:34:12.462   05 Jun 2027 10:34:31.169            18.707                 Moscow           584.594
       447   05 Jun 2027 10:35:25.731   05 Jun 2027 10:35:42.276            16.545              Murmansk2           517.031
       448   05 Jun 2027 11:39:44.816   05 Jun 2027 11:46:39.168           414.352               CapeTown         12948.500
       449   05 Jun 2027 12:18:30.867   05 Jun 2027 12:26:06.110           455.243                Anadyr1         14226.344
       450   05 Jun 2027 13:56:16.948   05 Jun 2027 13:57:36.690            79.742                Anadyr1          2491.937
       451   05 Jun 2027 13:58:27.009   05 Jun 2027 14:02:13.907           226.898               Magadan2          7090.562
       452   05 Jun 2027 15:32:04.983   05 Jun 2027 15:34:27.719           142.736               Magadan1          4460.500
       453   05 Jun 2027 15:35:00.608   05 Jun 2027 15:35:50.148            49.540               Magadan1          1548.125
       454   05 Jun 2027 15:37:41.792   05 Jun 2027 15:38:08.231            26.439               Magadan1           826.219
       455   05 Jun 2027 15:39:04.761   05 Jun 2027 15:40:25.449            80.688               Magadan1          2521.500
       456   05 Jun 2027 17:05:28.486   05 Jun 2027 17:05:53.366            24.880                Anadyr1           777.500
       457   05 Jun 2027 17:07:46.378   05 Jun 2027 17:09:40.005           113.627               Magadan2          3550.844
       458   05 Jun 2027 17:11:23.022   05 Jun 2027 17:12:35.189            72.167                Norilsk          2255.219
       459   05 Jun 2027 17:59:53.111   05 Jun 2027 18:03:17.139           204.028            RioGallegos          6375.875
       460   05 Jun 2027 18:09:20.067   05 Jun 2027 18:10:23.892            63.825            RioGallegos          1994.531
       461   05 Jun 2027 18:43:20.617   05 Jun 2027 18:45:05.424           104.807                Norilsk          3275.219
       462   05 Jun 2027 18:47:21.712   05 Jun 2027 18:47:44.282            22.570                Norilsk           705.312
       463   05 Jun 2027 18:47:50.363   05 Jun 2027 18:48:41.830            51.467                Norilsk          1608.344
       464   05 Jun 2027 18:49:15.181   05 Jun 2027 18:55:10.560           355.379                Novosib         11105.594
       465   05 Jun 2027 19:02:39.314   05 Jun 2027 19:04:01.996            82.682                Sumatra          2583.812
       466   05 Jun 2027 19:12:27.197   05 Jun 2027 19:13:43.683            76.486                Sumatra          2390.188
       467   05 Jun 2027 20:27:28.005   05 Jun 2027 20:27:39.391            11.386                Novosib           355.813
       468   05 Jun 2027 20:28:00.486   05 Jun 2027 20:29:55.484           114.998                Novosib          3593.688
       469   05 Jun 2027 20:30:58.736   05 Jun 2027 20:34:52.577           233.841                  Delhi          7307.531
       470   05 Jun 2027 20:36:13.676   05 Jun 2027 20:37:03.396            49.720                  Delhi          1553.750
       471   05 Jun 2027 21:57:38.178   05 Jun 2027 22:03:08.155           329.977              Murmansk2         10311.781
       472   05 Jun 2027 22:03:09.802   05 Jun 2027 22:09:32.807           383.005                 Moscow         11968.906
       473   06 Jun 2027 00:00:58.723   06 Jun 2027 00:02:54.042           115.319               CapeTown          3603.719
       474   06 Jun 2027 00:03:31.944   06 Jun 2027 00:04:55.831            83.887               CapeTown          2621.469
       475   06 Jun 2027 01:09:22.519   06 Jun 2027 01:10:27.780            65.261              Murmansk2          2039.406
       476   06 Jun 2027 01:12:37.388   06 Jun 2027 01:15:13.404           156.016                 Moscow          4875.500
       477   06 Jun 2027 01:41:59.156   06 Jun 2027 01:43:22.046            82.890               CapeTown          2590.313
       478   06 Jun 2027 02:33:11.686   06 Jun 2027 02:35:32.820           141.134               Magadan2          4410.437
       479   06 Jun 2027 02:39:14.871   06 Jun 2027 02:40:05.336            50.465               Magadan1          1577.031
       480   06 Jun 2027 02:43:00.828   06 Jun 2027 02:43:03.290             2.462                Norilsk            76.937
       481   06 Jun 2027 02:45:13.489   06 Jun 2027 02:45:57.402            43.913              Murmansk1          1372.281
       482   06 Jun 2027 02:46:15.346   06 Jun 2027 02:47:02.487            47.141              Murmansk2          1473.156
