uniorb/output/strategy_2/Drop/Drop_KinoSat_110603.txt

KinoSat_110603
-------------------------
    Access    *     Start Time (UTCG)     *     Stop Time (UTCG)  *   Duration (s)        *       Station  *  Data (Mbytes)
         1   01 Jun 2027 04:03:52.976   01 Jun 2027 04:04:24.971            31.995                Anadyr1           999.844
         2   01 Jun 2027 04:04:47.319   01 Jun 2027 04:05:15.332            28.013                Anadyr1           875.406
         3   01 Jun 2027 04:05:15.332   01 Jun 2027 04:06:45.248            89.916                Anadyr2          2809.875
         4   01 Jun 2027 04:06:54.515   01 Jun 2027 04:07:21.802            27.287                Anadyr2           852.719
         5   01 Jun 2027 04:07:54.083   01 Jun 2027 04:08:11.720            17.637               Magadan1           551.156
         6   01 Jun 2027 04:47:35.529   01 Jun 2027 04:49:41.547           126.018            RioGallegos          3938.062
         7   01 Jun 2027 05:40:53.399   01 Jun 2027 05:42:18.721            85.322               Magadan2          2666.312
         8   01 Jun 2027 05:42:30.911   01 Jun 2027 05:43:20.757            49.846               Magadan2          1557.687
         9   01 Jun 2027 05:43:26.759   01 Jun 2027 05:43:49.607            22.848                Novosib           714.000
        10   01 Jun 2027 05:44:15.401   01 Jun 2027 05:44:42.113            26.712               Magadan2           834.750
        11   01 Jun 2027 05:44:42.122   01 Jun 2027 05:45:15.502            33.380                Irkutsk          1043.125
        12   01 Jun 2027 06:19:58.616   01 Jun 2027 06:21:04.132            65.516            RioGallegos          2047.375
        13   01 Jun 2027 06:24:13.987   01 Jun 2027 06:24:47.892            33.905            RioGallegos          1059.531
        14   01 Jun 2027 06:25:51.506   01 Jun 2027 06:27:32.451           100.945            RioGallegos          3154.531
        15   01 Jun 2027 06:29:34.625   01 Jun 2027 06:31:06.106            91.481            RioGallegos          2858.781
        16   01 Jun 2027 06:55:10.372   01 Jun 2027 06:56:43.757            93.385                Sumatra          2918.281
        17   01 Jun 2027 06:57:48.090   01 Jun 2027 06:58:48.102            60.012                Sumatra          1875.375
        18   01 Jun 2027 07:07:16.422   01 Jun 2027 07:13:42.493           386.071                  Delhi         12064.719
        19   01 Jun 2027 07:16:54.302   01 Jun 2027 07:17:01.543             7.241                Novosib           226.281
        20   01 Jun 2027 07:18:12.662   01 Jun 2027 07:19:29.806            77.144                Irkutsk          2410.750
        21   01 Jun 2027 07:19:38.456   01 Jun 2027 07:21:12.146            93.690                Irkutsk          2927.812
        22   01 Jun 2027 07:21:14.896   01 Jun 2027 07:21:16.707             1.811                Novosib            56.594
        23   01 Jun 2027 07:22:08.622   01 Jun 2027 07:22:13.162             4.540                Novosib           141.875
        24   01 Jun 2027 08:39:06.211   01 Jun 2027 08:40:24.270            78.059                  Delhi          2439.344
        25   01 Jun 2027 08:55:46.572   01 Jun 2027 08:56:06.465            19.893                Novosib           621.656
        26   01 Jun 2027 08:56:33.877   01 Jun 2027 08:57:58.474            84.597              Murmansk1          2643.656
        27   01 Jun 2027 08:57:58.474   01 Jun 2027 08:58:19.551            21.077              Murmansk2           658.656
        28   01 Jun 2027 08:58:27.707   01 Jun 2027 08:58:37.308             9.601                Novosib           300.031
        29   01 Jun 2027 08:58:37.952   01 Jun 2027 08:59:43.464            65.512                 Moscow          2047.250
        30   01 Jun 2027 08:59:53.702   01 Jun 2027 09:01:37.733           104.031              Murmansk2          3250.969
        31   01 Jun 2027 09:02:15.529   01 Jun 2027 09:02:15.712             0.183                Norilsk             5.719
        32   01 Jun 2027 09:02:31.792   01 Jun 2027 09:03:12.329            40.537              Murmansk2          1266.781
        33   01 Jun 2027 09:03:16.931   01 Jun 2027 09:03:55.702            38.771              Murmansk1          1211.594
        34   01 Jun 2027 10:18:11.372   01 Jun 2027 10:22:41.479           270.107                  Delhi          8440.844
        35   01 Jun 2027 10:24:15.748   01 Jun 2027 10:24:50.708            34.960                  Delhi          1092.500
        36   01 Jun 2027 10:29:17.389   01 Jun 2027 10:32:37.929           200.540                Novosib          6266.875
        37   01 Jun 2027 10:32:45.566   01 Jun 2027 10:33:11.057            25.491                 Moscow           796.594
        38   01 Jun 2027 10:33:27.426   01 Jun 2027 10:38:05.004           277.578                Norilsk          8674.313
        39   01 Jun 2027 10:38:56.184   01 Jun 2027 10:39:13.959            17.775              Murmansk1           555.469
        40   01 Jun 2027 11:39:37.858   01 Jun 2027 11:46:31.370           413.512               CapeTown         12922.250
        41   01 Jun 2027 12:18:23.616   01 Jun 2027 12:25:58.495           454.879                Anadyr2         14214.969
        42   01 Jun 2027 13:58:20.076   01 Jun 2027 14:02:05.950           225.874               Magadan1          7058.562
        43   01 Jun 2027 15:34:20.366   01 Jun 2027 15:36:11.729           111.363               Magadan2          3480.094
        44   01 Jun 2027 15:36:11.729   01 Jun 2027 15:37:34.493            82.764               Magadan1          2586.375
        45   01 Jun 2027 15:38:57.429   01 Jun 2027 15:39:04.108             6.679               Magadan1           208.719
        46   01 Jun 2027 15:40:31.162   01 Jun 2027 15:41:29.828            58.666               Magadan1          1833.313
        47   01 Jun 2027 15:42:02.018   01 Jun 2027 15:43:09.018            67.000               Magadan2          2093.750
        48   01 Jun 2027 15:43:09.018   01 Jun 2027 15:43:37.330            28.312               Magadan1           884.750
        49   01 Jun 2027 17:08:00.084   01 Jun 2027 17:12:35.565           275.481                Norilsk          8608.781
        50   01 Jun 2027 18:03:09.762   01 Jun 2027 18:03:42.889            33.127            RioGallegos          1035.219
        51   01 Jun 2027 18:06:19.239   01 Jun 2027 18:06:56.469            37.230            RioGallegos          1163.438
        52   01 Jun 2027 18:08:05.780   01 Jun 2027 18:10:16.630           130.850            RioGallegos          4089.063
        53   01 Jun 2027 18:48:34.467   01 Jun 2027 18:49:16.592            42.125                Norilsk          1316.406
        54   01 Jun 2027 18:49:30.385   01 Jun 2027 18:55:02.783           332.398                Novosib         10387.438
        55   01 Jun 2027 19:11:02.306   01 Jun 2027 19:11:43.643            41.337                Sumatra          1291.781
        56   01 Jun 2027 19:12:19.173   01 Jun 2027 19:13:36.318            77.145                Sumatra          2410.781
        57   01 Jun 2027 20:30:38.250   01 Jun 2027 20:31:16.850            38.600                Novosib          1206.250
        58   01 Jun 2027 20:32:42.741   01 Jun 2027 20:34:45.279           122.538                  Delhi          3829.313
        59   01 Jun 2027 20:36:36.603   01 Jun 2027 20:37:00.463            23.860                  Delhi           745.625
        60   01 Jun 2027 20:39:25.364   01 Jun 2027 20:42:08.471           163.107                  Delhi          5097.094
        61   01 Jun 2027 21:57:30.866   01 Jun 2027 22:03:00.827           329.961              Murmansk2         10311.281
        62   01 Jun 2027 22:03:02.389   01 Jun 2027 22:09:25.120           382.731                 Moscow         11960.344
        63   01 Jun 2027 23:48:25.172   01 Jun 2027 23:48:36.830            11.658                 Moscow           364.312
        64   02 Jun 2027 00:00:51.498   02 Jun 2027 00:02:29.534            98.036               CapeTown          3063.625
        65   02 Jun 2027 00:04:48.514   02 Jun 2027 00:05:01.515            13.001               CapeTown           406.281
        66   02 Jun 2027 00:07:03.597   02 Jun 2027 00:08:02.267            58.670               CapeTown          1833.437
        67   02 Jun 2027 00:10:15.377   02 Jun 2027 00:12:14.482           119.105               CapeTown          3722.031
        68   02 Jun 2027 01:13:23.863   02 Jun 2027 01:13:38.577            14.714              Murmansk2           459.812
        69   02 Jun 2027 01:15:06.214   02 Jun 2027 01:15:25.361            19.147                 Moscow           598.344
        70   02 Jun 2027 01:16:49.110   02 Jun 2027 01:16:57.911             8.801                 Moscow           275.031
        71   02 Jun 2027 01:17:12.280   02 Jun 2027 01:17:22.996            10.716                 Moscow           334.875
        72   02 Jun 2027 01:17:47.874   02 Jun 2027 01:18:00.199            12.325              Murmansk1           385.156
        73   02 Jun 2027 01:18:08.374   02 Jun 2027 01:18:22.238            13.864              Murmansk1           433.250
        74   02 Jun 2027 01:19:01.323   02 Jun 2027 01:21:00.301           118.978                 Moscow          3718.063
        75   02 Jun 2027 01:46:03.036   02 Jun 2027 01:46:34.842            31.806               CapeTown           993.938
        76   02 Jun 2027 02:33:04.413   02 Jun 2027 02:34:54.912           110.499               Magadan2          3453.094
        77   02 Jun 2027 02:36:03.046   02 Jun 2027 02:36:04.148             1.102               Magadan2            34.438
        78   02 Jun 2027 02:36:16.709   02 Jun 2027 02:36:32.975            16.266               Magadan2           508.313
        79   02 Jun 2027 02:37:04.499   02 Jun 2027 02:37:11.262             6.763               Magadan1           211.344
        80   02 Jun 2027 02:37:26.443   02 Jun 2027 02:38:02.361            35.918               Magadan1          1122.438
        81   02 Jun 2027 02:40:17.305   02 Jun 2027 02:40:29.705            12.400               Magadan2           387.500
        82   02 Jun 2027 02:40:54.191   02 Jun 2027 02:41:19.629            25.438                Norilsk           794.938
        83   02 Jun 2027 02:42:50.067   02 Jun 2027 02:42:55.941             5.874                Norilsk           183.563
        84   02 Jun 2027 02:43:33.505   02 Jun 2027 02:43:59.379            25.874                Norilsk           808.562
        85   02 Jun 2027 02:45:06.170   02 Jun 2027 02:45:34.091            27.921              Murmansk2           872.531
        86   02 Jun 2027 02:46:54.609   02 Jun 2027 02:47:24.701            30.092              Murmansk2           940.375
        87   02 Jun 2027 02:48:27.707   02 Jun 2027 02:48:46.258            18.551              Murmansk2           579.719
        88   02 Jun 2027 02:49:56.141   02 Jun 2027 02:50:08.869            12.728              Murmansk2           397.750
        89   02 Jun 2027 02:51:39.413   02 Jun 2027 02:51:45.988             6.575              Murmansk1           205.469
        90   02 Jun 2027 02:52:18.692   02 Jun 2027 02:52:53.303            34.611                 Moscow          1081.594
        91   02 Jun 2027 02:55:32.791   02 Jun 2027 02:56:36.478            63.687              Murmansk2          1990.219
        92   02 Jun 2027 03:26:12.993   02 Jun 2027 03:26:51.522            38.529            RioGallegos          1204.031
        93   02 Jun 2027 03:27:23.635   02 Jun 2027 03:27:43.460            19.825            RioGallegos           619.531
        94   02 Jun 2027 03:28:54.354   02 Jun 2027 03:29:20.781            26.427            RioGallegos           825.844
        95   02 Jun 2027 04:14:19.653   02 Jun 2027 04:14:29.900            10.247               Magadan2           320.219
        96   02 Jun 2027 04:14:40.806   02 Jun 2027 04:15:07.579            26.773               Magadan2           836.656
        97   02 Jun 2027 04:15:21.825   02 Jun 2027 04:17:21.966           120.141                Anadyr1          3754.406
        98   02 Jun 2027 04:17:47.212   02 Jun 2027 04:18:05.064            17.852               Magadan2           557.875
        99   02 Jun 2027 04:18:32.273   02 Jun 2027 04:19:21.258            48.985                Anadyr1          1530.781
       100   02 Jun 2027 04:19:24.581   02 Jun 2027 04:21:32.214           127.633               Magadan2          3988.531
       101   02 Jun 2027 04:22:52.522   02 Jun 2027 04:22:53.697             1.175                Norilsk            36.719
       102   02 Jun 2027 04:57:11.005   02 Jun 2027 05:00:58.495           227.490            RioGallegos          7109.063
       103   02 Jun 2027 05:52:12.744   02 Jun 2027 05:54:25.114           132.370                Irkutsk          4136.563
       104   02 Jun 2027 05:55:09.836   02 Jun 2027 05:56:27.955            78.119               Magadan2          2441.219
       105   02 Jun 2027 05:56:50.151   02 Jun 2027 05:58:09.849            79.698                Norilsk          2490.562
       106   02 Jun 2027 05:58:13.378   02 Jun 2027 05:58:32.219            18.841                Novosib           588.781
       107   02 Jun 2027 05:58:35.626   02 Jun 2027 05:59:18.586            42.960              Murmansk2          1342.500
       108   02 Jun 2027 06:32:03.343   02 Jun 2027 06:37:18.462           315.119            RioGallegos          9847.469
       109   02 Jun 2027 07:07:00.356   02 Jun 2027 07:10:39.271           218.915                Sumatra          6841.094
       110   02 Jun 2027 07:11:27.850   02 Jun 2027 07:12:54.389            86.539                Sumatra          2704.344
       111   02 Jun 2027 07:18:10.853   02 Jun 2027 07:26:27.844           496.991                  Delhi         15530.969
       112   02 Jun 2027 07:29:01.037   02 Jun 2027 07:30:17.069            76.032                Irkutsk          2376.000
       113   02 Jun 2027 07:31:38.476   02 Jun 2027 07:33:09.134            90.658                Irkutsk          2833.063
       114   02 Jun 2027 09:06:57.972   02 Jun 2027 09:07:13.197            15.225                Novosib           475.781
       115   02 Jun 2027 09:07:32.149   02 Jun 2027 09:08:34.486            62.337                 Moscow          1948.031
       116   02 Jun 2027 09:08:48.160   02 Jun 2027 09:09:28.058            39.898              Murmansk2          1246.813
       117   02 Jun 2027 09:09:49.069   02 Jun 2027 09:11:04.973            75.904                 Moscow          2372.000
       118   02 Jun 2027 10:32:02.667   02 Jun 2027 10:34:12.393           129.726                  Delhi          4053.937
       119   02 Jun 2027 10:38:56.049   02 Jun 2027 10:39:01.782             5.733              Murmansk2           179.156
       120   02 Jun 2027 10:39:13.462   02 Jun 2027 10:39:40.050            26.588              Murmansk1           830.875
       121   02 Jun 2027 10:39:42.600   02 Jun 2027 10:39:56.804            14.204                 Moscow           443.875
       122   02 Jun 2027 10:40:12.943   02 Jun 2027 10:40:16.020             3.077              Murmansk2            96.156
       123   02 Jun 2027 10:40:23.702   02 Jun 2027 10:41:21.160            57.458              Murmansk1          1795.562
       124   02 Jun 2027 10:41:27.589   02 Jun 2027 10:42:17.553            49.964              Murmansk1          1561.375
       125   02 Jun 2027 10:42:23.030   02 Jun 2027 10:43:12.719            49.689                 Moscow          1552.781
       126   02 Jun 2027 10:43:26.720   02 Jun 2027 10:43:27.940             1.220              Murmansk2            38.125
       127   02 Jun 2027 10:43:27.940   02 Jun 2027 10:43:40.592            12.652              Murmansk1           395.375
       128   02 Jun 2027 10:44:02.151   02 Jun 2027 10:44:05.873             3.722                 Moscow           116.313
       129   02 Jun 2027 10:44:07.945   02 Jun 2027 10:44:44.749            36.804              Murmansk1          1150.125
       130   02 Jun 2027 10:45:00.179   02 Jun 2027 10:46:16.421            76.242                 Moscow          2382.562
       131   02 Jun 2027 11:50:50.302   02 Jun 2027 11:59:28.638           518.336               CapeTown         16198.000
       132   02 Jun 2027 12:30:13.481   02 Jun 2027 12:36:04.708           351.227                Anadyr2         10975.844
       133   02 Jun 2027 12:36:29.008   02 Jun 2027 12:38:41.753           132.745                Anadyr1          4148.281
       134   02 Jun 2027 14:09:35.358   02 Jun 2027 14:15:27.532           352.174               Magadan1         11005.438
       135   02 Jun 2027 15:43:54.791   02 Jun 2027 15:46:06.870           132.079               Magadan2          4127.469
       136   02 Jun 2027 15:47:44.704   02 Jun 2027 15:47:53.753             9.049               Magadan2           282.781
       137   02 Jun 2027 15:48:11.349   02 Jun 2027 15:49:15.623            64.274               Magadan2          2008.563
       138   02 Jun 2027 15:51:15.350   02 Jun 2027 15:52:33.704            78.354               Magadan1          2448.563
       139   02 Jun 2027 17:19:40.577   02 Jun 2027 17:21:18.772            98.195               Magadan2          3068.594
       140   02 Jun 2027 17:23:50.711   02 Jun 2027 17:24:41.392            50.681                Norilsk          1583.781
       141   02 Jun 2027 17:25:54.937   02 Jun 2027 17:30:38.240           283.303                Irkutsk          8853.219
       142   02 Jun 2027 18:55:13.958   02 Jun 2027 18:56:02.430            48.472                Norilsk          1514.750
       143   02 Jun 2027 18:59:38.497   02 Jun 2027 19:00:16.110            37.613                Norilsk          1175.406
       144   02 Jun 2027 19:00:36.190   02 Jun 2027 19:08:03.915           447.725                Novosib         13991.406
       145   02 Jun 2027 19:14:57.935   02 Jun 2027 19:16:02.999            65.064                Sumatra          2033.250
       146   02 Jun 2027 19:23:05.032   02 Jun 2027 19:23:47.451            42.419                Sumatra          1325.594
       147   02 Jun 2027 20:37:34.457   02 Jun 2027 20:37:55.146            20.689                Novosib           646.531
       148   02 Jun 2027 20:38:49.868   02 Jun 2027 20:39:06.845            16.977                Novosib           530.531
       149   02 Jun 2027 20:39:39.969   02 Jun 2027 20:40:34.581            54.612                Novosib          1706.625
       150   02 Jun 2027 20:42:38.723   02 Jun 2027 20:44:31.159           112.436                  Delhi          3513.625
       151   02 Jun 2027 20:45:07.740   02 Jun 2027 20:46:34.439            86.699                  Delhi          2709.344
       152   02 Jun 2027 22:09:29.052   02 Jun 2027 22:14:58.275           329.223              Murmansk2         10288.219
       153   02 Jun 2027 22:15:01.389   02 Jun 2027 22:21:21.517           380.128                 Moscow         11879.000
       154   02 Jun 2027 22:42:27.185   02 Jun 2027 22:45:57.723           210.538               CapeTown          6579.313
       155   03 Jun 2027 00:15:12.954   03 Jun 2027 00:15:43.985            31.031               CapeTown           969.719
       156   03 Jun 2027 01:13:02.168   03 Jun 2027 01:13:19.312            17.144               Magadan1           535.750
       157   03 Jun 2027 01:15:49.173   03 Jun 2027 01:16:04.833            15.660               Magadan2           489.375
       158   03 Jun 2027 01:16:30.042   03 Jun 2027 01:17:05.778            35.736               Magadan1          1116.750
       159   03 Jun 2027 01:21:16.578   03 Jun 2027 01:22:02.668            46.090              Murmansk1          1440.312
       160   03 Jun 2027 01:22:07.227   03 Jun 2027 01:22:22.038            14.811              Murmansk2           462.844
       161   03 Jun 2027 01:23:31.819   03 Jun 2027 01:23:52.216            20.397              Murmansk2           637.406
       162   03 Jun 2027 01:24:33.461   03 Jun 2027 01:26:36.395           122.934                 Moscow          3841.688
       163   03 Jun 2027 01:49:54.157   03 Jun 2027 01:50:38.148            43.991               CapeTown          1374.719
       164   03 Jun 2027 01:56:20.125   03 Jun 2027 01:56:33.981            13.856               CapeTown           433.000
       165   03 Jun 2027 01:58:09.681   03 Jun 2027 01:58:17.382             7.701               CapeTown           240.656
       166   03 Jun 2027 01:59:00.928   03 Jun 2027 01:59:06.894             5.966               CapeTown           186.438
       167   03 Jun 2027 02:44:57.717   03 Jun 2027 02:48:06.254           188.537               Magadan1          5891.781
       168   03 Jun 2027 02:51:56.005   03 Jun 2027 02:52:18.577            22.572               Magadan1           705.375
       169   03 Jun 2027 02:53:22.016   03 Jun 2027 02:53:22.296             0.280               Magadan1             8.750
       170   03 Jun 2027 02:53:35.320   03 Jun 2027 02:53:44.869             9.549                Norilsk           298.406
       171   03 Jun 2027 02:54:09.333   03 Jun 2027 02:54:43.279            33.946                Norilsk          1060.812
       172   03 Jun 2027 02:57:05.620   03 Jun 2027 02:57:50.999            45.379              Murmansk2          1418.094
       173   03 Jun 2027 02:57:55.739   03 Jun 2027 02:59:03.732            67.993              Murmansk1          2124.781
       174   03 Jun 2027 03:37:16.317   03 Jun 2027 03:40:13.149           176.832            RioGallegos          5526.000
       175   03 Jun 2027 03:40:52.229   03 Jun 2027 03:42:18.277            86.048            RioGallegos          2689.000
       176   03 Jun 2027 04:27:26.938   03 Jun 2027 04:27:30.600             3.662               Magadan1           114.437
       177   03 Jun 2027 04:27:34.125   03 Jun 2027 04:27:41.244             7.119                Anadyr2           222.469
       178   03 Jun 2027 04:27:47.494   03 Jun 2027 04:29:19.470            91.976               Magadan2          2874.250
       179   03 Jun 2027 04:29:26.286   03 Jun 2027 04:30:04.516            38.230                Irkutsk          1194.687
       180   03 Jun 2027 04:30:14.498   03 Jun 2027 04:31:19.577            65.079                Anadyr2          2033.719
       181   03 Jun 2027 04:31:25.017   03 Jun 2027 04:32:36.010            70.993                Irkutsk          2218.531
       182   03 Jun 2027 04:32:46.981   03 Jun 2027 04:33:19.886            32.905              Murmansk2          1028.281
       183   03 Jun 2027 04:33:27.298   03 Jun 2027 04:33:30.806             3.508               Magadan1           109.625
       184   03 Jun 2027 05:08:53.176   03 Jun 2027 05:12:20.757           207.581            RioGallegos          6486.906
       185   03 Jun 2027 05:48:44.426   03 Jun 2027 05:50:58.331           133.905                Sumatra          4184.531
       186   03 Jun 2027 06:04:27.611   03 Jun 2027 06:04:37.854            10.243               Magadan1           320.094
       187   03 Jun 2027 06:04:40.105   03 Jun 2027 06:05:00.413            20.308               Magadan1           634.625
       188   03 Jun 2027 06:05:13.904   03 Jun 2027 06:07:46.283           152.379               Magadan1          4761.844
       189   03 Jun 2027 06:07:46.283   03 Jun 2027 06:08:08.162            21.879               Magadan2           683.719
       190   03 Jun 2027 06:08:11.398   03 Jun 2027 06:09:01.897            50.499              Murmansk1          1578.094
       191   03 Jun 2027 06:09:18.519   03 Jun 2027 06:10:35.342            76.823              Murmansk1          2400.719
       192   03 Jun 2027 06:13:56.103   03 Jun 2027 06:13:57.416             1.313              Murmansk1            41.031
       193   03 Jun 2027 06:14:41.244   03 Jun 2027 06:14:58.323            17.079              Murmansk1           533.719
       194   03 Jun 2027 06:44:11.584   03 Jun 2027 06:45:20.154            68.570            RioGallegos          2142.812
       195   03 Jun 2027 07:18:56.127   03 Jun 2027 07:21:48.667           172.540                Sumatra          5391.875
       196   03 Jun 2027 07:29:22.200   03 Jun 2027 07:37:04.395           462.195                  Delhi         14443.594
       197   03 Jun 2027 07:39:35.581   03 Jun 2027 07:39:54.121            18.540                Norilsk           579.375
       198   03 Jun 2027 07:40:43.350   03 Jun 2027 07:41:47.405            64.055                Norilsk          2001.719
       199   03 Jun 2027 07:41:56.638   03 Jun 2027 07:42:59.233            62.595              Murmansk2          1956.094
       200   03 Jun 2027 07:43:03.940   03 Jun 2027 07:43:26.813            22.873              Murmansk2           714.781
       201   03 Jun 2027 07:43:31.382   03 Jun 2027 07:43:38.497             7.115              Murmansk1           222.344
       202   03 Jun 2027 07:43:45.686   03 Jun 2027 07:44:14.800            29.114                 Moscow           909.812
       203   03 Jun 2027 07:44:43.087   03 Jun 2027 07:44:47.936             4.849                Novosib           151.531
       204   03 Jun 2027 07:45:07.428   03 Jun 2027 07:45:27.610            20.182              Murmansk2           630.687
       205   03 Jun 2027 07:45:38.804   03 Jun 2027 07:46:09.388            30.584                 Moscow           955.750
       206   03 Jun 2027 08:24:00.950   03 Jun 2027 08:24:48.493            47.543            RioGallegos          1485.719
       207   03 Jun 2027 08:30:27.595   03 Jun 2027 08:30:44.733            17.138            RioGallegos           535.562
       208   03 Jun 2027 08:59:59.891   03 Jun 2027 09:01:28.914            89.023                Sumatra          2781.969
       209   03 Jun 2027 09:03:11.537   03 Jun 2027 09:04:58.025           106.488                  Delhi          3327.750
       210   03 Jun 2027 09:17:04.302   03 Jun 2027 09:17:19.879            15.577                 Moscow           486.781
       211   03 Jun 2027 09:17:21.966   03 Jun 2027 09:17:47.515            25.549                Norilsk           798.406
       212   03 Jun 2027 09:17:51.174   03 Jun 2027 09:18:16.625            25.451                Norilsk           795.344
       213   03 Jun 2027 09:18:26.315   03 Jun 2027 09:18:57.973            31.658                Novosib           989.313
       214   03 Jun 2027 09:19:04.792   03 Jun 2027 09:19:36.937            32.145              Murmansk2          1004.531
       215   03 Jun 2027 09:19:36.937   03 Jun 2027 09:19:48.833            11.896              Murmansk1           371.750
       216   03 Jun 2027 09:20:05.899   03 Jun 2027 09:20:18.123            12.224                Norilsk           382.000
       217   03 Jun 2027 09:20:21.600   03 Jun 2027 09:20:36.330            14.730                Norilsk           460.313
       218   03 Jun 2027 09:20:41.787   03 Jun 2027 09:20:49.285             7.498                Novosib           234.312
       219   03 Jun 2027 09:20:51.619   03 Jun 2027 09:21:17.808            26.189              Murmansk1           818.406
       220   03 Jun 2027 09:21:17.808   03 Jun 2027 09:21:38.165            20.357              Murmansk2           636.156
       221   03 Jun 2027 10:50:57.800   03 Jun 2027 10:51:25.600            27.800              Murmansk1           868.750
       222   03 Jun 2027 10:51:29.039   03 Jun 2027 10:52:06.288            37.249              Murmansk1          1164.031
       223   03 Jun 2027 10:52:18.346   03 Jun 2027 10:52:41.769            23.423              Murmansk2           731.969
       224   03 Jun 2027 10:52:41.769   03 Jun 2027 10:53:18.701            36.932              Murmansk1          1154.125
       225   03 Jun 2027 10:53:27.943   03 Jun 2027 10:53:41.385            13.442              Murmansk2           420.062
       226   03 Jun 2027 10:53:48.657   03 Jun 2027 10:54:19.421            30.764              Murmansk2           961.375
       227   03 Jun 2027 10:54:30.691   03 Jun 2027 10:54:47.987            17.296              Murmansk2           540.500
       228   03 Jun 2027 10:54:47.987   03 Jun 2027 10:55:27.127            39.140              Murmansk1          1223.125
       229   03 Jun 2027 10:55:34.952   03 Jun 2027 10:56:16.929            41.977              Murmansk1          1311.781
       230   03 Jun 2027 10:56:26.878   03 Jun 2027 10:57:05.614            38.736              Murmansk2          1210.500
       231   03 Jun 2027 10:57:06.811   03 Jun 2027 10:57:10.624             3.813                 Moscow           119.156
       232   03 Jun 2027 10:57:18.480   03 Jun 2027 10:57:54.098            35.618                 Moscow          1113.062
       233   03 Jun 2027 10:59:10.509   03 Jun 2027 10:59:34.692            24.183              Murmansk1           755.719
       234   03 Jun 2027 12:02:17.936   03 Jun 2027 12:03:35.543            77.607               CapeTown          2425.219
       235   03 Jun 2027 12:04:14.630   03 Jun 2027 12:09:19.577           304.947               CapeTown          9529.594
       236   03 Jun 2027 12:42:06.133   03 Jun 2027 12:47:48.495           342.362                Anadyr1         10698.812
       237   03 Jun 2027 12:48:40.216   03 Jun 2027 12:51:19.820           159.604                Anadyr2          4987.625
       238   03 Jun 2027 14:17:35.923   03 Jun 2027 14:18:21.714            45.791                Anadyr1          1430.969
       239   03 Jun 2027 14:20:15.540   03 Jun 2027 14:20:59.622            44.082                Anadyr1          1377.563
       240   03 Jun 2027 14:21:09.261   03 Jun 2027 14:28:05.872           416.611               Magadan2         13019.094
       241   03 Jun 2027 15:55:52.829   03 Jun 2027 15:58:25.095           152.266               Magadan1          4758.312
       242   03 Jun 2027 17:29:21.291   03 Jun 2027 17:30:19.826            58.535                Anadyr1          1829.219
       243   03 Jun 2027 17:30:19.826   03 Jun 2027 17:31:09.156            49.330                Anadyr2          1541.562
       244   03 Jun 2027 17:31:39.496   03 Jun 2027 17:32:03.796            24.300                Norilsk           759.375
       245   03 Jun 2027 17:33:00.136   03 Jun 2027 17:33:57.501            57.365               Magadan1          1792.656
       246   03 Jun 2027 17:34:54.386   03 Jun 2027 17:35:52.721            58.335               Magadan2          1822.969
       247   03 Jun 2027 17:37:03.065   03 Jun 2027 17:38:05.101            62.036                Norilsk          1938.625
       248   03 Jun 2027 17:39:12.591   03 Jun 2027 17:43:56.540           283.949                Irkutsk          8873.406
       249   03 Jun 2027 17:53:19.557   03 Jun 2027 17:58:19.437           299.880                Sumatra          9371.250
       250   03 Jun 2027 19:12:14.584   03 Jun 2027 19:20:08.887           474.303                Novosib         14821.969
       251   03 Jun 2027 20:46:52.243   03 Jun 2027 20:47:05.246            13.003              Murmansk1           406.344
       252   03 Jun 2027 20:48:06.597   03 Jun 2027 20:49:51.465           104.868              Murmansk1          3277.125
       253   03 Jun 2027 20:57:23.446   03 Jun 2027 20:57:35.537            12.091                  Delhi           377.844
       254   03 Jun 2027 21:05:30.181   03 Jun 2027 21:06:38.202            68.021                  Delhi          2125.656
       255   03 Jun 2027 22:21:28.069   03 Jun 2027 22:23:00.542            92.473              Murmansk2          2889.781
       256   03 Jun 2027 22:23:05.503   03 Jun 2027 22:27:21.718           256.215              Murmansk1          8006.719
       257   03 Jun 2027 22:27:54.844   03 Jun 2027 22:31:42.861           228.017                 Moscow          7125.531
       258   03 Jun 2027 22:52:49.057   03 Jun 2027 22:59:10.413           381.356               CapeTown         11917.375
       259   04 Jun 2027 01:33:17.827   04 Jun 2027 01:34:01.480            43.653              Murmansk2          1364.156
       260   04 Jun 2027 01:35:24.470   04 Jun 2027 01:35:53.650            29.180              Murmansk2           911.875
       261   04 Jun 2027 01:36:37.356   04 Jun 2027 01:37:36.079            58.723                 Moscow          1835.094
       262   04 Jun 2027 01:39:01.701   04 Jun 2027 01:39:14.128            12.427                 Moscow           388.344
       263   04 Jun 2027 01:41:35.888   04 Jun 2027 01:41:50.006            14.118                 Moscow           441.187
       264   04 Jun 2027 01:46:15.343   04 Jun 2027 01:46:22.425             7.082                 Moscow           221.313
       265   04 Jun 2027 01:47:06.863   04 Jun 2027 01:47:11.627             4.764                 Moscow           148.875
       266   04 Jun 2027 02:02:39.809   04 Jun 2027 02:03:28.429            48.620               CapeTown          1519.375
       267   04 Jun 2027 02:04:39.384   04 Jun 2027 02:06:01.066            81.682               CapeTown          2552.563
       268   04 Jun 2027 02:56:53.272   04 Jun 2027 02:59:19.054           145.782               Magadan2          4555.688
       269   04 Jun 2027 03:01:10.239   04 Jun 2027 03:01:59.394            49.155                Anadyr1          1536.094
       270   04 Jun 2027 03:02:08.172   04 Jun 2027 03:02:58.536            50.364                Anadyr2          1573.875
       271   04 Jun 2027 03:03:00.490   04 Jun 2027 03:03:53.080            52.590               Magadan1          1643.438
       272   04 Jun 2027 03:03:56.654   04 Jun 2027 03:04:37.102            40.448                Anadyr2          1264.000
       273   04 Jun 2027 03:04:56.195   04 Jun 2027 03:05:04.087             7.892                Anadyr2           246.625
       274   04 Jun 2027 03:05:04.087   04 Jun 2027 03:07:02.140           118.053                Anadyr1          3689.156
       275   04 Jun 2027 03:08:09.372   04 Jun 2027 03:08:18.827             9.455               Magadan1           295.469
       276   04 Jun 2027 03:08:23.025   04 Jun 2027 03:08:32.032             9.007               Magadan2           281.469
       277   04 Jun 2027 04:38:51.655   04 Jun 2027 04:38:55.045             3.390                Anadyr2           105.937
       278   04 Jun 2027 04:38:59.094   04 Jun 2027 04:39:09.696            10.602                Anadyr2           331.313
       279   04 Jun 2027 04:39:12.863   04 Jun 2027 04:39:13.781             0.918               Magadan2            28.687
       280   04 Jun 2027 04:39:34.541   04 Jun 2027 04:39:54.195            19.654                Irkutsk           614.187
       281   04 Jun 2027 04:40:01.772   04 Jun 2027 04:41:35.976            94.204                Irkutsk          2943.875
       282   04 Jun 2027 04:41:40.205   04 Jun 2027 04:44:51.868           191.663                Anadyr1          5989.469
       283   04 Jun 2027 04:45:05.163   04 Jun 2027 04:45:28.579            23.416               Magadan2           731.750
       284   04 Jun 2027 05:20:38.575   04 Jun 2027 05:22:43.585           125.010            RioGallegos          3906.563
       285   04 Jun 2027 05:23:16.523   04 Jun 2027 05:23:47.505            30.982            RioGallegos           968.187
       286   04 Jun 2027 05:24:33.233   04 Jun 2027 05:26:38.380           125.147            RioGallegos          3910.844
       287   04 Jun 2027 05:58:30.007   04 Jun 2027 06:05:05.526           395.519                Sumatra         12359.969
       288   04 Jun 2027 06:15:41.246   04 Jun 2027 06:16:42.248            61.002                Novosib          1906.313
       289   04 Jun 2027 06:16:44.061   04 Jun 2027 06:16:48.881             4.820                Norilsk           150.625
       290   04 Jun 2027 06:16:58.439   04 Jun 2027 06:17:22.634            24.195                Novosib           756.094
       291   04 Jun 2027 06:17:27.539   04 Jun 2027 06:18:27.033            59.494               Magadan2          1859.187
       292   04 Jun 2027 06:18:28.500   04 Jun 2027 06:18:58.774            30.274                Irkutsk           946.063
       293   04 Jun 2027 06:19:01.712   04 Jun 2027 06:19:38.246            36.534               Magadan2          1141.687
       294   04 Jun 2027 06:19:43.742   04 Jun 2027 06:20:55.729            71.987              Murmansk2          2249.594
       295   04 Jun 2027 06:21:06.973   04 Jun 2027 06:22:00.270            53.297                Novosib          1665.531
       296   04 Jun 2027 06:23:51.370   04 Jun 2027 06:23:55.047             3.677              Murmansk2           114.906
       297   04 Jun 2027 06:27:52.810   04 Jun 2027 06:28:02.419             9.609              Murmansk2           300.281
       298   04 Jun 2027 06:56:23.537   04 Jun 2027 06:57:14.131            50.594            RioGallegos          1581.063
       299   04 Jun 2027 06:59:02.649   04 Jun 2027 06:59:48.101            45.452            RioGallegos          1420.375
       300   04 Jun 2027 07:30:57.484   04 Jun 2027 07:31:38.172            40.688                Sumatra          1271.500
       301   04 Jun 2027 07:32:58.399   04 Jun 2027 07:33:12.554            14.155                Sumatra           442.344
       302   04 Jun 2027 07:36:05.307   04 Jun 2027 07:36:23.855            18.548                Sumatra           579.625
       303   04 Jun 2027 07:39:17.482   04 Jun 2027 07:40:13.882            56.400                Sumatra          1762.500
       304   04 Jun 2027 07:40:44.538   04 Jun 2027 07:43:53.414           188.876                  Delhi          5902.375
       305   04 Jun 2027 07:45:21.850   04 Jun 2027 07:47:50.538           148.688                  Delhi          4646.500
       306   04 Jun 2027 07:51:19.251   04 Jun 2027 07:51:22.088             2.837                  Delhi            88.656
       307   04 Jun 2027 07:51:47.403   04 Jun 2027 07:52:58.844            71.441                Irkutsk          2232.531
       308   04 Jun 2027 07:53:04.610   04 Jun 2027 07:53:37.328            32.718              Murmansk1          1022.437
       309   04 Jun 2027 07:53:37.328   04 Jun 2027 07:53:55.735            18.407              Murmansk2           575.219
       310   04 Jun 2027 07:54:08.354   04 Jun 2027 07:54:35.194            26.840                Novosib           838.750
       311   04 Jun 2027 07:54:42.910   04 Jun 2027 07:55:14.254            31.344                 Moscow           979.500
       312   04 Jun 2027 07:55:19.105   04 Jun 2027 07:55:21.266             2.161              Murmansk2            67.531
       313   04 Jun 2027 07:55:36.667   04 Jun 2027 07:56:37.918            61.251              Murmansk2          1914.094
       314   04 Jun 2027 07:56:46.195   04 Jun 2027 07:57:24.396            38.201              Murmansk1          1193.781
       315   04 Jun 2027 07:57:30.267   04 Jun 2027 07:57:44.715            14.448                 Moscow           451.500
       316   04 Jun 2027 08:37:20.553   04 Jun 2027 08:38:33.903            73.350            RioGallegos          2292.188
       317   04 Jun 2027 09:15:22.574   04 Jun 2027 09:16:40.047            77.473                  Delhi          2421.031
       318   04 Jun 2027 09:18:10.847   04 Jun 2027 09:20:26.561           135.714                  Delhi          4241.062
       319   04 Jun 2027 09:28:46.886   04 Jun 2027 09:29:22.498            35.612                Norilsk          1112.875
       320   04 Jun 2027 09:29:24.133   04 Jun 2027 09:29:34.893            10.760              Murmansk1           336.250
       321   04 Jun 2027 09:29:38.443   04 Jun 2027 09:30:24.081            45.638                Novosib          1426.187
       322   04 Jun 2027 09:30:27.576   04 Jun 2027 09:31:07.396            39.820              Murmansk2          1244.375
       323   04 Jun 2027 09:31:10.579   04 Jun 2027 09:31:33.499            22.920              Murmansk1           716.250
       324   04 Jun 2027 09:31:46.448   04 Jun 2027 09:32:02.849            16.401              Murmansk1           512.531
       325   04 Jun 2027 09:32:02.849   04 Jun 2027 09:32:22.636            19.787              Murmansk2           618.344
       326   04 Jun 2027 09:32:25.444   04 Jun 2027 09:33:04.385            38.941                 Moscow          1216.906
       327   04 Jun 2027 09:39:10.716   04 Jun 2027 09:39:20.602             9.886              Murmansk1           308.937
       328   04 Jun 2027 11:02:51.423   04 Jun 2027 11:03:51.432            60.009                 Moscow          1875.281
       329   04 Jun 2027 11:05:01.332   04 Jun 2027 11:05:10.072             8.740              Murmansk2           273.125
       330   04 Jun 2027 11:05:10.072   04 Jun 2027 11:05:27.836            17.764              Murmansk1           555.125
       331   04 Jun 2027 11:05:42.943   04 Jun 2027 11:06:20.470            37.527              Murmansk2          1172.719
       332   04 Jun 2027 11:06:21.537   04 Jun 2027 11:06:39.225            17.688              Murmansk2           552.750
       333   04 Jun 2027 11:07:11.942   04 Jun 2027 11:08:08.083            56.141                 Moscow          1754.406
       334   04 Jun 2027 12:13:54.631   04 Jun 2027 12:17:23.226           208.595               CapeTown          6518.594
       335   04 Jun 2027 12:18:08.525   04 Jun 2027 12:20:24.290           135.765               CapeTown          4242.656
       336   04 Jun 2027 12:40:15.123   04 Jun 2027 12:40:17.244             2.121              Murmansk1            66.281
       337   04 Jun 2027 12:41:00.279   04 Jun 2027 12:41:32.258            31.979              Murmansk2           999.344
       338   04 Jun 2027 12:54:00.767   04 Jun 2027 12:56:21.507           140.740                Anadyr1          4398.125
       339   04 Jun 2027 12:57:39.061   04 Jun 2027 12:59:47.458           128.397                Anadyr2          4012.406
       340   04 Jun 2027 13:00:48.395   04 Jun 2027 13:03:53.546           185.151                Anadyr2          5785.969
       341   04 Jun 2027 14:29:36.480   04 Jun 2027 14:30:51.715            75.235                Anadyr1          2351.094
       342   04 Jun 2027 14:31:13.196   04 Jun 2027 14:32:12.309            59.113                Anadyr2          1847.281
       343   04 Jun 2027 14:32:51.461   04 Jun 2027 14:39:07.472           376.011               Magadan2         11750.344
       344   04 Jun 2027 14:40:35.659   04 Jun 2027 14:41:16.536            40.877               Magadan1          1277.406
       345   04 Jun 2027 16:07:51.635   04 Jun 2027 16:09:03.822            72.187               Magadan2          2255.844
       346   04 Jun 2027 16:09:03.822   04 Jun 2027 16:09:54.771            50.949               Magadan1          1592.156
       347   04 Jun 2027 16:10:40.140   04 Jun 2027 16:11:49.124            68.984               Magadan1          2155.750
       348   04 Jun 2027 17:02:17.319   04 Jun 2027 17:06:33.881           256.562            RioGallegos          8017.562
       349   04 Jun 2027 17:44:15.045   04 Jun 2027 17:44:56.490            41.445                Norilsk          1295.156
       350   04 Jun 2027 17:48:38.328   04 Jun 2027 17:55:39.561           421.233                Irkutsk         13163.531
       351   04 Jun 2027 18:03:52.909   04 Jun 2027 18:11:39.419           466.510                Sumatra         14578.437
       352   04 Jun 2027 19:23:58.941   04 Jun 2027 19:25:21.764            82.823                Novosib          2588.219
       353   04 Jun 2027 19:26:40.411   04 Jun 2027 19:30:05.801           205.390                Novosib          6418.438
       354   04 Jun 2027 19:34:48.526   04 Jun 2027 19:38:21.531           213.005                  Delhi          6656.406
       355   04 Jun 2027 20:58:24.294   04 Jun 2027 21:03:02.537           278.243              Murmansk1          8695.094
       356   04 Jun 2027 22:35:54.120   04 Jun 2027 22:39:42.873           228.753              Murmansk2          7148.531
       357   04 Jun 2027 22:41:04.540   04 Jun 2027 22:45:27.289           262.749                 Moscow          8210.906
       358   04 Jun 2027 23:03:45.186   04 Jun 2027 23:11:51.948           486.762               CapeTown         15211.312
       359   05 Jun 2027 03:15:49.011   05 Jun 2027 03:16:41.353            52.342               Magadan1          1635.688
       360   05 Jun 2027 03:16:57.349   05 Jun 2027 03:17:38.150            40.801                Anadyr2          1275.031
       361   05 Jun 2027 03:17:43.234   05 Jun 2027 03:20:11.549           148.315                Anadyr2          4634.844
       362   05 Jun 2027 03:20:44.092   05 Jun 2027 03:20:58.405            14.313               Magadan1           447.281
       363   05 Jun 2027 03:21:15.828   05 Jun 2027 03:21:21.335             5.507                Anadyr2           172.094
       364   05 Jun 2027 04:52:28.763   05 Jun 2027 04:54:25.668           116.905               Magadan2          3653.281
       365   05 Jun 2027 04:54:25.668   05 Jun 2027 04:54:55.847            30.179               Magadan1           943.094
       366   05 Jun 2027 04:54:55.921   05 Jun 2027 04:55:18.004            22.083                Anadyr2           690.094
       367   05 Jun 2027 04:55:22.041   05 Jun 2027 04:56:28.556            66.515                Anadyr2          2078.594
       368   05 Jun 2027 04:56:31.427   05 Jun 2027 04:57:25.368            53.941               Magadan2          1685.656
       369   05 Jun 2027 04:57:40.435   05 Jun 2027 04:58:01.805            21.370                Novosib           667.812
       370   05 Jun 2027 05:02:13.033   05 Jun 2027 05:02:14.278             1.245                Norilsk            38.906
       371   05 Jun 2027 05:32:27.149   05 Jun 2027 05:35:18.239           171.090            RioGallegos          5346.563
       372   05 Jun 2027 05:36:20.193   05 Jun 2027 05:37:13.948            53.755            RioGallegos          1679.844
       373   05 Jun 2027 06:09:23.119   05 Jun 2027 06:18:06.258           523.139                Sumatra         16348.094
       374   05 Jun 2027 06:27:09.020   05 Jun 2027 06:28:14.801            65.781                Irkutsk          2055.656
       375   05 Jun 2027 06:29:05.672   05 Jun 2027 06:29:07.070             1.398                Irkutsk            43.687
       376   05 Jun 2027 06:29:14.804   05 Jun 2027 06:30:24.021            69.217               Magadan2          2163.031
       377   05 Jun 2027 06:30:24.110   05 Jun 2027 06:32:08.844           104.734                Irkutsk          3272.937
       378   05 Jun 2027 06:32:48.475   05 Jun 2027 06:33:34.863            46.388              Murmansk2          1449.625
       379   05 Jun 2027 06:35:22.543   05 Jun 2027 06:35:48.442            25.899              Murmansk1           809.344
       380   05 Jun 2027 06:37:35.573   05 Jun 2027 06:37:59.480            23.907              Murmansk2           747.094
       381   05 Jun 2027 07:09:10.771   05 Jun 2027 07:09:11.301             0.530            RioGallegos            16.562
       382   05 Jun 2027 07:09:37.707   05 Jun 2027 07:10:47.445            69.738            RioGallegos          2179.312
       383   05 Jun 2027 07:43:04.513   05 Jun 2027 07:44:46.451           101.938                Sumatra          3185.563
       384   05 Jun 2027 07:50:58.373   05 Jun 2027 07:51:22.910            24.537                Sumatra           766.781
       385   05 Jun 2027 07:52:15.239   05 Jun 2027 07:53:44.081            88.842                  Delhi          2776.313
       386   05 Jun 2027 07:53:51.418   05 Jun 2027 07:55:44.357           112.939                  Delhi          3529.344
       387   05 Jun 2027 07:56:22.412   05 Jun 2027 07:57:38.988            76.576                  Delhi          2393.000
       388   05 Jun 2027 07:58:09.719   05 Jun 2027 07:58:57.379            47.660                  Delhi          1489.375
       389   05 Jun 2027 08:04:14.198   05 Jun 2027 08:04:16.044             1.846                Irkutsk            57.688
       390   05 Jun 2027 08:04:52.279   05 Jun 2027 08:05:37.849            45.570              Murmansk1          1424.063
       391   05 Jun 2027 08:05:38.557   05 Jun 2027 08:05:55.222            16.665              Murmansk2           520.781
       392   05 Jun 2027 08:06:12.978   05 Jun 2027 08:06:40.537            27.559                Norilsk           861.219
       393   05 Jun 2027 08:06:45.624   05 Jun 2027 08:07:10.979            25.355                Norilsk           792.344
       394   05 Jun 2027 08:07:13.462   05 Jun 2027 08:08:30.909            77.447              Murmansk1          2420.219
       395   05 Jun 2027 08:08:35.655   05 Jun 2027 08:08:57.101            21.446              Murmansk2           670.188
       396   05 Jun 2027 08:09:19.916   05 Jun 2027 08:10:03.002            43.086              Murmansk1          1346.438
       397   05 Jun 2027 08:10:29.829   05 Jun 2027 08:10:30.712             0.883              Murmansk1            27.594
       398   05 Jun 2027 08:10:44.277   05 Jun 2027 08:11:40.681            56.404                 Moscow          1762.625
       399   05 Jun 2027 09:27:39.851   05 Jun 2027 09:30:01.440           141.589                  Delhi          4424.656
       400   05 Jun 2027 09:31:36.663   05 Jun 2027 09:31:59.455            22.792                  Delhi           712.250
       401   05 Jun 2027 09:35:38.341   05 Jun 2027 09:35:47.783             9.442                  Delhi           295.063
       402   05 Jun 2027 09:40:28.772   05 Jun 2027 09:41:13.203            44.431              Murmansk1          1388.469
       403   05 Jun 2027 09:41:20.594   05 Jun 2027 09:41:36.522            15.928              Murmansk2           497.750
       404   05 Jun 2027 09:41:36.592   05 Jun 2027 09:42:20.697            44.105                Novosib          1378.281
       405   05 Jun 2027 09:42:27.753   05 Jun 2027 09:43:18.045            50.292              Murmansk1          1571.625
       406   05 Jun 2027 09:43:31.379   05 Jun 2027 09:43:51.226            19.847              Murmansk1           620.219
       407   05 Jun 2027 09:43:53.563   05 Jun 2027 09:44:34.258            40.695                 Moscow          1271.719
       408   05 Jun 2027 09:44:51.870   05 Jun 2027 09:44:59.792             7.922              Murmansk1           247.562
       409   05 Jun 2027 09:45:24.992   05 Jun 2027 09:46:06.540            41.548                 Moscow          1298.375
       410   05 Jun 2027 11:15:55.132   05 Jun 2027 11:16:03.016             7.884                 Moscow           246.375
       411   05 Jun 2027 11:16:54.231   05 Jun 2027 11:17:10.997            16.766                 Moscow           523.937
       412   05 Jun 2027 11:17:15.336   05 Jun 2027 11:17:27.130            11.794              Murmansk2           368.562
       413   05 Jun 2027 11:17:41.119   05 Jun 2027 11:18:13.310            32.191              Murmansk1          1005.969
       414   05 Jun 2027 11:18:22.063   05 Jun 2027 11:19:27.751            65.688              Murmansk1          2052.750
       415   05 Jun 2027 11:19:36.772   05 Jun 2027 11:19:58.071            21.299                 Moscow           665.594
       416   05 Jun 2027 11:20:51.012   05 Jun 2027 11:21:04.421            13.409              Murmansk1           419.031
       417   05 Jun 2027 11:26:48.968   05 Jun 2027 11:27:00.314            11.346              Murmansk1           354.562
       418   05 Jun 2027 12:25:37.632   05 Jun 2027 12:29:31.640           234.008               CapeTown          7312.750
       419   05 Jun 2027 12:52:35.036   05 Jun 2027 12:54:19.386           104.350              Murmansk2          3260.937
       420   05 Jun 2027 12:57:14.307   05 Jun 2027 12:57:40.265            25.958              Murmansk1           811.187
       421   05 Jun 2027 12:58:16.999   05 Jun 2027 12:58:41.042            24.043              Murmansk1           751.344
       422   05 Jun 2027 13:05:56.864   05 Jun 2027 13:11:29.122           332.258                Anadyr2         10383.063
       423   05 Jun 2027 13:14:06.843   05 Jun 2027 13:15:29.111            82.268                Anadyr1          2570.875
       424   05 Jun 2027 14:41:37.283   05 Jun 2027 14:43:01.139            83.856                Anadyr1          2620.500
       425   05 Jun 2027 14:43:52.374   05 Jun 2027 14:44:42.444            50.070                Anadyr1          1564.688
       426   05 Jun 2027 14:44:43.313   05 Jun 2027 14:45:27.451            44.138                Anadyr2          1379.312
       427   05 Jun 2027 14:45:51.539   05 Jun 2027 14:53:57.859           486.320               Magadan2         15197.500
       428   05 Jun 2027 16:19:51.095   05 Jun 2027 16:20:43.558            52.463               Magadan2          1639.469
       429   05 Jun 2027 16:23:34.359   05 Jun 2027 16:23:45.415            11.056               Magadan2           345.500
       430   05 Jun 2027 17:13:23.453   05 Jun 2027 17:19:58.590           395.137            RioGallegos         12348.031
       431   05 Jun 2027 17:57:10.379   05 Jun 2027 17:57:58.618            48.239                Norilsk          1507.469
       432   05 Jun 2027 18:00:17.735   05 Jun 2027 18:08:02.978           465.243                Irkutsk         14538.844
       433   05 Jun 2027 18:14:58.411   05 Jun 2027 18:23:26.228           507.817                Sumatra         15869.281
       434   05 Jun 2027 19:39:45.879   05 Jun 2027 19:39:50.385             4.506                Novosib           140.812
       435   05 Jun 2027 19:45:14.694   05 Jun 2027 19:52:09.047           414.353                  Delhi         12948.531
       436   05 Jun 2027 21:10:09.001   05 Jun 2027 21:15:58.907           349.906              Murmansk1         10934.563
       437   05 Jun 2027 22:48:51.519   05 Jun 2027 22:49:26.913            35.394              Murmansk2          1106.062
       438   05 Jun 2027 22:52:30.172   05 Jun 2027 22:52:40.364            10.192              Murmansk2           318.500
       439   05 Jun 2027 23:16:45.056   05 Jun 2027 23:22:35.788           350.732               CapeTown         10960.375
       440   06 Jun 2027 01:47:35.524   06 Jun 2027 01:48:08.999            33.475               Magadan2          1046.094
       441   06 Jun 2027 01:52:37.491   06 Jun 2027 01:52:43.205             5.714               Magadan2           178.563
       442   06 Jun 2027 01:53:46.527   06 Jun 2027 01:53:55.612             9.085                Norilsk           283.906
       443   06 Jun 2027 01:54:17.656   06 Jun 2027 01:54:26.439             8.783               Magadan2           274.469
       444   06 Jun 2027 01:55:28.896   06 Jun 2027 01:55:29.339             0.443               Magadan1            13.844
       445   06 Jun 2027 01:55:35.061   06 Jun 2027 01:55:46.295            11.234                Norilsk           351.062
       446   06 Jun 2027 01:57:19.800   06 Jun 2027 01:58:48.579            88.779              Murmansk2          2774.344
       447   06 Jun 2027 02:00:46.599   06 Jun 2027 02:01:40.215            53.616                 Moscow          1675.500
       448   06 Jun 2027 02:02:27.500   06 Jun 2027 02:04:48.736           141.236                 Moscow          4413.625
       449   06 Jun 2027 03:27:43.514   06 Jun 2027 03:28:11.833            28.319               Magadan2           884.969
       450   06 Jun 2027 03:28:29.204   06 Jun 2027 03:28:39.916            10.712               Magadan2           334.750
       451   06 Jun 2027 03:28:43.610   06 Jun 2027 03:28:58.650            15.040                Anadyr2           470.000
       452   06 Jun 2027 03:29:03.747   06 Jun 2027 03:29:30.922            27.175                Anadyr2           849.219
       453   06 Jun 2027 03:29:43.105   06 Jun 2027 03:31:02.937            79.832                Anadyr2          2494.750
       454   06 Jun 2027 03:32:18.728   06 Jun 2027 03:32:37.487            18.759               Magadan1           586.219
       455   06 Jun 2027 04:16:18.980   06 Jun 2027 04:17:13.202            54.222            RioGallegos          1694.437
       456   06 Jun 2027 05:04:59.026   06 Jun 2027 05:07:26.964           147.938                Anadyr1          4623.063
       457   06 Jun 2027 05:07:35.534   06 Jun 2027 05:07:44.234             8.700                Anadyr1           271.875
       458   06 Jun 2027 05:07:45.910   06 Jun 2027 05:08:24.919            39.009               Magadan1          1219.031
       459   06 Jun 2027 05:08:59.933   06 Jun 2027 05:09:20.946            21.013               Magadan1           656.656
       460   06 Jun 2027 05:09:23.434   06 Jun 2027 05:10:14.038            50.604              Murmansk1          1581.375
       461   06 Jun 2027 05:15:53.979   06 Jun 2027 05:15:57.780             3.801              Murmansk2           118.781
       462   06 Jun 2027 05:16:44.871   06 Jun 2027 05:16:56.922            12.051              Murmansk2           376.594
       463   06 Jun 2027 05:44:18.886   06 Jun 2027 05:48:34.576           255.690            RioGallegos          7990.313
       464   06 Jun 2027 05:49:40.726   06 Jun 2027 05:50:03.874            23.148            RioGallegos           723.375
       465   06 Jun 2027 06:20:37.568   06 Jun 2027 06:28:20.642           463.074                Sumatra         14471.063
       466   06 Jun 2027 06:40:04.115   06 Jun 2027 06:40:12.532             8.417                Norilsk           263.031
       467   06 Jun 2027 06:40:40.092   06 Jun 2027 06:40:48.076             7.984                Novosib           249.500
       468   06 Jun 2027 06:40:50.614   06 Jun 2027 06:41:19.027            28.413                Norilsk           887.906
       469   06 Jun 2027 06:41:21.560   06 Jun 2027 06:43:53.814           152.254                Irkutsk          4757.938
       470   06 Jun 2027 06:43:59.004   06 Jun 2027 06:44:32.607            33.603                Novosib          1050.094
       471   06 Jun 2027 06:44:40.219   06 Jun 2027 06:45:07.710            27.491              Murmansk1           859.094
       472   06 Jun 2027 06:45:15.605   06 Jun 2027 06:45:53.161            37.556                Novosib          1173.625
       473   06 Jun 2027 06:46:36.368   06 Jun 2027 06:46:47.011            10.643              Murmansk2           332.594
       474   06 Jun 2027 06:47:18.636   06 Jun 2027 06:47:42.566            23.930              Murmansk1           747.812
       475   06 Jun 2027 07:20:59.723   06 Jun 2027 07:21:33.312            33.589            RioGallegos          1049.656
       476   06 Jun 2027 07:22:59.874   06 Jun 2027 07:23:15.651            15.777            RioGallegos           493.031
       477   06 Jun 2027 07:24:29.587   06 Jun 2027 07:24:41.931            12.344            RioGallegos           385.750
       478   06 Jun 2027 07:55:17.668   06 Jun 2027 07:56:28.150            70.482                Sumatra          2202.562
       479   06 Jun 2027 07:57:47.500   06 Jun 2027 07:58:57.460            69.960                Sumatra          2186.250
       480   06 Jun 2027 08:03:52.896   06 Jun 2027 08:05:38.786           105.890                  Delhi          3309.063
       481   06 Jun 2027 08:07:40.589   06 Jun 2027 08:08:54.084            73.495                  Delhi          2296.719
       482   06 Jun 2027 08:16:02.585   06 Jun 2027 08:16:51.737            49.152                Irkutsk          1536.000
