uniorb/output/strategy_2/Drop/Drop_KinoSat_111304.txt

KinoSat_111304
-------------------------
    Access    *     Start Time (UTCG)     *     Stop Time (UTCG)  *   Duration (s)        *       Station  *  Data (Mbytes)
         1   01 Jun 2027 03:41:21.840   01 Jun 2027 03:41:32.683            10.843              Murmansk2           338.844
         2   01 Jun 2027 03:42:12.838   01 Jun 2027 03:43:02.225            49.387              Murmansk1          1543.344
         3   01 Jun 2027 03:43:02.225   01 Jun 2027 03:44:03.912            61.687              Murmansk2          1927.719
         4   01 Jun 2027 03:44:43.585   01 Jun 2027 03:45:30.894            47.309                 Moscow          1478.406
         5   01 Jun 2027 03:58:28.974   01 Jun 2027 04:01:17.298           168.324               CapeTown          5260.125
         6   01 Jun 2027 04:02:23.461   01 Jun 2027 04:02:28.493             5.032               CapeTown           157.250
         7   01 Jun 2027 04:03:26.008   01 Jun 2027 04:04:26.948            60.940               CapeTown          1904.375
         8   01 Jun 2027 04:05:18.173   01 Jun 2027 04:05:38.464            20.291               CapeTown           634.094
         9   01 Jun 2027 04:07:07.007   01 Jun 2027 04:07:48.044            41.037               CapeTown          1282.406
        10   01 Jun 2027 04:08:43.986   01 Jun 2027 04:08:53.529             9.543               CapeTown           298.219
        11   01 Jun 2027 04:55:13.961   01 Jun 2027 04:56:21.434            67.473                Anadyr1          2108.531
        12   01 Jun 2027 05:01:43.595   01 Jun 2027 05:01:57.716            14.121               Magadan1           441.281
        13   01 Jun 2027 05:02:20.634   01 Jun 2027 05:08:09.029           348.395                Anadyr1         10887.344
        14   01 Jun 2027 05:12:04.291   01 Jun 2027 05:12:06.376             2.085                Norilsk            65.156
        15   01 Jun 2027 06:39:29.326   01 Jun 2027 06:39:40.047            10.721                Norilsk           335.031
        16   01 Jun 2027 06:39:47.840   01 Jun 2027 06:42:02.040           134.200               Magadan2          4193.750
        17   01 Jun 2027 06:42:25.476   01 Jun 2027 06:43:27.601            62.125                Anadyr1          1941.406
        18   01 Jun 2027 08:13:28.464   01 Jun 2027 08:14:04.854            36.390               Magadan1          1137.188
        19   01 Jun 2027 08:14:17.007   01 Jun 2027 08:14:46.732            29.725               Magadan2           928.906
        20   01 Jun 2027 08:15:31.178   01 Jun 2027 08:18:30.170           178.992                Anadyr2          5593.500
        21   01 Jun 2027 08:18:41.159   01 Jun 2027 08:19:22.389            41.230              Murmansk1          1288.437
        22   01 Jun 2027 08:19:22.389   01 Jun 2027 08:19:59.075            36.686              Murmansk2          1146.437
        23   01 Jun 2027 08:20:07.138   01 Jun 2027 08:20:31.159            24.021              Murmansk1           750.656
        24   01 Jun 2027 08:24:34.204   01 Jun 2027 08:24:40.508             6.304                Norilsk           197.000
        25   01 Jun 2027 08:28:47.384   01 Jun 2027 08:28:59.366            11.982              Murmansk1           374.438
        26   01 Jun 2027 08:54:27.298   01 Jun 2027 08:55:56.055            88.757            RioGallegos          2773.656
        27   01 Jun 2027 08:57:39.883   01 Jun 2027 08:57:57.736            17.853            RioGallegos           557.906
        28   01 Jun 2027 08:59:17.500   01 Jun 2027 08:59:49.504            32.004            RioGallegos          1000.125
        29   01 Jun 2027 09:31:18.572   01 Jun 2027 09:31:57.951            39.379                Sumatra          1230.594
        30   01 Jun 2027 09:34:09.194   01 Jun 2027 09:35:18.025            68.831                Sumatra          2150.969
        31   01 Jun 2027 09:50:01.406   01 Jun 2027 09:52:38.746           157.340               Magadan2          4916.875
        32   01 Jun 2027 09:53:21.378   01 Jun 2027 09:54:34.637            73.259                Novosib          2289.344
        33   01 Jun 2027 09:54:45.637   01 Jun 2027 09:55:28.922            43.285                Irkutsk          1352.656
        34   01 Jun 2027 09:55:31.496   01 Jun 2027 09:55:34.669             3.173                Novosib            99.156
        35   01 Jun 2027 09:55:54.414   01 Jun 2027 09:55:55.550             1.136              Murmansk2            35.500
        36   01 Jun 2027 09:56:18.550   01 Jun 2027 09:56:40.810            22.260              Murmansk1           695.625
        37   01 Jun 2027 09:56:49.520   01 Jun 2027 09:57:06.209            16.689                Norilsk           521.531
        38   01 Jun 2027 09:57:15.720   01 Jun 2027 09:57:32.702            16.982              Murmansk2           530.688
        39   01 Jun 2027 09:58:17.185   01 Jun 2027 09:58:22.354             5.169              Murmansk2           161.531
        40   01 Jun 2027 10:30:41.882   01 Jun 2027 10:31:42.145            60.263            RioGallegos          1883.219
        41   01 Jun 2027 10:32:10.731   01 Jun 2027 10:33:10.513            59.782            RioGallegos          1868.188
        42   01 Jun 2027 10:34:31.705   01 Jun 2027 10:34:55.987            24.282            RioGallegos           758.812
        43   01 Jun 2027 11:05:06.538   01 Jun 2027 11:05:28.198            21.660                Sumatra           676.875
        44   01 Jun 2027 11:07:19.203   01 Jun 2027 11:09:36.835           137.632                Sumatra          4301.000
        45   01 Jun 2027 11:26:48.472   01 Jun 2027 11:27:09.692            21.220                Norilsk           663.125
        46   01 Jun 2027 11:27:13.140   01 Jun 2027 11:27:38.636            25.496                Norilsk           796.750
        47   01 Jun 2027 11:27:45.016   01 Jun 2027 11:30:51.051           186.035                Irkutsk          5813.594
        48   01 Jun 2027 11:30:58.835   01 Jun 2027 11:31:15.536            16.701              Murmansk1           521.906
        49   01 Jun 2027 11:31:18.451   01 Jun 2027 11:31:49.339            30.888              Murmansk1           965.250
        50   01 Jun 2027 11:31:55.397   01 Jun 2027 11:32:57.150            61.753                Novosib          1929.781
        51   01 Jun 2027 12:49:42.770   01 Jun 2027 12:50:40.380            57.610                  Delhi          1800.312
        52   01 Jun 2027 12:57:52.543   01 Jun 2027 12:58:33.321            40.778                Novosib          1274.313
        53   01 Jun 2027 12:59:38.849   01 Jun 2027 13:01:16.517            97.668                Novosib          3052.125
        54   01 Jun 2027 13:01:23.455   01 Jun 2027 13:02:02.658            39.203              Murmansk2          1225.094
        55   01 Jun 2027 13:02:19.614   01 Jun 2027 13:03:42.323            82.709              Murmansk1          2584.656
        56   01 Jun 2027 13:04:52.608   01 Jun 2027 13:05:28.106            35.498                Norilsk          1109.313
        57   01 Jun 2027 14:33:36.516   01 Jun 2027 14:36:53.413           196.897                 Moscow          6153.031
        58   01 Jun 2027 14:37:07.356   01 Jun 2027 14:40:14.618           187.262              Murmansk2          5851.937
        59   01 Jun 2027 14:40:23.352   01 Jun 2027 14:40:29.075             5.723              Murmansk1           178.844
        60   01 Jun 2027 14:43:06.608   01 Jun 2027 14:44:21.188            74.580                Norilsk          2330.625
        61   01 Jun 2027 15:47:36.624   01 Jun 2027 15:50:59.332           202.708               CapeTown          6334.625
        62   01 Jun 2027 16:11:50.668   01 Jun 2027 16:12:17.290            26.622                 Moscow           831.938
        63   01 Jun 2027 16:14:37.463   01 Jun 2027 16:15:41.537            64.074              Murmansk1          2002.312
        64   01 Jun 2027 16:16:40.813   01 Jun 2027 16:18:04.932            84.119              Murmansk2          2628.719
        65   01 Jun 2027 16:27:56.396   01 Jun 2027 16:29:19.897            83.501                Anadyr2          2609.406
        66   01 Jun 2027 17:23:17.982   01 Jun 2027 17:25:07.007           109.025               CapeTown          3407.031
        67   01 Jun 2027 17:27:39.656   01 Jun 2027 17:27:41.277             1.621               CapeTown            50.656
        68   01 Jun 2027 17:54:37.008   01 Jun 2027 17:59:22.963           285.955              Murmansk2          8936.094
        69   01 Jun 2027 18:03:38.053   01 Jun 2027 18:04:02.195            24.142                Anadyr2           754.437
        70   01 Jun 2027 18:06:37.053   01 Jun 2027 18:08:00.486            83.433               Magadan1          2607.281
        71   01 Jun 2027 18:08:00.486   01 Jun 2027 18:08:38.373            37.887               Magadan2          1183.969
        72   01 Jun 2027 19:39:33.884   01 Jun 2027 19:41:52.387           138.503                Anadyr1          4328.219
        73   01 Jun 2027 19:42:37.454   01 Jun 2027 19:43:20.632            43.178                Anadyr1          1349.313
        74   01 Jun 2027 19:43:23.828   01 Jun 2027 19:45:37.226           133.398               Magadan2          4168.687
        75   01 Jun 2027 19:45:48.888   01 Jun 2027 19:46:02.076            13.188               Magadan1           412.125
        76   01 Jun 2027 19:46:39.940   01 Jun 2027 19:46:46.730             6.790               Magadan1           212.188
        77   01 Jun 2027 19:46:53.974   01 Jun 2027 19:47:29.312            35.338               Magadan1          1104.312
        78   01 Jun 2027 19:48:55.596   01 Jun 2027 19:49:28.836            33.240               Magadan1          1038.750
        79   01 Jun 2027 20:35:18.439   01 Jun 2027 20:38:04.403           165.964            RioGallegos          5186.375
        80   01 Jun 2027 20:40:52.585   01 Jun 2027 20:41:23.373            30.788            RioGallegos           962.125
        81   01 Jun 2027 20:41:49.309   01 Jun 2027 20:42:07.679            18.370            RioGallegos           574.063
        82   01 Jun 2027 21:15:21.569   01 Jun 2027 21:17:40.247           138.678                Anadyr1          4333.688
        83   01 Jun 2027 21:17:48.142   01 Jun 2027 21:19:09.124            80.982               Magadan1          2530.688
        84   01 Jun 2027 21:19:22.560   01 Jun 2027 21:19:39.267            16.707               Magadan2           522.094
        85   01 Jun 2027 21:20:05.305   01 Jun 2027 21:20:17.424            12.119                Norilsk           378.719
        86   01 Jun 2027 21:20:23.553   01 Jun 2027 21:20:42.883            19.330               Magadan2           604.063
        87   01 Jun 2027 21:20:48.015   01 Jun 2027 21:20:54.928             6.913               Magadan2           216.031
        88   01 Jun 2027 21:21:11.131   01 Jun 2027 21:21:12.023             0.892                Norilsk            27.875
        89   01 Jun 2027 21:22:13.862   01 Jun 2027 21:22:37.171            23.309               Magadan2           728.406
        90   01 Jun 2027 21:24:52.997   01 Jun 2027 21:25:31.178            38.181                Irkutsk          1193.156
        91   01 Jun 2027 21:31:06.014   01 Jun 2027 21:31:18.585            12.571                Irkutsk           392.844
        92   01 Jun 2027 21:36:54.689   01 Jun 2027 21:39:26.132           151.443                Sumatra          4732.594
        93   01 Jun 2027 21:41:30.132   01 Jun 2027 21:42:44.729            74.597                Sumatra          2331.156
        94   01 Jun 2027 22:50:33.874   01 Jun 2027 22:50:59.603            25.729                Anadyr1           804.031
        95   01 Jun 2027 22:51:08.347   01 Jun 2027 22:51:33.734            25.387                Anadyr2           793.344
        96   01 Jun 2027 22:52:21.019   01 Jun 2027 22:53:07.367            46.348                Anadyr1          1448.375
        97   01 Jun 2027 22:53:18.158   01 Jun 2027 22:55:19.129           120.971                Norilsk          3780.344
        98   01 Jun 2027 22:55:24.421   01 Jun 2027 22:55:52.647            28.226               Magadan2           882.062
        99   01 Jun 2027 22:56:48.295   01 Jun 2027 22:57:14.958            26.663               Magadan2           833.219
       100   01 Jun 2027 22:57:46.194   01 Jun 2027 23:00:45.087           178.893                Novosib          5590.406
       101   01 Jun 2027 23:07:08.130   01 Jun 2027 23:09:19.958           131.828                  Delhi          4119.625
       102   01 Jun 2027 23:55:59.081   01 Jun 2027 23:56:24.782            25.701            RioGallegos           803.156
       103   01 Jun 2027 23:56:53.406   01 Jun 2027 23:57:17.206            23.800            RioGallegos           743.750
       104   02 Jun 2027 00:24:50.710   02 Jun 2027 00:25:01.947            11.237                Anadyr2           351.156
       105   02 Jun 2027 00:25:09.097   02 Jun 2027 00:25:52.270            43.173                Anadyr2          1349.156
       106   02 Jun 2027 00:26:30.663   02 Jun 2027 00:26:51.666            21.003                Anadyr1           656.344
       107   02 Jun 2027 00:27:06.714   02 Jun 2027 00:27:25.279            18.565                Anadyr2           580.156
       108   02 Jun 2027 00:29:18.598   02 Jun 2027 00:29:34.867            16.269                Norilsk           508.406
       109   02 Jun 2027 00:29:51.585   02 Jun 2027 00:31:08.327            76.742               Magadan1          2398.188
       110   02 Jun 2027 00:31:08.327   02 Jun 2027 00:31:43.936            35.609               Magadan2          1112.781
       111   02 Jun 2027 00:32:05.973   02 Jun 2027 00:33:31.125            85.152              Murmansk1          2661.000
       112   02 Jun 2027 00:33:31.918   02 Jun 2027 00:35:17.470           105.552              Murmansk2          3298.500
       113   02 Jun 2027 00:36:38.673   02 Jun 2027 00:37:28.258            49.585              Murmansk2          1549.531
       114   02 Jun 2027 00:45:02.017   02 Jun 2027 00:47:09.126           127.109                  Delhi          3972.156
       115   02 Jun 2027 01:23:19.904   02 Jun 2027 01:23:46.770            26.866            RioGallegos           839.562
       116   02 Jun 2027 01:26:54.035   02 Jun 2027 01:27:13.946            19.911            RioGallegos           622.219
       117   02 Jun 2027 01:27:56.573   02 Jun 2027 01:27:57.764             1.191            RioGallegos            37.219
       118   02 Jun 2027 01:27:59.027   02 Jun 2027 01:28:53.965            54.938            RioGallegos          1716.812
       119   02 Jun 2027 01:57:52.428   02 Jun 2027 01:58:03.215            10.787                Anadyr2           337.094
       120   02 Jun 2027 01:58:44.202   02 Jun 2027 01:58:55.292            11.090                Anadyr2           346.563
       121   02 Jun 2027 01:59:08.658   02 Jun 2027 01:59:45.541            36.883                Anadyr2          1152.594
       122   02 Jun 2027 02:02:36.622   02 Jun 2027 02:03:19.821            43.199                Anadyr1          1349.969
       123   02 Jun 2027 02:03:50.159   02 Jun 2027 02:04:41.477            51.318               Magadan1          1603.688
       124   02 Jun 2027 02:06:19.074   02 Jun 2027 02:06:39.824            20.750               Magadan1           648.437
       125   02 Jun 2027 02:07:27.991   02 Jun 2027 02:08:26.159            58.168              Murmansk2          1817.750
       126   02 Jun 2027 02:08:35.249   02 Jun 2027 02:08:49.050            13.801              Murmansk2           431.281
       127   02 Jun 2027 02:09:14.092   02 Jun 2027 02:09:26.490            12.398                Novosib           387.437
       128   02 Jun 2027 02:09:58.763   02 Jun 2027 02:10:39.772            41.009                Novosib          1281.531
       129   02 Jun 2027 02:10:57.693   02 Jun 2027 02:11:13.529            15.836                Irkutsk           494.875
       130   02 Jun 2027 02:13:03.521   02 Jun 2027 02:14:03.809            60.288                Novosib          1884.000
       131   02 Jun 2027 02:19:43.902   02 Jun 2027 02:20:31.809            47.907                  Delhi          1497.094
       132   02 Jun 2027 02:24:27.694   02 Jun 2027 02:24:49.724            22.030                  Delhi           688.438
       133   02 Jun 2027 02:40:42.471   02 Jun 2027 02:41:05.257            22.786               CapeTown           712.062
       134   02 Jun 2027 02:42:25.944   02 Jun 2027 02:43:36.521            70.577               CapeTown          2205.531
       135   02 Jun 2027 03:52:54.629   02 Jun 2027 03:53:35.904            41.275                 Moscow          1289.844
       136   02 Jun 2027 03:53:53.627   02 Jun 2027 03:55:04.067            70.440              Murmansk2          2201.250
       137   02 Jun 2027 03:55:04.067   02 Jun 2027 03:56:06.548            62.481              Murmansk1          1952.531
       138   02 Jun 2027 04:10:31.784   02 Jun 2027 04:13:00.301           148.517               CapeTown          4641.156
       139   02 Jun 2027 05:14:00.407   02 Jun 2027 05:18:29.369           268.962               Magadan2          8405.062
       140   02 Jun 2027 05:18:30.890   02 Jun 2027 05:20:10.389            99.499                Anadyr2          3109.344
       141   02 Jun 2027 06:51:40.019   02 Jun 2027 06:52:34.336            54.317                Irkutsk          1697.406
       142   02 Jun 2027 08:25:12.124   02 Jun 2027 08:26:18.803            66.679               Magadan1          2083.719
       143   02 Jun 2027 08:26:36.062   02 Jun 2027 08:27:46.952            70.890                Irkutsk          2215.313
       144   02 Jun 2027 08:27:48.707   02 Jun 2027 08:28:12.481            23.774               Magadan2           742.937
       145   02 Jun 2027 08:28:21.394   02 Jun 2027 08:29:08.508            47.114                Irkutsk          1472.313
       146   02 Jun 2027 08:29:20.997   02 Jun 2027 08:30:01.622            40.625                Novosib          1269.531
       147   02 Jun 2027 08:30:03.573   02 Jun 2027 08:30:59.632            56.059               Magadan2          1751.844
       148   02 Jun 2027 08:31:02.496   02 Jun 2027 08:31:22.439            19.943               Magadan1           623.219
       149   02 Jun 2027 08:31:26.184   02 Jun 2027 08:32:52.048            85.864                Norilsk          2683.250
       150   02 Jun 2027 09:06:19.427   02 Jun 2027 09:07:15.710            56.283            RioGallegos          1758.844
       151   02 Jun 2027 09:15:45.511   02 Jun 2027 09:15:49.849             4.338            RioGallegos           135.563
       152   02 Jun 2027 09:18:13.911   02 Jun 2027 09:18:16.392             2.481            RioGallegos            77.531
       153   02 Jun 2027 09:42:34.537   02 Jun 2027 09:43:06.361            31.824                Sumatra           994.500
       154   02 Jun 2027 09:46:04.783   02 Jun 2027 09:47:01.560            56.777                Sumatra          1774.281
       155   02 Jun 2027 10:00:53.046   02 Jun 2027 10:01:03.736            10.690                Novosib           334.062
       156   02 Jun 2027 10:01:39.921   02 Jun 2027 10:02:50.257            70.336                Irkutsk          2198.000
       157   02 Jun 2027 10:02:55.081   02 Jun 2027 10:03:43.810            48.729                Irkutsk          1522.781
       158   02 Jun 2027 10:03:54.754   02 Jun 2027 10:04:50.598            55.844                Norilsk          1745.125
       159   02 Jun 2027 10:04:55.264   02 Jun 2027 10:04:58.297             3.033              Murmansk2            94.781
       160   02 Jun 2027 10:04:59.531   02 Jun 2027 10:05:26.620            27.089                Norilsk           846.531
       161   02 Jun 2027 10:05:38.896   02 Jun 2027 10:07:00.288            81.392                Irkutsk          2543.500
       162   02 Jun 2027 10:07:14.397   02 Jun 2027 10:07:30.246            15.849                Irkutsk           495.281
       163   02 Jun 2027 10:07:56.050   02 Jun 2027 10:08:30.053            34.003              Murmansk1          1062.594
       164   02 Jun 2027 10:43:02.772   02 Jun 2027 10:43:26.056            23.284            RioGallegos           727.625
       165   02 Jun 2027 10:43:44.722   02 Jun 2027 10:44:16.354            31.632            RioGallegos           988.500
       166   02 Jun 2027 10:45:37.116   02 Jun 2027 10:46:24.503            47.387            RioGallegos          1480.844
       167   02 Jun 2027 11:17:20.640   02 Jun 2027 11:17:56.580            35.940                Sumatra          1123.125
       168   02 Jun 2027 11:25:52.159   02 Jun 2027 11:26:24.475            32.316                  Delhi          1009.875
       169   02 Jun 2027 11:32:15.263   02 Jun 2027 11:32:21.233             5.970                  Delhi           186.563
       170   02 Jun 2027 11:32:21.976   02 Jun 2027 11:32:56.752            34.776                  Delhi          1086.750
       171   02 Jun 2027 11:38:01.253   02 Jun 2027 11:39:19.849            78.596                Irkutsk          2456.125
       172   02 Jun 2027 11:39:28.054   02 Jun 2027 11:39:44.877            16.823              Murmansk1           525.719
       173   02 Jun 2027 11:39:50.432   02 Jun 2027 11:41:44.641           114.209                Irkutsk          3569.031
       174   02 Jun 2027 11:41:51.319   02 Jun 2027 11:42:23.103            31.784              Murmansk2           993.250
       175   02 Jun 2027 11:42:27.656   02 Jun 2027 11:42:39.974            12.318                Irkutsk           384.937
       176   02 Jun 2027 11:42:54.754   02 Jun 2027 11:43:13.339            18.585                 Moscow           580.781
       177   02 Jun 2027 11:45:29.915   02 Jun 2027 11:45:41.159            11.244                Norilsk           351.375
       178   02 Jun 2027 13:02:08.269   02 Jun 2027 13:05:01.283           173.014                  Delhi          5406.688
       179   02 Jun 2027 13:06:53.225   02 Jun 2027 13:07:24.290            31.065                  Delhi           970.781
       180   02 Jun 2027 13:10:27.925   02 Jun 2027 13:10:50.631            22.706                Novosib           709.562
       181   02 Jun 2027 13:10:52.815   02 Jun 2027 13:11:38.207            45.392                 Moscow          1418.500
       182   02 Jun 2027 13:12:13.975   02 Jun 2027 13:13:14.082            60.107                Novosib          1878.344
       183   02 Jun 2027 13:13:18.662   02 Jun 2027 13:14:15.488            56.826              Murmansk1          1775.812
       184   02 Jun 2027 13:14:30.609   02 Jun 2027 13:14:46.633            16.024              Murmansk2           500.750
       185   02 Jun 2027 13:14:48.756   02 Jun 2027 13:15:07.734            18.978                Norilsk           593.063
       186   02 Jun 2027 13:17:32.691   02 Jun 2027 13:18:33.204            60.513                Norilsk          1891.031
       187   02 Jun 2027 14:45:42.681   02 Jun 2027 14:47:46.683           124.002                 Moscow          3875.063
       188   02 Jun 2027 14:48:53.815   02 Jun 2027 14:49:42.646            48.831                 Moscow          1525.969
       189   02 Jun 2027 14:49:54.617   02 Jun 2027 14:50:16.037            21.420                 Moscow           669.375
       190   02 Jun 2027 14:50:28.950   02 Jun 2027 14:52:25.239           116.289              Murmansk2          3634.031
       191   02 Jun 2027 14:55:21.496   02 Jun 2027 14:56:52.204            90.708                Norilsk          2834.625
       192   02 Jun 2027 14:58:28.369   02 Jun 2027 14:59:20.858            52.489                Norilsk          1640.281
       193   02 Jun 2027 15:06:22.677   02 Jun 2027 15:06:38.582            15.905                Anadyr2           497.031
       194   02 Jun 2027 15:06:51.075   02 Jun 2027 15:07:04.000            12.925                Anadyr2           403.906
       195   02 Jun 2027 15:07:30.939   02 Jun 2027 15:08:28.128            57.189                Anadyr2          1787.156
       196   02 Jun 2027 16:06:06.128   02 Jun 2027 16:06:42.756            36.628               CapeTown          1144.625
       197   02 Jun 2027 16:24:31.340   02 Jun 2027 16:25:13.581            42.241                 Moscow          1320.031
       198   02 Jun 2027 16:27:00.020   02 Jun 2027 16:28:22.318            82.298              Murmansk1          2571.812
       199   02 Jun 2027 16:31:05.027   02 Jun 2027 16:31:48.136            43.109              Murmansk2          1347.156
       200   02 Jun 2027 16:36:18.905   02 Jun 2027 16:36:54.046            35.141              Murmansk2          1098.156
       201   02 Jun 2027 16:39:54.023   02 Jun 2027 16:41:40.838           106.815                Anadyr2          3337.969
       202   02 Jun 2027 16:45:35.050   02 Jun 2027 16:45:39.682             4.632                Anadyr2           144.750
       203   02 Jun 2027 16:47:48.392   02 Jun 2027 16:48:28.861            40.469                Anadyr1          1264.656
       204   02 Jun 2027 17:35:31.407   02 Jun 2027 17:36:17.826            46.419               CapeTown          1450.594
       205   02 Jun 2027 17:42:41.977   02 Jun 2027 17:42:49.590             7.613               CapeTown           237.906
       206   02 Jun 2027 17:43:42.613   02 Jun 2027 17:45:19.436            96.823               CapeTown          3025.719
       207   02 Jun 2027 18:07:25.957   02 Jun 2027 18:09:53.005           147.048              Murmansk2          4595.250
       208   02 Jun 2027 18:10:33.799   02 Jun 2027 18:10:56.110            22.311              Murmansk2           697.219
       209   02 Jun 2027 18:12:12.748   02 Jun 2027 18:12:16.441             3.693              Murmansk1           115.406
       210   02 Jun 2027 18:15:39.320   02 Jun 2027 18:15:44.691             5.371                Anadyr1           167.844
       211   02 Jun 2027 18:15:56.647   02 Jun 2027 18:16:12.531            15.884                Anadyr1           496.375
       212   02 Jun 2027 18:17:00.603   02 Jun 2027 18:17:27.362            26.759                Anadyr1           836.219
       213   02 Jun 2027 18:18:28.068   02 Jun 2027 18:19:48.839            80.771               Magadan2          2524.094
       214   02 Jun 2027 18:21:28.702   02 Jun 2027 18:21:39.399            10.697               Magadan1           334.281
       215   02 Jun 2027 18:26:23.139   02 Jun 2027 18:26:27.097             3.958               Magadan1           123.688
       216   02 Jun 2027 18:27:09.765   02 Jun 2027 18:27:55.803            46.038               Magadan1          1438.687
       217   02 Jun 2027 19:51:35.207   02 Jun 2027 19:55:04.931           209.724                Anadyr1          6553.875
       218   02 Jun 2027 19:55:08.031   02 Jun 2027 19:57:50.208           162.177               Magadan2          5068.031
       219   02 Jun 2027 19:58:39.401   02 Jun 2027 19:58:46.686             7.285               Magadan1           227.656
       220   02 Jun 2027 20:01:01.693   02 Jun 2027 20:01:32.416            30.723               Magadan2           960.094
       221   02 Jun 2027 20:46:48.096   02 Jun 2027 20:49:44.976           176.880            RioGallegos          5527.500
       222   02 Jun 2027 20:53:16.664   02 Jun 2027 20:53:33.982            17.318            RioGallegos           541.187
       223   02 Jun 2027 21:27:20.283   02 Jun 2027 21:27:53.938            33.655                Anadyr2          1051.719
       224   02 Jun 2027 21:29:28.453   02 Jun 2027 21:33:10.762           222.309                Norilsk          6947.156
       225   02 Jun 2027 21:34:01.311   02 Jun 2027 21:35:14.987            73.676                Irkutsk          2302.375
       226   02 Jun 2027 21:43:12.188   02 Jun 2027 21:43:23.411            11.223                Irkutsk           350.719
       227   02 Jun 2027 21:48:17.420   02 Jun 2027 21:50:17.390           119.970                Sumatra          3749.062
       228   02 Jun 2027 21:52:00.420   02 Jun 2027 21:53:41.176           100.756                Sumatra          3148.625
       229   02 Jun 2027 23:05:54.059   02 Jun 2027 23:07:24.520            90.461                Norilsk          2826.906
       230   02 Jun 2027 23:07:41.107   02 Jun 2027 23:08:20.714            39.607               Magadan1          1237.719
       231   02 Jun 2027 23:09:37.926   02 Jun 2027 23:12:38.044           180.118                Novosib          5628.687
       232   02 Jun 2027 23:19:14.791   02 Jun 2027 23:19:46.166            31.375                  Delhi           980.469
       233   02 Jun 2027 23:21:35.448   02 Jun 2027 23:22:31.718            56.270                  Delhi          1758.437
       234   03 Jun 2027 00:05:42.225   03 Jun 2027 00:05:53.897            11.672            RioGallegos           364.750
       235   03 Jun 2027 00:07:18.316   03 Jun 2027 00:08:02.259            43.943            RioGallegos          1373.219
       236   03 Jun 2027 00:36:40.484   03 Jun 2027 00:36:59.418            18.934                Anadyr2           591.687
       237   03 Jun 2027 00:37:40.428   03 Jun 2027 00:38:32.001            51.573                Anadyr1          1611.656
       238   03 Jun 2027 00:38:47.850   03 Jun 2027 00:39:10.690            22.840                Anadyr2           713.750
       239   03 Jun 2027 00:41:20.509   03 Jun 2027 00:41:36.701            16.192                Norilsk           506.000
       240   03 Jun 2027 00:41:49.480   03 Jun 2027 00:43:11.186            81.706               Magadan2          2553.312
       241   03 Jun 2027 00:43:11.398   03 Jun 2027 00:43:12.290             0.892                Norilsk            27.875
       242   03 Jun 2027 00:43:15.743   03 Jun 2027 00:43:23.859             8.116                Norilsk           253.625
       243   03 Jun 2027 00:43:57.290   03 Jun 2027 00:46:09.549           132.259              Murmansk1          4133.094
       244   03 Jun 2027 00:46:49.468   03 Jun 2027 00:47:49.110            59.642              Murmansk1          1863.813
       245   03 Jun 2027 00:52:39.910   03 Jun 2027 00:54:34.378           114.468                  Delhi          3577.125
       246   03 Jun 2027 01:34:58.848   03 Jun 2027 01:35:57.895            59.047            RioGallegos          1845.219
       247   03 Jun 2027 01:38:36.922   03 Jun 2027 01:39:12.397            35.475            RioGallegos          1108.594
       248   03 Jun 2027 02:09:35.130   03 Jun 2027 02:10:53.756            78.626                Anadyr2          2457.062
       249   03 Jun 2027 02:15:20.553   03 Jun 2027 02:15:47.854            27.301                Anadyr2           853.156
       250   03 Jun 2027 02:15:57.631   03 Jun 2027 02:16:33.817            36.186               Magadan2          1130.812
       251   03 Jun 2027 02:17:13.343   03 Jun 2027 02:17:37.516            24.173                Norilsk           755.406
       252   03 Jun 2027 02:18:38.165   03 Jun 2027 02:18:44.699             6.534                Norilsk           204.188
       253   03 Jun 2027 02:18:59.434   03 Jun 2027 02:19:00.552             1.118                Norilsk            34.938
       254   03 Jun 2027 02:19:01.978   03 Jun 2027 02:19:17.320            15.342               Magadan1           479.438
       255   03 Jun 2027 02:19:28.877   03 Jun 2027 02:19:56.870            27.993              Murmansk1           874.781
       256   03 Jun 2027 02:20:10.439   03 Jun 2027 02:20:59.289            48.850              Murmansk2          1526.562
       257   03 Jun 2027 02:21:19.434   03 Jun 2027 02:22:10.261            50.827                Novosib          1588.344
       258   03 Jun 2027 02:23:10.516   03 Jun 2027 02:23:13.074             2.558                Novosib            79.938
       259   03 Jun 2027 02:24:41.471   03 Jun 2027 02:25:54.948            73.477                 Moscow          2296.156
       260   03 Jun 2027 02:32:35.419   03 Jun 2027 02:34:36.408           120.989                  Delhi          3780.906
       261   03 Jun 2027 04:05:39.117   03 Jun 2027 04:06:00.617            21.500              Murmansk2           671.875
       262   03 Jun 2027 04:06:00.617   03 Jun 2027 04:06:21.374            20.757              Murmansk1           648.656
       263   03 Jun 2027 04:06:21.374   03 Jun 2027 04:07:05.998            44.624              Murmansk2          1394.500
       264   03 Jun 2027 05:26:22.457   03 Jun 2027 05:27:16.696            54.239                Anadyr2          1694.969
       265   03 Jun 2027 05:27:54.269   03 Jun 2027 05:28:16.259            21.990                Norilsk           687.188
       266   03 Jun 2027 05:28:26.599   03 Jun 2027 05:32:11.594           224.995                Anadyr2          7031.094
       267   03 Jun 2027 07:01:58.911   03 Jun 2027 07:02:18.771            19.860               Magadan2           620.625
       268   03 Jun 2027 07:02:36.922   03 Jun 2027 07:02:42.477             5.555                Anadyr2           173.594
       269   03 Jun 2027 07:02:42.944   03 Jun 2027 07:03:41.895            58.951                Anadyr2          1842.219
       270   03 Jun 2027 07:04:03.998   03 Jun 2027 07:04:34.375            30.377               Magadan1           949.281
       271   03 Jun 2027 07:04:38.477   03 Jun 2027 07:05:12.531            34.054                Anadyr1          1064.187
       272   03 Jun 2027 07:05:12.531   03 Jun 2027 07:05:18.487             5.956                Anadyr2           186.125
       273   03 Jun 2027 07:05:37.076   03 Jun 2027 07:05:48.315            11.239                Irkutsk           351.219
       274   03 Jun 2027 07:06:27.683   03 Jun 2027 07:07:04.253            36.570                Anadyr2          1142.813
       275   03 Jun 2027 07:44:54.466   03 Jun 2027 07:45:56.732            62.266            RioGallegos          1945.813
       276   03 Jun 2027 08:37:06.041   03 Jun 2027 08:37:12.038             5.997               Magadan2           187.406
       277   03 Jun 2027 08:37:58.295   03 Jun 2027 08:37:59.170             0.875               Magadan1            27.344
       278   03 Jun 2027 08:38:20.253   03 Jun 2027 08:39:03.865            43.612               Magadan2          1362.875
       279   03 Jun 2027 08:39:23.479   03 Jun 2027 08:39:46.963            23.484                Norilsk           733.875
       280   03 Jun 2027 08:40:15.154   03 Jun 2027 08:40:17.280             2.126               Magadan2            66.437
       281   03 Jun 2027 08:40:48.148   03 Jun 2027 08:42:03.935            75.787               Magadan1          2368.344
       282   03 Jun 2027 08:42:14.696   03 Jun 2027 08:42:54.111            39.415                Irkutsk          1231.719
       283   03 Jun 2027 08:42:58.381   03 Jun 2027 08:43:27.199            28.818              Murmansk2           900.562
       284   03 Jun 2027 08:44:29.850   03 Jun 2027 08:45:24.152            54.302              Murmansk2          1696.937
       285   03 Jun 2027 09:18:14.755   03 Jun 2027 09:19:25.179            70.424            RioGallegos          2200.750
       286   03 Jun 2027 09:54:02.874   03 Jun 2027 09:55:18.236            75.362                Sumatra          2355.063
       287   03 Jun 2027 10:14:26.469   03 Jun 2027 10:14:48.444            21.975                Novosib           686.719
       288   03 Jun 2027 10:14:52.813   03 Jun 2027 10:15:12.908            20.095                Novosib           627.969
       289   03 Jun 2027 10:15:28.738   03 Jun 2027 10:16:25.111            56.373                Norilsk          1761.656
       290   03 Jun 2027 10:16:30.232   03 Jun 2027 10:17:05.645            35.413                Novosib          1106.656
       291   03 Jun 2027 10:17:08.833   03 Jun 2027 10:17:15.524             6.691              Murmansk2           209.094
       292   03 Jun 2027 10:17:16.771   03 Jun 2027 10:17:44.530            27.759                Irkutsk           867.469
       293   03 Jun 2027 10:18:08.492   03 Jun 2027 10:18:53.256            44.764              Murmansk1          1398.875
       294   03 Jun 2027 10:18:56.092   03 Jun 2027 10:18:56.529             0.437                Novosib            13.656
       295   03 Jun 2027 10:19:06.887   03 Jun 2027 10:19:18.080            11.193                Novosib           349.781
       296   03 Jun 2027 10:19:23.245   03 Jun 2027 10:19:34.263            11.018                Norilsk           344.312
       297   03 Jun 2027 10:21:45.895   03 Jun 2027 10:22:12.458            26.563              Murmansk2           830.094
       298   03 Jun 2027 10:24:39.227   03 Jun 2027 10:24:42.948             3.721              Murmansk1           116.281
       299   03 Jun 2027 10:24:53.825   03 Jun 2027 10:25:30.825            37.000              Murmansk1          1156.250
       300   03 Jun 2027 10:55:28.577   03 Jun 2027 10:56:25.572            56.995            RioGallegos          1781.094
       301   03 Jun 2027 11:29:42.004   03 Jun 2027 11:30:16.296            34.292                Sumatra          1071.625
       302   03 Jun 2027 11:39:58.733   03 Jun 2027 11:40:02.225             3.492                  Delhi           109.125
       303   03 Jun 2027 11:44:44.642   03 Jun 2027 11:45:10.043            25.401                  Delhi           793.781
       304   03 Jun 2027 11:50:44.117   03 Jun 2027 11:50:47.439             3.322              Murmansk2           103.813
       305   03 Jun 2027 11:50:47.439   03 Jun 2027 11:51:14.734            27.295              Murmansk1           852.969
       306   03 Jun 2027 11:51:22.826   03 Jun 2027 11:51:53.907            31.081              Murmansk1           971.281
       307   03 Jun 2027 11:51:55.051   03 Jun 2027 11:53:43.463           108.412                Irkutsk          3387.875
       308   03 Jun 2027 11:53:55.788   03 Jun 2027 11:55:48.177           112.389                Novosib          3512.156
       309   03 Jun 2027 13:14:42.878   03 Jun 2027 13:17:40.576           177.698                  Delhi          5553.063
       310   03 Jun 2027 13:20:29.024   03 Jun 2027 13:20:58.568            29.544                  Delhi           923.250
       311   03 Jun 2027 13:23:10.172   03 Jun 2027 13:23:11.867             1.695                Novosib            52.969
       312   03 Jun 2027 13:23:43.412   03 Jun 2027 13:24:21.507            38.095                Novosib          1190.469
       313   03 Jun 2027 13:25:10.401   03 Jun 2027 13:26:12.586            62.185                Novosib          1943.281
       314   03 Jun 2027 13:26:32.176   03 Jun 2027 13:27:48.066            75.890              Murmansk1          2371.562
       315   03 Jun 2027 13:28:17.997   03 Jun 2027 13:28:56.592            38.595                Norilsk          1206.094
       316   03 Jun 2027 13:30:59.855   03 Jun 2027 13:31:47.974            48.119                Norilsk          1503.719
       317   03 Jun 2027 13:36:07.956   03 Jun 2027 13:36:12.304             4.348              Murmansk1           135.875
       318   03 Jun 2027 13:36:32.641   03 Jun 2027 13:36:42.425             9.784              Murmansk2           305.750
       319   03 Jun 2027 13:37:07.598   03 Jun 2027 13:37:22.399            14.801              Murmansk2           462.531
       320   03 Jun 2027 14:57:52.002   03 Jun 2027 14:59:44.457           112.455                 Moscow          3514.219
       321   03 Jun 2027 15:01:22.816   03 Jun 2027 15:04:27.154           184.338              Murmansk1          5760.563
       322   03 Jun 2027 15:07:44.618   03 Jun 2027 15:08:15.411            30.793              Murmansk1           962.281
       323   03 Jun 2027 15:08:35.338   03 Jun 2027 15:10:38.496           123.158                Norilsk          3848.687
       324   03 Jun 2027 15:17:27.074   03 Jun 2027 15:18:12.599            45.525                Anadyr2          1422.656
       325   03 Jun 2027 15:19:04.436   03 Jun 2027 15:19:26.385            21.949                Anadyr2           685.906
       326   03 Jun 2027 16:17:23.308   03 Jun 2027 16:18:06.802            43.494               CapeTown          1359.188
       327   03 Jun 2027 16:20:48.143   03 Jun 2027 16:21:06.442            18.299               CapeTown           571.844
       328   03 Jun 2027 16:37:20.513   03 Jun 2027 16:38:00.290            39.777                 Moscow          1243.031
       329   03 Jun 2027 16:39:24.944   03 Jun 2027 16:40:44.898            79.954              Murmansk1          2498.563
       330   03 Jun 2027 16:44:34.103   03 Jun 2027 16:44:39.571             5.468              Murmansk1           170.875
       331   03 Jun 2027 16:46:14.402   03 Jun 2027 16:46:28.555            14.153              Murmansk2           442.281
       332   03 Jun 2027 16:47:48.054   03 Jun 2027 16:48:20.905            32.851              Murmansk2          1026.594
       333   03 Jun 2027 16:51:52.513   03 Jun 2027 16:53:24.913            92.400                Anadyr1          2887.500
       334   03 Jun 2027 16:53:24.913   03 Jun 2027 16:54:37.323            72.410                Anadyr2          2262.813
       335   03 Jun 2027 17:03:00.227   03 Jun 2027 17:03:07.024             6.797                Anadyr1           212.406
       336   03 Jun 2027 17:47:49.034   03 Jun 2027 17:48:00.713            11.679               CapeTown           364.969
       337   03 Jun 2027 17:48:55.420   03 Jun 2027 17:49:04.338             8.918               CapeTown           278.688
       338   03 Jun 2027 17:49:44.112   03 Jun 2027 17:51:04.858            80.746               CapeTown          2523.312
       339   03 Jun 2027 18:20:22.450   03 Jun 2027 18:24:12.420           229.970              Murmansk1          7186.563
       340   03 Jun 2027 18:24:12.420   03 Jun 2027 18:24:27.925            15.505              Murmansk2           484.531
       341   03 Jun 2027 18:30:21.365   03 Jun 2027 18:30:50.875            29.510               Magadan2           922.188
       342   03 Jun 2027 18:31:10.561   03 Jun 2027 18:31:35.117            24.556               Magadan1           767.375
       343   03 Jun 2027 18:31:35.117   03 Jun 2027 18:31:40.251             5.134               Magadan2           160.437
       344   03 Jun 2027 18:34:21.991   03 Jun 2027 18:34:30.228             8.237               Magadan1           257.406
       345   03 Jun 2027 18:34:56.571   03 Jun 2027 18:35:03.648             7.077               Magadan1           221.156
       346   03 Jun 2027 18:35:57.608   03 Jun 2027 18:36:24.888            27.280               Magadan1           852.500
       347   03 Jun 2027 18:39:46.646   03 Jun 2027 18:39:51.699             5.053               Magadan2           157.906
       348   03 Jun 2027 18:40:27.798   03 Jun 2027 18:40:50.374            22.576               Magadan2           705.500
       349   03 Jun 2027 20:03:36.378   03 Jun 2027 20:05:42.592           126.214                Anadyr1          3944.187
       350   03 Jun 2027 20:05:51.498   03 Jun 2027 20:07:22.013            90.515                Anadyr2          2828.594
       351   03 Jun 2027 20:07:23.281   03 Jun 2027 20:08:20.464            57.183                Norilsk          1786.969
       352   03 Jun 2027 20:08:48.281   03 Jun 2027 20:09:43.275            54.994               Magadan2          1718.562
       353   03 Jun 2027 20:09:43.275   03 Jun 2027 20:10:25.688            42.413               Magadan1          1325.406
       354   03 Jun 2027 20:12:09.031   03 Jun 2027 20:12:37.778            28.747               Magadan2           898.344
       355   03 Jun 2027 20:14:51.272   03 Jun 2027 20:15:02.346            11.074               Magadan2           346.062
       356   03 Jun 2027 20:16:14.824   03 Jun 2027 20:16:24.249             9.425               Magadan2           294.531
       357   03 Jun 2027 20:17:05.160   03 Jun 2027 20:18:10.695            65.535               Magadan2          2047.969
       358   03 Jun 2027 20:58:26.950   03 Jun 2027 21:00:59.151           152.201            RioGallegos          4756.281
       359   03 Jun 2027 21:04:36.661   03 Jun 2027 21:04:55.428            18.767            RioGallegos           586.469
       360   03 Jun 2027 21:39:18.395   03 Jun 2027 21:39:55.675            37.280                Anadyr2          1165.000
       361   03 Jun 2027 21:41:27.843   03 Jun 2027 21:41:52.653            24.810                Norilsk           775.313
       362   03 Jun 2027 21:41:53.528   03 Jun 2027 21:43:47.596           114.068               Magadan1          3564.625
       363   03 Jun 2027 21:43:47.596   03 Jun 2027 21:43:54.967             7.371               Magadan2           230.344
       364   03 Jun 2027 21:45:14.082   03 Jun 2027 21:45:44.185            30.103               Magadan1           940.719
       365   03 Jun 2027 21:45:50.563   03 Jun 2027 21:46:54.304            63.741                Irkutsk          1991.906
       366   03 Jun 2027 21:54:26.500   03 Jun 2027 21:54:54.808            28.308                Irkutsk           884.625
       367   03 Jun 2027 21:59:50.553   03 Jun 2027 22:01:26.661            96.108                Sumatra          3003.375
       368   03 Jun 2027 22:03:47.086   03 Jun 2027 22:04:44.037            56.951                Sumatra          1779.719
       369   03 Jun 2027 23:14:15.544   03 Jun 2027 23:14:25.491             9.947                Anadyr2           310.844
       370   03 Jun 2027 23:14:32.277   03 Jun 2027 23:14:39.123             6.846                Anadyr2           213.937
       371   03 Jun 2027 23:15:41.275   03 Jun 2027 23:16:58.684            77.409                Anadyr2          2419.031
       372   03 Jun 2027 23:18:00.454   03 Jun 2027 23:19:13.129            72.675               Magadan2          2271.094
       373   03 Jun 2027 23:19:50.770   03 Jun 2027 23:19:51.267             0.497               Magadan2            15.531
       374   03 Jun 2027 23:19:55.755   03 Jun 2027 23:20:23.154            27.399               Magadan1           856.219
       375   03 Jun 2027 23:20:23.154   03 Jun 2027 23:20:28.509             5.355               Magadan2           167.344
       376   03 Jun 2027 23:20:53.877   03 Jun 2027 23:21:11.136            17.259                Norilsk           539.344
       377   03 Jun 2027 23:21:13.823   03 Jun 2027 23:21:48.544            34.721                Irkutsk          1085.031
       378   03 Jun 2027 23:22:22.328   03 Jun 2027 23:23:07.364            45.036                Novosib          1407.375
       379   03 Jun 2027 23:24:28.313   03 Jun 2027 23:25:39.873            71.560                Novosib          2236.250
       380   03 Jun 2027 23:29:46.304   03 Jun 2027 23:30:29.800            43.496                  Delhi          1359.250
       381   03 Jun 2027 23:30:47.351   03 Jun 2027 23:32:35.743           108.392                  Delhi          3387.250
       382   04 Jun 2027 00:17:50.354   04 Jun 2027 00:17:57.186             6.832            RioGallegos           213.500
       383   04 Jun 2027 00:18:37.447   04 Jun 2027 00:19:13.639            36.192            RioGallegos          1131.000
       384   04 Jun 2027 00:48:31.727   04 Jun 2027 00:48:57.549            25.822                Anadyr1           806.938
       385   04 Jun 2027 00:49:44.368   04 Jun 2027 00:50:15.726            31.358                Anadyr1           979.937
       386   04 Jun 2027 00:50:29.280   04 Jun 2027 00:50:33.335             4.055                Anadyr2           126.719
       387   04 Jun 2027 00:50:55.499   04 Jun 2027 00:50:57.846             2.347                Anadyr1            73.344
       388   04 Jun 2027 00:52:28.231   04 Jun 2027 00:52:50.877            22.646                Anadyr1           707.687
       389   04 Jun 2027 00:53:22.297   04 Jun 2027 00:53:51.906            29.609                Norilsk           925.281
       390   04 Jun 2027 00:54:28.927   04 Jun 2027 00:55:26.084            57.157                Norilsk          1786.156
       391   04 Jun 2027 00:55:35.206   04 Jun 2027 00:55:59.886            24.680               Magadan1           771.250
       392   04 Jun 2027 00:56:00.314   04 Jun 2027 00:58:07.940           127.626              Murmansk2          3988.313
       393   04 Jun 2027 00:58:27.186   04 Jun 2027 00:58:42.569            15.383              Murmansk2           480.719
       394   04 Jun 2027 00:59:20.077   04 Jun 2027 00:59:28.908             8.831              Murmansk2           275.969
       395   04 Jun 2027 01:01:55.217   04 Jun 2027 01:02:35.399            40.182                 Moscow          1255.687
       396   04 Jun 2027 01:02:39.857   04 Jun 2027 01:02:43.410             3.553                 Moscow           111.031
       397   04 Jun 2027 01:04:23.535   04 Jun 2027 01:04:52.966            29.431                 Moscow           919.719
       398   04 Jun 2027 01:14:16.031   04 Jun 2027 01:14:24.025             7.994                  Delhi           249.812
       399   04 Jun 2027 01:16:32.147   04 Jun 2027 01:16:54.426            22.279                  Delhi           696.219
       400   04 Jun 2027 01:47:42.419   04 Jun 2027 01:48:26.681            44.262            RioGallegos          1383.188
       401   04 Jun 2027 01:49:29.159   04 Jun 2027 01:50:39.752            70.593            RioGallegos          2206.031
       402   04 Jun 2027 02:21:18.643   04 Jun 2027 02:21:41.545            22.902                Anadyr2           715.687
       403   04 Jun 2027 02:22:52.781   04 Jun 2027 02:24:08.325            75.544                Anadyr1          2360.750
       404   04 Jun 2027 02:26:49.858   04 Jun 2027 02:27:53.565            63.707               Magadan2          1990.844
       405   04 Jun 2027 02:30:48.135   04 Jun 2027 02:30:56.992             8.857                Norilsk           276.781
       406   04 Jun 2027 02:31:30.069   04 Jun 2027 02:33:18.669           108.600              Murmansk1          3393.750
       407   04 Jun 2027 02:34:06.531   04 Jun 2027 02:34:29.243            22.712                Novosib           709.750
       408   04 Jun 2027 02:37:39.879   04 Jun 2027 02:37:49.469             9.590                 Moscow           299.688
       409   04 Jun 2027 02:40:59.242   04 Jun 2027 02:41:06.023             6.781                 Moscow           211.906
       410   04 Jun 2027 02:41:35.345   04 Jun 2027 02:42:18.855            43.510                Novosib          1359.688
       411   04 Jun 2027 02:59:46.628   04 Jun 2027 03:00:39.499            52.871               CapeTown          1652.219
       412   04 Jun 2027 03:09:02.071   04 Jun 2027 03:09:29.117            27.046               CapeTown           845.188
       413   04 Jun 2027 04:17:04.007   04 Jun 2027 04:17:55.489            51.482              Murmansk1          1608.812
       414   04 Jun 2027 04:18:27.821   04 Jun 2027 04:18:37.937            10.116              Murmansk1           316.125
       415   04 Jun 2027 04:18:37.937   04 Jun 2027 04:18:59.360            21.423              Murmansk2           669.469
       416   04 Jun 2027 04:19:27.540   04 Jun 2027 04:19:51.237            23.697              Murmansk1           740.531
       417   04 Jun 2027 05:38:48.183   04 Jun 2027 05:39:15.074            26.891                Anadyr1           840.344
       418   04 Jun 2027 05:39:15.074   04 Jun 2027 05:40:07.555            52.481                Anadyr2          1640.031
       419   04 Jun 2027 05:40:12.954   04 Jun 2027 05:41:04.943            51.989               Magadan2          1624.656
       420   04 Jun 2027 05:41:17.581   04 Jun 2027 05:41:54.425            36.844               Magadan1          1151.375
       421   04 Jun 2027 05:42:09.102   04 Jun 2027 05:42:59.484            50.382                Anadyr2          1574.437
       422   04 Jun 2027 05:42:59.484   04 Jun 2027 05:43:41.387            41.903                Anadyr1          1309.469
       423   04 Jun 2027 07:14:21.788   04 Jun 2027 07:14:50.045            28.257               Magadan1           883.031
       424   04 Jun 2027 07:15:05.082   04 Jun 2027 07:15:25.921            20.839               Magadan1           651.219
       425   04 Jun 2027 07:15:40.542   04 Jun 2027 07:16:05.532            24.990               Magadan2           780.937
       426   04 Jun 2027 07:16:11.562   04 Jun 2027 07:16:12.249             0.687               Magadan1            21.469
       427   04 Jun 2027 07:16:13.484   04 Jun 2027 07:17:02.387            48.903                Anadyr1          1528.219
       428   04 Jun 2027 07:17:41.339   04 Jun 2027 07:17:54.710            13.371               Magadan1           417.844
       429   04 Jun 2027 07:18:28.355   04 Jun 2027 07:19:02.232            33.877                Anadyr2          1058.656
       430   04 Jun 2027 07:57:55.242   04 Jun 2027 07:58:22.296            27.054            RioGallegos           845.438
       431   04 Jun 2027 07:58:56.184   04 Jun 2027 07:59:01.751             5.567            RioGallegos           173.969
       432   04 Jun 2027 08:03:30.551   04 Jun 2027 08:03:31.436             0.885            RioGallegos            27.656
       433   04 Jun 2027 08:03:34.556   04 Jun 2027 08:04:43.470            68.914            RioGallegos          2153.563
       434   04 Jun 2027 08:48:59.334   04 Jun 2027 08:50:21.304            81.970               Magadan2          2561.563
       435   04 Jun 2027 08:50:46.653   04 Jun 2027 08:51:16.699            30.046               Magadan2           938.937
       436   04 Jun 2027 08:51:16.699   04 Jun 2027 08:51:42.359            25.660               Magadan1           801.875
       437   04 Jun 2027 08:51:44.658   04 Jun 2027 08:52:17.615            32.957               Magadan1          1029.906
       438   04 Jun 2027 08:52:50.337   04 Jun 2027 08:54:03.729            73.392               Magadan1          2293.500
       439   04 Jun 2027 08:54:12.564   04 Jun 2027 08:54:17.281             4.717                Norilsk           147.406
       440   04 Jun 2027 08:54:18.459   04 Jun 2027 08:54:58.201            39.742              Murmansk1          1241.937
       441   04 Jun 2027 08:55:23.106   04 Jun 2027 08:55:41.930            18.824              Murmansk1           588.250
       442   04 Jun 2027 08:56:01.159   04 Jun 2027 08:56:04.203             3.044              Murmansk1            95.125
       443   04 Jun 2027 08:56:29.733   04 Jun 2027 08:57:16.567            46.834              Murmansk1          1463.562
       444   04 Jun 2027 09:30:13.334   04 Jun 2027 09:30:46.559            33.225            RioGallegos          1038.281
       445   04 Jun 2027 09:32:43.939   04 Jun 2027 09:32:48.405             4.466            RioGallegos           139.562
       446   04 Jun 2027 09:37:12.153   04 Jun 2027 09:37:16.198             4.045            RioGallegos           126.406
       447   04 Jun 2027 09:38:17.411   04 Jun 2027 09:38:26.958             9.547            RioGallegos           298.344
       448   04 Jun 2027 10:05:40.226   04 Jun 2027 10:06:17.145            36.919                Sumatra          1153.719
       449   04 Jun 2027 10:12:03.422   04 Jun 2027 10:12:11.524             8.102                Sumatra           253.187
       450   04 Jun 2027 10:19:02.556   04 Jun 2027 10:19:06.942             4.386                  Delhi           137.063
       451   04 Jun 2027 10:22:32.497   04 Jun 2027 10:22:47.968            15.471                  Delhi           483.469
       452   04 Jun 2027 10:25:36.218   04 Jun 2027 10:25:54.545            18.327                Irkutsk           572.719
       453   04 Jun 2027 10:26:12.274   04 Jun 2027 10:28:26.085           133.811                Irkutsk          4181.594
       454   04 Jun 2027 10:28:35.587   04 Jun 2027 10:29:08.557            32.970              Murmansk1          1030.313
       455   04 Jun 2027 10:29:29.786   04 Jun 2027 10:30:04.048            34.262              Murmansk1          1070.687
       456   04 Jun 2027 10:30:08.506   04 Jun 2027 10:30:27.201            18.695                Novosib           584.219
       457   04 Jun 2027 10:30:28.657   04 Jun 2027 10:31:00.262            31.605                Novosib           987.656
       458   04 Jun 2027 10:31:45.979   04 Jun 2027 10:31:55.642             9.663              Murmansk2           301.969
       459   04 Jun 2027 10:32:10.528   04 Jun 2027 10:32:22.752            12.224              Murmansk1           382.000
       460   04 Jun 2027 10:33:01.062   04 Jun 2027 10:33:16.656            15.594              Murmansk2           487.312
       461   04 Jun 2027 11:08:00.042   04 Jun 2027 11:08:38.585            38.543            RioGallegos          1204.469
       462   04 Jun 2027 11:09:37.294   04 Jun 2027 11:09:54.072            16.778            RioGallegos           524.313
       463   04 Jun 2027 11:42:12.544   04 Jun 2027 11:43:04.092            51.548                Sumatra          1610.875
       464   04 Jun 2027 11:46:16.465   04 Jun 2027 11:46:40.950            24.485                Sumatra           765.156
       465   04 Jun 2027 12:03:02.518   04 Jun 2027 12:03:03.888             1.370                Irkutsk            42.812
       466   04 Jun 2027 12:03:58.890   04 Jun 2027 12:04:31.362            32.472                Irkutsk          1014.750
       467   04 Jun 2027 12:07:10.118   04 Jun 2027 12:07:47.325            37.207              Murmansk1          1162.719
       468   04 Jun 2027 12:10:40.633   04 Jun 2027 12:10:52.333            11.700              Murmansk1           365.625
       469   04 Jun 2027 12:11:45.495   04 Jun 2027 12:12:04.866            19.371              Murmansk2           605.344
       470   04 Jun 2027 12:12:50.083   04 Jun 2027 12:12:51.006             0.923              Murmansk1            28.844
       471   04 Jun 2027 12:13:04.579   04 Jun 2027 12:13:31.339            26.760              Murmansk2           836.250
       472   04 Jun 2027 13:27:29.908   04 Jun 2027 13:29:31.811           121.903                  Delhi          3809.469
       473   04 Jun 2027 13:30:52.657   04 Jun 2027 13:32:14.945            82.288                  Delhi          2571.500
       474   04 Jun 2027 13:35:38.699   04 Jun 2027 13:36:04.141            25.442                  Delhi           795.062
       475   04 Jun 2027 13:37:12.885   04 Jun 2027 13:38:33.846            80.961              Murmansk1          2530.031
       476   04 Jun 2027 13:39:14.971   04 Jun 2027 13:39:37.464            22.493                Norilsk           702.906
       477   04 Jun 2027 13:40:25.454   04 Jun 2027 13:40:38.171            12.717                Novosib           397.406
       478   04 Jun 2027 13:40:58.783   04 Jun 2027 13:41:40.220            41.437                Norilsk          1294.906
       479   04 Jun 2027 13:44:19.323   04 Jun 2027 13:44:26.625             7.302                Norilsk           228.187
       480   04 Jun 2027 13:46:00.045   04 Jun 2027 13:46:05.929             5.884                Norilsk           183.875
       481   04 Jun 2027 13:46:49.128   04 Jun 2027 13:47:17.187            28.059                Norilsk           876.844
       482   04 Jun 2027 14:51:01.846   04 Jun 2027 14:52:31.312            89.466               CapeTown          2795.812
