uniorb/output/strategy_2/Drop/Drop_KinoSat_111503.txt

KinoSat_111503
-------------------------
    Access    *     Start Time (UTCG)     *     Stop Time (UTCG)  *   Duration (s)        *       Station  *  Data (Mbytes)
         1   01 Jun 2027 03:41:33.054   01 Jun 2027 03:41:57.982            24.928                Norilsk           779.000
         2   01 Jun 2027 03:42:23.669   01 Jun 2027 03:42:45.906            22.237              Murmansk2           694.906
         3   01 Jun 2027 03:43:28.368   01 Jun 2027 03:43:35.423             7.055                Novosib           220.469
         4   01 Jun 2027 03:44:00.331   01 Jun 2027 03:44:11.249            10.918              Murmansk1           341.188
         5   01 Jun 2027 03:44:11.249   01 Jun 2027 03:45:25.545            74.296              Murmansk2          2321.750
         6   01 Jun 2027 03:45:30.894   01 Jun 2027 03:49:09.215           218.321                 Moscow          6822.531
         7   01 Jun 2027 04:01:17.298   01 Jun 2027 04:02:23.461            66.163               CapeTown          2067.594
         8   01 Jun 2027 04:02:28.493   01 Jun 2027 04:03:26.008            57.515               CapeTown          1797.344
         9   01 Jun 2027 04:04:26.948   01 Jun 2027 04:05:18.173            51.225               CapeTown          1600.781
        10   01 Jun 2027 04:07:48.044   01 Jun 2027 04:08:43.986            55.942               CapeTown          1748.188
        11   01 Jun 2027 05:03:54.219   01 Jun 2027 05:03:58.353             4.134               Magadan2           129.187
        12   01 Jun 2027 05:04:11.353   01 Jun 2027 05:04:42.515            31.162               Magadan2           973.812
        13   01 Jun 2027 05:04:52.072   01 Jun 2027 05:05:24.301            32.229                Anadyr2          1007.156
        14   01 Jun 2027 05:06:56.973   01 Jun 2027 05:08:06.033            69.060                Anadyr2          2158.125
        15   01 Jun 2027 05:17:14.955   01 Jun 2027 05:18:31.330            76.375              Murmansk2          2386.719
        16   01 Jun 2027 05:18:42.470   01 Jun 2027 05:19:01.088            18.618              Murmansk1           581.813
        17   01 Jun 2027 05:19:18.530   01 Jun 2027 05:20:22.231            63.701                 Moscow          1990.656
        18   01 Jun 2027 05:22:08.146   01 Jun 2027 05:22:22.496            14.350              Murmansk2           448.438
        19   01 Jun 2027 06:40:35.111   01 Jun 2027 06:43:56.273           201.162                Anadyr2          6286.313
        20   01 Jun 2027 06:45:00.546   01 Jun 2027 06:46:08.845            68.299                Anadyr1          2134.344
        21   01 Jun 2027 08:18:02.725   01 Jun 2027 08:18:48.736            46.011               Magadan1          1437.844
        22   01 Jun 2027 08:19:02.550   01 Jun 2027 08:21:37.826           155.276                Anadyr2          4852.375
        23   01 Jun 2027 09:51:44.240   01 Jun 2027 09:52:54.072            69.832                Novosib          2182.250
        24   01 Jun 2027 09:53:22.967   01 Jun 2027 09:56:53.419           210.452               Magadan2          6576.625
        25   01 Jun 2027 09:57:19.607   01 Jun 2027 09:57:58.490            38.883                Novosib          1215.094
        26   01 Jun 2027 11:27:28.737   01 Jun 2027 11:27:45.016            16.279                Irkutsk           508.719
        27   01 Jun 2027 11:28:31.180   01 Jun 2027 11:28:41.615            10.435                Novosib           326.094
        28   01 Jun 2027 11:28:48.330   01 Jun 2027 11:31:13.987           145.657                Norilsk          4551.781
        29   01 Jun 2027 11:31:15.536   01 Jun 2027 11:31:18.451             2.915              Murmansk1            91.094
        30   01 Jun 2027 11:31:20.673   01 Jun 2027 11:32:23.872            63.199                Norilsk          1974.969
        31   01 Jun 2027 11:32:26.654   01 Jun 2027 11:32:37.640            10.986                Norilsk           343.312
        32   01 Jun 2027 11:32:57.150   01 Jun 2027 11:35:00.840           123.690                Novosib          3865.312
        33   01 Jun 2027 11:35:07.448   01 Jun 2027 11:36:06.011            58.563              Murmansk2          1830.094
        34   01 Jun 2027 12:10:36.289   01 Jun 2027 12:10:51.090            14.801            RioGallegos           462.531
        35   01 Jun 2027 12:12:07.423   01 Jun 2027 12:13:16.176            68.753            RioGallegos          2148.531
        36   01 Jun 2027 12:15:24.571   01 Jun 2027 12:15:32.824             8.253            RioGallegos           257.906
        37   01 Jun 2027 12:44:55.627   01 Jun 2027 12:47:16.182           140.555                Sumatra          4392.344
        38   01 Jun 2027 12:51:50.690   01 Jun 2027 12:52:01.660            10.970                  Delhi           342.812
        39   01 Jun 2027 12:54:15.422   01 Jun 2027 12:54:43.885            28.463                  Delhi           889.469
        40   01 Jun 2027 12:58:33.321   01 Jun 2027 12:59:38.849            65.528                Novosib          2047.750
        41   01 Jun 2027 13:00:44.075   01 Jun 2027 13:03:47.900           183.825                Irkutsk          5744.531
        42   01 Jun 2027 13:04:29.106   01 Jun 2027 13:04:52.608            23.502                Norilsk           734.437
        43   01 Jun 2027 13:05:28.106   01 Jun 2027 13:06:33.296            65.190                Norilsk          2037.187
        44   01 Jun 2027 14:30:38.391   01 Jun 2027 14:32:05.805            87.414                  Delhi          2731.687
        45   01 Jun 2027 14:34:25.788   01 Jun 2027 14:34:54.640            28.852                  Delhi           901.625
        46   01 Jun 2027 14:36:53.413   01 Jun 2027 14:37:40.624            47.211                 Moscow          1475.344
        47   01 Jun 2027 14:39:06.634   01 Jun 2027 14:41:13.773           127.139                Novosib          3973.094
        48   01 Jun 2027 14:41:46.521   01 Jun 2027 14:43:06.608            80.087                Norilsk          2502.719
        49   01 Jun 2027 14:45:51.252   01 Jun 2027 14:46:47.723            56.471                Norilsk          1764.719
        50   01 Jun 2027 15:51:35.961   01 Jun 2027 15:53:35.253           119.292               CapeTown          3727.875
        51   01 Jun 2027 16:12:17.290   01 Jun 2027 16:13:43.345            86.055                 Moscow          2689.219
        52   01 Jun 2027 16:15:41.537   01 Jun 2027 16:17:14.355            92.818              Murmansk1          2900.563
        53   01 Jun 2027 16:18:04.932   01 Jun 2027 16:18:26.557            21.625              Murmansk2           675.781
        54   01 Jun 2027 16:30:29.991   01 Jun 2027 16:31:36.215            66.224                Anadyr1          2069.500
        55   01 Jun 2027 16:32:18.762   01 Jun 2027 16:33:47.091            88.329                Anadyr2          2760.281
        56   01 Jun 2027 17:25:07.007   01 Jun 2027 17:27:39.656           152.649               CapeTown          4770.281
        57   01 Jun 2027 17:53:50.903   01 Jun 2027 17:56:58.920           188.017                 Moscow          5875.531
        58   01 Jun 2027 17:57:56.400   01 Jun 2027 17:59:27.260            90.860              Murmansk1          2839.375
        59   01 Jun 2027 18:10:14.257   01 Jun 2027 18:10:33.681            19.424               Magadan2           607.000
        60   01 Jun 2027 18:11:06.574   01 Jun 2027 18:11:25.839            19.265               Magadan2           602.031
        61   01 Jun 2027 18:11:34.917   01 Jun 2027 18:12:49.750            74.833               Magadan2          2338.531
        62   01 Jun 2027 19:02:42.071   01 Jun 2027 19:03:26.611            44.540               CapeTown          1391.875
        63   01 Jun 2027 19:41:39.209   01 Jun 2027 19:45:17.360           218.151                Anadyr2          6817.219
        64   01 Jun 2027 19:45:42.733   01 Jun 2027 19:46:02.006            19.273                Anadyr2           602.281
        65   01 Jun 2027 19:46:02.076   01 Jun 2027 19:46:39.940            37.864               Magadan1          1183.250
        66   01 Jun 2027 19:46:46.730   01 Jun 2027 19:46:53.974             7.244               Magadan1           226.375
        67   01 Jun 2027 19:47:29.312   01 Jun 2027 19:48:55.596            86.284               Magadan1          2696.375
        68   01 Jun 2027 21:17:33.676   01 Jun 2027 21:21:36.046           242.370                Anadyr2          7574.063
        69   01 Jun 2027 21:22:02.962   01 Jun 2027 21:23:26.761            83.799                Norilsk          2618.719
        70   01 Jun 2027 21:23:32.823   01 Jun 2027 21:25:02.424            89.601               Magadan1          2800.031
        71   01 Jun 2027 21:25:58.772   01 Jun 2027 21:26:44.603            45.831               Magadan1          1432.219
        72   01 Jun 2027 21:27:16.258   01 Jun 2027 21:27:59.664            43.406               Magadan1          1356.437
        73   01 Jun 2027 21:28:32.860   01 Jun 2027 21:29:03.754            30.894                Irkutsk           965.437
        74   01 Jun 2027 22:11:54.088   01 Jun 2027 22:14:12.606           138.518            RioGallegos          4328.687
        75   01 Jun 2027 22:14:48.719   01 Jun 2027 22:15:15.971            27.252            RioGallegos           851.625
        76   01 Jun 2027 22:19:50.228   01 Jun 2027 22:20:07.654            17.426            RioGallegos           544.562
        77   01 Jun 2027 22:20:29.009   01 Jun 2027 22:20:54.734            25.725            RioGallegos           803.906
        78   01 Jun 2027 22:22:26.917   01 Jun 2027 22:22:34.415             7.498            RioGallegos           234.312
        79   01 Jun 2027 22:53:08.029   01 Jun 2027 22:54:08.536            60.507                Anadyr1          1890.844
        80   01 Jun 2027 22:54:26.819   01 Jun 2027 22:54:54.519            27.700                Anadyr1           865.625
        81   01 Jun 2027 22:55:07.165   01 Jun 2027 22:55:28.194            21.029                Anadyr1           657.156
        82   01 Jun 2027 22:55:41.655   01 Jun 2027 22:55:53.722            12.067                Norilsk           377.094
        83   01 Jun 2027 22:55:55.175   01 Jun 2027 22:57:16.741            81.566               Magadan1          2548.938
        84   01 Jun 2027 22:57:41.618   01 Jun 2027 22:57:55.158            13.540               Magadan2           423.125
        85   01 Jun 2027 22:59:05.049   01 Jun 2027 22:59:07.496             2.447               Magadan2            76.469
        86   01 Jun 2027 22:59:31.307   01 Jun 2027 23:00:25.567            54.260                Irkutsk          1695.625
        87   01 Jun 2027 23:01:08.474   01 Jun 2027 23:01:23.380            14.906                Novosib           465.813
        88   01 Jun 2027 23:01:44.056   01 Jun 2027 23:02:17.540            33.484                Irkutsk          1046.375
        89   01 Jun 2027 23:02:18.250   01 Jun 2027 23:03:03.915            45.665                Novosib          1427.031
        90   01 Jun 2027 23:03:56.399   01 Jun 2027 23:04:23.564            27.165                Novosib           848.906
        91   01 Jun 2027 23:07:18.415   01 Jun 2027 23:07:31.560            13.145                Irkutsk           410.781
        92   01 Jun 2027 23:09:01.780   01 Jun 2027 23:09:41.022            39.242                Irkutsk          1226.313
        93   01 Jun 2027 23:11:05.872   01 Jun 2027 23:11:34.612            28.740                Irkutsk           898.125
        94   01 Jun 2027 23:13:14.184   01 Jun 2027 23:13:54.069            39.885                Sumatra          1246.406
        95   01 Jun 2027 23:19:27.775   01 Jun 2027 23:19:57.971            30.196                Sumatra           943.625
        96   01 Jun 2027 23:20:24.041   01 Jun 2027 23:21:00.534            36.493                Sumatra          1140.406
        97   01 Jun 2027 23:22:43.608   01 Jun 2027 23:23:16.837            33.229                Sumatra          1038.406
        98   01 Jun 2027 23:56:24.782   01 Jun 2027 23:56:53.406            28.624            RioGallegos           894.500
        99   01 Jun 2027 23:59:00.220   02 Jun 2027 00:00:06.526            66.306            RioGallegos          2072.062
       100   02 Jun 2027 00:28:37.340   02 Jun 2027 00:30:02.334            84.994                Anadyr1          2656.062
       101   02 Jun 2027 00:31:21.605   02 Jun 2027 00:31:26.364             4.759                Norilsk           148.719
       102   02 Jun 2027 00:32:01.344   02 Jun 2027 00:34:09.222           127.878               Magadan1          3996.188
       103   02 Jun 2027 00:35:14.736   02 Jun 2027 00:36:24.428            69.692                Irkutsk          2177.875
       104   02 Jun 2027 00:37:55.015   02 Jun 2027 00:38:28.763            33.748                Novosib          1054.625
       105   02 Jun 2027 00:38:59.211   02 Jun 2027 00:40:08.393            69.182                Novosib          2161.938
       106   02 Jun 2027 00:43:23.412   02 Jun 2027 00:43:38.231            14.819                  Delhi           463.094
       107   02 Jun 2027 00:44:21.554   02 Jun 2027 00:45:02.017            40.463                  Delhi          1264.469
       108   02 Jun 2027 00:49:20.444   02 Jun 2027 00:50:01.805            41.361                  Delhi          1292.531
       109   02 Jun 2027 00:52:19.902   02 Jun 2027 00:53:11.719            51.817                  Delhi          1619.281
       110   02 Jun 2027 00:54:37.389   02 Jun 2027 00:54:53.978            16.589                  Delhi           518.406
       111   02 Jun 2027 01:26:22.897   02 Jun 2027 01:26:30.612             7.715            RioGallegos           241.094
       112   02 Jun 2027 01:27:13.946   02 Jun 2027 01:27:49.165            35.219            RioGallegos          1100.594
       113   02 Jun 2027 01:30:30.845   02 Jun 2027 01:30:35.080             4.235            RioGallegos           132.344
       114   02 Jun 2027 01:30:57.910   02 Jun 2027 01:31:09.598            11.688            RioGallegos           365.250
       115   02 Jun 2027 01:31:54.300   02 Jun 2027 01:32:26.986            32.686            RioGallegos          1021.438
       116   02 Jun 2027 02:01:16.191   02 Jun 2027 02:01:34.679            18.488                Anadyr2           577.750
       117   02 Jun 2027 02:02:24.308   02 Jun 2027 02:03:19.821            55.513                Anadyr2          1734.781
       118   02 Jun 2027 02:03:56.531   02 Jun 2027 02:04:30.583            34.052                Anadyr1          1064.125
       119   02 Jun 2027 02:06:47.629   02 Jun 2027 02:07:20.492            32.863                Anadyr1          1026.969
       120   02 Jun 2027 02:07:20.861   02 Jun 2027 02:08:19.041            58.180                Norilsk          1818.125
       121   02 Jun 2027 02:09:39.851   02 Jun 2027 02:09:58.170            18.319              Murmansk1           572.469
       122   02 Jun 2027 02:09:58.170   02 Jun 2027 02:10:43.177            45.007              Murmansk2          1406.469
       123   02 Jun 2027 02:11:08.290   02 Jun 2027 02:12:14.766            66.476              Murmansk1          2077.375
       124   02 Jun 2027 02:14:53.209   02 Jun 2027 02:15:11.753            18.544                Irkutsk           579.500
       125   02 Jun 2027 02:17:27.309   02 Jun 2027 02:17:51.737            24.428                Novosib           763.375
       126   02 Jun 2027 02:20:10.936   02 Jun 2027 02:20:34.635            23.699                Irkutsk           740.594
       127   02 Jun 2027 02:21:41.749   02 Jun 2027 02:22:10.351            28.602                Novosib           893.812
       128   02 Jun 2027 02:27:11.882   02 Jun 2027 02:29:12.977           121.095                  Delhi          3784.219
       129   02 Jun 2027 03:53:20.661   02 Jun 2027 03:54:25.274            64.613              Murmansk1          2019.156
       130   02 Jun 2027 03:55:42.323   02 Jun 2027 03:56:12.861            30.538                 Moscow           954.312
       131   02 Jun 2027 03:56:48.655   02 Jun 2027 03:57:41.224            52.569              Murmansk1          1642.781
       132   02 Jun 2027 03:58:21.677   02 Jun 2027 04:01:22.254           180.577                 Moscow          5643.031
       133   02 Jun 2027 04:13:00.301   02 Jun 2027 04:22:24.976           564.675               CapeTown         17646.094
       134   02 Jun 2027 04:22:49.295   02 Jun 2027 04:23:15.318            26.023               CapeTown           813.219
       135   02 Jun 2027 04:24:02.640   02 Jun 2027 04:25:18.975            76.335               CapeTown          2385.469
       136   02 Jun 2027 05:16:16.170   02 Jun 2027 05:17:47.365            91.195                Anadyr2          2849.844
       137   02 Jun 2027 05:20:50.325   02 Jun 2027 05:21:07.181            16.856                Anadyr2           526.750
       138   02 Jun 2027 05:21:21.043   02 Jun 2027 05:21:59.178            38.135                Anadyr2          1191.719
       139   02 Jun 2027 05:28:25.046   02 Jun 2027 05:28:48.762            23.716                Norilsk           741.125
       140   02 Jun 2027 05:29:06.276   02 Jun 2027 05:29:17.507            11.231                Norilsk           350.969
       141   02 Jun 2027 06:52:36.991   02 Jun 2027 06:53:08.361            31.370                Anadyr2           980.312
       142   02 Jun 2027 06:53:29.615   02 Jun 2027 06:58:09.345           279.730                Anadyr2          8741.562
       143   02 Jun 2027 07:01:42.108   02 Jun 2027 07:01:54.260            12.152                Norilsk           379.750
       144   02 Jun 2027 08:27:18.085   02 Jun 2027 08:28:31.978            73.893                Anadyr1          2309.156
       145   02 Jun 2027 08:28:38.308   02 Jun 2027 08:30:03.573            85.265               Magadan1          2664.531
       146   02 Jun 2027 08:30:03.916   02 Jun 2027 08:31:12.501            68.585                Anadyr2          2143.281
       147   02 Jun 2027 08:31:22.439   02 Jun 2027 08:33:44.398           141.959               Magadan2          4436.219
       148   02 Jun 2027 09:10:59.817   02 Jun 2027 09:11:14.436            14.619            RioGallegos           456.844
       149   02 Jun 2027 10:02:09.598   02 Jun 2027 10:04:07.760           118.162               Magadan1          3692.562
       150   02 Jun 2027 10:05:21.405   02 Jun 2027 10:05:38.896            17.491                Irkutsk           546.594
       151   02 Jun 2027 10:05:42.116   02 Jun 2027 10:08:38.967           176.851               Magadan1          5526.594
       152   02 Jun 2027 10:08:51.463   02 Jun 2027 10:09:05.976            14.513                Norilsk           453.531
       153   02 Jun 2027 10:09:11.469   02 Jun 2027 10:10:14.154            62.685              Murmansk1          1958.906
       154   02 Jun 2027 10:44:16.354   02 Jun 2027 10:44:33.594            17.240            RioGallegos           538.750
       155   02 Jun 2027 10:45:05.518   02 Jun 2027 10:45:37.116            31.598            RioGallegos           987.437
       156   02 Jun 2027 10:51:13.058   02 Jun 2027 10:51:24.061            11.003            RioGallegos           343.844
       157   02 Jun 2027 11:19:10.662   02 Jun 2027 11:21:02.594           111.932                Sumatra          3497.875
       158   02 Jun 2027 11:39:19.849   02 Jun 2027 11:39:50.432            30.583                Irkutsk           955.719
       159   02 Jun 2027 11:40:13.987   02 Jun 2027 11:40:49.651            35.664                Norilsk          1114.500
       160   02 Jun 2027 11:40:59.492   02 Jun 2027 11:41:13.561            14.069                Novosib           439.656
       161   02 Jun 2027 11:41:26.794   02 Jun 2027 11:42:46.020            79.226                Novosib          2475.812
       162   02 Jun 2027 11:42:50.600   02 Jun 2027 11:45:20.865           150.265                Irkutsk          4695.781
       163   02 Jun 2027 12:58:06.221   02 Jun 2027 12:59:07.665            61.444                Sumatra          1920.125
       164   02 Jun 2027 13:02:09.499   02 Jun 2027 13:02:23.009            13.510                Sumatra           422.188
       165   02 Jun 2027 13:02:31.756   02 Jun 2027 13:02:58.524            26.768                Sumatra           836.500
       166   02 Jun 2027 13:10:50.631   02 Jun 2027 13:12:13.975            83.344                Novosib          2604.500
       167   02 Jun 2027 13:13:14.082   02 Jun 2027 13:15:27.704           133.622                Novosib          4175.688
       168   02 Jun 2027 13:20:02.617   02 Jun 2027 13:20:14.828            12.211                Novosib           381.594
       169   02 Jun 2027 13:22:44.895   02 Jun 2027 13:23:08.786            23.891                Norilsk           746.594
       170   02 Jun 2027 14:44:57.090   02 Jun 2027 14:46:56.452           119.362                  Delhi          3730.063
       171   02 Jun 2027 14:47:46.683   02 Jun 2027 14:48:53.815            67.132                 Moscow          2097.875
       172   02 Jun 2027 14:49:42.646   02 Jun 2027 14:49:54.617            11.971                 Moscow           374.094
       173   02 Jun 2027 14:50:16.037   02 Jun 2027 14:50:23.421             7.384                 Moscow           230.750
       174   02 Jun 2027 14:50:59.944   02 Jun 2027 14:51:26.823            26.879                 Moscow           839.969
       175   02 Jun 2027 14:52:25.239   02 Jun 2027 14:52:34.133             8.894              Murmansk2           277.938
       176   02 Jun 2027 14:52:46.441   02 Jun 2027 14:53:21.824            35.383              Murmansk1          1105.719
       177   02 Jun 2027 14:53:46.552   02 Jun 2027 14:55:39.997           113.445                Novosib          3545.156
       178   02 Jun 2027 14:56:52.204   02 Jun 2027 14:58:28.369            96.165                Norilsk          3005.156
       179   02 Jun 2027 16:02:52.847   02 Jun 2027 16:03:49.693            56.846               CapeTown          1776.437
       180   02 Jun 2027 16:05:00.085   02 Jun 2027 16:05:37.239            37.154               CapeTown          1161.062
       181   02 Jun 2027 16:11:36.473   02 Jun 2027 16:11:56.771            20.298               CapeTown           634.313
       182   02 Jun 2027 16:25:13.581   02 Jun 2027 16:25:50.219            36.638                 Moscow          1144.938
       183   02 Jun 2027 16:27:43.815   02 Jun 2027 16:29:00.152            76.337                 Moscow          2385.531
       184   02 Jun 2027 16:31:05.027   02 Jun 2027 16:32:07.051            62.024              Murmansk1          1938.250
       185   02 Jun 2027 16:42:21.146   02 Jun 2027 16:43:35.571            74.425                Anadyr2          2325.781
       186   02 Jun 2027 16:44:20.030   02 Jun 2027 16:44:45.235            25.205                Anadyr1           787.656
       187   02 Jun 2027 16:45:34.296   02 Jun 2027 16:45:39.629             5.333                Anadyr1           166.656
       188   02 Jun 2027 16:45:39.682   02 Jun 2027 16:45:50.315            10.633                Anadyr2           332.281
       189   02 Jun 2027 16:47:02.463   02 Jun 2027 16:47:22.976            20.513                Anadyr2           641.031
       190   02 Jun 2027 16:49:08.708   02 Jun 2027 16:49:44.582            35.874                Anadyr2          1121.063
       191   02 Jun 2027 17:37:08.787   02 Jun 2027 17:37:21.523            12.736               CapeTown           398.000
       192   02 Jun 2027 17:39:29.149   02 Jun 2027 17:39:50.771            21.622               CapeTown           675.688
       193   02 Jun 2027 17:41:16.246   02 Jun 2027 17:41:33.768            17.522               CapeTown           547.562
       194   02 Jun 2027 17:42:49.590   02 Jun 2027 17:43:00.463            10.873               CapeTown           339.781
       195   02 Jun 2027 17:45:19.436   02 Jun 2027 17:45:38.077            18.641               CapeTown           582.531
       196   02 Jun 2027 18:06:52.774   02 Jun 2027 18:10:33.799           221.025              Murmansk1          6907.031
       197   02 Jun 2027 18:10:56.110   02 Jun 2027 18:12:04.247            68.137              Murmansk2          2129.281
       198   02 Jun 2027 18:21:37.049   02 Jun 2027 18:21:46.981             9.932               Magadan2           310.375
       199   02 Jun 2027 18:21:46.981   02 Jun 2027 18:22:53.760            66.779               Magadan1          2086.844
       200   02 Jun 2027 18:25:33.532   02 Jun 2027 18:25:39.841             6.309               Magadan2           197.156
       201   02 Jun 2027 18:26:12.464   02 Jun 2027 18:26:23.139            10.675               Magadan1           333.594
       202   02 Jun 2027 18:26:27.097   02 Jun 2027 18:26:54.652            27.555               Magadan1           861.094
       203   02 Jun 2027 19:19:49.036   02 Jun 2027 19:20:17.256            28.220               CapeTown           881.875
       204   02 Jun 2027 19:53:40.908   02 Jun 2027 19:57:25.573           224.665                Anadyr2          7020.781
       205   02 Jun 2027 19:57:50.208   02 Jun 2027 20:00:35.475           165.267               Magadan2          5164.594
       206   02 Jun 2027 20:08:01.074   02 Jun 2027 20:08:11.998            10.924               Magadan1           341.375
       207   02 Jun 2027 21:29:34.193   02 Jun 2027 21:31:41.938           127.745                Anadyr1          3992.031
       208   02 Jun 2027 21:31:52.957   02 Jun 2027 21:36:01.783           248.826               Magadan2          7775.813
       209   02 Jun 2027 21:36:02.437   02 Jun 2027 21:37:11.131            68.694               Magadan1          2146.688
       210   02 Jun 2027 21:37:50.237   02 Jun 2027 21:39:00.603            70.366                Irkutsk          2198.937
       211   02 Jun 2027 21:40:17.599   02 Jun 2027 21:40:17.852             0.253                Irkutsk             7.906
       212   02 Jun 2027 21:42:29.552   02 Jun 2027 21:43:12.188            42.636                Irkutsk          1332.375
       213   02 Jun 2027 22:23:45.798   02 Jun 2027 22:24:41.326            55.528            RioGallegos          1735.250
       214   02 Jun 2027 22:28:57.423   02 Jun 2027 22:29:12.195            14.772            RioGallegos           461.625
       215   02 Jun 2027 22:31:59.488   02 Jun 2027 22:32:59.962            60.474            RioGallegos          1889.812
       216   02 Jun 2027 23:05:03.843   02 Jun 2027 23:06:10.741            66.898                Anadyr2          2090.563
       217   02 Jun 2027 23:06:10.741   02 Jun 2027 23:06:55.846            45.105                Anadyr1          1409.531
       218   02 Jun 2027 23:07:24.520   02 Jun 2027 23:08:55.831            91.311                Norilsk          2853.469
       219   02 Jun 2027 23:10:52.212   02 Jun 2027 23:11:12.842            20.630               Magadan1           644.687
       220   02 Jun 2027 23:11:56.715   02 Jun 2027 23:12:30.211            33.496                Irkutsk          1046.750
       221   02 Jun 2027 23:12:40.214   02 Jun 2027 23:13:31.094            50.880                Novosib          1590.000
       222   02 Jun 2027 23:15:08.191   02 Jun 2027 23:15:31.202            23.011                Novosib           719.094
       223   02 Jun 2027 23:15:47.304   02 Jun 2027 23:16:03.629            16.325                Novosib           510.156
       224   02 Jun 2027 23:16:08.627   02 Jun 2027 23:18:22.863           134.236                Novosib          4194.875
       225   03 Jun 2027 00:08:27.306   03 Jun 2027 00:08:56.710            29.404            RioGallegos           918.875
       226   03 Jun 2027 00:10:12.710   03 Jun 2027 00:10:19.668             6.958            RioGallegos           217.438
       227   03 Jun 2027 00:10:59.956   03 Jun 2027 00:11:23.904            23.948            RioGallegos           748.375
       228   03 Jun 2027 00:39:33.365   03 Jun 2027 00:40:31.940            58.575                Anadyr2          1830.469
       229   03 Jun 2027 00:40:51.378   03 Jun 2027 00:41:02.816            11.438                Anadyr2           357.437
       230   03 Jun 2027 00:42:03.194   03 Jun 2027 00:42:31.083            27.889                Anadyr2           871.531
       231   03 Jun 2027 00:43:23.859   03 Jun 2027 00:45:26.058           122.199                Norilsk          3818.719
       232   03 Jun 2027 00:46:06.246   03 Jun 2027 00:46:22.178            15.932               Magadan2           497.875
       233   03 Jun 2027 00:47:05.341   03 Jun 2027 00:47:22.104            16.763               Magadan2           523.844
       234   03 Jun 2027 00:47:49.110   03 Jun 2027 00:48:26.608            37.498              Murmansk1          1171.812
       235   03 Jun 2027 00:48:26.608   03 Jun 2027 00:48:42.178            15.570              Murmansk2           486.563
       236   03 Jun 2027 00:49:19.065   03 Jun 2027 00:50:06.722            47.657                Novosib          1489.281
       237   03 Jun 2027 00:52:19.369   03 Jun 2027 00:53:00.444            41.075                Novosib          1283.594
       238   03 Jun 2027 00:55:36.539   03 Jun 2027 00:56:29.743            53.204                  Delhi          1662.625
       239   03 Jun 2027 01:01:07.283   03 Jun 2027 01:01:29.298            22.015                  Delhi           687.969
       240   03 Jun 2027 01:05:05.790   03 Jun 2027 01:05:30.874            25.084                  Delhi           783.875
       241   03 Jun 2027 01:06:56.831   03 Jun 2027 01:07:09.981            13.150                  Delhi           410.938
       242   03 Jun 2027 01:35:57.927   03 Jun 2027 01:36:29.975            32.048            RioGallegos          1001.500
       243   03 Jun 2027 01:38:14.528   03 Jun 2027 01:38:36.922            22.394            RioGallegos           699.813
       244   03 Jun 2027 01:39:16.778   03 Jun 2027 01:39:42.095            25.317            RioGallegos           791.156
       245   03 Jun 2027 01:44:02.034   03 Jun 2027 01:44:55.582            53.548            RioGallegos          1673.375
       246   03 Jun 2027 02:12:57.231   03 Jun 2027 02:13:14.425            17.194                Anadyr2           537.312
       247   03 Jun 2027 02:14:36.267   03 Jun 2027 02:15:20.553            44.286                Anadyr2          1383.937
       248   03 Jun 2027 02:19:10.156   03 Jun 2027 02:19:13.078             2.922               Magadan2            91.312
       249   03 Jun 2027 02:19:17.320   03 Jun 2027 02:20:04.873            47.553               Magadan1          1486.031
       250   03 Jun 2027 02:20:10.823   03 Jun 2027 02:20:39.002            28.179                Norilsk           880.594
       251   03 Jun 2027 02:21:38.724   03 Jun 2027 02:23:07.704            88.980              Murmansk2          2780.625
       252   03 Jun 2027 02:23:13.074   03 Jun 2027 02:24:01.043            47.969                Novosib          1499.031
       253   03 Jun 2027 02:27:28.962   03 Jun 2027 02:28:33.989            65.027                Irkutsk          2032.094
       254   03 Jun 2027 02:37:20.177   03 Jun 2027 02:38:21.315            61.138                  Delhi          1910.563
       255   03 Jun 2027 04:06:21.374   03 Jun 2027 04:07:19.743            58.369              Murmansk1          1824.031
       256   03 Jun 2027 04:08:05.822   03 Jun 2027 04:09:08.437            62.615                 Moscow          1956.719
       257   03 Jun 2027 04:09:09.947   03 Jun 2027 04:09:54.923            44.976              Murmansk1          1405.500
       258   03 Jun 2027 04:10:15.676   03 Jun 2027 04:12:38.838           143.162                 Moscow          4473.813
       259   03 Jun 2027 04:24:48.659   03 Jun 2027 04:28:16.658           207.999               CapeTown          6499.969
       260   03 Jun 2027 04:33:25.157   03 Jun 2027 04:33:35.614            10.457               CapeTown           326.781
       261   03 Jun 2027 04:34:07.357   03 Jun 2027 04:35:09.191            61.834               CapeTown          1932.313
       262   03 Jun 2027 05:28:00.298   03 Jun 2027 05:28:12.868            12.570               Magadan2           392.813
       263   03 Jun 2027 05:28:13.809   03 Jun 2027 05:28:26.599            12.790                Anadyr1           399.687
       264   03 Jun 2027 05:28:39.833   03 Jun 2027 05:30:00.370            80.537               Magadan1          2516.781
       265   03 Jun 2027 05:30:09.735   03 Jun 2027 05:30:32.593            22.858                Anadyr1           714.313
       266   03 Jun 2027 05:31:06.975   03 Jun 2027 05:31:49.151            42.176               Magadan1          1318.000
       267   03 Jun 2027 05:32:30.422   03 Jun 2027 05:32:36.836             6.414               Magadan1           200.437
       268   03 Jun 2027 05:32:54.573   03 Jun 2027 05:33:14.994            20.421                Anadyr2           638.156
       269   03 Jun 2027 05:33:36.805   03 Jun 2027 05:33:45.996             9.191               Magadan2           287.219
       270   03 Jun 2027 05:39:59.530   03 Jun 2027 05:40:04.219             4.689                Norilsk           146.531
       271   03 Jun 2027 05:40:06.933   03 Jun 2027 05:40:28.655            21.722              Murmansk2           678.812
       272   03 Jun 2027 05:40:38.580   03 Jun 2027 05:41:12.151            33.571                 Moscow          1049.094
       273   03 Jun 2027 05:41:25.863   03 Jun 2027 05:41:53.139            27.276              Murmansk2           852.375
       274   03 Jun 2027 05:42:29.074   03 Jun 2027 05:42:34.411             5.337                 Moscow           166.781
       275   03 Jun 2027 06:02:14.160   03 Jun 2027 06:02:46.698            32.538               CapeTown          1016.812
       276   03 Jun 2027 06:03:22.427   03 Jun 2027 06:04:45.943            83.516               CapeTown          2609.875
       277   03 Jun 2027 07:01:53.880   03 Jun 2027 07:02:36.922            43.042                Anadyr1          1345.062
       278   03 Jun 2027 07:02:42.477   03 Jun 2027 07:02:42.944             0.467                Anadyr1            14.594
       279   03 Jun 2027 07:03:10.593   03 Jun 2027 07:03:12.362             1.769               Magadan1            55.281
       280   03 Jun 2027 07:03:20.500   03 Jun 2027 07:03:32.278            11.778               Magadan1           368.063
       281   03 Jun 2027 07:03:41.895   03 Jun 2027 07:04:14.946            33.051                Anadyr2          1032.844
       282   03 Jun 2027 07:04:34.375   03 Jun 2027 07:05:43.594            69.219               Magadan1          2163.094
       283   03 Jun 2027 07:06:07.733   03 Jun 2027 07:06:39.878            32.145               Magadan2          1004.531
       284   03 Jun 2027 07:07:00.067   03 Jun 2027 07:07:48.850            48.783               Magadan2          1524.469
       285   03 Jun 2027 07:10:36.683   03 Jun 2027 07:10:59.262            22.579              Murmansk2           705.594
       286   03 Jun 2027 07:49:20.323   03 Jun 2027 07:49:55.479            35.156            RioGallegos          1098.625
       287   03 Jun 2027 08:37:06.041   03 Jun 2027 08:37:12.038             5.997               Magadan1           187.406
       288   03 Jun 2027 08:37:59.170   03 Jun 2027 08:38:20.253            21.083               Magadan2           658.844
       289   03 Jun 2027 08:38:20.253   03 Jun 2027 08:39:03.865            43.612               Magadan1          1362.875
       290   03 Jun 2027 08:39:46.102   03 Jun 2027 08:40:15.154            29.052               Magadan2           907.875
       291   03 Jun 2027 08:40:17.280   03 Jun 2027 08:40:48.148            30.868               Magadan1           964.625
       292   03 Jun 2027 08:41:11.635   03 Jun 2027 08:41:21.726            10.091                Irkutsk           315.344
       293   03 Jun 2027 08:41:25.817   03 Jun 2027 08:41:36.305            10.488                Irkutsk           327.750
       294   03 Jun 2027 08:42:03.935   03 Jun 2027 08:43:01.606            57.671               Magadan2          1802.219
       295   03 Jun 2027 08:43:14.519   03 Jun 2027 08:43:20.600             6.081                Irkutsk           190.031
       296   03 Jun 2027 08:43:22.327   03 Jun 2027 08:43:36.078            13.751                Norilsk           429.719
       297   03 Jun 2027 08:43:47.336   03 Jun 2027 08:44:53.544            66.208                Norilsk          2069.000
       298   03 Jun 2027 08:44:58.918   03 Jun 2027 08:45:31.952            33.034                Norilsk          1032.313
       299   03 Jun 2027 08:47:07.087   03 Jun 2027 08:47:13.993             6.906              Murmansk1           215.813
       300   03 Jun 2027 08:48:22.930   03 Jun 2027 08:48:45.603            22.673              Murmansk2           708.531
       301   03 Jun 2027 09:21:02.266   03 Jun 2027 09:21:28.957            26.691            RioGallegos           834.094
       302   03 Jun 2027 09:23:23.504   03 Jun 2027 09:24:15.870            52.366            RioGallegos          1636.437
       303   03 Jun 2027 10:00:11.891   03 Jun 2027 10:00:24.396            12.505                Sumatra           390.781
       304   03 Jun 2027 10:15:09.202   03 Jun 2027 10:15:12.216             3.014                Irkutsk            94.187
       305   03 Jun 2027 10:15:13.772   03 Jun 2027 10:15:28.159            14.387                Novosib           449.594
       306   03 Jun 2027 10:15:46.300   03 Jun 2027 10:16:00.472            14.172                Irkutsk           442.875
       307   03 Jun 2027 10:16:05.491   03 Jun 2027 10:16:17.660            12.169                Irkutsk           380.281
       308   03 Jun 2027 10:16:41.836   03 Jun 2027 10:17:16.771            34.935                Irkutsk          1091.719
       309   03 Jun 2027 10:17:44.530   03 Jun 2027 10:18:27.888            43.358                Irkutsk          1354.938
       310   03 Jun 2027 10:18:32.796   03 Jun 2027 10:19:24.354            51.558                Irkutsk          1611.187
       311   03 Jun 2027 10:19:30.670   03 Jun 2027 10:20:18.738            48.068                Irkutsk          1502.125
       312   03 Jun 2027 10:20:22.619   03 Jun 2027 10:20:27.907             5.288                Irkutsk           165.250
       313   03 Jun 2027 10:20:43.449   03 Jun 2027 10:20:53.364             9.915                Norilsk           309.844
       314   03 Jun 2027 10:20:58.469   03 Jun 2027 10:21:12.520            14.051                Novosib           439.094
       315   03 Jun 2027 10:21:16.063   03 Jun 2027 10:21:45.895            29.832              Murmansk1           932.250
       316   03 Jun 2027 10:22:43.904   03 Jun 2027 10:22:47.921             4.017              Murmansk1           125.531
       317   03 Jun 2027 10:22:47.921   03 Jun 2027 10:22:52.287             4.366              Murmansk2           136.437
       318   03 Jun 2027 10:24:39.227   03 Jun 2027 10:24:42.176             2.949              Murmansk2            92.156
       319   03 Jun 2027 10:24:42.948   03 Jun 2027 10:24:53.825            10.877              Murmansk1           339.906
       320   03 Jun 2027 10:56:25.572   03 Jun 2027 10:56:58.560            32.988            RioGallegos          1030.875
       321   03 Jun 2027 10:57:42.401   03 Jun 2027 10:58:20.532            38.131            RioGallegos          1191.594
       322   03 Jun 2027 11:31:07.919   03 Jun 2027 11:31:51.486            43.567                Sumatra          1361.469
       323   03 Jun 2027 11:43:55.840   03 Jun 2027 11:44:18.354            22.514                  Delhi           703.562
       324   03 Jun 2027 11:51:04.095   03 Jun 2027 11:51:27.350            23.255                Novosib           726.719
       325   03 Jun 2027 11:51:38.119   03 Jun 2027 11:52:09.062            30.943                Norilsk           966.969
       326   03 Jun 2027 11:52:16.608   03 Jun 2027 11:52:19.933             3.325                Novosib           103.906
       327   03 Jun 2027 11:52:30.899   03 Jun 2027 11:53:43.209            72.310                Norilsk          2259.687
       328   03 Jun 2027 11:53:49.264   03 Jun 2027 11:54:52.276            63.012              Murmansk2          1969.125
       329   03 Jun 2027 11:54:59.216   03 Jun 2027 11:55:11.131            11.915                Irkutsk           372.344
       330   03 Jun 2027 11:55:12.410   03 Jun 2027 11:55:47.534            35.124                 Moscow          1097.625
       331   03 Jun 2027 11:55:48.669   03 Jun 2027 11:56:28.452            39.783              Murmansk1          1243.219
       332   03 Jun 2027 11:56:41.958   03 Jun 2027 11:57:08.363            26.405                Norilsk           825.156
       333   03 Jun 2027 11:57:09.377   03 Jun 2027 11:58:08.843            59.466                Novosib          1858.313
       334   03 Jun 2027 12:00:49.780   03 Jun 2027 12:01:09.161            19.381              Murmansk2           605.656
       335   03 Jun 2027 12:01:20.436   03 Jun 2027 12:01:29.753             9.317              Murmansk1           291.156
       336   03 Jun 2027 12:02:20.416   03 Jun 2027 12:02:34.936            14.520              Murmansk1           453.750
       337   03 Jun 2027 12:03:01.545   03 Jun 2027 12:03:16.745            15.200              Murmansk1           475.000
       338   03 Jun 2027 12:03:37.249   03 Jun 2027 12:03:59.921            22.672              Murmansk1           708.500
       339   03 Jun 2027 12:36:25.030   03 Jun 2027 12:37:03.978            38.948            RioGallegos          1217.125
       340   03 Jun 2027 12:39:24.592   03 Jun 2027 12:40:17.516            52.924            RioGallegos          1653.875
       341   03 Jun 2027 12:41:51.615   03 Jun 2027 12:42:58.124            66.509            RioGallegos          2078.406
       342   03 Jun 2027 13:23:11.867   03 Jun 2027 13:23:43.412            31.545                Novosib           985.781
       343   03 Jun 2027 13:24:21.507   03 Jun 2027 13:25:10.401            48.894                Novosib          1527.938
       344   03 Jun 2027 13:26:12.586   03 Jun 2027 13:27:59.888           107.302                Novosib          3353.187
       345   03 Jun 2027 13:28:14.730   03 Jun 2027 13:28:17.997             3.267                Norilsk           102.094
       346   03 Jun 2027 13:28:56.592   03 Jun 2027 13:29:38.827            42.235                Norilsk          1319.844
       347   03 Jun 2027 13:31:46.785   03 Jun 2027 13:33:06.128            79.343                Novosib          2479.469
       348   03 Jun 2027 13:37:02.520   03 Jun 2027 13:37:17.719            15.199                Norilsk           474.969
       349   03 Jun 2027 14:59:44.457   03 Jun 2027 15:03:31.331           226.874                 Moscow          7089.813
       350   03 Jun 2027 15:04:27.154   03 Jun 2027 15:04:55.864            28.710              Murmansk1           897.188
       351   03 Jun 2027 15:05:20.968   03 Jun 2027 15:05:34.104            13.136              Murmansk2           410.500
       352   03 Jun 2027 15:06:31.408   03 Jun 2027 15:06:45.383            13.975              Murmansk1           436.719
       353   03 Jun 2027 15:07:05.236   03 Jun 2027 15:08:35.338            90.102                Norilsk          2815.688
       354   03 Jun 2027 15:10:38.496   03 Jun 2027 15:11:58.164            79.668                Norilsk          2489.625
       355   03 Jun 2027 16:14:23.123   03 Jun 2027 16:15:31.466            68.343               CapeTown          2135.719
       356   03 Jun 2027 16:18:53.349   03 Jun 2027 16:19:18.169            24.820               CapeTown           775.625
       357   03 Jun 2027 16:21:06.442   03 Jun 2027 16:21:43.678            37.236               CapeTown          1163.625
       358   03 Jun 2027 16:37:02.282   03 Jun 2027 16:37:20.513            18.231                 Moscow           569.719
       359   03 Jun 2027 16:40:12.321   03 Jun 2027 16:41:30.742            78.421              Murmansk2          2450.656
       360   03 Jun 2027 16:45:10.063   03 Jun 2027 16:45:14.015             3.952              Murmansk1           123.500
       361   03 Jun 2027 16:46:28.555   03 Jun 2027 16:47:07.137            38.582              Murmansk2          1205.688
       362   03 Jun 2027 16:48:47.488   03 Jun 2027 16:49:37.086            49.598              Murmansk1          1549.938
       363   03 Jun 2027 16:54:14.815   03 Jun 2027 16:55:23.408            68.593                Anadyr1          2143.531
       364   03 Jun 2027 16:56:21.206   03 Jun 2027 16:56:53.728            32.522                Anadyr1          1016.313
       365   03 Jun 2027 17:02:08.618   03 Jun 2027 17:02:20.783            12.165                Anadyr2           380.156
       366   03 Jun 2027 17:02:55.736   03 Jun 2027 17:03:17.344            21.608                Anadyr2           675.250
       367   03 Jun 2027 17:49:13.326   03 Jun 2027 17:49:44.112            30.786               CapeTown           962.063
       368   03 Jun 2027 17:54:17.292   03 Jun 2027 17:54:28.874            11.582               CapeTown           361.938
       369   03 Jun 2027 17:55:25.735   03 Jun 2027 17:57:25.007           119.272               CapeTown          3727.250
       370   03 Jun 2027 18:19:29.201   03 Jun 2027 18:20:30.395            61.194              Murmansk2          1912.312
       371   03 Jun 2027 18:21:47.796   03 Jun 2027 18:23:41.396           113.600              Murmansk2          3550.000
       372   03 Jun 2027 18:33:14.112   03 Jun 2027 18:34:21.991            67.879               Magadan1          2121.219
       373   03 Jun 2027 18:34:30.228   03 Jun 2027 18:34:56.571            26.343               Magadan1           823.219
       374   03 Jun 2027 18:39:12.536   03 Jun 2027 18:39:46.646            34.110               Magadan2          1065.937
       375   03 Jun 2027 19:29:09.477   03 Jun 2027 19:29:10.517             1.040               CapeTown            32.500
       376   03 Jun 2027 19:30:32.341   03 Jun 2027 19:31:01.212            28.871               CapeTown           902.219
       377   03 Jun 2027 20:05:42.592   03 Jun 2027 20:09:39.325           236.733                Anadyr1          7397.906
       378   03 Jun 2027 20:09:43.275   03 Jun 2027 20:12:09.031           145.756               Magadan2          4554.875
       379   03 Jun 2027 20:16:03.765   03 Jun 2027 20:16:05.943             2.178               Magadan2            68.063
       380   03 Jun 2027 20:16:14.824   03 Jun 2027 20:16:24.249             9.425               Magadan1           294.531
       381   03 Jun 2027 20:16:36.090   03 Jun 2027 20:17:05.160            29.070               Magadan1           908.437
       382   03 Jun 2027 20:18:47.470   03 Jun 2027 20:18:53.372             5.902               Magadan2           184.437
       383   03 Jun 2027 21:41:34.356   03 Jun 2027 21:43:43.294           128.938                Anadyr1          4029.313
       384   03 Jun 2027 21:43:46.808   03 Jun 2027 21:48:28.560           281.752                Norilsk          8804.750
       385   03 Jun 2027 21:49:09.555   03 Jun 2027 21:49:18.782             9.227                Irkutsk           288.344
       386   03 Jun 2027 21:49:31.536   03 Jun 2027 21:50:31.913            60.377                Irkutsk          1886.781
       387   03 Jun 2027 21:51:59.253   03 Jun 2027 21:52:00.941             1.688                Irkutsk            52.750
       388   03 Jun 2027 21:54:54.808   03 Jun 2027 21:55:18.390            23.582                Irkutsk           736.937
       389   03 Jun 2027 22:05:08.024   03 Jun 2027 22:06:28.930            80.906                Sumatra          2528.313
       390   03 Jun 2027 22:09:50.175   03 Jun 2027 22:10:52.217            62.042                Sumatra          1938.813
       391   03 Jun 2027 22:44:13.867   03 Jun 2027 22:44:53.421            39.554            RioGallegos          1236.062
       392   03 Jun 2027 23:16:58.684   03 Jun 2027 23:17:30.304            31.620                Anadyr2           988.125
       393   03 Jun 2027 23:17:31.201   03 Jun 2027 23:18:57.082            85.881                Anadyr1          2683.781
       394   03 Jun 2027 23:19:49.770   03 Jun 2027 23:20:13.924            24.154                Norilsk           754.812
       395   03 Jun 2027 23:20:23.154   03 Jun 2027 23:22:18.593           115.439               Magadan1          3607.469
       396   03 Jun 2027 23:23:24.891   03 Jun 2027 23:24:31.559            66.668                Irkutsk          2083.375
       397   03 Jun 2027 23:27:27.661   03 Jun 2027 23:27:48.662            21.001                Novosib           656.281
       398   03 Jun 2027 23:30:18.608   03 Jun 2027 23:30:52.835            34.227                Novosib          1069.594
       399   03 Jun 2027 23:39:22.154   03 Jun 2027 23:39:52.452            30.298                Sumatra           946.813
       400   03 Jun 2027 23:43:40.559   03 Jun 2027 23:45:06.621            86.062                Sumatra          2689.437
       401   04 Jun 2027 00:17:57.186   04 Jun 2027 00:18:20.646            23.460            RioGallegos           733.125
       402   04 Jun 2027 00:22:17.814   04 Jun 2027 00:22:24.796             6.982            RioGallegos           218.187
       403   04 Jun 2027 00:22:51.146   04 Jun 2027 00:23:00.739             9.593            RioGallegos           299.781
       404   04 Jun 2027 00:51:18.433   04 Jun 2027 00:52:28.231            69.798                Anadyr1          2181.188
       405   04 Jun 2027 00:52:50.877   04 Jun 2027 00:53:17.016            26.139                Anadyr2           816.844
       406   04 Jun 2027 00:55:26.084   04 Jun 2027 00:55:27.404             1.320                Norilsk            41.250
       407   04 Jun 2027 00:55:57.742   04 Jun 2027 00:57:28.333            90.591                Norilsk          2830.969
       408   04 Jun 2027 00:58:34.018   04 Jun 2027 00:59:22.634            48.616               Magadan1          1519.250
       409   04 Jun 2027 00:59:23.441   04 Jun 2027 01:00:46.062            82.621                Irkutsk          2581.906
       410   04 Jun 2027 01:01:00.684   04 Jun 2027 01:01:35.179            34.495                Novosib          1077.969
       411   04 Jun 2027 01:03:17.241   04 Jun 2027 01:04:34.395            77.154                Irkutsk          2411.062
       412   04 Jun 2027 01:15:06.410   04 Jun 2027 01:16:12.078            65.668                  Delhi          2052.125
       413   04 Jun 2027 01:48:26.681   04 Jun 2027 01:49:29.159            62.478            RioGallegos          1952.437
       414   04 Jun 2027 01:54:22.732   04 Jun 2027 01:54:59.694            36.962            RioGallegos          1155.062
       415   04 Jun 2027 02:25:02.410   04 Jun 2027 02:25:10.920             8.510                Anadyr2           265.938
       416   04 Jun 2027 02:26:24.070   04 Jun 2027 02:26:54.390            30.320                Anadyr1           947.500
       417   04 Jun 2027 02:27:22.276   04 Jun 2027 02:27:40.427            18.151                Anadyr1           567.219
       418   04 Jun 2027 02:30:13.064   04 Jun 2027 02:30:20.992             7.928                Anadyr2           247.750
       419   04 Jun 2027 02:30:50.804   04 Jun 2027 02:31:19.659            28.855               Magadan1           901.719
       420   04 Jun 2027 02:31:19.659   04 Jun 2027 02:31:50.459            30.800               Magadan2           962.500
       421   04 Jun 2027 02:32:19.875   04 Jun 2027 02:32:27.950             8.075               Magadan2           252.344
       422   04 Jun 2027 02:32:30.745   04 Jun 2027 02:32:50.516            19.771                Norilsk           617.844
       423   04 Jun 2027 02:33:38.354   04 Jun 2027 02:35:06.728            88.374              Murmansk2          2761.688
       424   04 Jun 2027 02:35:06.728   04 Jun 2027 02:35:17.735            11.007              Murmansk1           343.969
       425   04 Jun 2027 02:36:04.169   04 Jun 2027 02:36:15.639            11.470                Novosib           358.437
       426   04 Jun 2027 02:36:44.166   04 Jun 2027 02:37:09.640            25.474                Novosib           796.062
       427   04 Jun 2027 02:38:03.471   04 Jun 2027 02:38:28.620            25.149                Irkutsk           785.906
       428   04 Jun 2027 02:38:35.825   04 Jun 2027 02:39:36.647            60.822                Irkutsk          1900.688
       429   04 Jun 2027 02:48:56.019   04 Jun 2027 02:49:11.070            15.051                  Delhi           470.344
       430   04 Jun 2027 03:10:19.245   04 Jun 2027 03:11:01.605            42.360               CapeTown          1323.750
       431   04 Jun 2027 04:17:28.231   04 Jun 2027 04:18:04.038            35.807                Norilsk          1118.969
       432   04 Jun 2027 04:18:59.360   04 Jun 2027 04:19:07.993             8.633              Murmansk2           269.781
       433   04 Jun 2027 04:19:27.540   04 Jun 2027 04:20:23.740            56.200              Murmansk2          1756.250
       434   04 Jun 2027 04:20:23.740   04 Jun 2027 04:22:06.712           102.972              Murmansk1          3217.875
       435   04 Jun 2027 05:40:45.176   04 Jun 2027 05:41:39.784            54.608                Anadyr1          1706.500
       436   04 Jun 2027 05:41:39.784   04 Jun 2027 05:42:09.102            29.318                Anadyr2           916.188
       437   04 Jun 2027 05:42:09.102   04 Jun 2027 05:42:59.484            50.382                Anadyr1          1574.437
       438   04 Jun 2027 05:43:19.702   04 Jun 2027 05:45:51.961           152.259               Magadan1          4758.094
       439   04 Jun 2027 05:45:54.870   04 Jun 2027 05:46:19.240            24.370                Anadyr2           761.563
       440   04 Jun 2027 07:13:58.560   04 Jun 2027 07:14:21.788            23.228               Magadan1           725.875
       441   04 Jun 2027 07:14:44.301   04 Jun 2027 07:15:08.298            23.997                Anadyr2           749.906
       442   04 Jun 2027 07:15:18.416   04 Jun 2027 07:15:57.088            38.672                Anadyr2          1208.500
       443   04 Jun 2027 07:16:05.532   04 Jun 2027 07:16:11.562             6.030               Magadan1           188.438
       444   04 Jun 2027 07:16:12.249   04 Jun 2027 07:16:42.163            29.914               Magadan1           934.813
       445   04 Jun 2027 07:17:02.387   04 Jun 2027 07:18:28.355            85.968                Anadyr2          2686.500
       446   04 Jun 2027 07:18:36.103   04 Jun 2027 07:18:37.928             1.825               Magadan1            57.031
       447   04 Jun 2027 07:19:02.232   04 Jun 2027 07:20:04.559            62.327                Anadyr2          1947.719
       448   04 Jun 2027 07:26:22.342   04 Jun 2027 07:26:30.340             7.998              Murmansk1           249.938
       449   04 Jun 2027 07:26:30.340   04 Jun 2027 07:26:52.843            22.503              Murmansk2           703.219
       450   04 Jun 2027 08:00:33.591   04 Jun 2027 08:01:08.026            34.435            RioGallegos          1076.094
       451   04 Jun 2027 08:02:40.181   04 Jun 2027 08:02:47.692             7.511            RioGallegos           234.719
       452   04 Jun 2027 08:48:19.844   04 Jun 2027 08:48:59.334            39.490               Magadan2          1234.062
       453   04 Jun 2027 08:48:59.334   04 Jun 2027 08:50:21.304            81.970               Magadan1          2561.563
       454   04 Jun 2027 08:50:46.653   04 Jun 2027 08:51:16.699            30.046               Magadan1           938.937
       455   04 Jun 2027 08:51:42.359   04 Jun 2027 08:52:17.615            35.256               Magadan2          1101.750
       456   04 Jun 2027 08:52:32.871   04 Jun 2027 08:53:52.334            79.463                Anadyr1          2483.219
       457   04 Jun 2027 08:54:03.729   04 Jun 2027 08:54:53.793            50.064               Magadan2          1564.500
       458   04 Jun 2027 08:54:57.439   04 Jun 2027 08:55:59.550            62.111                Novosib          1940.969
       459   04 Jun 2027 08:56:09.576   04 Jun 2027 08:56:50.226            40.650               Magadan1          1270.312
       460   04 Jun 2027 08:56:50.226   04 Jun 2027 08:57:38.395            48.169               Magadan2          1505.281
       461   04 Jun 2027 09:32:48.405   04 Jun 2027 09:33:22.793            34.388            RioGallegos          1074.625
       462   04 Jun 2027 10:10:24.635   04 Jun 2027 10:12:03.422            98.787                Sumatra          3087.094
       463   04 Jun 2027 10:26:40.976   04 Jun 2027 10:26:58.674            17.698                Novosib           553.062
       464   04 Jun 2027 10:27:04.966   04 Jun 2027 10:27:24.926            19.960                Norilsk           623.750
       465   04 Jun 2027 10:27:26.264   04 Jun 2027 10:27:27.451             1.187                Norilsk            37.094
       466   04 Jun 2027 10:27:30.425   04 Jun 2027 10:27:49.522            19.097                Novosib           596.781
       467   04 Jun 2027 10:27:55.758   04 Jun 2027 10:28:01.705             5.947                Novosib           185.844
       468   04 Jun 2027 10:28:06.296   04 Jun 2027 10:29:03.543            57.247               Magadan1          1788.969
       469   04 Jun 2027 10:29:08.847   04 Jun 2027 10:29:10.333             1.486                Irkutsk            46.438
       470   04 Jun 2027 10:29:10.611   04 Jun 2027 10:29:18.130             7.519                Novosib           234.969
       471   04 Jun 2027 10:29:32.262   04 Jun 2027 10:30:24.982            52.720                Norilsk          1647.500
       472   04 Jun 2027 10:30:31.295   04 Jun 2027 10:31:46.618            75.323               Magadan1          2353.844
       473   04 Jun 2027 10:31:55.332   04 Jun 2027 10:32:31.161            35.829                Novosib          1119.656
       474   04 Jun 2027 10:32:32.404   04 Jun 2027 10:32:40.737             8.333                Irkutsk           260.406
       475   04 Jun 2027 10:32:44.818   04 Jun 2027 10:33:09.641            24.823                Norilsk           775.719
       476   04 Jun 2027 10:33:16.473   04 Jun 2027 10:33:37.790            21.317                Novosib           666.156
       477   04 Jun 2027 10:33:55.086   04 Jun 2027 10:34:12.162            17.076              Murmansk1           533.625
       478   04 Jun 2027 11:08:38.585   04 Jun 2027 11:09:37.294            58.709            RioGallegos          1834.656
       479   04 Jun 2027 11:11:54.811   04 Jun 2027 11:12:46.012            51.201            RioGallegos          1600.031
       480   04 Jun 2027 11:44:48.381   04 Jun 2027 11:45:42.911            54.530                Sumatra          1704.062
       481   04 Jun 2027 12:07:05.651   04 Jun 2027 12:07:47.325            41.674              Murmansk2          1302.313
       482   04 Jun 2027 12:10:31.260   04 Jun 2027 12:10:40.633             9.373              Murmansk1           292.906
