uniorb/output/strategy_2/Drop/Drop_KinoSat_111101.txt

KinoSat_111101
-------------------------
    Access    *     Start Time (UTCG)     *     Stop Time (UTCG)  *   Duration (s)        *       Station  *  Data (Mbytes)
         1   01 Jun 2027 04:02:33.211   01 Jun 2027 04:02:58.843            25.632               Magadan2           801.000
         2   01 Jun 2027 04:02:58.843   01 Jun 2027 04:04:15.603            76.760               Magadan1          2398.750
         3   01 Jun 2027 04:04:47.740   01 Jun 2027 04:04:49.316             1.576               Magadan1            49.250
         4   01 Jun 2027 04:05:18.224   01 Jun 2027 04:06:14.357            56.133               Magadan2          1754.156
         5   01 Jun 2027 05:41:05.607   01 Jun 2027 05:41:32.224            26.617                Anadyr2           831.781
         6   01 Jun 2027 05:42:18.721   01 Jun 2027 05:42:21.290             2.569               Magadan2            80.281
         7   01 Jun 2027 07:14:02.138   01 Jun 2027 07:14:52.390            50.252                Anadyr1          1570.375
         8   01 Jun 2027 07:14:52.390   01 Jun 2027 07:15:02.059             9.669                Anadyr2           302.156
         9   01 Jun 2027 07:15:14.136   01 Jun 2027 07:15:35.701            21.565                Irkutsk           673.906
        10   01 Jun 2027 07:16:03.334   01 Jun 2027 07:19:16.411           193.077                Anadyr2          6033.656
        11   01 Jun 2027 07:20:18.131   01 Jun 2027 07:20:27.338             9.207                Norilsk           287.719
        12   01 Jun 2027 07:21:03.425   01 Jun 2027 07:21:29.964            26.539              Murmansk2           829.344
        13   01 Jun 2027 07:21:29.964   01 Jun 2027 07:22:24.522            54.558              Murmansk1          1704.938
        14   01 Jun 2027 07:22:31.324   01 Jun 2027 07:22:41.154             9.830                Norilsk           307.187
        15   01 Jun 2027 07:26:03.897   01 Jun 2027 07:26:57.467            53.570              Murmansk1          1674.062
        16   01 Jun 2027 07:27:32.825   01 Jun 2027 07:28:39.461            66.636              Murmansk1          2082.375
        17   01 Jun 2027 07:55:04.575   01 Jun 2027 07:55:15.219            10.644            RioGallegos           332.625
        18   01 Jun 2027 07:55:21.148   01 Jun 2027 07:55:50.615            29.467            RioGallegos           920.844
        19   01 Jun 2027 08:00:43.148   01 Jun 2027 08:01:16.263            33.115            RioGallegos          1034.844
        20   01 Jun 2027 08:04:06.272   01 Jun 2027 08:04:30.706            24.434            RioGallegos           763.563
        21   01 Jun 2027 08:32:30.432   01 Jun 2027 08:34:27.289           116.857                Sumatra          3651.781
        22   01 Jun 2027 08:50:25.590   01 Jun 2027 08:52:38.575           132.985               Magadan1          4155.781
        23   01 Jun 2027 08:52:38.575   01 Jun 2027 08:53:14.107            35.532               Magadan2          1110.375
        24   01 Jun 2027 08:53:36.469   01 Jun 2027 08:53:54.050            17.581               Magadan2           549.406
        25   01 Jun 2027 08:54:10.367   01 Jun 2027 08:54:23.479            13.112                Irkutsk           409.750
        26   01 Jun 2027 08:54:28.016   01 Jun 2027 08:54:47.162            19.146                Novosib           598.312
        27   01 Jun 2027 08:55:19.046   01 Jun 2027 08:55:57.553            38.507                Irkutsk          1203.344
        28   01 Jun 2027 08:56:06.465   01 Jun 2027 08:56:35.050            28.585                Novosib           893.281
        29   01 Jun 2027 08:56:51.793   01 Jun 2027 08:57:05.113            13.320                Norilsk           416.250
        30   01 Jun 2027 08:59:41.532   01 Jun 2027 08:59:53.702            12.170              Murmansk1           380.312
        31   01 Jun 2027 09:02:31.792   01 Jun 2027 09:02:51.222            19.430              Murmansk1           607.187
        32   01 Jun 2027 09:31:58.582   01 Jun 2027 09:32:31.035            32.453            RioGallegos          1014.156
        33   01 Jun 2027 09:33:51.883   01 Jun 2027 09:34:19.356            27.473            RioGallegos           858.531
        34   01 Jun 2027 09:35:03.667   01 Jun 2027 09:35:45.850            42.183            RioGallegos          1318.219
        35   01 Jun 2027 09:37:19.835   01 Jun 2027 09:37:51.867            32.032            RioGallegos          1001.000
        36   01 Jun 2027 09:39:30.893   01 Jun 2027 09:40:37.719            66.826            RioGallegos          2088.313
        37   01 Jun 2027 10:09:23.513   01 Jun 2027 10:09:59.288            35.775                Sumatra          1117.969
        38   01 Jun 2027 10:11:51.880   01 Jun 2027 10:12:29.295            37.415                Sumatra          1169.219
        39   01 Jun 2027 10:27:53.247   01 Jun 2027 10:29:25.814            92.567                 Moscow          2892.719
        40   01 Jun 2027 10:29:28.749   01 Jun 2027 10:31:58.460           149.711                 Moscow          4678.469
        41   01 Jun 2027 10:32:37.929   01 Jun 2027 10:33:18.724            40.795                Novosib          1274.844
        42   01 Jun 2027 11:49:59.437   01 Jun 2027 11:50:59.899            60.462                  Delhi          1889.437
        43   01 Jun 2027 11:54:47.803   01 Jun 2027 11:54:58.514            10.711                  Delhi           334.719
        44   01 Jun 2027 11:56:07.628   01 Jun 2027 11:57:51.734           104.106                  Delhi          3253.313
        45   01 Jun 2027 12:01:14.220   01 Jun 2027 12:01:48.284            34.064                  Delhi          1064.500
        46   01 Jun 2027 12:06:27.252   01 Jun 2027 12:07:31.460            64.208                Novosib          2006.500
        47   01 Jun 2027 12:11:03.501   01 Jun 2027 12:11:15.184            11.683                Norilsk           365.094
        48   01 Jun 2027 13:43:41.402   01 Jun 2027 13:44:03.854            22.452                 Moscow           701.625
        49   01 Jun 2027 13:44:47.939   01 Jun 2027 13:46:59.524           131.585                Norilsk          4112.031
        50   01 Jun 2027 13:48:19.236   01 Jun 2027 13:48:22.305             3.069                Norilsk            95.906
        51   01 Jun 2027 13:48:22.358   01 Jun 2027 13:48:47.580            25.222              Murmansk2           788.188
        52   01 Jun 2027 13:48:47.580   01 Jun 2027 13:49:18.726            31.146              Murmansk1           973.312
        53   01 Jun 2027 13:50:13.883   01 Jun 2027 13:50:27.845            13.962              Murmansk1           436.312
        54   01 Jun 2027 14:54:27.204   01 Jun 2027 14:56:12.908           105.704               CapeTown          3303.250
        55   01 Jun 2027 14:57:39.909   01 Jun 2027 14:58:41.886            61.977               CapeTown          1936.781
        56   01 Jun 2027 15:21:03.735   01 Jun 2027 15:21:59.063            55.328                 Moscow          1729.000
        57   01 Jun 2027 15:23:19.971   01 Jun 2027 15:24:36.494            76.523              Murmansk1          2391.344
        58   01 Jun 2027 15:24:53.364   01 Jun 2027 15:24:57.014             3.650              Murmansk1           114.063
        59   01 Jun 2027 15:25:29.408   01 Jun 2027 15:25:37.155             7.747              Murmansk1           242.094
        60   01 Jun 2027 15:25:37.155   01 Jun 2027 15:26:25.406            48.251              Murmansk2          1507.844
        61   01 Jun 2027 15:33:42.038   01 Jun 2027 15:35:27.109           105.071                Anadyr2          3283.469
        62   01 Jun 2027 15:37:01.591   01 Jun 2027 15:37:28.664            27.073                Anadyr2           846.031
        63   01 Jun 2027 15:38:00.228   01 Jun 2027 15:38:22.498            22.270                Anadyr1           695.938
        64   01 Jun 2027 16:35:03.746   01 Jun 2027 16:35:44.239            40.493               CapeTown          1265.406
        65   01 Jun 2027 16:58:22.674   01 Jun 2027 17:00:16.803           114.129              Murmansk1          3566.531
        66   01 Jun 2027 17:11:35.061   01 Jun 2027 17:11:47.372            12.311               Magadan1           384.719
        67   01 Jun 2027 17:11:47.372   01 Jun 2027 17:11:55.497             8.125               Magadan2           253.906
        68   01 Jun 2027 17:12:05.273   01 Jun 2027 17:12:52.719            47.446               Magadan1          1482.687
        69   01 Jun 2027 17:12:57.642   01 Jun 2027 17:13:06.787             9.145               Magadan1           285.781
        70   01 Jun 2027 17:13:31.099   01 Jun 2027 17:14:27.083            55.984                Anadyr1          1749.500
        71   01 Jun 2027 17:14:55.912   01 Jun 2027 17:15:20.686            24.774                Anadyr2           774.187
        72   01 Jun 2027 17:15:43.424   01 Jun 2027 17:16:05.554            22.130                Anadyr1           691.562
        73   01 Jun 2027 18:45:47.822   01 Jun 2027 18:46:14.492            26.670                Anadyr2           833.438
        74   01 Jun 2027 18:46:14.492   01 Jun 2027 18:49:04.972           170.480                Anadyr1          5327.500
        75   01 Jun 2027 18:49:29.771   01 Jun 2027 18:50:12.478            42.707               Magadan2          1334.594
        76   01 Jun 2027 18:51:07.106   01 Jun 2027 18:51:35.768            28.662                Anadyr2           895.688
        77   01 Jun 2027 18:52:26.196   01 Jun 2027 18:52:46.322            20.126               Magadan1           628.937
        78   01 Jun 2027 18:53:18.608   01 Jun 2027 18:53:52.361            33.753               Magadan2          1054.781
        79   01 Jun 2027 18:54:04.884   01 Jun 2027 18:54:19.101            14.217               Magadan1           444.281
        80   01 Jun 2027 18:54:31.067   01 Jun 2027 18:54:54.474            23.407               Magadan1           731.469
        81   01 Jun 2027 19:37:55.380   01 Jun 2027 19:39:35.163            99.783            RioGallegos          3118.219
        82   01 Jun 2027 19:40:24.818   01 Jun 2027 19:41:40.112            75.294            RioGallegos          2352.937
        83   01 Jun 2027 20:21:49.387   01 Jun 2027 20:21:54.817             5.430                Norilsk           169.687
        84   01 Jun 2027 20:22:47.243   01 Jun 2027 20:23:25.219            37.976               Magadan2          1186.750
        85   01 Jun 2027 20:23:31.664   01 Jun 2027 20:24:08.912            37.248               Magadan1          1164.000
        86   01 Jun 2027 20:24:29.843   01 Jun 2027 20:25:40.226            70.383                Norilsk          2199.469
        87   01 Jun 2027 20:26:49.779   01 Jun 2027 20:26:50.024             0.245                Anadyr1             7.656
        88   01 Jun 2027 20:27:09.105   01 Jun 2027 20:27:52.611            43.506               Magadan1          1359.563
        89   01 Jun 2027 20:28:00.018   01 Jun 2027 20:29:34.819            94.801                Irkutsk          2962.531
        90   01 Jun 2027 20:41:03.271   01 Jun 2027 20:41:54.004            50.733                Sumatra          1585.406
        91   01 Jun 2027 20:42:48.311   01 Jun 2027 20:43:31.572            43.261                Sumatra          1351.906
        92   01 Jun 2027 20:44:31.851   01 Jun 2027 20:46:17.174           105.323                Sumatra          3291.344
        93   01 Jun 2027 21:58:29.720   01 Jun 2027 21:58:54.136            24.416                Norilsk           763.000
        94   01 Jun 2027 21:59:42.327   01 Jun 2027 22:00:05.365            23.038               Magadan2           719.937
        95   01 Jun 2027 22:00:25.316   01 Jun 2027 22:00:39.279            13.963                Norilsk           436.344
        96   01 Jun 2027 22:01:13.506   01 Jun 2027 22:01:15.452             1.946               Magadan2            60.813
        97   01 Jun 2027 22:01:19.675   01 Jun 2027 22:01:37.107            17.432               Magadan2           544.750
        98   01 Jun 2027 22:01:43.791   01 Jun 2027 22:02:42.429            58.638                Norilsk          1832.438
        99   01 Jun 2027 22:04:51.834   01 Jun 2027 22:05:20.501            28.667                Norilsk           895.844
       100   01 Jun 2027 22:05:43.866   01 Jun 2027 22:06:41.275            57.409                Novosib          1794.031
       101   01 Jun 2027 22:08:22.988   01 Jun 2027 22:08:23.144             0.156                Novosib             4.875
       102   01 Jun 2027 22:08:31.027   01 Jun 2027 22:08:45.119            14.092                  Delhi           440.375
       103   01 Jun 2027 22:10:08.311   01 Jun 2027 22:10:29.869            21.558                  Delhi           673.688
       104   01 Jun 2027 22:11:17.183   01 Jun 2027 22:12:22.313            65.130                  Delhi          2035.312
       105   01 Jun 2027 22:56:41.098   01 Jun 2027 22:56:58.019            16.921            RioGallegos           528.781
       106   01 Jun 2027 22:57:56.082   01 Jun 2027 22:57:57.673             1.591            RioGallegos            49.719
       107   01 Jun 2027 23:25:56.090   01 Jun 2027 23:27:28.164            92.074                Anadyr2          2877.312
       108   01 Jun 2027 23:29:47.259   01 Jun 2027 23:30:12.477            25.218                Norilsk           788.062
       109   01 Jun 2027 23:30:20.988   01 Jun 2027 23:31:00.463            39.475               Magadan1          1233.594
       110   01 Jun 2027 23:32:02.160   01 Jun 2027 23:32:53.746            51.586               Magadan1          1612.062
       111   01 Jun 2027 23:33:17.141   01 Jun 2027 23:37:13.854           236.713              Murmansk2          7397.281
       112   01 Jun 2027 23:49:37.773   01 Jun 2027 23:49:45.452             7.679                  Delhi           239.969
       113   01 Jun 2027 23:50:07.172   01 Jun 2027 23:50:29.993            22.821                  Delhi           713.156
       114   01 Jun 2027 23:52:57.759   01 Jun 2027 23:53:19.449            21.690                  Delhi           677.813
       115   02 Jun 2027 00:28:09.513   02 Jun 2027 00:28:31.979            22.466            RioGallegos           702.062
       116   02 Jun 2027 00:58:34.506   02 Jun 2027 00:58:56.665            22.159                Anadyr1           692.469
       117   02 Jun 2027 00:58:59.216   02 Jun 2027 00:59:25.846            26.630                Anadyr2           832.188
       118   02 Jun 2027 01:00:28.388   02 Jun 2027 01:01:15.583            47.195                Anadyr2          1474.844
       119   02 Jun 2027 01:01:23.099   02 Jun 2027 01:01:34.165            11.066                Anadyr2           345.813
       120   02 Jun 2027 01:03:54.568   02 Jun 2027 01:04:23.452            28.884                Anadyr1           902.625
       121   02 Jun 2027 01:04:28.930   02 Jun 2027 01:04:53.011            24.081                Anadyr2           752.531
       122   02 Jun 2027 01:05:13.452   02 Jun 2027 01:06:32.475            79.023               Magadan2          2469.469
       123   02 Jun 2027 01:07:57.989   02 Jun 2027 01:08:33.700            35.711              Murmansk1          1115.969
       124   02 Jun 2027 01:08:35.038   02 Jun 2027 01:08:37.140             2.102              Murmansk2            65.687
       125   02 Jun 2027 01:08:46.655   02 Jun 2027 01:09:15.190            28.535              Murmansk2           891.719
       126   02 Jun 2027 01:11:38.091   02 Jun 2027 01:11:50.982            12.891              Murmansk2           402.844
       127   02 Jun 2027 01:12:36.488   02 Jun 2027 01:13:06.445            29.957              Murmansk1           936.156
       128   02 Jun 2027 01:13:38.577   02 Jun 2027 01:13:45.380             6.803              Murmansk2           212.594
       129   02 Jun 2027 01:14:16.999   02 Jun 2027 01:15:44.388            87.389              Murmansk2          2730.906
       130   02 Jun 2027 01:21:50.132   02 Jun 2027 01:22:04.505            14.373                 Moscow           449.156
       131   02 Jun 2027 01:24:17.683   02 Jun 2027 01:24:41.671            23.988                  Delhi           749.625
       132   02 Jun 2027 01:41:33.135   02 Jun 2027 01:41:45.662            12.527               CapeTown           391.469
       133   02 Jun 2027 01:43:14.672   02 Jun 2027 01:44:26.652            71.980               CapeTown          2249.375
       134   02 Jun 2027 02:32:24.067   02 Jun 2027 02:34:59.273           155.206                Anadyr1          4850.187
       135   02 Jun 2027 02:38:29.373   02 Jun 2027 02:39:04.981            35.608               Magadan2          1112.750
       136   02 Jun 2027 02:41:19.629   02 Jun 2027 02:41:34.242            14.613                Norilsk           456.656
       137   02 Jun 2027 02:41:49.424   02 Jun 2027 02:42:17.605            28.181                Norilsk           880.656
       138   02 Jun 2027 02:43:53.138   02 Jun 2027 02:44:09.322            16.184              Murmansk1           505.750
       139   02 Jun 2027 02:45:34.091   02 Jun 2027 02:46:08.102            34.011              Murmansk2          1062.844
       140   02 Jun 2027 02:47:01.621   02 Jun 2027 02:47:05.107             3.486                Novosib           108.938
       141   02 Jun 2027 02:47:12.688   02 Jun 2027 02:48:24.274            71.586                 Moscow          2237.062
       142   02 Jun 2027 02:52:53.303   02 Jun 2027 02:53:51.078            57.775                 Moscow          1805.469
       143   02 Jun 2027 02:59:17.812   02 Jun 2027 02:59:56.614            38.802                 Moscow          1212.562
       144   02 Jun 2027 04:14:57.702   02 Jun 2027 04:15:07.017             9.315                Anadyr2           291.094
       145   02 Jun 2027 04:15:07.579   02 Jun 2027 04:17:47.212           159.633               Magadan2          4988.531
       146   02 Jun 2027 05:52:47.694   02 Jun 2027 05:54:24.176            96.482               Magadan1          3015.062
       147   02 Jun 2027 07:25:37.707   02 Jun 2027 07:26:07.655            29.948                Irkutsk           935.875
       148   02 Jun 2027 07:26:51.768   02 Jun 2027 07:27:04.002            12.234                Anadyr1           382.312
       149   02 Jun 2027 07:27:40.859   02 Jun 2027 07:30:48.365           187.506                Anadyr2          5859.562
       150   02 Jun 2027 07:31:12.545   02 Jun 2027 07:31:55.145            42.600               Magadan1          1331.250
       151   02 Jun 2027 07:32:54.186   02 Jun 2027 07:33:11.554            17.368              Murmansk2           542.750
       152   02 Jun 2027 07:34:56.801   02 Jun 2027 07:35:11.301            14.500              Murmansk2           453.125
       153   02 Jun 2027 07:35:49.537   02 Jun 2027 07:36:20.241            30.704                Norilsk           959.500
       154   02 Jun 2027 07:37:46.626   02 Jun 2027 07:38:10.254            23.628              Murmansk2           738.375
       155   02 Jun 2027 07:38:46.867   02 Jun 2027 07:39:46.364            59.497              Murmansk2          1859.281
       156   02 Jun 2027 07:39:46.364   02 Jun 2027 07:40:34.657            48.293              Murmansk1          1509.156
       157   02 Jun 2027 07:40:34.657   02 Jun 2027 07:40:39.747             5.090              Murmansk2           159.063
       158   02 Jun 2027 08:11:32.751   02 Jun 2027 08:12:04.605            31.854            RioGallegos           995.437
       159   02 Jun 2027 08:15:57.740   02 Jun 2027 08:16:23.119            25.379            RioGallegos           793.094
       160   02 Jun 2027 08:43:33.727   02 Jun 2027 08:44:00.896            27.169                Sumatra           849.031
       161   02 Jun 2027 08:45:11.340   02 Jun 2027 08:46:03.510            52.170                Sumatra          1630.313
       162   02 Jun 2027 08:47:00.559   02 Jun 2027 08:48:06.182            65.623                Sumatra          2050.719
       163   02 Jun 2027 08:52:00.449   02 Jun 2027 08:52:35.442            34.993                Sumatra          1093.531
       164   02 Jun 2027 09:03:07.168   02 Jun 2027 09:03:20.827            13.659                Norilsk           426.844
       165   02 Jun 2027 09:03:23.950   02 Jun 2027 09:04:15.418            51.468                Novosib          1608.375
       166   02 Jun 2027 09:04:18.543   02 Jun 2027 09:04:37.782            19.239                Novosib           601.219
       167   02 Jun 2027 09:04:41.092   02 Jun 2027 09:07:06.571           145.479                Irkutsk          4546.219
       168   02 Jun 2027 09:07:15.117   02 Jun 2027 09:07:22.493             7.376                Norilsk           230.500
       169   02 Jun 2027 09:07:32.126   02 Jun 2027 09:07:51.017            18.891                Irkutsk           590.344
       170   02 Jun 2027 09:07:51.781   02 Jun 2027 09:08:02.707            10.926              Murmansk2           341.438
       171   02 Jun 2027 09:08:24.278   02 Jun 2027 09:08:48.160            23.882              Murmansk1           746.312
       172   02 Jun 2027 09:10:21.028   02 Jun 2027 09:10:24.096             3.068              Murmansk1            95.875
       173   02 Jun 2027 09:10:48.151   02 Jun 2027 09:11:21.478            33.327              Murmansk2          1041.469
       174   02 Jun 2027 09:12:21.793   02 Jun 2027 09:13:12.404            50.611              Murmansk2          1581.594
       175   02 Jun 2027 09:43:17.750   02 Jun 2027 09:43:54.858            37.108            RioGallegos          1159.625
       176   02 Jun 2027 09:45:58.760   02 Jun 2027 09:46:53.588            54.828            RioGallegos          1713.375
       177   02 Jun 2027 10:17:39.973   02 Jun 2027 10:17:52.890            12.917                Sumatra           403.656
       178   02 Jun 2027 10:20:26.200   02 Jun 2027 10:22:26.023           119.823                Sumatra          3744.469
       179   02 Jun 2027 10:38:40.867   02 Jun 2027 10:38:52.189            11.322                Irkutsk           353.813
       180   02 Jun 2027 10:39:11.727   02 Jun 2027 10:39:41.192            29.465                Novosib           920.781
       181   02 Jun 2027 10:39:43.119   02 Jun 2027 10:40:56.923            73.804                Novosib          2306.375
       182   02 Jun 2027 10:41:01.214   02 Jun 2027 10:41:24.158            22.944                 Moscow           717.000
       183   02 Jun 2027 10:41:26.123   02 Jun 2027 10:41:36.497            10.374                Novosib           324.187
       184   02 Jun 2027 10:41:37.155   02 Jun 2027 10:42:11.773            34.618                Novosib          1081.812
       185   02 Jun 2027 10:42:17.553   02 Jun 2027 10:42:57.476            39.923              Murmansk1          1247.594
       186   02 Jun 2027 10:43:12.719   02 Jun 2027 10:44:02.151            49.432                 Moscow          1544.750
       187   02 Jun 2027 12:02:19.576   02 Jun 2027 12:04:27.634           128.058                  Delhi          4001.813
       188   02 Jun 2027 12:06:35.609   02 Jun 2027 12:06:51.686            16.077                  Delhi           502.406
       189   02 Jun 2027 12:10:32.776   02 Jun 2027 12:12:05.764            92.988                Novosib          2905.875
       190   02 Jun 2027 12:12:21.945   02 Jun 2027 12:12:33.168            11.223                 Moscow           350.719
       191   02 Jun 2027 12:13:51.723   02 Jun 2027 12:14:14.878            23.155              Murmansk2           723.594
       192   02 Jun 2027 12:15:15.290   02 Jun 2027 12:15:23.026             7.736              Murmansk2           241.750
       193   02 Jun 2027 12:15:32.090   02 Jun 2027 12:16:18.111            46.021                Norilsk          1438.156
       194   02 Jun 2027 12:21:01.324   02 Jun 2027 12:21:19.585            18.261              Murmansk2           570.656
       195   02 Jun 2027 12:25:52.375   02 Jun 2027 12:26:14.094            21.719              Murmansk1           678.719
       196   02 Jun 2027 13:46:08.004   02 Jun 2027 13:50:02.881           234.877                 Moscow          7339.906
       197   02 Jun 2027 13:50:24.603   02 Jun 2027 13:52:35.438           130.835              Murmansk1          4088.594
       198   02 Jun 2027 13:55:11.574   02 Jun 2027 13:56:14.637            63.063                Norilsk          1970.719
       199   02 Jun 2027 13:59:15.428   02 Jun 2027 13:59:34.899            19.471                Norilsk           608.469
       200   02 Jun 2027 14:07:19.734   02 Jun 2027 14:08:13.872            54.138                Anadyr2          1691.813
       201   02 Jun 2027 15:00:02.836   02 Jun 2027 15:00:39.127            36.291               CapeTown          1134.094
       202   02 Jun 2027 15:00:49.808   02 Jun 2027 15:01:07.314            17.506               CapeTown           547.062
       203   02 Jun 2027 15:02:05.849   02 Jun 2027 15:03:03.422            57.573               CapeTown          1799.156
       204   02 Jun 2027 15:10:39.543   02 Jun 2027 15:11:27.756            48.213               CapeTown          1506.656
       205   02 Jun 2027 15:27:14.189   02 Jun 2027 15:27:29.249            15.060              Murmansk2           470.625
       206   02 Jun 2027 15:27:54.535   02 Jun 2027 15:28:05.486            10.951              Murmansk2           342.219
       207   02 Jun 2027 15:28:51.163   02 Jun 2027 15:29:07.468            16.305              Murmansk2           509.531
       208   02 Jun 2027 15:30:48.863   02 Jun 2027 15:31:09.036            20.173              Murmansk2           630.406
       209   02 Jun 2027 15:34:56.884   02 Jun 2027 15:35:23.276            26.392              Murmansk2           824.750
       210   02 Jun 2027 15:40:25.935   02 Jun 2027 15:42:52.086           146.151                Anadyr2          4567.219
       211   02 Jun 2027 15:46:05.034   02 Jun 2027 15:46:46.523            41.489                Anadyr1          1296.531
       212   02 Jun 2027 16:44:17.579   02 Jun 2027 16:45:36.969            79.390               CapeTown          2480.938
       213   02 Jun 2027 17:07:21.954   02 Jun 2027 17:08:50.919            88.965              Murmansk1          2780.156
       214   02 Jun 2027 17:10:20.218   02 Jun 2027 17:10:55.787            35.569              Murmansk2          1111.531
       215   02 Jun 2027 17:16:08.434   02 Jun 2027 17:17:46.083            97.649                Anadyr1          3051.531
       216   02 Jun 2027 17:19:04.528   02 Jun 2027 17:20:50.242           105.714               Magadan1          3303.562
       217   02 Jun 2027 17:24:07.505   02 Jun 2027 17:24:45.841            38.336               Magadan2          1198.000
       218   02 Jun 2027 17:28:17.109   02 Jun 2027 17:28:39.736            22.627               Magadan2           707.094
       219   02 Jun 2027 18:52:04.073   02 Jun 2027 18:55:05.506           181.433                Anadyr2          5669.781
       220   02 Jun 2027 18:55:10.395   02 Jun 2027 18:55:45.000            34.605                Anadyr2          1081.406
       221   02 Jun 2027 18:55:52.776   02 Jun 2027 18:57:16.149            83.373               Magadan2          2605.406
       222   02 Jun 2027 18:57:27.241   02 Jun 2027 18:58:26.666            59.425               Magadan1          1857.031
       223   02 Jun 2027 19:47:38.710   02 Jun 2027 19:50:34.506           175.796            RioGallegos          5493.625
       224   02 Jun 2027 19:54:03.984   02 Jun 2027 19:54:56.257            52.273            RioGallegos          1633.531
       225   02 Jun 2027 20:27:53.334   02 Jun 2027 20:28:18.704            25.370                Anadyr2           792.812
       226   02 Jun 2027 20:30:00.033   02 Jun 2027 20:33:42.025           221.992                Norilsk          6937.250
       227   02 Jun 2027 20:35:05.521   02 Jun 2027 20:35:25.346            19.825                Irkutsk           619.531
       228   02 Jun 2027 20:36:10.299   02 Jun 2027 20:37:52.718           102.419                Irkutsk          3200.594
       229   02 Jun 2027 20:43:35.827   02 Jun 2027 20:44:04.880            29.053                Irkutsk           907.906
       230   02 Jun 2027 20:50:05.760   02 Jun 2027 20:51:54.480           108.720                Sumatra          3397.500
       231   02 Jun 2027 20:55:28.409   02 Jun 2027 20:56:04.422            36.013                Sumatra          1125.406
       232   02 Jun 2027 22:05:48.917   02 Jun 2027 22:06:13.574            24.657                Norilsk           770.531
       233   02 Jun 2027 22:06:23.840   02 Jun 2027 22:07:07.309            43.469                Norilsk          1358.406
       234   02 Jun 2027 22:08:47.716   02 Jun 2027 22:08:50.016             2.300               Magadan2            71.875
       235   02 Jun 2027 22:09:41.907   02 Jun 2027 22:10:52.264            70.357                Irkutsk          2198.656
       236   02 Jun 2027 22:10:55.715   02 Jun 2027 22:13:28.179           152.464                Novosib          4764.500
       237   02 Jun 2027 22:19:23.559   02 Jun 2027 22:20:21.197            57.638                  Delhi          1801.188
       238   02 Jun 2027 23:36:59.504   02 Jun 2027 23:37:12.643            13.139                Anadyr2           410.594
       239   02 Jun 2027 23:37:55.068   02 Jun 2027 23:38:14.675            19.607                Anadyr2           612.719
       240   02 Jun 2027 23:39:13.055   02 Jun 2027 23:39:46.103            33.048                Anadyr1          1032.750
       241   02 Jun 2027 23:41:49.139   02 Jun 2027 23:42:22.842            33.703                Norilsk          1053.219
       242   02 Jun 2027 23:42:30.722   02 Jun 2027 23:43:36.523            65.801               Magadan2          2056.281
       243   02 Jun 2027 23:43:36.523   02 Jun 2027 23:44:34.948            58.425               Magadan1          1825.781
       244   02 Jun 2027 23:44:41.078   02 Jun 2027 23:48:09.775           208.697              Murmansk1          6521.781
       245   02 Jun 2027 23:53:22.299   02 Jun 2027 23:55:20.512           118.213                  Delhi          3694.156
       246   03 Jun 2027 01:10:16.715   03 Jun 2027 01:10:49.326            32.611                Anadyr2          1019.094
       247   03 Jun 2027 01:11:25.044   03 Jun 2027 01:11:49.129            24.085                Anadyr2           752.656
       248   03 Jun 2027 01:12:29.730   03 Jun 2027 01:13:02.669            32.939                Anadyr2          1029.344
       249   03 Jun 2027 01:13:04.420   03 Jun 2027 01:13:25.328            20.908                Anadyr1           653.375
       250   03 Jun 2027 01:16:09.916   03 Jun 2027 01:17:05.778            55.862               Magadan2          1745.688
       251   03 Jun 2027 01:17:05.778   03 Jun 2027 01:18:08.570            62.792               Magadan1          1962.250
       252   03 Jun 2027 01:19:58.499   03 Jun 2027 01:21:16.578            78.079              Murmansk1          2439.969
       253   03 Jun 2027 01:21:45.227   03 Jun 2027 01:21:52.812             7.585                Novosib           237.031
       254   03 Jun 2027 01:23:01.271   03 Jun 2027 01:24:06.737            65.466                Novosib          2045.813
       255   03 Jun 2027 01:27:06.633   03 Jun 2027 01:27:14.856             8.223                 Moscow           256.969
       256   03 Jun 2027 01:27:34.623   03 Jun 2027 01:27:52.001            17.378              Murmansk1           543.062
       257   03 Jun 2027 01:31:35.400   03 Jun 2027 01:32:12.724            37.324                  Delhi          1166.375
       258   03 Jun 2027 01:49:11.453   03 Jun 2027 01:49:54.157            42.704               CapeTown          1334.500
       259   03 Jun 2027 01:53:48.509   03 Jun 2027 01:54:08.424            19.915               CapeTown           622.344
       260   03 Jun 2027 01:56:33.981   03 Jun 2027 01:58:09.681            95.700               CapeTown          2990.625
       261   03 Jun 2027 02:44:15.246   03 Jun 2027 02:44:44.625            29.379                Anadyr1           918.094
       262   03 Jun 2027 02:47:47.261   03 Jun 2027 02:49:02.664            75.403               Magadan2          2356.344
       263   03 Jun 2027 02:51:30.814   03 Jun 2027 02:51:56.005            25.191               Magadan1           787.219
       264   03 Jun 2027 02:53:16.597   03 Jun 2027 02:53:35.320            18.723                Norilsk           585.094
       265   03 Jun 2027 02:55:22.623   03 Jun 2027 02:55:29.326             6.703                Norilsk           209.469
       266   03 Jun 2027 02:55:54.947   03 Jun 2027 02:57:35.840           100.893              Murmansk1          3152.906
       267   03 Jun 2027 02:58:37.131   03 Jun 2027 02:59:47.884            70.753                Novosib          2211.031
       268   03 Jun 2027 03:03:03.864   03 Jun 2027 03:04:01.533            57.669                 Moscow          1802.156
       269   03 Jun 2027 03:04:15.793   03 Jun 2027 03:04:51.182            35.389                 Moscow          1105.906
       270   03 Jun 2027 03:05:26.980   03 Jun 2027 03:06:18.171            51.191              Murmansk2          1599.719
       271   03 Jun 2027 03:06:18.171   03 Jun 2027 03:08:44.203           146.032              Murmansk1          4563.500
       272   03 Jun 2027 03:23:03.519   03 Jun 2027 03:25:21.030           137.511               CapeTown          4297.219
       273   03 Jun 2027 04:19:50.630   03 Jun 2027 04:20:56.218            65.588                Anadyr2          2049.625
       274   03 Jun 2027 04:21:17.098   03 Jun 2027 04:21:46.623            29.525                Anadyr2           922.656
       275   03 Jun 2027 04:26:32.210   03 Jun 2027 04:26:38.381             6.171               Magadan1           192.844
       276   03 Jun 2027 04:26:44.218   03 Jun 2027 04:27:01.330            17.112               Magadan2           534.750
       277   03 Jun 2027 04:27:07.822   03 Jun 2027 04:27:34.125            26.303                Anadyr2           821.969
       278   03 Jun 2027 04:27:47.494   03 Jun 2027 04:30:19.746           152.252               Magadan1          4757.875
       279   03 Jun 2027 04:30:19.746   03 Jun 2027 04:30:24.672             4.926               Magadan2           153.938
       280   03 Jun 2027 04:30:49.255   03 Jun 2027 04:31:12.885            23.630                Norilsk           738.437
       281   03 Jun 2027 06:02:38.711   03 Jun 2027 06:03:27.020            48.309                Irkutsk          1509.656
       282   03 Jun 2027 06:04:56.203   03 Jun 2027 06:05:51.878            55.675                Irkutsk          1739.844
       283   03 Jun 2027 06:07:40.988   03 Jun 2027 06:08:06.509            25.521              Murmansk1           797.531
       284   03 Jun 2027 06:47:15.122   03 Jun 2027 06:48:09.272            54.150            RioGallegos          1692.187
       285   03 Jun 2027 07:36:53.964   03 Jun 2027 07:37:23.999            30.035               Magadan1           938.594
       286   03 Jun 2027 07:37:41.365   03 Jun 2027 07:37:53.510            12.145               Magadan1           379.531
       287   03 Jun 2027 07:38:05.205   03 Jun 2027 07:38:13.886             8.681               Magadan2           271.281
       288   03 Jun 2027 07:38:14.232   03 Jun 2027 07:38:30.041            15.809                Norilsk           494.031
       289   03 Jun 2027 07:38:35.967   03 Jun 2027 07:40:13.076            97.109               Magadan1          3034.656
       290   03 Jun 2027 07:40:25.012   03 Jun 2027 07:41:03.523            38.511                Anadyr1          1203.469
       291   03 Jun 2027 07:41:09.423   03 Jun 2027 07:42:25.055            75.632               Magadan2          2363.500
       292   03 Jun 2027 07:42:32.082   03 Jun 2027 07:43:32.869            60.787                Novosib          1899.594
       293   03 Jun 2027 07:43:38.497   03 Jun 2027 07:43:53.957            15.460              Murmansk1           483.125
       294   03 Jun 2027 07:44:45.676   03 Jun 2027 07:45:07.428            21.752              Murmansk2           679.750
       295   03 Jun 2027 07:48:32.032   03 Jun 2027 07:48:48.900            16.868              Murmansk2           527.125
       296   03 Jun 2027 08:18:47.510   03 Jun 2027 08:19:38.608            51.098            RioGallegos          1596.813
       297   03 Jun 2027 08:20:55.084   03 Jun 2027 08:21:39.482            44.398            RioGallegos          1387.438
       298   03 Jun 2027 08:54:53.920   03 Jun 2027 08:55:28.513            34.593                Sumatra          1081.031
       299   03 Jun 2027 09:14:44.318   03 Jun 2027 09:14:50.811             6.493                Norilsk           202.906
       300   03 Jun 2027 09:14:59.439   03 Jun 2027 09:15:22.023            22.584                Norilsk           705.750
       301   03 Jun 2027 09:15:31.419   03 Jun 2027 09:16:43.707            72.288                Irkutsk          2259.000
       302   03 Jun 2027 09:17:02.101   03 Jun 2027 09:17:33.212            31.111              Murmansk1           972.219
       303   03 Jun 2027 09:17:35.613   03 Jun 2027 09:17:43.692             8.079              Murmansk2           252.469
       304   03 Jun 2027 09:17:47.515   03 Jun 2027 09:17:51.174             3.659                Norilsk           114.344
       305   03 Jun 2027 09:17:56.283   03 Jun 2027 09:18:11.628            15.345              Murmansk2           479.531
       306   03 Jun 2027 09:18:11.628   03 Jun 2027 09:18:27.715            16.087              Murmansk1           502.719
       307   03 Jun 2027 09:18:56.460   03 Jun 2027 09:19:20.613            24.153                Irkutsk           754.781
       308   03 Jun 2027 09:19:34.304   03 Jun 2027 09:19:37.678             3.374                Norilsk           105.437
       309   03 Jun 2027 09:19:43.186   03 Jun 2027 09:20:00.290            17.104                Irkutsk           534.500
       310   03 Jun 2027 09:20:35.364   03 Jun 2027 09:20:51.619            16.255              Murmansk1           507.969
       311   03 Jun 2027 09:21:38.165   03 Jun 2027 09:21:45.700             7.535              Murmansk2           235.469
       312   03 Jun 2027 09:55:39.986   03 Jun 2027 09:56:39.473            59.487            RioGallegos          1858.969
       313   03 Jun 2027 09:59:42.687   03 Jun 2027 09:59:50.138             7.451            RioGallegos           232.844
       314   03 Jun 2027 10:00:34.034   03 Jun 2027 10:00:52.728            18.694            RioGallegos           584.188
       315   03 Jun 2027 10:29:55.995   03 Jun 2027 10:31:32.388            96.393                Sumatra          3012.281
       316   03 Jun 2027 10:51:07.016   03 Jun 2027 10:51:25.600            18.584              Murmansk2           580.750
       317   03 Jun 2027 10:51:29.039   03 Jun 2027 10:52:06.288            37.249              Murmansk2          1164.031
       318   03 Jun 2027 10:52:18.346   03 Jun 2027 10:52:41.769            23.423              Murmansk1           731.969
       319   03 Jun 2027 10:52:45.604   03 Jun 2027 10:54:00.194            74.590                Irkutsk          2330.937
       320   03 Jun 2027 10:54:06.000   03 Jun 2027 10:55:05.340            59.340                Irkutsk          1854.375
       321   03 Jun 2027 10:55:12.722   03 Jun 2027 10:55:43.430            30.708                 Moscow           959.625
       322   03 Jun 2027 10:56:16.929   03 Jun 2027 10:56:26.878             9.949              Murmansk2           310.906
       323   03 Jun 2027 11:00:34.837   03 Jun 2027 11:00:39.824             4.987              Murmansk2           155.844
       324   03 Jun 2027 11:01:49.449   03 Jun 2027 11:02:37.095            47.646              Murmansk2          1488.938
       325   03 Jun 2027 12:14:47.484   03 Jun 2027 12:18:15.865           208.381                  Delhi          6511.906
       326   03 Jun 2027 12:23:10.006   03 Jun 2027 12:23:15.123             5.117                Novosib           159.906
       327   03 Jun 2027 12:24:08.106   03 Jun 2027 12:24:37.598            29.492                Novosib           921.625
       328   03 Jun 2027 12:25:47.252   03 Jun 2027 12:27:16.742            89.490              Murmansk2          2796.563
       329   03 Jun 2027 13:58:15.044   03 Jun 2027 14:00:08.516           113.472                 Moscow          3546.000
       330   03 Jun 2027 14:01:46.537   03 Jun 2027 14:05:49.370           242.833              Murmansk2          7588.531
       331   03 Jun 2027 14:06:02.709   03 Jun 2027 14:06:04.345             1.636              Murmansk1            51.125
       332   03 Jun 2027 14:08:12.884   03 Jun 2027 14:10:20.364           127.480                Norilsk          3983.750
       333   03 Jun 2027 14:18:02.140   03 Jun 2027 14:18:53.800            51.660                Anadyr2          1614.375
       334   03 Jun 2027 14:19:23.897   03 Jun 2027 14:20:15.540            51.643                Anadyr1          1613.844
       335   03 Jun 2027 14:21:58.888   03 Jun 2027 14:22:13.894            15.006                Anadyr2           468.937
       336   03 Jun 2027 15:13:03.970   03 Jun 2027 15:13:57.763            53.793               CapeTown          1681.031
       337   03 Jun 2027 15:37:40.144   03 Jun 2027 15:38:14.135            33.991                 Moscow          1062.219
       338   03 Jun 2027 15:39:37.380   03 Jun 2027 15:40:04.461            27.081              Murmansk2           846.281
       339   03 Jun 2027 15:41:09.388   03 Jun 2027 15:42:06.327            56.939              Murmansk1          1779.344
       340   03 Jun 2027 15:52:23.721   03 Jun 2027 15:53:22.410            58.689                Anadyr2          1834.031
       341   03 Jun 2027 15:53:30.003   03 Jun 2027 15:54:37.053            67.050                Anadyr1          2095.312
       342   03 Jun 2027 15:58:25.185   03 Jun 2027 15:58:35.572            10.387                Anadyr1           324.594
       343   03 Jun 2027 16:03:29.452   03 Jun 2027 16:03:31.210             1.758                Anadyr1            54.938
       344   03 Jun 2027 16:48:05.772   03 Jun 2027 16:48:40.618            34.846               CapeTown          1088.938
       345   03 Jun 2027 16:52:42.617   03 Jun 2027 16:52:53.655            11.038               CapeTown           344.938
       346   03 Jun 2027 16:53:41.719   03 Jun 2027 16:54:24.665            42.946               CapeTown          1342.063
       347   03 Jun 2027 17:20:12.936   03 Jun 2027 17:22:57.773           164.837              Murmansk1          5151.156
       348   03 Jun 2027 17:24:52.277   03 Jun 2027 17:24:54.498             2.221              Murmansk1            69.406
       349   03 Jun 2027 17:28:09.648   03 Jun 2027 17:29:44.471            94.823                Anadyr2          2963.219
       350   03 Jun 2027 17:30:56.159   03 Jun 2027 17:33:00.136           123.977               Magadan1          3874.281
       351   03 Jun 2027 17:36:09.891   03 Jun 2027 17:36:21.909            12.018               Magadan2           375.563
       352   03 Jun 2027 17:36:21.909   03 Jun 2027 17:36:23.133             1.224               Magadan1            38.250
       353   03 Jun 2027 19:04:05.256   03 Jun 2027 19:08:04.379           239.123                Anadyr1          7472.594
       354   03 Jun 2027 19:08:08.679   03 Jun 2027 19:08:23.324            14.645                Anadyr1           457.656
       355   03 Jun 2027 19:08:41.363   03 Jun 2027 19:09:21.724            40.361                Anadyr1          1261.281
       356   03 Jun 2027 19:09:35.445   03 Jun 2027 19:10:36.665            61.220               Magadan2          1913.125
       357   03 Jun 2027 19:13:35.361   03 Jun 2027 19:13:56.617            21.256               Magadan1           664.250
       358   03 Jun 2027 19:18:13.489   03 Jun 2027 19:18:23.871            10.382               Magadan1           324.438
       359   03 Jun 2027 19:59:11.497   03 Jun 2027 20:02:22.315           190.818            RioGallegos          5963.062
       360   03 Jun 2027 20:39:49.221   03 Jun 2027 20:40:20.397            31.176                Anadyr1           974.250
       361   03 Jun 2027 20:41:58.671   03 Jun 2027 20:42:18.313            19.642                Norilsk           613.813
       362   03 Jun 2027 20:42:21.222   03 Jun 2027 20:44:52.483           151.261               Magadan1          4726.906
       363   03 Jun 2027 20:45:09.882   03 Jun 2027 20:45:42.589            32.707                Norilsk          1022.094
       364   03 Jun 2027 20:46:28.024   03 Jun 2027 20:48:10.217           102.193                Irkutsk          3193.531
       365   03 Jun 2027 20:49:06.321   03 Jun 2027 20:49:50.872            44.551                Irkutsk          1392.219
       366   03 Jun 2027 20:56:44.770   03 Jun 2027 20:57:01.349            16.579                Irkutsk           518.094
       367   03 Jun 2027 21:00:38.370   03 Jun 2027 21:02:20.283           101.913                Sumatra          3184.781
       368   03 Jun 2027 21:06:18.151   03 Jun 2027 21:07:26.525            68.374                Sumatra          2136.688
       369   03 Jun 2027 22:19:34.913   03 Jun 2027 22:20:07.929            33.016                Norilsk          1031.750
       370   03 Jun 2027 22:21:02.712   03 Jun 2027 22:21:31.211            28.499               Magadan1           890.594
       371   03 Jun 2027 22:21:36.686   03 Jun 2027 22:21:43.586             6.900               Magadan1           215.625
       372   03 Jun 2027 22:21:54.841   03 Jun 2027 22:22:14.201            19.360                Irkutsk           605.000
       373   03 Jun 2027 22:22:38.708   03 Jun 2027 22:23:03.447            24.739                Novosib           773.094
       374   03 Jun 2027 22:23:26.928   03 Jun 2027 22:23:57.315            30.387                Novosib           949.594
       375   03 Jun 2027 22:25:00.869   03 Jun 2027 22:25:41.573            40.704                Novosib          1272.000
       376   03 Jun 2027 22:26:22.188   03 Jun 2027 22:27:01.318            39.130                Novosib          1222.812
       377   03 Jun 2027 22:30:38.550   03 Jun 2027 22:31:50.046            71.496                  Delhi          2234.250
       378   03 Jun 2027 22:32:53.135   03 Jun 2027 22:33:28.184            35.049                  Delhi          1095.281
       379   03 Jun 2027 22:35:21.657   03 Jun 2027 22:36:59.202            97.545                  Delhi          3048.281
       380   03 Jun 2027 23:52:59.960   03 Jun 2027 23:53:57.540            57.580                Anadyr2          1799.375
       381   03 Jun 2027 23:54:16.879   03 Jun 2027 23:55:20.158            63.279               Magadan1          1977.469
       382   03 Jun 2027 23:56:26.081   03 Jun 2027 23:58:27.266           121.185              Murmansk1          3787.031
       383   03 Jun 2027 23:59:05.113   04 Jun 2027 00:00:07.007            61.894              Murmansk2          1934.187
       384   04 Jun 2027 00:01:17.717   04 Jun 2027 00:01:45.896            28.179              Murmansk1           880.594
       385   04 Jun 2027 00:09:15.550   04 Jun 2027 00:09:22.677             7.127                  Delhi           222.719
       386   04 Jun 2027 00:10:27.856   04 Jun 2027 00:10:36.758             8.902                  Delhi           278.187
       387   04 Jun 2027 00:11:22.019   04 Jun 2027 00:13:21.063           119.044                  Delhi          3720.125
       388   04 Jun 2027 01:21:59.639   04 Jun 2027 01:22:35.166            35.527                Anadyr2          1110.219
       389   04 Jun 2027 01:23:49.602   04 Jun 2027 01:24:31.071            41.469                Anadyr2          1295.906
       390   04 Jun 2027 01:25:10.690   04 Jun 2027 01:25:16.965             6.275                Anadyr1           196.094
       391   04 Jun 2027 01:27:13.056   04 Jun 2027 01:27:32.233            19.177                Anadyr2           599.281
       392   04 Jun 2027 01:27:40.167   04 Jun 2027 01:28:32.623            52.456               Magadan2          1639.250
       393   04 Jun 2027 01:28:32.623   04 Jun 2027 01:29:43.682            71.059               Magadan1          2220.594
       394   04 Jun 2027 01:31:26.878   04 Jun 2027 01:32:02.369            35.491               Magadan1          1109.094
       395   04 Jun 2027 01:32:19.367   04 Jun 2027 01:33:05.364            45.997              Murmansk1          1437.406
       396   04 Jun 2027 01:33:50.602   04 Jun 2027 01:34:58.583            67.981                Novosib          2124.406
       397   04 Jun 2027 01:35:32.100   04 Jun 2027 01:35:37.849             5.749                 Moscow           179.656
       398   04 Jun 2027 01:36:02.243   04 Jun 2027 01:36:24.385            22.142                 Moscow           691.938
       399   04 Jun 2027 01:41:30.806   04 Jun 2027 01:41:35.888             5.082                 Moscow           158.813
       400   04 Jun 2027 01:43:07.669   04 Jun 2027 01:44:43.286            95.617                 Moscow          2988.031
       401   04 Jun 2027 02:10:58.708   04 Jun 2027 02:11:16.895            18.187               CapeTown           568.344
       402   04 Jun 2027 02:56:07.974   04 Jun 2027 02:58:38.916           150.942                Anadyr1          4716.938
       403   04 Jun 2027 02:59:19.054   04 Jun 2027 02:59:25.825             6.771               Magadan2           211.594
       404   04 Jun 2027 02:59:27.037   04 Jun 2027 03:00:08.152            41.115               Magadan2          1284.844
       405   04 Jun 2027 03:17:19.908   04 Jun 2027 03:17:49.447            29.539              Murmansk2           923.094
       406   04 Jun 2027 03:18:01.871   04 Jun 2027 03:19:07.347            65.476              Murmansk2          2046.125
       407   04 Jun 2027 04:31:58.173   04 Jun 2027 04:32:36.641            38.468                Anadyr2          1202.125
       408   04 Jun 2027 04:32:45.968   04 Jun 2027 04:33:12.841            26.873               Magadan2           839.781
       409   04 Jun 2027 04:33:33.219   04 Jun 2027 04:33:52.153            18.934               Magadan2           591.688
       410   04 Jun 2027 04:38:20.296   04 Jun 2027 04:38:32.749            12.453               Magadan2           389.156
       411   04 Jun 2027 04:38:40.772   04 Jun 2027 04:39:13.781            33.009               Magadan1          1031.531
       412   04 Jun 2027 04:39:13.781   04 Jun 2027 04:39:24.089            10.308               Magadan2           322.125
       413   04 Jun 2027 04:39:31.338   04 Jun 2027 04:41:40.205           128.867                Anadyr1          4027.094
       414   04 Jun 2027 04:41:40.205   04 Jun 2027 04:44:41.583           181.378                Anadyr2          5668.062
       415   04 Jun 2027 06:14:06.754   04 Jun 2027 06:14:24.183            17.429                Irkutsk           544.656
       416   04 Jun 2027 06:16:00.636   04 Jun 2027 06:16:09.002             8.366                Norilsk           261.438
       417   04 Jun 2027 06:16:18.812   04 Jun 2027 06:16:29.285            10.473               Magadan2           327.281
       418   04 Jun 2027 06:16:30.007   04 Jun 2027 06:17:27.539            57.532               Magadan2          1797.875
       419   04 Jun 2027 06:17:39.790   04 Jun 2027 06:17:52.610            12.820                Anadyr2           400.625
       420   04 Jun 2027 06:18:03.575   04 Jun 2027 06:18:08.526             4.951                Norilsk           154.719
       421   04 Jun 2027 06:18:12.014   04 Jun 2027 06:18:28.500            16.486                Irkutsk           515.187
       422   04 Jun 2027 06:18:40.222   04 Jun 2027 06:19:06.634            26.412                Norilsk           825.375
       423   04 Jun 2027 06:19:29.496   04 Jun 2027 06:19:34.206             4.710              Murmansk1           147.188
       424   04 Jun 2027 06:19:38.246   04 Jun 2027 06:20:18.780            40.534               Magadan2          1266.687
       425   04 Jun 2027 06:58:24.815   04 Jun 2027 06:59:02.649            37.834            RioGallegos          1182.313
       426   04 Jun 2027 07:49:42.572   04 Jun 2027 07:50:27.808            45.236               Magadan1          1413.625
       427   04 Jun 2027 07:50:39.379   04 Jun 2027 07:50:43.149             3.770               Magadan1           117.813
       428   04 Jun 2027 07:50:57.238   04 Jun 2027 07:51:26.401            29.163               Magadan1           911.344
       429   04 Jun 2027 07:51:28.656   04 Jun 2027 07:51:47.403            18.747                Irkutsk           585.844
       430   04 Jun 2027 07:51:53.827   04 Jun 2027 07:51:55.832             2.005                Norilsk            62.656
       431   04 Jun 2027 07:52:08.899   04 Jun 2027 07:52:20.755            11.856                Norilsk           370.500
       432   04 Jun 2027 07:52:41.334   04 Jun 2027 07:52:47.483             6.149               Magadan2           192.156
       433   04 Jun 2027 07:52:58.844   04 Jun 2027 07:53:06.734             7.890                Irkutsk           246.562
       434   04 Jun 2027 07:53:14.549   04 Jun 2027 07:54:25.252            70.703               Magadan2          2209.469
       435   04 Jun 2027 07:54:31.301   04 Jun 2027 07:55:10.787            39.486              Murmansk2          1233.938
       436   04 Jun 2027 07:55:10.787   04 Jun 2027 07:55:19.105             8.318              Murmansk1           259.938
       437   04 Jun 2027 07:55:24.834   04 Jun 2027 07:56:00.306            35.472                Norilsk          1108.500
       438   04 Jun 2027 07:56:37.918   04 Jun 2027 07:56:46.195             8.277              Murmansk1           258.656
       439   04 Jun 2027 07:56:46.195   04 Jun 2027 07:57:24.396            38.201              Murmansk2          1193.781
       440   04 Jun 2027 08:30:43.767   04 Jun 2027 08:31:47.786            64.019            RioGallegos          2000.594
       441   04 Jun 2027 09:06:25.162   04 Jun 2027 09:07:03.182            38.020                Sumatra          1188.125
       442   04 Jun 2027 09:10:34.632   04 Jun 2027 09:12:17.548           102.916                Sumatra          3216.125
       443   04 Jun 2027 09:27:13.335   04 Jun 2027 09:27:34.483            21.148                Novosib           660.875
       444   04 Jun 2027 09:27:54.862   04 Jun 2027 09:27:57.703             2.841                Norilsk            88.781
       445   04 Jun 2027 09:28:11.653   04 Jun 2027 09:28:13.731             2.078                Irkutsk            64.937
       446   04 Jun 2027 09:28:15.174   04 Jun 2027 09:28:20.561             5.387                Irkutsk           168.344
       447   04 Jun 2027 09:28:34.089   04 Jun 2027 09:28:48.370            14.281                Novosib           446.281
       448   04 Jun 2027 09:28:49.554   04 Jun 2027 09:29:24.133            34.579              Murmansk1          1080.594
       449   04 Jun 2027 09:29:31.523   04 Jun 2027 09:29:44.955            13.432              Murmansk2           419.750
       450   04 Jun 2027 09:29:44.955   04 Jun 2027 09:29:54.623             9.668              Murmansk1           302.125
       451   04 Jun 2027 09:29:57.476   04 Jun 2027 09:30:06.653             9.177                Irkutsk           286.781
       452   04 Jun 2027 09:30:12.696   04 Jun 2027 09:31:18.448            65.752                Norilsk          2054.750
       453   04 Jun 2027 09:31:33.499   04 Jun 2027 09:31:46.448            12.949              Murmansk1           404.656
       454   04 Jun 2027 09:31:52.704   04 Jun 2027 09:32:00.319             7.615                Irkutsk           237.969
       455   04 Jun 2027 09:32:02.849   04 Jun 2027 09:32:30.979            28.130              Murmansk1           879.062
       456   04 Jun 2027 09:33:40.410   04 Jun 2027 09:34:24.235            43.825              Murmansk2          1369.531
       457   04 Jun 2027 10:08:07.322   04 Jun 2027 10:08:49.014            41.692            RioGallegos          1302.875
       458   04 Jun 2027 10:42:19.698   04 Jun 2027 10:43:30.148            70.450                Sumatra          2201.563
       459   04 Jun 2027 10:52:53.858   04 Jun 2027 10:53:25.763            31.905                  Delhi           997.031
       460   04 Jun 2027 11:03:08.186   04 Jun 2027 11:03:18.656            10.470              Murmansk1           327.188
       461   04 Jun 2027 11:03:25.479   04 Jun 2027 11:04:14.197            48.718              Murmansk1          1522.438
       462   04 Jun 2027 11:04:23.921   04 Jun 2027 11:04:27.894             3.973                Irkutsk           124.156
       463   04 Jun 2027 11:04:29.090   04 Jun 2027 11:04:37.397             8.307                Novosib           259.594
       464   04 Jun 2027 11:04:43.402   04 Jun 2027 11:05:40.018            56.616                Novosib          1769.250
       465   04 Jun 2027 11:05:40.875   04 Jun 2027 11:06:11.656            30.781                Novosib           961.906
       466   04 Jun 2027 11:06:17.598   04 Jun 2027 11:07:18.568            60.970                Norilsk          1905.313
       467   04 Jun 2027 11:07:22.704   04 Jun 2027 11:07:41.721            19.017                Norilsk           594.281
       468   04 Jun 2027 11:08:47.996   04 Jun 2027 11:09:02.492            14.496              Murmansk2           453.000
       469   04 Jun 2027 11:09:08.955   04 Jun 2027 11:09:15.851             6.896                 Moscow           215.500
       470   04 Jun 2027 11:09:51.698   04 Jun 2027 11:09:54.199             2.501                Norilsk            78.156
       471   04 Jun 2027 12:27:25.246   04 Jun 2027 12:29:49.620           144.374                  Delhi          4511.688
       472   04 Jun 2027 12:30:49.445   04 Jun 2027 12:32:06.506            77.061                  Delhi          2408.156
       473   04 Jun 2027 12:35:49.271   04 Jun 2027 12:36:45.917            56.646                 Moscow          1770.188
       474   04 Jun 2027 12:37:44.046   04 Jun 2027 12:39:23.200            99.154              Murmansk2          3098.562
       475   04 Jun 2027 12:39:23.200   04 Jun 2027 12:39:41.173            17.973              Murmansk1           561.656
       476   04 Jun 2027 12:47:52.934   04 Jun 2027 12:48:53.279            60.345                Norilsk          1885.781
       477   04 Jun 2027 14:10:25.271   04 Jun 2027 14:12:06.540           101.269                 Moscow          3164.656
       478   04 Jun 2027 14:13:55.601   04 Jun 2027 14:17:43.437           227.836              Murmansk2          7119.875
       479   04 Jun 2027 14:21:26.368   04 Jun 2027 14:21:53.996            27.628              Murmansk1           863.375
       480   04 Jun 2027 14:22:59.070   04 Jun 2027 14:23:10.562            11.492                Norilsk           359.125
       481   04 Jun 2027 14:29:33.465   04 Jun 2027 14:31:13.196            99.731                Anadyr2          3116.594
       482   04 Jun 2027 14:32:12.309   04 Jun 2027 14:33:28.540            76.231                Anadyr2          2382.219
