uniorb/output/strategy_2/Drop/Drop_KinoSat_111205.txt

KinoSat_111205
-------------------------
    Access    *     Start Time (UTCG)     *     Stop Time (UTCG)  *   Duration (s)        *       Station  *  Data (Mbytes)
         1   01 Jun 2027 03:35:37.292   01 Jun 2027 03:38:25.937           168.645              Murmansk1          5270.156
         2   01 Jun 2027 04:56:14.753   01 Jun 2027 04:57:18.073            63.320               Magadan1          1978.750
         3   01 Jun 2027 04:57:18.073   01 Jun 2027 04:58:17.098            59.025               Magadan2          1844.531
         4   01 Jun 2027 04:58:33.462   01 Jun 2027 04:58:57.034            23.572                Anadyr1           736.625
         5   01 Jun 2027 04:58:57.034   01 Jun 2027 04:59:45.748            48.714                Anadyr2          1522.312
         6   01 Jun 2027 04:59:58.889   01 Jun 2027 05:00:51.928            53.039               Magadan2          1657.469
         7   01 Jun 2027 06:34:10.797   01 Jun 2027 06:36:00.309           109.512               Magadan1          3422.250
         8   01 Jun 2027 08:09:54.802   01 Jun 2027 08:13:28.464           213.662               Magadan1          6676.937
         9   01 Jun 2027 09:24:23.798   01 Jun 2027 09:25:19.333            55.535                Sumatra          1735.469
        10   01 Jun 2027 09:45:17.851   01 Jun 2027 09:45:21.766             3.915                Irkutsk           122.344
        11   01 Jun 2027 09:45:43.266   01 Jun 2027 09:46:05.680            22.414                Novosib           700.437
        12   01 Jun 2027 09:46:24.847   01 Jun 2027 09:49:40.130           195.283                Irkutsk          6102.594
        13   01 Jun 2027 09:49:46.139   01 Jun 2027 09:51:55.303           129.164              Murmansk1          4036.375
        14   01 Jun 2027 09:52:48.645   01 Jun 2027 09:53:29.789            41.144                Norilsk          1285.750
        15   01 Jun 2027 09:54:33.634   01 Jun 2027 09:54:37.725             4.091                Norilsk           127.844
        16   01 Jun 2027 09:55:54.414   01 Jun 2027 09:56:18.550            24.136              Murmansk1           754.250
        17   01 Jun 2027 09:56:40.810   01 Jun 2027 09:57:15.720            34.910              Murmansk1          1090.937
        18   01 Jun 2027 10:25:27.368   01 Jun 2027 10:26:27.404            60.036            RioGallegos          1876.125
        19   01 Jun 2027 10:27:10.970   01 Jun 2027 10:27:50.403            39.433            RioGallegos          1232.281
        20   01 Jun 2027 10:28:22.194   01 Jun 2027 10:29:23.556            61.362            RioGallegos          1917.562
        21   01 Jun 2027 10:59:42.082   01 Jun 2027 11:01:15.130            93.048                Sumatra          2907.750
        22   01 Jun 2027 11:02:22.190   01 Jun 2027 11:02:25.776             3.586                Sumatra           112.063
        23   01 Jun 2027 11:04:05.910   01 Jun 2027 11:04:56.552            50.642                Sumatra          1582.562
        24   01 Jun 2027 11:22:06.632   01 Jun 2027 11:22:43.147            36.515                Irkutsk          1141.094
        25   01 Jun 2027 11:22:57.640   01 Jun 2027 11:26:41.253           223.613              Murmansk2          6987.906
        26   01 Jun 2027 12:44:37.495   01 Jun 2027 12:47:54.073           196.578                  Delhi          6143.062
        27   01 Jun 2027 12:48:35.916   01 Jun 2027 12:49:42.770            66.854                  Delhi          2089.188
        28   01 Jun 2027 12:53:02.252   01 Jun 2027 12:53:52.599            50.347                Novosib          1573.344
        29   01 Jun 2027 12:56:26.612   01 Jun 2027 12:57:52.543            85.931                Novosib          2685.344
        30   01 Jun 2027 12:59:49.616   01 Jun 2027 13:00:44.960            55.344                Norilsk          1729.500
        31   01 Jun 2027 14:27:57.498   01 Jun 2027 14:29:51.742           114.244                 Moscow          3570.125
        32   01 Jun 2027 14:31:28.781   01 Jun 2027 14:35:17.137           228.356              Murmansk1          7136.125
        33   01 Jun 2027 14:38:13.467   01 Jun 2027 14:39:06.457            52.990                Norilsk          1655.937
        34   01 Jun 2027 14:40:45.224   01 Jun 2027 14:41:26.317            41.093                Norilsk          1284.156
        35   01 Jun 2027 14:47:30.513   01 Jun 2027 14:48:19.703            49.190                Anadyr2          1537.187
        36   01 Jun 2027 14:50:10.257   01 Jun 2027 14:50:32.791            22.534                Anadyr1           704.188
        37   01 Jun 2027 15:41:29.679   01 Jun 2027 15:42:54.606            84.927               CapeTown          2653.969
        38   01 Jun 2027 16:08:40.182   01 Jun 2027 16:08:45.983             5.801                 Moscow           181.281
        39   01 Jun 2027 16:09:16.607   01 Jun 2027 16:09:54.935            38.328                 Moscow          1197.750
        40   01 Jun 2027 16:10:32.151   01 Jun 2027 16:11:55.414            83.263              Murmansk2          2601.969
        41   01 Jun 2027 16:14:19.035   01 Jun 2027 16:14:21.664             2.629              Murmansk2            82.156
        42   01 Jun 2027 16:22:02.746   01 Jun 2027 16:24:24.493           141.747                Anadyr2          4429.594
        43   01 Jun 2027 17:17:50.870   01 Jun 2027 17:19:17.409            86.539               CapeTown          2704.344
        44   01 Jun 2027 17:21:32.861   01 Jun 2027 17:22:11.087            38.226               CapeTown          1194.562
        45   01 Jun 2027 17:22:51.731   01 Jun 2027 17:23:17.982            26.251               CapeTown           820.344
        46   01 Jun 2027 17:50:09.105   01 Jun 2027 17:54:19.054           249.949              Murmansk2          7810.906
        47   01 Jun 2027 17:54:19.054   01 Jun 2027 17:54:46.894            27.840              Murmansk1           870.000
        48   01 Jun 2027 17:57:49.722   01 Jun 2027 17:58:03.440            13.718                Anadyr2           428.687
        49   01 Jun 2027 17:58:14.509   01 Jun 2027 17:58:28.848            14.339                Anadyr2           448.094
        50   01 Jun 2027 18:00:33.547   01 Jun 2027 18:01:45.603            72.056               Magadan2          2251.750
        51   01 Jun 2027 18:03:30.001   01 Jun 2027 18:03:30.894             0.893               Magadan1            27.906
        52   01 Jun 2027 18:04:58.179   01 Jun 2027 18:05:15.632            17.453               Magadan1           545.406
        53   01 Jun 2027 18:05:23.797   01 Jun 2027 18:05:35.178            11.381               Magadan1           355.656
        54   01 Jun 2027 19:33:45.388   01 Jun 2027 19:35:48.369           122.981                Anadyr1          3843.156
        55   01 Jun 2027 19:35:50.723   01 Jun 2027 19:37:01.941            71.218                Anadyr2          2225.562
        56   01 Jun 2027 19:37:11.214   01 Jun 2027 19:37:19.929             8.715                Anadyr2           272.344
        57   01 Jun 2027 19:37:23.693   01 Jun 2027 19:39:39.379           135.686               Magadan1          4240.188
        58   01 Jun 2027 19:39:39.379   01 Jun 2027 19:40:36.186            56.807               Magadan2          1775.219
        59   01 Jun 2027 19:43:11.313   01 Jun 2027 19:43:23.828            12.515               Magadan2           391.094
        60   01 Jun 2027 20:28:44.351   01 Jun 2027 20:31:55.930           191.579            RioGallegos          5986.844
        61   01 Jun 2027 20:35:10.855   01 Jun 2027 20:35:18.439             7.584            RioGallegos           237.000
        62   01 Jun 2027 21:09:28.548   01 Jun 2027 21:10:04.839            36.291                Anadyr1          1134.094
        63   01 Jun 2027 21:10:52.108   01 Jun 2027 21:11:48.057            55.949                Anadyr2          1748.406
        64   01 Jun 2027 21:12:01.852   01 Jun 2027 21:14:19.085           137.233               Magadan2          4288.531
        65   01 Jun 2027 21:14:32.029   01 Jun 2027 21:14:33.209             1.180               Magadan2            36.875
        66   01 Jun 2027 21:15:15.372   01 Jun 2027 21:15:48.035            32.663               Magadan2          1020.719
        67   01 Jun 2027 21:16:04.190   01 Jun 2027 21:17:36.149            91.959                Irkutsk          2873.719
        68   01 Jun 2027 21:21:35.934   01 Jun 2027 21:22:31.784            55.850                Irkutsk          1745.313
        69   01 Jun 2027 21:30:09.724   01 Jun 2027 21:33:15.342           185.618                Sumatra          5800.562
        70   01 Jun 2027 22:46:21.137   01 Jun 2027 22:47:07.556            46.419                Anadyr2          1450.594
        71   01 Jun 2027 22:47:30.953   01 Jun 2027 22:48:01.244            30.291                Norilsk           946.594
        72   01 Jun 2027 22:48:08.658   01 Jun 2027 22:49:27.174            78.516               Magadan1          2453.625
        73   01 Jun 2027 22:49:27.174   01 Jun 2027 22:49:46.978            19.804               Magadan2           618.875
        74   01 Jun 2027 22:51:22.695   01 Jun 2027 22:52:57.107            94.412                Irkutsk          2950.375
        75   01 Jun 2027 22:53:15.238   01 Jun 2027 22:53:30.219            14.981                Novosib           468.156
        76   01 Jun 2027 23:00:07.819   01 Jun 2027 23:03:00.934           173.115                  Delhi          5409.844
        77   01 Jun 2027 23:48:35.584   01 Jun 2027 23:48:48.545            12.961            RioGallegos           405.031
        78   01 Jun 2027 23:49:26.977   01 Jun 2027 23:50:33.968            66.991            RioGallegos          2093.469
        79   02 Jun 2027 00:20:37.682   02 Jun 2027 00:21:00.678            22.996                Anadyr1           718.625
        80   02 Jun 2027 00:21:11.081   02 Jun 2027 00:21:11.345             0.264                Anadyr1             8.250
        81   02 Jun 2027 00:23:04.538   02 Jun 2027 00:23:12.834             8.296                Anadyr2           259.250
        82   02 Jun 2027 00:23:17.530   02 Jun 2027 00:23:47.202            29.672                Anadyr1           927.250
        83   02 Jun 2027 00:23:47.961   02 Jun 2027 00:24:06.222            18.261                Norilsk           570.656
        84   02 Jun 2027 00:24:29.386   02 Jun 2027 00:25:29.007            59.621                Norilsk          1863.156
        85   02 Jun 2027 00:26:03.531   02 Jun 2027 00:27:53.095           109.564              Murmansk1          3423.875
        86   02 Jun 2027 00:28:06.051   02 Jun 2027 00:28:47.651            41.600                Novosib          1300.000
        87   02 Jun 2027 00:28:49.041   02 Jun 2027 00:29:14.346            25.305              Murmansk2           790.781
        88   02 Jun 2027 00:30:58.768   02 Jun 2027 00:31:24.064            25.296                Novosib           790.500
        89   02 Jun 2027 00:31:54.486   02 Jun 2027 00:31:57.321             2.835              Murmansk2            88.594
        90   02 Jun 2027 00:33:11.788   02 Jun 2027 00:33:58.604            46.816                 Moscow          1463.000
        91   02 Jun 2027 00:34:40.968   02 Jun 2027 00:35:57.961            76.993                  Delhi          2406.031
        92   02 Jun 2027 00:39:51.290   02 Jun 2027 00:39:55.797             4.507                  Delhi           140.844
        93   02 Jun 2027 00:40:53.432   02 Jun 2027 00:42:59.468           126.036                  Delhi          3938.625
        94   02 Jun 2027 01:21:20.402   02 Jun 2027 01:21:24.980             4.578            RioGallegos           143.063
        95   02 Jun 2027 01:51:34.452   02 Jun 2027 01:52:49.456            75.004                Anadyr2          2343.875
        96   02 Jun 2027 01:52:49.456   02 Jun 2027 01:53:02.805            13.349                Anadyr1           417.156
        97   02 Jun 2027 01:54:16.980   02 Jun 2027 01:54:49.595            32.615                Anadyr1          1019.219
        98   02 Jun 2027 01:57:11.146   02 Jun 2027 01:58:30.133            78.987               Magadan1          2468.344
        99   02 Jun 2027 01:59:22.783   02 Jun 2027 01:59:43.591            20.808                Norilsk           650.250
       100   02 Jun 2027 02:00:56.674   02 Jun 2027 02:01:19.399            22.725               Magadan2           710.156
       101   02 Jun 2027 02:01:39.255   02 Jun 2027 02:02:42.131            62.876              Murmansk2          1964.875
       102   02 Jun 2027 02:03:22.077   02 Jun 2027 02:03:47.047            24.970              Murmansk1           780.313
       103   02 Jun 2027 02:03:58.487   02 Jun 2027 02:04:32.237            33.750                Novosib          1054.687
       104   02 Jun 2027 02:04:47.890   02 Jun 2027 02:05:21.633            33.743                Novosib          1054.469
       105   02 Jun 2027 02:08:19.881   02 Jun 2027 02:08:49.608            29.727                 Moscow           928.969
       106   02 Jun 2027 02:12:00.346   02 Jun 2027 02:12:02.267             1.921                Novosib            60.031
       107   02 Jun 2027 02:12:28.279   02 Jun 2027 02:13:03.521            35.242                Novosib          1101.312
       108   02 Jun 2027 02:15:54.323   02 Jun 2027 02:16:18.842            24.519                 Moscow           766.219
       109   02 Jun 2027 02:30:59.673   02 Jun 2027 02:31:16.721            17.048               CapeTown           532.750
       110   02 Jun 2027 02:33:01.239   02 Jun 2027 02:34:05.461            64.222               CapeTown          2006.938
       111   02 Jun 2027 03:47:14.133   02 Jun 2027 03:47:34.711            20.578                 Moscow           643.063
       112   02 Jun 2027 03:47:54.595   02 Jun 2027 03:49:35.486           100.891              Murmansk1          3152.844
       113   02 Jun 2027 03:49:35.486   02 Jun 2027 03:50:22.216            46.730              Murmansk2          1460.313
       114   02 Jun 2027 05:08:32.356   02 Jun 2027 05:14:21.666           349.310                Anadyr1         10915.937
       115   02 Jun 2027 06:46:39.817   02 Jun 2027 06:46:48.296             8.479               Magadan2           264.969
       116   02 Jun 2027 06:46:51.974   02 Jun 2027 06:47:24.594            32.620                Irkutsk          1019.375
       117   02 Jun 2027 06:47:25.942   02 Jun 2027 06:48:34.632            68.690                Anadyr2          2146.563
       118   02 Jun 2027 08:20:48.009   02 Jun 2027 08:20:53.626             5.617                Novosib           175.531
       119   02 Jun 2027 08:21:16.985   02 Jun 2027 08:21:46.891            29.906               Magadan2           934.562
       120   02 Jun 2027 08:21:46.891   02 Jun 2027 08:21:51.539             4.648               Magadan1           145.250
       121   02 Jun 2027 08:22:09.506   02 Jun 2027 08:22:29.773            20.267               Magadan2           633.344
       122   02 Jun 2027 08:22:59.043   02 Jun 2027 08:25:12.124           133.081               Magadan1          4158.781
       123   02 Jun 2027 08:25:12.124   02 Jun 2027 08:25:21.443             9.319               Magadan2           291.219
       124   02 Jun 2027 08:25:29.216   02 Jun 2027 08:26:39.793            70.577                Novosib          2205.531
       125   02 Jun 2027 09:00:23.013   02 Jun 2027 09:01:36.483            73.470            RioGallegos          2295.937
       126   02 Jun 2027 09:35:57.822   02 Jun 2027 09:36:34.273            36.451                Sumatra          1139.094
       127   02 Jun 2027 09:37:48.795   02 Jun 2027 09:37:55.554             6.759                Sumatra           211.219
       128   02 Jun 2027 09:42:13.846   02 Jun 2027 09:42:31.210            17.364                Sumatra           542.625
       129   02 Jun 2027 09:56:28.007   02 Jun 2027 09:56:58.848            30.841                Norilsk           963.781
       130   02 Jun 2027 09:57:02.435   02 Jun 2027 09:57:10.651             8.216                Novosib           256.750
       131   02 Jun 2027 09:57:28.323   02 Jun 2027 09:57:54.332            26.009                Novosib           812.781
       132   02 Jun 2027 09:57:57.125   02 Jun 2027 09:58:31.857            34.732                Irkutsk          1085.375
       133   02 Jun 2027 09:58:44.257   02 Jun 2027 09:58:47.105             2.848              Murmansk1            89.000
       134   02 Jun 2027 09:58:47.105   02 Jun 2027 09:59:28.712            41.607              Murmansk2          1300.219
       135   02 Jun 2027 09:59:31.656   02 Jun 2027 09:59:49.896            18.240                Norilsk           570.000
       136   02 Jun 2027 09:59:53.936   02 Jun 2027 10:00:27.676            33.740                Irkutsk          1054.375
       137   02 Jun 2027 10:00:31.822   02 Jun 2027 10:01:39.759            67.937                Irkutsk          2123.031
       138   02 Jun 2027 10:37:56.441   02 Jun 2027 10:38:38.559            42.118            RioGallegos          1316.188
       139   02 Jun 2027 11:12:08.589   02 Jun 2027 11:13:15.315            66.726                Sumatra          2085.188
       140   02 Jun 2027 11:17:56.580   02 Jun 2027 11:18:06.666            10.086                Sumatra           315.188
       141   02 Jun 2027 11:22:35.978   02 Jun 2027 11:22:50.673            14.695                  Delhi           459.219
       142   02 Jun 2027 11:26:31.047   02 Jun 2027 11:27:39.334            68.287                  Delhi          2133.969
       143   02 Jun 2027 11:32:56.374   02 Jun 2027 11:33:29.706            33.332              Murmansk2          1041.625
       144   02 Jun 2027 11:33:38.602   02 Jun 2027 11:33:46.709             8.107                Norilsk           253.344
       145   02 Jun 2027 11:33:54.692   02 Jun 2027 11:34:07.717            13.025                Irkutsk           407.031
       146   02 Jun 2027 11:34:10.669   02 Jun 2027 11:34:42.969            32.300                Irkutsk          1009.375
       147   02 Jun 2027 11:34:55.911   02 Jun 2027 11:35:33.573            37.662              Murmansk1          1176.938
       148   02 Jun 2027 11:35:39.008   02 Jun 2027 11:35:55.734            16.726              Murmansk1           522.687
       149   02 Jun 2027 11:35:57.867   02 Jun 2027 11:36:55.027            57.160                Norilsk          1786.250
       150   02 Jun 2027 11:37:08.458   02 Jun 2027 11:37:21.709            13.251                Norilsk           414.094
       151   02 Jun 2027 11:37:27.636   02 Jun 2027 11:38:21.533            53.897                 Moscow          1684.281
       152   02 Jun 2027 12:57:18.985   02 Jun 2027 12:59:09.251           110.266                  Delhi          3445.813
       153   02 Jun 2027 12:59:42.815   02 Jun 2027 13:00:31.672            48.857                  Delhi          1526.781
       154   02 Jun 2027 13:01:24.524   02 Jun 2027 13:02:08.269            43.745                  Delhi          1367.031
       155   02 Jun 2027 13:05:20.738   02 Jun 2027 13:06:11.592            50.854                 Moscow          1589.188
       156   02 Jun 2027 13:07:23.093   02 Jun 2027 13:09:23.915           120.822              Murmansk2          3775.688
       157   02 Jun 2027 13:12:43.471   02 Jun 2027 13:13:08.799            25.328                Norilsk           791.500
       158   02 Jun 2027 14:22:15.364   02 Jun 2027 14:23:36.594            81.230               CapeTown          2538.438
       159   02 Jun 2027 14:40:08.764   02 Jun 2027 14:41:50.990           102.226                 Moscow          3194.563
       160   02 Jun 2027 14:43:38.423   02 Jun 2027 14:46:37.734           179.311              Murmansk1          5603.469
       161   02 Jun 2027 14:47:14.466   02 Jun 2027 14:47:38.326            23.860              Murmansk1           745.625
       162   02 Jun 2027 14:59:06.464   02 Jun 2027 15:00:17.628            71.164                Anadyr1          2223.875
       163   02 Jun 2027 15:00:55.866   02 Jun 2027 15:02:10.074            74.208                Anadyr2          2319.000
       164   02 Jun 2027 15:53:24.009   02 Jun 2027 15:53:51.194            27.185               CapeTown           849.531
       165   02 Jun 2027 15:59:47.057   02 Jun 2027 16:00:21.622            34.565               CapeTown          1080.156
       166   02 Jun 2027 16:05:54.375   02 Jun 2027 16:06:06.128            11.753               CapeTown           367.281
       167   02 Jun 2027 16:20:05.628   02 Jun 2027 16:20:40.160            34.532                 Moscow          1079.125
       168   02 Jun 2027 16:21:20.105   02 Jun 2027 16:21:54.654            34.549                 Moscow          1079.656
       169   02 Jun 2027 16:22:56.007   02 Jun 2027 16:23:44.354            48.347              Murmansk2          1510.844
       170   02 Jun 2027 16:24:37.544   02 Jun 2027 16:24:50.887            13.343              Murmansk2           416.969
       171   02 Jun 2027 16:26:35.856   02 Jun 2027 16:26:54.800            18.944              Murmansk2           592.000
       172   02 Jun 2027 16:28:22.318   02 Jun 2027 16:28:23.002             0.684              Murmansk1            21.375
       173   02 Jun 2027 16:28:42.812   02 Jun 2027 16:30:00.821            78.009              Murmansk2          2437.781
       174   02 Jun 2027 16:34:01.609   02 Jun 2027 16:34:44.496            42.887                Anadyr2          1340.219
       175   02 Jun 2027 16:35:13.589   02 Jun 2027 16:35:48.350            34.761                Anadyr2          1086.281
       176   02 Jun 2027 16:41:47.021   02 Jun 2027 16:42:41.065            54.044                Anadyr1          1688.875
       177   02 Jun 2027 17:30:45.923   02 Jun 2027 17:31:23.373            37.450               CapeTown          1170.312
       178   02 Jun 2027 17:36:31.285   02 Jun 2027 17:37:08.787            37.502               CapeTown          1171.937
       179   02 Jun 2027 18:03:12.931   02 Jun 2027 18:06:52.774           219.843              Murmansk1          6870.094
       180   02 Jun 2027 18:09:51.140   02 Jun 2027 18:10:26.129            34.989                Anadyr2          1093.406
       181   02 Jun 2027 18:11:11.967   02 Jun 2027 18:11:51.732            39.765                Anadyr1          1242.656
       182   02 Jun 2027 18:12:27.887   02 Jun 2027 18:13:09.346            41.459               Magadan2          1295.594
       183   02 Jun 2027 18:13:38.091   02 Jun 2027 18:16:04.477           146.386               Magadan2          4574.563
       184   02 Jun 2027 19:45:46.384   02 Jun 2027 19:49:02.388           196.004                Anadyr1          6125.125
       185   02 Jun 2027 19:49:02.751   02 Jun 2027 19:51:19.633           136.882               Magadan2          4277.562
       186   02 Jun 2027 19:57:50.208   02 Jun 2027 19:58:14.775            24.567               Magadan1           767.719
       187   02 Jun 2027 20:00:35.475   02 Jun 2027 20:00:58.342            22.867               Magadan2           714.594
       188   02 Jun 2027 20:40:26.822   02 Jun 2027 20:43:09.534           162.712            RioGallegos          5084.750
       189   02 Jun 2027 21:21:26.200   02 Jun 2027 21:22:06.462            40.262                Anadyr1          1258.187
       190   02 Jun 2027 21:23:37.601   02 Jun 2027 21:24:28.807            51.206                Norilsk          1600.187
       191   02 Jun 2027 21:24:33.109   02 Jun 2027 21:25:52.920            79.811               Magadan2          2494.094
       192   02 Jun 2027 21:26:50.158   02 Jun 2027 21:27:23.924            33.766               Magadan1          1055.188
       193   02 Jun 2027 21:27:55.111   02 Jun 2027 21:29:16.878            81.767                Irkutsk          2555.219
       194   02 Jun 2027 21:30:56.162   02 Jun 2027 21:32:05.358            69.196                Novosib          2162.375
       195   02 Jun 2027 21:41:47.866   02 Jun 2027 21:42:32.211            44.345                Sumatra          1385.781
       196   02 Jun 2027 21:42:56.339   02 Jun 2027 21:44:07.397            71.058                Sumatra          2220.563
       197   02 Jun 2027 21:48:03.906   02 Jun 2027 21:48:16.784            12.878                Sumatra           402.437
       198   02 Jun 2027 21:51:10.050   02 Jun 2027 21:52:00.420            50.370                Sumatra          1574.063
       199   02 Jun 2027 22:58:47.853   02 Jun 2027 22:58:55.753             7.900                Anadyr2           246.875
       200   02 Jun 2027 22:59:09.783   02 Jun 2027 22:59:38.279            28.496                Anadyr2           890.500
       201   02 Jun 2027 23:00:11.099   02 Jun 2027 23:01:25.537            74.438               Magadan1          2326.187
       202   02 Jun 2027 23:01:25.537   02 Jun 2027 23:01:34.623             9.086               Magadan2           283.938
       203   02 Jun 2027 23:01:49.554   02 Jun 2027 23:02:02.876            13.322               Magadan2           416.313
       204   02 Jun 2027 23:03:08.669   02 Jun 2027 23:03:28.527            19.858               Magadan1           620.562
       205   02 Jun 2027 23:03:38.532   02 Jun 2027 23:04:44.958            66.426                Novosib          2075.813
       206   02 Jun 2027 23:05:39.118   02 Jun 2027 23:06:13.905            34.787                Novosib          1087.094
       207   02 Jun 2027 23:07:46.474   02 Jun 2027 23:08:48.435            61.961                Novosib          1936.281
       208   02 Jun 2027 23:11:40.696   02 Jun 2027 23:12:29.563            48.867                  Delhi          1527.094
       209   02 Jun 2027 23:12:54.971   02 Jun 2027 23:14:49.257           114.286                  Delhi          3571.438
       210   03 Jun 2027 00:31:01.584   03 Jun 2027 00:32:25.591            84.007                Anadyr2          2625.219
       211   03 Jun 2027 00:35:32.800   03 Jun 2027 00:36:03.995            31.195                Norilsk           974.844
       212   03 Jun 2027 00:36:20.444   03 Jun 2027 00:37:17.858            57.414                Norilsk          1794.187
       213   03 Jun 2027 00:37:58.963   03 Jun 2027 00:41:40.818           221.855              Murmansk2          6932.969
       214   03 Jun 2027 00:43:24.152   03 Jun 2027 00:44:26.807            62.655                 Moscow          1957.969
       215   03 Jun 2027 00:45:39.935   03 Jun 2027 00:45:57.264            17.329                 Moscow           541.531
       216   03 Jun 2027 00:57:16.642   03 Jun 2027 00:57:23.467             6.825                  Delhi           213.281
       217   03 Jun 2027 02:03:18.518   03 Jun 2027 02:06:20.345           181.827                Anadyr1          5682.094
       218   03 Jun 2027 02:06:20.345   03 Jun 2027 02:06:30.546            10.201                Anadyr2           318.781
       219   03 Jun 2027 02:08:39.575   03 Jun 2027 02:09:47.842            68.267               Magadan2          2133.344
       220   03 Jun 2027 02:09:49.811   03 Jun 2027 02:09:56.067             6.256               Magadan1           195.500
       221   03 Jun 2027 02:10:22.991   03 Jun 2027 02:10:38.935            15.944               Magadan2           498.250
       222   03 Jun 2027 02:11:22.423   03 Jun 2027 02:11:36.528            14.105                Norilsk           440.781
       223   03 Jun 2027 02:13:05.734   03 Jun 2027 02:13:44.374            38.640                Norilsk          1207.500
       224   03 Jun 2027 02:14:56.973   03 Jun 2027 02:15:45.211            48.238              Murmansk1          1507.438
       225   03 Jun 2027 02:16:17.410   03 Jun 2027 02:16:21.806             4.396              Murmansk2           137.375
       226   03 Jun 2027 02:16:24.365   03 Jun 2027 02:16:35.014            10.649                Novosib           332.781
       227   03 Jun 2027 02:17:06.196   03 Jun 2027 02:18:20.902            74.706                 Moscow          2334.563
       228   03 Jun 2027 02:22:51.149   03 Jun 2027 02:23:10.516            19.367                Novosib           605.219
       229   03 Jun 2027 02:27:58.348   03 Jun 2027 02:28:10.349            12.001                 Moscow           375.031
       230   03 Jun 2027 02:41:41.355   03 Jun 2027 02:42:10.989            29.634               CapeTown           926.062
       231   03 Jun 2027 02:43:49.574   03 Jun 2027 02:44:33.397            43.823               CapeTown          1369.469
       232   03 Jun 2027 02:49:28.972   03 Jun 2027 02:50:59.679            90.707               CapeTown          2834.594
       233   03 Jun 2027 03:59:50.685   03 Jun 2027 04:02:35.407           164.722              Murmansk2          5147.562
       234   03 Jun 2027 05:21:07.729   03 Jun 2027 05:21:58.377            50.648               Magadan1          1582.750
       235   03 Jun 2027 05:22:12.521   03 Jun 2027 05:26:02.965           230.444               Magadan1          7201.375
       236   03 Jun 2027 06:56:18.550   03 Jun 2027 06:56:39.199            20.649                Norilsk           645.281
       237   03 Jun 2027 06:56:47.618   03 Jun 2027 06:57:09.448            21.830                Norilsk           682.188
       238   03 Jun 2027 06:57:31.627   03 Jun 2027 06:58:54.907            83.280                Anadyr2          2602.500
       239   03 Jun 2027 06:58:57.699   03 Jun 2027 06:59:55.131            57.432               Magadan2          1794.750
       240   03 Jun 2027 07:00:35.056   03 Jun 2027 07:00:43.019             7.963                Anadyr2           248.844
       241   03 Jun 2027 07:38:26.199   03 Jun 2027 07:38:37.330            11.131            RioGallegos           347.844
       242   03 Jun 2027 07:39:45.946   03 Jun 2027 07:40:24.434            38.488            RioGallegos          1202.750
       243   03 Jun 2027 08:31:00.179   03 Jun 2027 08:31:13.922            13.743               Magadan1           429.469
       244   03 Jun 2027 08:31:46.180   03 Jun 2027 08:31:47.292             1.112                Novosib            34.750
       245   03 Jun 2027 08:32:17.132   03 Jun 2027 08:32:39.488            22.356                Irkutsk           698.625
       246   03 Jun 2027 08:32:47.159   03 Jun 2027 08:33:08.491            21.332                Novosib           666.625
       247   03 Jun 2027 08:33:12.521   03 Jun 2027 08:33:34.153            21.632                Novosib           676.000
       248   03 Jun 2027 08:33:37.037   03 Jun 2027 08:33:46.980             9.943               Magadan2           310.719
       249   03 Jun 2027 08:33:46.980   03 Jun 2027 08:34:32.018            45.038               Magadan1          1407.438
       250   03 Jun 2027 08:34:41.861   03 Jun 2027 08:34:48.389             6.528                Novosib           204.000
       251   03 Jun 2027 08:35:02.735   03 Jun 2027 08:36:09.874            67.139               Magadan1          2098.094
       252   03 Jun 2027 08:36:13.769   03 Jun 2027 08:36:45.951            32.182              Murmansk2          1005.688
       253   03 Jun 2027 08:36:46.866   03 Jun 2027 08:36:58.761            11.895                Norilsk           371.719
       254   03 Jun 2027 08:37:00.927   03 Jun 2027 08:37:47.634            46.707              Murmansk2          1459.594
       255   03 Jun 2027 08:38:53.278   03 Jun 2027 08:39:09.778            16.500              Murmansk2           515.625
       256   03 Jun 2027 08:45:24.152   03 Jun 2027 08:45:29.912             5.760              Murmansk1           180.000
       257   03 Jun 2027 09:12:23.546   03 Jun 2027 09:13:16.166            52.620            RioGallegos          1644.375
       258   03 Jun 2027 09:47:39.684   03 Jun 2027 09:49:44.928           125.244                Sumatra          3913.875
       259   03 Jun 2027 10:08:05.820   03 Jun 2027 10:08:59.110            53.290                Irkutsk          1665.313
       260   03 Jun 2027 10:09:05.265   03 Jun 2027 10:09:36.836            31.571                Norilsk           986.594
       261   03 Jun 2027 10:09:42.336   03 Jun 2027 10:10:16.724            34.388                Irkutsk          1074.625
       262   03 Jun 2027 10:10:21.603   03 Jun 2027 10:10:45.563            23.960              Murmansk2           748.750
       263   03 Jun 2027 10:10:46.949   03 Jun 2027 10:11:35.847            48.898              Murmansk2          1528.062
       264   03 Jun 2027 10:11:41.259   03 Jun 2027 10:12:05.284            24.025              Murmansk1           750.781
       265   03 Jun 2027 10:12:12.814   03 Jun 2027 10:12:21.797             8.983                Novosib           280.719
       266   03 Jun 2027 10:12:29.227   03 Jun 2027 10:13:11.506            42.279                Irkutsk          1321.219
       267   03 Jun 2027 10:13:23.280   03 Jun 2027 10:14:12.606            49.326              Murmansk2          1541.437
       268   03 Jun 2027 10:50:31.806   03 Jun 2027 10:50:53.644            21.838            RioGallegos           682.437
       269   03 Jun 2027 10:51:38.992   03 Jun 2027 10:51:58.902            19.910            RioGallegos           622.188
       270   03 Jun 2027 10:53:30.013   03 Jun 2027 10:53:40.365            10.352            RioGallegos           323.500
       271   03 Jun 2027 10:54:51.309   03 Jun 2027 10:55:28.577            37.268            RioGallegos          1164.625
       272   03 Jun 2027 11:24:46.271   03 Jun 2027 11:25:21.189            34.918                Sumatra          1091.187
       273   03 Jun 2027 11:35:20.028   03 Jun 2027 11:35:26.202             6.174                  Delhi           192.937
       274   03 Jun 2027 11:45:33.054   03 Jun 2027 11:45:49.273            16.219                Norilsk           506.844
       275   03 Jun 2027 11:45:55.276   03 Jun 2027 11:47:23.133            87.857                Novosib          2745.531
       276   03 Jun 2027 11:47:30.657   03 Jun 2027 11:48:19.342            48.685                Novosib          1521.406
       277   03 Jun 2027 11:48:27.297   03 Jun 2027 11:48:43.292            15.995                Novosib           499.844
       278   03 Jun 2027 11:48:52.404   03 Jun 2027 11:49:10.337            17.933                Norilsk           560.406
       279   03 Jun 2027 11:49:10.701   03 Jun 2027 11:49:37.718            27.017              Murmansk1           844.281
       280   03 Jun 2027 11:50:52.742   03 Jun 2027 11:51:10.153            17.411                Norilsk           544.094
       281   03 Jun 2027 13:10:16.664   03 Jun 2027 13:14:16.012           239.348                  Delhi          7479.625
       282   03 Jun 2027 13:18:48.478   03 Jun 2027 13:19:50.258            61.780                Novosib          1930.625
       283   03 Jun 2027 13:19:50.628   03 Jun 2027 13:21:52.428           121.800              Murmansk1          3806.250
       284   03 Jun 2027 13:23:05.465   03 Jun 2027 13:23:17.235            11.770                Norilsk           367.813
       285   03 Jun 2027 13:25:11.038   03 Jun 2027 13:25:35.179            24.141                Norilsk           754.406
       286   03 Jun 2027 13:31:26.560   03 Jun 2027 13:31:33.312             6.752              Murmansk1           211.000
       287   03 Jun 2027 13:32:04.624   03 Jun 2027 13:32:17.108            12.484              Murmansk1           390.125
       288   03 Jun 2027 14:32:19.604   03 Jun 2027 14:34:24.821           125.217               CapeTown          3913.031
       289   03 Jun 2027 14:35:29.015   03 Jun 2027 14:35:59.733            30.718               CapeTown           959.938
       290   03 Jun 2027 14:37:25.061   03 Jun 2027 14:38:35.661            70.600               CapeTown          2206.250
       291   03 Jun 2027 14:55:49.884   03 Jun 2027 14:57:11.890            82.006              Murmansk2          2562.688
       292   03 Jun 2027 14:59:01.177   03 Jun 2027 15:00:04.527            63.350              Murmansk2          1979.687
       293   03 Jun 2027 15:10:51.017   03 Jun 2027 15:13:15.357           144.340                Anadyr1          4510.625
       294   03 Jun 2027 15:13:15.357   03 Jun 2027 15:13:36.914            21.557                Anadyr2           673.656
       295   03 Jun 2027 15:14:01.485   03 Jun 2027 15:14:09.483             7.998                Anadyr2           249.937
       296   03 Jun 2027 15:14:28.023   03 Jun 2027 15:15:07.620            39.597                Anadyr1          1237.406
       297   03 Jun 2027 16:15:31.466   03 Jun 2027 16:17:23.308           111.842               CapeTown          3495.062
       298   03 Jun 2027 16:34:19.835   03 Jun 2027 16:34:48.063            28.228              Murmansk2           882.125
       299   03 Jun 2027 16:35:53.489   03 Jun 2027 16:35:56.238             2.749              Murmansk1            85.906
       300   03 Jun 2027 16:36:52.751   03 Jun 2027 16:37:27.742            34.991              Murmansk1          1093.469
       301   03 Jun 2027 16:46:01.078   03 Jun 2027 16:48:05.396           124.318                Anadyr1          3884.938
       302   03 Jun 2027 16:49:26.532   03 Jun 2027 16:49:52.819            26.287                Anadyr1           821.469
       303   03 Jun 2027 16:51:01.851   03 Jun 2027 16:52:39.747            97.896               Magadan2          3059.250
       304   03 Jun 2027 16:53:16.074   03 Jun 2027 16:53:19.478             3.404               Magadan1           106.375
       305   03 Jun 2027 17:49:04.338   03 Jun 2027 17:49:13.326             8.988               CapeTown           280.875
       306   03 Jun 2027 18:16:51.850   03 Jun 2027 18:18:03.283            71.433              Murmansk2          2232.281
       307   03 Jun 2027 18:21:52.638   03 Jun 2027 18:24:48.529           175.891                Anadyr2          5496.594
       308   03 Jun 2027 18:25:13.043   03 Jun 2027 18:26:58.604           105.561               Magadan1          3298.781
       309   03 Jun 2027 18:27:57.401   03 Jun 2027 18:28:37.830            40.429               Magadan2          1263.406
       310   03 Jun 2027 18:35:03.648   03 Jun 2027 18:35:57.608            53.960               Magadan2          1686.250
       311   03 Jun 2027 19:57:47.161   03 Jun 2027 20:01:34.529           227.368                Anadyr1          7105.250
       312   03 Jun 2027 20:01:35.468   03 Jun 2027 20:03:49.727           134.259                Norilsk          4195.594
       313   03 Jun 2027 20:03:52.678   03 Jun 2027 20:04:24.304            31.626               Magadan1           988.313
       314   03 Jun 2027 20:52:13.794   03 Jun 2027 20:55:12.861           179.067            RioGallegos          5595.844
       315   03 Jun 2027 20:55:41.089   03 Jun 2027 20:55:50.069             8.980            RioGallegos           280.625
       316   03 Jun 2027 21:01:20.477   03 Jun 2027 21:01:40.234            19.757            RioGallegos           617.406
       317   03 Jun 2027 21:34:32.101   03 Jun 2027 21:35:40.137            68.036                Anadyr1          2126.125
       318   03 Jun 2027 21:36:07.451   03 Jun 2027 21:38:22.058           134.607               Magadan1          4206.469
       319   03 Jun 2027 21:39:38.313   03 Jun 2027 21:40:02.347            24.034               Magadan2           751.063
       320   03 Jun 2027 21:40:22.581   03 Jun 2027 21:40:53.223            30.642                Irkutsk           957.562
       321   03 Jun 2027 21:41:37.004   03 Jun 2027 21:41:48.027            11.023                Irkutsk           344.469
       322   03 Jun 2027 21:42:17.353   03 Jun 2027 21:43:33.831            76.478                Novosib          2389.937
       323   03 Jun 2027 21:44:00.385   03 Jun 2027 21:44:10.198             9.813                Novosib           306.656
       324   03 Jun 2027 21:44:39.603   03 Jun 2027 21:45:46.464            66.861                Novosib          2089.406
       325   03 Jun 2027 21:54:23.747   03 Jun 2027 21:56:16.858           113.111                Sumatra          3534.719
       326   03 Jun 2027 23:08:33.087   03 Jun 2027 23:09:21.587            48.500                Anadyr1          1515.625
       327   03 Jun 2027 23:10:18.888   03 Jun 2027 23:10:27.019             8.131                Anadyr1           254.094
       328   03 Jun 2027 23:10:41.190   03 Jun 2027 23:10:53.355            12.165                Anadyr1           380.156
       329   03 Jun 2027 23:11:35.044   03 Jun 2027 23:11:58.626            23.582                Norilsk           736.938
       330   03 Jun 2027 23:12:13.274   03 Jun 2027 23:13:01.794            48.520               Magadan1          1516.250
       331   03 Jun 2027 23:13:11.320   03 Jun 2027 23:13:39.417            28.097               Magadan1           878.031
       332   03 Jun 2027 23:15:18.262   03 Jun 2027 23:15:40.315            22.053               Magadan1           689.156
       333   03 Jun 2027 23:15:49.721   03 Jun 2027 23:16:27.652            37.931                Irkutsk          1185.344
       334   03 Jun 2027 23:16:51.124   03 Jun 2027 23:17:31.987            40.863                Novosib          1276.969
       335   03 Jun 2027 23:23:16.202   03 Jun 2027 23:24:22.335            66.133                Novosib          2066.656
       336   03 Jun 2027 23:25:02.762   03 Jun 2027 23:26:41.805            99.043                  Delhi          3095.094
       337   03 Jun 2027 23:34:08.235   03 Jun 2027 23:34:46.135            37.900                  Delhi          1184.375
       338   04 Jun 2027 00:41:38.528   04 Jun 2027 00:42:16.634            38.106                Anadyr2          1190.812
       339   04 Jun 2027 00:42:56.520   04 Jun 2027 00:43:32.948            36.428                Anadyr1          1138.375
       340   04 Jun 2027 00:44:10.767   04 Jun 2027 00:44:25.153            14.386                Anadyr2           449.562
       341   04 Jun 2027 00:47:12.544   04 Jun 2027 00:47:15.105             2.561                Anadyr1            80.031
       342   04 Jun 2027 00:47:17.632   04 Jun 2027 00:47:26.833             9.201                Anadyr1           287.531
       343   04 Jun 2027 00:47:34.301   04 Jun 2027 00:48:01.251            26.950                Norilsk           842.188
       344   04 Jun 2027 00:48:03.712   04 Jun 2027 00:49:24.450            80.738               Magadan2          2523.063
       345   04 Jun 2027 00:49:48.011   04 Jun 2027 00:50:06.039            18.028               Magadan2           563.375
       346   04 Jun 2027 00:50:36.530   04 Jun 2027 00:52:27.401           110.871              Murmansk2          3464.719
       347   04 Jun 2027 00:53:30.244   04 Jun 2027 00:53:51.709            21.465              Murmansk1           670.781
       348   04 Jun 2027 00:53:55.023   04 Jun 2027 00:54:15.007            19.984              Murmansk1           624.500
       349   04 Jun 2027 00:54:44.456   04 Jun 2027 00:55:23.440            38.984                 Moscow          1218.250
       350   04 Jun 2027 00:57:07.771   04 Jun 2027 00:57:40.679            32.908                 Moscow          1028.375
       351   04 Jun 2027 01:05:12.499   04 Jun 2027 01:05:28.057            15.558                  Delhi           486.188
       352   04 Jun 2027 01:08:47.935   04 Jun 2027 01:09:38.153            50.218                  Delhi          1569.312
       353   04 Jun 2027 02:15:03.605   04 Jun 2027 02:16:47.123           103.518                Anadyr2          3234.937
       354   04 Jun 2027 02:16:47.123   04 Jun 2027 02:17:01.818            14.695                Anadyr1           459.219
       355   04 Jun 2027 02:17:42.954   04 Jun 2027 02:18:18.617            35.663                Anadyr2          1114.469
       356   04 Jun 2027 02:20:07.452   04 Jun 2027 02:21:21.792            74.340               Magadan2          2323.125
       357   04 Jun 2027 02:23:21.675   04 Jun 2027 02:23:53.097            31.422                Norilsk           981.937
       358   04 Jun 2027 02:25:42.019   04 Jun 2027 02:26:24.650            42.631              Murmansk1          1332.219
       359   04 Jun 2027 02:26:29.101   04 Jun 2027 02:26:58.637            29.536              Murmansk2           923.000
       360   04 Jun 2027 02:27:45.362   04 Jun 2027 02:27:58.109            12.747                Novosib           398.344
       361   04 Jun 2027 02:28:25.631   04 Jun 2027 02:29:39.596            73.965                Novosib          2311.406
       362   04 Jun 2027 02:34:32.182   04 Jun 2027 02:34:48.929            16.747                Novosib           523.344
       363   04 Jun 2027 02:39:59.437   04 Jun 2027 02:40:42.909            43.472                 Moscow          1358.500
       364   04 Jun 2027 02:56:19.385   04 Jun 2027 02:56:33.144            13.759               CapeTown           429.969
       365   04 Jun 2027 02:57:52.890   04 Jun 2027 02:57:58.998             6.108               CapeTown           190.875
       366   04 Jun 2027 03:00:39.499   04 Jun 2027 03:00:56.550            17.051               CapeTown           532.844
       367   04 Jun 2027 03:01:14.470   04 Jun 2027 03:02:44.421            89.951               CapeTown          2810.969
       368   04 Jun 2027 03:57:38.311   04 Jun 2027 03:57:52.783            14.472                Anadyr1           452.250
       369   04 Jun 2027 03:57:59.160   04 Jun 2027 03:58:08.279             9.119               Magadan2           284.969
       370   04 Jun 2027 03:59:36.945   04 Jun 2027 03:59:40.502             3.557               Magadan1           111.156
       371   04 Jun 2027 04:00:09.701   04 Jun 2027 04:00:10.371             0.670               Magadan1            20.937
       372   04 Jun 2027 04:00:14.788   04 Jun 2027 04:00:43.590            28.802               Magadan2           900.063
       373   04 Jun 2027 04:11:16.197   04 Jun 2027 04:11:35.994            19.797              Murmansk1           618.656
       374   04 Jun 2027 04:12:23.163   04 Jun 2027 04:13:17.649            54.486              Murmansk2          1702.687
       375   04 Jun 2027 05:32:35.192   04 Jun 2027 05:36:22.529           227.337                Anadyr1          7104.281
       376   04 Jun 2027 05:36:22.529   04 Jun 2027 05:37:14.135            51.606                Anadyr2          1612.687
       377   04 Jun 2027 05:37:17.076   04 Jun 2027 05:38:15.836            58.760                Anadyr1          1836.250
       378   04 Jun 2027 07:07:01.350   04 Jun 2027 07:08:08.751            67.401               Magadan2          2106.281
       379   04 Jun 2027 07:08:20.300   04 Jun 2027 07:09:21.239            60.939                Irkutsk          1904.344
       380   04 Jun 2027 07:09:29.471   04 Jun 2027 07:10:02.688            33.217                Anadyr2          1038.031
       381   04 Jun 2027 07:10:14.599   04 Jun 2027 07:10:30.118            15.519               Magadan2           484.969
       382   04 Jun 2027 07:10:31.934   04 Jun 2027 07:10:56.661            24.727                Anadyr1           772.719
       383   04 Jun 2027 07:11:09.957   04 Jun 2027 07:11:50.847            40.890               Magadan2          1277.812
       384   04 Jun 2027 07:11:55.482   04 Jun 2027 07:12:11.787            16.305               Magadan1           509.531
       385   04 Jun 2027 07:12:35.060   04 Jun 2027 07:13:19.953            44.893                Anadyr1          1402.906
       386   04 Jun 2027 07:15:15.726   04 Jun 2027 07:15:16.051             0.325              Murmansk2            10.156
       387   04 Jun 2027 07:15:21.780   04 Jun 2027 07:15:42.025            20.245              Murmansk2           632.656
       388   04 Jun 2027 07:49:42.479   04 Jun 2027 07:50:24.749            42.270            RioGallegos          1320.938
       389   04 Jun 2027 08:42:37.417   04 Jun 2027 08:43:14.140            36.723               Magadan1          1147.594
       390   04 Jun 2027 08:43:43.621   04 Jun 2027 08:43:55.305            11.684                Irkutsk           365.125
       391   04 Jun 2027 08:44:02.738   04 Jun 2027 08:44:40.728            37.990                Irkutsk          1187.188
       392   04 Jun 2027 08:45:09.047   04 Jun 2027 08:45:11.106             2.059                Norilsk            64.344
       393   04 Jun 2027 08:45:20.385   04 Jun 2027 08:45:25.575             5.190               Magadan1           162.187
       394   04 Jun 2027 08:45:40.799   04 Jun 2027 08:46:33.988            53.189               Magadan1          1662.156
       395   04 Jun 2027 08:46:33.988   04 Jun 2027 08:46:45.386            11.398               Magadan2           356.188
       396   04 Jun 2027 08:46:51.937   04 Jun 2027 08:47:02.421            10.484                Novosib           327.625
       397   04 Jun 2027 08:47:09.033   04 Jun 2027 08:48:19.844            70.811               Magadan1          2212.844
       398   04 Jun 2027 08:48:29.510   04 Jun 2027 08:49:24.636            55.126                Irkutsk          1722.687
       399   04 Jun 2027 08:49:26.711   04 Jun 2027 08:49:34.311             7.600                Norilsk           237.500
       400   04 Jun 2027 08:49:37.473   04 Jun 2027 08:50:32.659            55.186              Murmansk1          1724.562
       401   04 Jun 2027 09:24:27.452   04 Jun 2027 09:24:48.807            21.355            RioGallegos           667.344
       402   04 Jun 2027 09:25:50.411   04 Jun 2027 09:26:39.921            49.510            RioGallegos          1547.187
       403   04 Jun 2027 09:59:28.159   04 Jun 2027 09:59:59.209            31.050                Sumatra           970.313
       404   04 Jun 2027 10:02:47.903   04 Jun 2027 10:02:58.470            10.567                Sumatra           330.219
       405   04 Jun 2027 10:10:52.746   04 Jun 2027 10:12:50.822           118.076                  Delhi          3689.875
       406   04 Jun 2027 10:20:33.873   04 Jun 2027 10:20:54.050            20.177                Norilsk           630.531
       407   04 Jun 2027 10:21:07.048   04 Jun 2027 10:21:16.127             9.079                Norilsk           283.719
       408   04 Jun 2027 10:21:16.997   04 Jun 2027 10:21:20.044             3.047                Novosib            95.219
       409   04 Jun 2027 10:21:52.000   04 Jun 2027 10:21:56.238             4.238                Irkutsk           132.438
       410   04 Jun 2027 10:21:59.919   04 Jun 2027 10:22:00.947             1.028              Murmansk1            32.125
       411   04 Jun 2027 10:22:14.033   04 Jun 2027 10:22:46.312            32.279                Novosib          1008.719
       412   04 Jun 2027 10:22:51.951   04 Jun 2027 10:22:56.709             4.758                Irkutsk           148.688
       413   04 Jun 2027 10:23:09.151   04 Jun 2027 10:23:46.937            37.786                Irkutsk          1180.813
       414   04 Jun 2027 10:23:58.614   04 Jun 2027 10:24:06.460             7.846                Novosib           245.188
       415   04 Jun 2027 10:24:11.326   04 Jun 2027 10:25:17.132            65.806                Novosib          2056.437
       416   04 Jun 2027 10:25:18.301   04 Jun 2027 10:25:34.743            16.442                 Moscow           513.812
       417   04 Jun 2027 10:25:46.613   04 Jun 2027 10:25:51.130             4.517                Norilsk           141.156
       418   04 Jun 2027 10:26:04.287   04 Jun 2027 10:26:13.503             9.216              Murmansk2           288.000
       419   04 Jun 2027 10:27:57.914   04 Jun 2027 10:28:29.933            32.019              Murmansk2          1000.594
       420   04 Jun 2027 11:03:15.008   04 Jun 2027 11:04:01.844            46.836            RioGallegos          1463.625
       421   04 Jun 2027 11:05:47.094   04 Jun 2027 11:06:42.848            55.754            RioGallegos          1742.313
       422   04 Jun 2027 11:46:17.090   04 Jun 2027 11:46:44.152            27.062                  Delhi           845.687
       423   04 Jun 2027 11:57:22.197   04 Jun 2027 11:57:47.311            25.114                Irkutsk           784.813
       424   04 Jun 2027 11:57:53.318   04 Jun 2027 11:59:08.035            74.717                Norilsk          2334.906
       425   04 Jun 2027 11:59:12.098   04 Jun 2027 11:59:38.621            26.523                Norilsk           828.844
       426   04 Jun 2027 11:59:40.744   04 Jun 2027 12:00:04.830            24.086              Murmansk1           752.687
       427   04 Jun 2027 12:00:04.830   04 Jun 2027 12:00:55.747            50.917              Murmansk2          1591.156
       428   04 Jun 2027 12:02:02.024   04 Jun 2027 12:03:01.102            59.078                Novosib          1846.188
       429   04 Jun 2027 12:04:51.357   04 Jun 2027 12:04:58.218             6.861                Norilsk           214.406
       430   04 Jun 2027 12:05:00.725   04 Jun 2027 12:05:15.059            14.334              Murmansk2           447.937
       431   04 Jun 2027 12:05:36.446   04 Jun 2027 12:06:04.340            27.894              Murmansk1           871.687
       432   04 Jun 2027 12:06:32.669   04 Jun 2027 12:07:05.651            32.982              Murmansk2          1030.687
       433   04 Jun 2027 12:07:47.325   04 Jun 2027 12:08:15.811            28.486              Murmansk1           890.188
       434   04 Jun 2027 13:23:47.620   04 Jun 2027 13:26:18.160           150.540                  Delhi          4704.375
       435   04 Jun 2027 13:29:36.755   04 Jun 2027 13:30:37.142            60.387                 Moscow          1887.094
       436   04 Jun 2027 13:31:12.920   04 Jun 2027 13:31:26.455            13.535                 Moscow           422.969
       437   04 Jun 2027 13:31:38.538   04 Jun 2027 13:32:30.244            51.706              Murmansk1          1615.812
       438   04 Jun 2027 13:32:30.244   04 Jun 2027 13:32:38.696             8.452              Murmansk2           264.125
       439   04 Jun 2027 13:32:57.686   04 Jun 2027 13:33:38.326            40.640              Murmansk1          1270.000
       440   04 Jun 2027 13:34:08.478   04 Jun 2027 13:34:29.731            21.253                Novosib           664.156
       441   04 Jun 2027 13:36:36.539   04 Jun 2027 13:37:13.191            36.652                Norilsk          1145.375
       442   04 Jun 2027 13:40:32.808   04 Jun 2027 13:40:58.329            25.521                Norilsk           797.531
       443   04 Jun 2027 13:43:21.358   04 Jun 2027 13:43:48.608            27.250              Murmansk2           851.562
       444   04 Jun 2027 14:43:26.011   04 Jun 2027 14:45:32.637           126.626               CapeTown          3957.062
       445   04 Jun 2027 14:47:21.073   04 Jun 2027 14:47:43.776            22.703               CapeTown           709.469
       446   04 Jun 2027 14:49:22.501   04 Jun 2027 14:50:42.399            79.898               CapeTown          2496.813
       447   04 Jun 2027 15:08:03.250   04 Jun 2027 15:08:50.050            46.800              Murmansk1          1462.500
       448   04 Jun 2027 15:11:04.315   04 Jun 2027 15:11:20.363            16.048              Murmansk2           501.500
       449   04 Jun 2027 15:14:19.067   04 Jun 2027 15:14:25.434             6.367              Murmansk2           198.969
       450   04 Jun 2027 15:14:31.930   04 Jun 2027 15:14:48.113            16.183              Murmansk1           505.719
       451   04 Jun 2027 15:16:42.530   04 Jun 2027 15:16:50.637             8.107              Murmansk2           253.344
       452   04 Jun 2027 15:18:25.057   04 Jun 2027 15:18:44.877            19.820              Murmansk2           619.375
       453   04 Jun 2027 15:22:40.297   04 Jun 2027 15:25:12.984           152.687                Anadyr1          4771.469
       454   04 Jun 2027 15:26:02.534   04 Jun 2027 15:26:12.092             9.558                Anadyr2           298.687
       455   04 Jun 2027 16:21:34.849   04 Jun 2027 16:22:02.363            27.514               CapeTown           859.812
       456   04 Jun 2027 16:26:01.723   04 Jun 2027 16:26:19.375            17.652               CapeTown           551.625
       457   04 Jun 2027 16:26:58.326   04 Jun 2027 16:27:07.390             9.064               CapeTown           283.250
       458   04 Jun 2027 16:46:51.594   04 Jun 2027 16:47:49.834            58.240              Murmansk1          1820.000
       459   04 Jun 2027 16:48:10.036   04 Jun 2027 16:48:40.259            30.223              Murmansk2           944.469
       460   04 Jun 2027 16:49:34.411   04 Jun 2027 16:50:12.833            38.422              Murmansk1          1200.687
       461   04 Jun 2027 16:51:13.405   04 Jun 2027 16:51:52.369            38.964              Murmansk1          1217.625
       462   04 Jun 2027 16:54:31.882   04 Jun 2027 16:55:11.298            39.416              Murmansk1          1231.750
       463   04 Jun 2027 16:58:01.039   04 Jun 2027 16:59:20.706            79.667                Anadyr1          2489.594
       464   04 Jun 2027 17:02:08.165   04 Jun 2027 17:03:20.634            72.469               Magadan1          2264.656
       465   04 Jun 2027 17:03:28.045   04 Jun 2027 17:04:12.327            44.282               Magadan2          1383.812
       466   04 Jun 2027 17:04:42.366   04 Jun 2027 17:04:45.419             3.053               Magadan1            95.406
       467   04 Jun 2027 17:04:52.066   04 Jun 2027 17:05:20.643            28.577               Magadan1           893.031
       468   04 Jun 2027 18:33:54.169   04 Jun 2027 18:37:44.675           230.506                Anadyr1          7203.312
       469   04 Jun 2027 18:38:27.523   04 Jun 2027 18:39:48.138            80.615               Magadan2          2519.219
       470   04 Jun 2027 18:40:21.226   04 Jun 2027 18:40:36.495            15.269               Magadan1           477.156
       471   04 Jun 2027 18:43:09.600   04 Jun 2027 18:43:19.378             9.778               Magadan1           305.563
       472   04 Jun 2027 18:43:39.798   04 Jun 2027 18:43:55.400            15.602               Magadan2           487.562
       473   04 Jun 2027 18:47:10.796   04 Jun 2027 18:47:53.999            43.203               Magadan1          1350.094
       474   04 Jun 2027 20:09:47.659   04 Jun 2027 20:11:52.934           125.275                Anadyr1          3914.844
       475   04 Jun 2027 20:12:02.285   04 Jun 2027 20:13:34.085            91.800                Anadyr2          2868.750
       476   04 Jun 2027 20:13:49.982   04 Jun 2027 20:15:55.278           125.296               Magadan1          3915.500
       477   04 Jun 2027 20:15:55.278   04 Jun 2027 20:16:19.214            23.936               Magadan2           748.000
       478   04 Jun 2027 20:18:35.964   04 Jun 2027 20:18:48.358            12.394               Magadan1           387.313
       479   04 Jun 2027 20:19:01.112   04 Jun 2027 20:20:45.484           104.372                Irkutsk          3261.625
       480   04 Jun 2027 20:21:38.227   04 Jun 2027 20:22:38.179            59.952                Irkutsk          1873.500
       481   04 Jun 2027 21:04:25.468   04 Jun 2027 21:04:35.494            10.026            RioGallegos           313.313
       482   04 Jun 2027 21:04:41.949   04 Jun 2027 21:04:52.907            10.958            RioGallegos           342.437
