uniorb/output/strategy_2/Drop/Drop_KinoSat_112010.txt

KinoSat_112010
-------------------------
    Access    *     Start Time (UTCG)     *     Stop Time (UTCG)  *   Duration (s)        *       Station  *  Data (Mbytes)
         1   01 Jun 2027 03:48:52.760   01 Jun 2027 03:50:44.730           111.970              Murmansk1          3499.063
         2   01 Jun 2027 03:51:05.923   01 Jun 2027 03:51:22.759            16.836                Irkutsk           526.125
         3   01 Jun 2027 03:51:28.686   01 Jun 2027 03:51:51.442            22.756                Norilsk           711.125
         4   01 Jun 2027 03:52:04.451   01 Jun 2027 04:04:38.050           753.599                  Delhi         23549.969
         5   01 Jun 2027 04:34:47.763   01 Jun 2027 04:39:09.675           261.912            RioGallegos          8184.750
         6   01 Jun 2027 05:25:42.539   01 Jun 2027 05:26:30.453            47.914              Murmansk1          1497.312
         7   01 Jun 2027 05:26:50.903   01 Jun 2027 05:27:11.355            20.452              Murmansk2           639.125
         8   01 Jun 2027 05:27:25.895   01 Jun 2027 05:28:04.877            38.982                 Moscow          1218.187
         9   01 Jun 2027 05:28:10.098   01 Jun 2027 05:28:38.190            28.092              Murmansk1           877.875
        10   01 Jun 2027 05:29:25.874   01 Jun 2027 05:30:32.210            66.336              Murmansk1          2073.000
        11   01 Jun 2027 05:30:53.875   01 Jun 2027 05:31:27.513            33.638                 Moscow          1051.188
        12   01 Jun 2027 05:31:53.845   01 Jun 2027 05:32:45.984            52.139                 Moscow          1629.344
        13   01 Jun 2027 05:33:01.390   01 Jun 2027 05:34:16.484            75.094                 Moscow          2346.688
        14   01 Jun 2027 05:47:43.087   01 Jun 2027 05:50:34.965           171.878               CapeTown          5371.188
        15   01 Jun 2027 05:51:31.551   01 Jun 2027 05:52:21.931            50.380               CapeTown          1574.375
        16   01 Jun 2027 05:53:59.923   01 Jun 2027 05:54:54.660            54.737               CapeTown          1710.531
        17   01 Jun 2027 05:56:54.600   01 Jun 2027 05:58:23.652            89.052               CapeTown          2782.875
        18   01 Jun 2027 07:02:26.814   01 Jun 2027 07:02:46.881            20.067                Norilsk           627.094
        19   01 Jun 2027 07:03:13.623   01 Jun 2027 07:04:19.346            65.723              Murmansk2          2053.844
        20   01 Jun 2027 07:04:37.219   01 Jun 2027 07:04:56.963            19.744              Murmansk1           617.000
        21   01 Jun 2027 07:05:47.260   01 Jun 2027 07:05:49.148             1.888              Murmansk1            59.000
        22   01 Jun 2027 07:06:08.331   01 Jun 2027 07:07:55.211           106.880              Murmansk1          3340.000
        23   01 Jun 2027 07:08:53.394   01 Jun 2027 07:11:02.571           129.177                 Moscow          4036.781
        24   01 Jun 2027 07:22:17.527   01 Jun 2027 07:31:31.646           554.119               CapeTown         17316.219
        25   01 Jun 2027 08:27:32.339   01 Jun 2027 08:31:47.183           254.844                Anadyr2          7963.875
        26   01 Jun 2027 08:31:59.870   01 Jun 2027 08:33:01.004            61.134              Murmansk1          1910.438
        27   01 Jun 2027 08:33:01.004   01 Jun 2027 08:34:03.808            62.804              Murmansk2          1962.625
        28   01 Jun 2027 08:34:32.599   01 Jun 2027 08:35:11.340            38.741                 Moscow          1210.656
        29   01 Jun 2027 08:37:06.451   01 Jun 2027 08:37:29.861            23.410                 Moscow           731.562
        30   01 Jun 2027 08:42:29.412   01 Jun 2027 08:42:56.043            26.631                 Moscow           832.219
        31   01 Jun 2027 09:57:13.107   01 Jun 2027 09:58:06.094            52.987                Anadyr1          1655.844
        32   01 Jun 2027 09:58:33.787   01 Jun 2027 09:59:22.272            48.485                Anadyr2          1515.156
        33   01 Jun 2027 09:59:50.202   01 Jun 2027 10:01:41.989           111.787               Magadan1          3493.344
        34   01 Jun 2027 10:02:35.279   01 Jun 2027 10:07:27.439           292.160                Anadyr2          9130.000
        35   01 Jun 2027 11:33:21.865   01 Jun 2027 11:36:08.816           166.951               Magadan2          5217.219
        36   01 Jun 2027 11:36:51.858   01 Jun 2027 11:42:51.324           359.466               Magadan1         11233.312
        37   01 Jun 2027 14:33:08.628   01 Jun 2027 14:35:17.957           129.329                Sumatra          4041.531
        38   01 Jun 2027 14:47:29.327   01 Jun 2027 14:51:11.921           222.594                Irkutsk          6956.062
        39   01 Jun 2027 16:17:00.174   01 Jun 2027 16:21:37.071           276.897                  Delhi          8653.031
        40   01 Jun 2027 16:24:45.563   01 Jun 2027 16:29:45.979           300.416                Novosib          9388.000
        41   01 Jun 2027 19:37:32.855   01 Jun 2027 19:44:31.877           419.022                 Moscow         13094.437
        42   01 Jun 2027 20:50:21.752   01 Jun 2027 20:52:49.375           147.623               CapeTown          4613.219
        43   01 Jun 2027 21:20:08.773   01 Jun 2027 21:24:38.344           269.571              Murmansk1          8424.094
        44   02 Jun 2027 01:05:45.785   02 Jun 2027 01:08:39.856           174.071                Sumatra          5439.719
        45   02 Jun 2027 01:42:47.495   02 Jun 2027 01:43:14.114            26.619            RioGallegos           831.844
        46   02 Jun 2027 01:44:46.840   02 Jun 2027 01:45:47.402            60.562            RioGallegos          1892.562
        47   02 Jun 2027 02:15:58.310   02 Jun 2027 02:16:34.089            35.779                Anadyr1          1118.094
        48   02 Jun 2027 02:16:56.835   02 Jun 2027 02:17:46.963            50.128                Norilsk          1566.500
        49   02 Jun 2027 02:19:29.491   02 Jun 2027 02:20:09.505            40.014                Norilsk          1250.437
        50   02 Jun 2027 02:20:49.417   02 Jun 2027 02:21:27.926            38.509                Irkutsk          1203.406
        51   02 Jun 2027 02:22:10.351   02 Jun 2027 02:22:14.017             3.666                Novosib           114.562
        52   02 Jun 2027 02:22:40.681   02 Jun 2027 02:23:10.758            30.077                Irkutsk           939.906
        53   02 Jun 2027 02:25:01.798   02 Jun 2027 02:26:03.015            61.217                Irkutsk          1913.031
        54   02 Jun 2027 02:29:41.095   02 Jun 2027 02:30:13.246            32.151                Irkutsk          1004.719
        55   02 Jun 2027 02:31:50.406   02 Jun 2027 02:32:30.442            40.036                Novosib          1251.125
        56   02 Jun 2027 02:35:40.014   02 Jun 2027 02:36:44.088            64.074                Sumatra          2002.312
        57   02 Jun 2027 02:37:40.936   02 Jun 2027 02:42:06.485           265.549                Sumatra          8298.406
        58   02 Jun 2027 02:45:45.215   02 Jun 2027 02:45:52.062             6.847                Sumatra           213.969
        59   02 Jun 2027 03:17:03.824   02 Jun 2027 03:17:35.748            31.924            RioGallegos           997.625
        60   02 Jun 2027 04:00:09.167   02 Jun 2027 04:00:54.429            45.262              Murmansk2          1414.437
        61   02 Jun 2027 04:00:58.095   02 Jun 2027 04:01:18.719            20.624                Irkutsk           644.500
        62   02 Jun 2027 04:01:38.428   02 Jun 2027 04:01:40.337             1.909                Norilsk            59.656
        63   02 Jun 2027 04:01:50.984   02 Jun 2027 04:03:09.786            78.802              Murmansk1          2462.563
        64   02 Jun 2027 04:03:09.851   02 Jun 2027 04:03:28.951            19.100                 Moscow           596.875
        65   02 Jun 2027 04:03:35.448   02 Jun 2027 04:04:04.562            29.114                Novosib           909.812
        66   02 Jun 2027 04:05:01.765   02 Jun 2027 04:05:53.280            51.515                Irkutsk          1609.844
        67   02 Jun 2027 04:07:47.259   02 Jun 2027 04:08:02.669            15.410                Novosib           481.563
        68   02 Jun 2027 04:12:27.718   02 Jun 2027 04:13:54.614            86.896                  Delhi          2715.500
        69   02 Jun 2027 04:47:50.242   02 Jun 2027 04:49:34.120           103.878            RioGallegos          3246.188
        70   02 Jun 2027 05:37:33.720   02 Jun 2027 05:37:38.349             4.629                Norilsk           144.656
        71   02 Jun 2027 05:38:03.537   02 Jun 2027 05:38:53.081            49.544              Murmansk1          1548.250
        72   02 Jun 2027 05:38:53.865   02 Jun 2027 05:40:53.543           119.678                Novosib          3739.938
        73   02 Jun 2027 05:42:25.605   02 Jun 2027 05:42:43.432            17.827                Novosib           557.094
        74   02 Jun 2027 05:43:41.758   02 Jun 2027 05:45:02.148            80.390                 Moscow          2512.188
        75   02 Jun 2027 05:45:24.797   02 Jun 2027 05:45:37.503            12.706                 Moscow           397.063
        76   02 Jun 2027 06:05:15.492   02 Jun 2027 06:08:31.761           196.269               CapeTown          6133.406
        77   02 Jun 2027 07:16:07.582   02 Jun 2027 07:16:07.664             0.082              Murmansk2             2.563
        78   02 Jun 2027 07:16:31.275   02 Jun 2027 07:16:32.010             0.735              Murmansk1            22.969
        79   02 Jun 2027 07:16:39.380   02 Jun 2027 07:18:05.904            86.524              Murmansk2          2703.875
        80   02 Jun 2027 07:18:06.590   02 Jun 2027 07:19:21.834            75.244              Murmansk1          2351.375
        81   02 Jun 2027 07:19:35.487   02 Jun 2027 07:19:58.506            23.019                 Moscow           719.344
        82   02 Jun 2027 07:34:32.965   02 Jun 2027 07:46:34.415           721.450               CapeTown         22545.313
        83   02 Jun 2027 08:38:06.761   02 Jun 2027 08:40:12.484           125.723                Anadyr1          3928.844
        84   02 Jun 2027 08:43:17.876   02 Jun 2027 08:43:27.026             9.150               Magadan1           285.938
        85   02 Jun 2027 10:09:45.376   02 Jun 2027 10:19:23.618           578.242                Anadyr2         18070.062
        86   02 Jun 2027 11:45:15.640   02 Jun 2027 11:48:25.879           190.239               Magadan2          5944.969
        87   02 Jun 2027 11:48:37.889   02 Jun 2027 11:50:51.412           133.523               Magadan1          4172.594
        88   02 Jun 2027 11:51:11.781   02 Jun 2027 11:54:43.367           211.586               Magadan2          6612.062
        89   02 Jun 2027 14:13:03.352   02 Jun 2027 14:13:39.751            36.399            RioGallegos          1137.469
        90   02 Jun 2027 14:41:58.580   02 Jun 2027 14:49:39.365           460.785                Sumatra         14399.531
        91   02 Jun 2027 14:51:18.887   02 Jun 2027 14:51:31.546            12.659                Sumatra           395.594
        92   02 Jun 2027 14:57:35.013   02 Jun 2027 15:05:28.331           473.318                Irkutsk         14791.188
        93   02 Jun 2027 16:27:20.310   02 Jun 2027 16:35:28.554           488.244                  Delhi         15257.625
        94   02 Jun 2027 16:35:50.456   02 Jun 2027 16:42:55.557           425.101                Novosib         13284.406
        95   02 Jun 2027 19:50:14.361   02 Jun 2027 19:55:59.082           344.721                 Moscow         10772.531
        96   02 Jun 2027 19:55:59.845   02 Jun 2027 19:57:46.596           106.751              Murmansk2          3335.969
        97   02 Jun 2027 21:01:11.580   02 Jun 2027 21:06:08.341           296.761               CapeTown          9273.781
        98   02 Jun 2027 21:33:23.279   02 Jun 2027 21:36:08.918           165.639              Murmansk1          5176.219
        99   03 Jun 2027 00:16:05.352   03 Jun 2027 00:16:06.712             1.360            RioGallegos            42.500
       100   03 Jun 2027 00:16:46.365   03 Jun 2027 00:16:50.963             4.598            RioGallegos           143.687
       101   03 Jun 2027 00:18:17.475   03 Jun 2027 00:18:34.291            16.816            RioGallegos           525.500
       102   03 Jun 2027 00:19:07.520   03 Jun 2027 00:19:49.624            42.104            RioGallegos          1315.750
       103   03 Jun 2027 00:50:51.840   03 Jun 2027 00:51:36.421            44.581                Anadyr1          1393.156
       104   03 Jun 2027 00:51:56.756   03 Jun 2027 00:51:57.627             0.871                Anadyr2            27.219
       105   03 Jun 2027 00:53:01.403   03 Jun 2027 00:55:02.137           120.734                Norilsk          3772.937
       106   03 Jun 2027 00:55:41.199   03 Jun 2027 00:56:14.796            33.597               Magadan1          1049.906
       107   03 Jun 2027 00:56:57.220   03 Jun 2027 00:56:58.315             1.095               Magadan1            34.219
       108   03 Jun 2027 00:56:58.315   03 Jun 2027 00:57:16.720            18.405               Magadan2           575.156
       109   03 Jun 2027 00:57:39.664   03 Jun 2027 00:58:54.405            74.741                Irkutsk          2335.656
       110   03 Jun 2027 00:59:19.928   03 Jun 2027 00:59:53.946            34.018                Novosib          1063.062
       111   03 Jun 2027 01:00:25.554   03 Jun 2027 01:00:56.804            31.250                Novosib           976.562
       112   03 Jun 2027 01:04:02.774   03 Jun 2027 01:04:09.398             6.624                Novosib           207.000
       113   03 Jun 2027 01:05:45.242   03 Jun 2027 01:06:43.048            57.806                Irkutsk          1806.437
       114   03 Jun 2027 01:13:36.380   03 Jun 2027 01:14:39.520            63.140                Sumatra          1973.125
       115   03 Jun 2027 01:17:49.126   03 Jun 2027 01:18:49.156            60.030                Sumatra          1875.937
       116   03 Jun 2027 01:51:17.456   03 Jun 2027 01:51:32.902            15.446            RioGallegos           482.688
       117   03 Jun 2027 01:51:58.422   03 Jun 2027 01:52:29.895            31.473            RioGallegos           983.531
       118   03 Jun 2027 01:56:54.871   03 Jun 2027 01:57:31.572            36.701            RioGallegos          1146.906
       119   03 Jun 2027 02:26:49.148   03 Jun 2027 02:27:41.519            52.371                Anadyr1          1636.594
       120   03 Jun 2027 02:28:59.316   03 Jun 2027 02:29:39.259            39.943                Norilsk          1248.219
       121   03 Jun 2027 02:29:41.349   03 Jun 2027 02:29:53.842            12.493               Magadan2           390.406
       122   03 Jun 2027 02:30:02.787   03 Jun 2027 02:30:07.952             5.165               Magadan2           161.406
       123   03 Jun 2027 02:30:26.857   03 Jun 2027 02:30:29.630             2.773                Norilsk            86.656
       124   03 Jun 2027 02:31:18.979   03 Jun 2027 02:31:48.190            29.211               Magadan2           912.844
       125   03 Jun 2027 02:32:52.274   03 Jun 2027 02:35:19.169           146.895                Irkutsk          4590.469
       126   03 Jun 2027 02:40:51.578   03 Jun 2027 02:41:33.393            41.815                  Delhi          1306.719
       127   03 Jun 2027 02:45:10.223   03 Jun 2027 02:46:26.545            76.322                  Delhi          2385.063
       128   03 Jun 2027 02:48:20.830   03 Jun 2027 02:57:07.138           526.308                Sumatra         16447.125
       129   03 Jun 2027 04:11:19.843   03 Jun 2027 04:11:55.125            35.282                Irkutsk          1102.563
       130   03 Jun 2027 04:12:56.258   03 Jun 2027 04:13:10.777            14.519              Murmansk2           453.719
       131   03 Jun 2027 04:13:26.829   03 Jun 2027 04:13:40.496            13.667                Irkutsk           427.094
       132   03 Jun 2027 04:14:00.314   03 Jun 2027 04:14:54.668            54.354              Murmansk2          1698.563
       133   03 Jun 2027 04:15:09.607   03 Jun 2027 04:17:25.291           135.684                Irkutsk          4240.125
       134   03 Jun 2027 04:19:08.700   03 Jun 2027 04:19:08.749             0.049                Novosib             1.531
       135   03 Jun 2027 04:19:18.381   03 Jun 2027 04:19:30.147            11.766                Novosib           367.687
       136   03 Jun 2027 05:50:00.528   03 Jun 2027 05:50:52.349            51.821              Murmansk2          1619.406
       137   03 Jun 2027 05:50:52.349   03 Jun 2027 05:51:26.963            34.614              Murmansk1          1081.688
       138   03 Jun 2027 05:51:26.963   03 Jun 2027 05:51:37.603            10.640              Murmansk2           332.500
       139   03 Jun 2027 05:51:51.626   03 Jun 2027 05:53:06.621            74.995              Murmansk1          2343.594
       140   03 Jun 2027 05:53:16.403   03 Jun 2027 05:53:28.927            12.524                 Moscow           391.375
       141   03 Jun 2027 05:53:30.511   03 Jun 2027 05:54:05.216            34.705              Murmansk1          1084.531
       142   03 Jun 2027 05:54:14.599   03 Jun 2027 05:54:44.489            29.890              Murmansk2           934.063
       143   03 Jun 2027 05:55:07.334   03 Jun 2027 05:55:09.322             1.988              Murmansk1            62.125
       144   03 Jun 2027 05:56:02.149   03 Jun 2027 05:56:02.769             0.620                 Moscow            19.375
       145   03 Jun 2027 05:56:08.072   03 Jun 2027 05:57:05.019            56.947                 Moscow          1779.594
       146   03 Jun 2027 05:58:09.624   03 Jun 2027 05:58:52.375            42.751                 Moscow          1335.969
       147   03 Jun 2027 06:10:53.537   03 Jun 2027 06:12:00.751            67.214               CapeTown          2100.437
       148   03 Jun 2027 06:12:26.111   03 Jun 2027 06:12:33.676             7.565               CapeTown           236.406
       149   03 Jun 2027 06:13:08.192   03 Jun 2027 06:13:49.397            41.205               CapeTown          1287.656
       150   03 Jun 2027 07:14:40.670   03 Jun 2027 07:16:02.560            81.890                Anadyr1          2559.063
       151   03 Jun 2027 07:25:50.581   03 Jun 2027 07:26:52.177            61.596              Murmansk2          1924.875
       152   03 Jun 2027 07:27:16.063   03 Jun 2027 07:27:19.907             3.844              Murmansk2           120.125
       153   03 Jun 2027 07:27:21.683   03 Jun 2027 07:28:43.201            81.518                 Moscow          2547.437
       154   03 Jun 2027 07:31:57.633   03 Jun 2027 07:32:10.032            12.399                 Moscow           387.469
       155   03 Jun 2027 07:46:54.857   03 Jun 2027 07:48:40.563           105.706               CapeTown          3303.313
       156   03 Jun 2027 07:51:59.219   03 Jun 2027 07:52:21.837            22.618               CapeTown           706.812
       157   03 Jun 2027 08:48:48.116   03 Jun 2027 08:49:17.609            29.493               Magadan1           921.656
       158   03 Jun 2027 08:49:27.221   03 Jun 2027 08:50:23.928            56.707               Magadan1          1772.094
       159   03 Jun 2027 08:51:28.239   03 Jun 2027 08:52:43.777            75.538                Anadyr2          2360.562
       160   03 Jun 2027 09:05:58.971   03 Jun 2027 09:07:09.197            70.226                 Moscow          2194.563
       161   03 Jun 2027 10:22:21.677   03 Jun 2027 10:31:18.140           536.463                Anadyr2         16764.469
       162   03 Jun 2027 11:57:43.571   03 Jun 2027 12:05:17.429           453.858               Magadan1         14183.063
       163   03 Jun 2027 12:05:17.429   03 Jun 2027 12:06:32.519            75.090               Magadan2          2346.562
       164   03 Jun 2027 14:22:57.895   03 Jun 2027 14:26:57.661           239.766            RioGallegos          7492.687
       165   03 Jun 2027 14:54:47.969   03 Jun 2027 15:02:37.635           469.666                Sumatra         14677.063
       166   03 Jun 2027 15:10:36.601   03 Jun 2027 15:17:04.425           387.824                Irkutsk         12119.500
       167   03 Jun 2027 16:40:36.619   03 Jun 2027 16:46:26.098           349.479                  Delhi         10921.219
       168   03 Jun 2027 16:49:00.835   03 Jun 2027 16:54:19.087           318.252                Novosib          9945.375
       169   03 Jun 2027 20:03:52.928   03 Jun 2027 20:06:56.938           184.010                 Moscow          5750.312
       170   03 Jun 2027 20:07:47.555   03 Jun 2027 20:09:30.017           102.462              Murmansk1          3201.938
       171   03 Jun 2027 21:12:31.908   03 Jun 2027 21:19:50.781           438.873               CapeTown         13714.781
       172   04 Jun 2027 00:25:32.733   04 Jun 2027 00:26:18.557            45.824            RioGallegos          1432.000
       173   04 Jun 2027 01:02:48.587   04 Jun 2027 01:03:40.506            51.919                Anadyr1          1622.469
       174   04 Jun 2027 01:04:39.640   04 Jun 2027 01:05:19.856            40.216                Anadyr1          1256.750
       175   04 Jun 2027 01:05:22.375   04 Jun 2027 01:07:04.462           102.087                Norilsk          3190.219
       176   04 Jun 2027 01:07:16.739   04 Jun 2027 01:07:23.482             6.743               Magadan2           210.719
       177   04 Jun 2027 01:07:30.958   04 Jun 2027 01:07:44.093            13.135               Magadan2           410.469
       178   04 Jun 2027 01:08:56.549   04 Jun 2027 01:09:19.390            22.841               Magadan2           713.781
       179   04 Jun 2027 01:10:14.255   04 Jun 2027 01:10:56.875            42.620                Irkutsk          1331.875
       180   04 Jun 2027 01:11:41.309   04 Jun 2027 01:12:55.073            73.764                Irkutsk          2305.125
       181   04 Jun 2027 01:13:23.932   04 Jun 2027 01:14:43.145            79.213                Novosib          2475.406
       182   04 Jun 2027 01:22:52.589   04 Jun 2027 01:23:42.357            49.768                Sumatra          1555.250
       183   04 Jun 2027 01:25:50.349   04 Jun 2027 01:26:13.007            22.658                Sumatra           708.063
       184   04 Jun 2027 01:29:46.771   04 Jun 2027 01:31:09.930            83.159                Sumatra          2598.719
       185   04 Jun 2027 02:05:08.564   04 Jun 2027 02:05:30.522            21.958            RioGallegos           686.187
       186   04 Jun 2027 02:07:07.150   04 Jun 2027 02:07:47.363            40.213            RioGallegos          1256.656
       187   04 Jun 2027 02:38:17.644   04 Jun 2027 02:38:20.153             2.509                Anadyr1            78.406
       188   04 Jun 2027 02:39:46.125   04 Jun 2027 02:39:59.936            13.811                Anadyr2           431.594
       189   04 Jun 2027 02:41:01.823   04 Jun 2027 02:42:16.911            75.088                Norilsk          2346.500
       190   04 Jun 2027 02:42:18.112   04 Jun 2027 02:42:28.462            10.350                Norilsk           323.437
       191   04 Jun 2027 02:44:09.670   04 Jun 2027 02:44:58.581            48.911                Norilsk          1528.469
       192   04 Jun 2027 02:45:03.159   04 Jun 2027 02:47:21.776           138.617                Irkutsk          4331.781
       193   04 Jun 2027 02:52:09.611   04 Jun 2027 02:52:40.238            30.627                Irkutsk           957.094
       194   04 Jun 2027 02:56:57.860   04 Jun 2027 02:58:47.177           109.317                  Delhi          3416.156
       195   04 Jun 2027 03:01:22.176   04 Jun 2027 03:08:00.808           398.632                Sumatra         12457.250
       196   04 Jun 2027 04:24:58.207   04 Jun 2027 04:25:43.023            44.816              Murmansk1          1400.500
       197   04 Jun 2027 04:25:59.146   04 Jun 2027 04:26:38.873            39.727                Novosib          1241.469
       198   04 Jun 2027 04:27:03.443   04 Jun 2027 04:27:41.455            38.012                Norilsk          1187.875
       199   04 Jun 2027 04:27:56.564   04 Jun 2027 04:28:39.348            42.784              Murmansk1          1337.000
       200   04 Jun 2027 04:29:00.702   04 Jun 2027 04:30:04.510            63.808                Irkutsk          1994.000
       201   04 Jun 2027 04:30:27.705   04 Jun 2027 04:33:37.430           189.725                  Delhi          5928.906
       202   04 Jun 2027 04:33:45.808   04 Jun 2027 04:36:32.177           166.369                  Delhi          5199.031
       203   04 Jun 2027 06:02:18.898   04 Jun 2027 06:02:23.317             4.419                 Moscow           138.094
       204   04 Jun 2027 06:02:26.871   04 Jun 2027 06:02:34.492             7.621                Novosib           238.156
       205   04 Jun 2027 06:02:41.681   04 Jun 2027 06:02:57.428            15.747              Murmansk2           492.094
       206   04 Jun 2027 06:02:57.428   04 Jun 2027 06:03:24.757            27.329              Murmansk1           854.031
       207   04 Jun 2027 06:03:26.464   04 Jun 2027 06:03:47.585            21.121              Murmansk1           660.031
       208   04 Jun 2027 06:03:49.158   04 Jun 2027 06:04:03.389            14.231                Norilsk           444.719
       209   04 Jun 2027 06:04:08.323   04 Jun 2027 06:04:17.857             9.534              Murmansk1           297.938
       210   04 Jun 2027 06:04:17.857   04 Jun 2027 06:04:41.152            23.295              Murmansk2           727.969
       211   04 Jun 2027 06:04:58.073   04 Jun 2027 06:05:23.489            25.416              Murmansk1           794.250
       212   04 Jun 2027 06:05:35.608   04 Jun 2027 06:06:05.522            29.914                 Moscow           934.813
       213   04 Jun 2027 06:06:12.684   04 Jun 2027 06:06:14.290             1.606              Murmansk2            50.187
       214   04 Jun 2027 06:06:46.442   04 Jun 2027 06:06:55.314             8.872              Murmansk2           277.250
       215   04 Jun 2027 06:06:55.314   04 Jun 2027 06:07:24.760            29.446              Murmansk1           920.188
       216   04 Jun 2027 06:07:45.481   04 Jun 2027 06:08:01.415            15.934                 Moscow           497.938
       217   04 Jun 2027 06:08:29.412   04 Jun 2027 06:09:11.155            41.743                 Moscow          1304.469
       218   04 Jun 2027 06:22:37.724   04 Jun 2027 06:24:53.530           135.806               CapeTown          4243.937
       219   04 Jun 2027 07:25:45.257   04 Jun 2027 07:26:17.846            32.589                Anadyr1          1018.406
       220   04 Jun 2027 07:26:23.665   04 Jun 2027 07:27:13.275            49.610               Magadan1          1550.312
       221   04 Jun 2027 07:28:02.942   04 Jun 2027 07:28:36.153            33.211                Anadyr2          1037.844
       222   04 Jun 2027 07:37:41.636   04 Jun 2027 07:38:01.141            19.505              Murmansk2           609.531
       223   04 Jun 2027 07:38:20.408   04 Jun 2027 07:38:53.206            32.798              Murmansk2          1024.938
       224   04 Jun 2027 07:39:42.842   04 Jun 2027 07:40:01.088            18.246              Murmansk2           570.188
       225   04 Jun 2027 07:40:52.994   04 Jun 2027 07:41:31.788            38.794                 Moscow          1212.312
       226   04 Jun 2027 07:59:24.351   04 Jun 2027 08:05:25.432           361.081               CapeTown         11283.781
       227   04 Jun 2027 08:59:54.497   04 Jun 2027 09:00:17.066            22.569                Anadyr2           705.281
       228   04 Jun 2027 09:00:17.066   04 Jun 2027 09:02:06.934           109.868                Anadyr1          3433.375
       229   04 Jun 2027 09:02:28.131   04 Jun 2027 09:04:23.431           115.300               Magadan1          3603.125
       230   04 Jun 2027 09:04:35.125   04 Jun 2027 09:05:32.394            57.269               Magadan2          1789.656
       231   04 Jun 2027 09:05:32.394   04 Jun 2027 09:05:32.507             0.113               Magadan1             3.531
       232   04 Jun 2027 09:05:46.555   04 Jun 2027 09:05:50.495             3.940                Anadyr2           123.125
       233   04 Jun 2027 09:06:19.999   04 Jun 2027 09:07:50.209            90.210                Anadyr1          2819.063
       234   04 Jun 2027 10:33:51.043   04 Jun 2027 10:35:14.612            83.569               Magadan1          2611.531
       235   04 Jun 2027 10:35:33.649   04 Jun 2027 10:36:24.754            51.105                Irkutsk          1597.031
       236   04 Jun 2027 10:37:01.018   04 Jun 2027 10:37:05.703             4.685                Norilsk           146.406
       237   04 Jun 2027 10:37:35.523   04 Jun 2027 10:38:09.759            34.236                Irkutsk          1069.875
       238   04 Jun 2027 10:38:24.051   04 Jun 2027 10:39:31.575            67.524               Magadan2          2110.125
       239   04 Jun 2027 10:39:54.440   04 Jun 2027 10:40:18.962            24.522                Norilsk           766.312
       240   04 Jun 2027 10:40:22.466   04 Jun 2027 10:40:33.915            11.449                Norilsk           357.781
       241   04 Jun 2027 10:40:35.028   04 Jun 2027 10:40:45.679            10.651               Magadan2           332.844
       242   04 Jun 2027 10:41:02.236   04 Jun 2027 10:41:18.398            16.162               Magadan1           505.062
       243   04 Jun 2027 10:41:42.452   04 Jun 2027 10:42:14.552            32.100                Novosib          1003.125
       244   04 Jun 2027 10:42:31.616   04 Jun 2027 10:43:10.398            38.782                Anadyr2          1211.937
       245   04 Jun 2027 11:19:23.920   04 Jun 2027 11:19:55.955            32.035            RioGallegos          1001.094
       246   04 Jun 2027 12:06:47.038   04 Jun 2027 12:08:34.412           107.374                Irkutsk          3355.438
       247   04 Jun 2027 12:09:34.745   04 Jun 2027 12:10:20.992            46.247                Irkutsk          1445.219
       248   04 Jun 2027 12:10:30.155   04 Jun 2027 12:18:17.508           467.353               Magadan1         14604.781
       249   04 Jun 2027 13:41:00.498   04 Jun 2027 13:41:32.033            31.535                Sumatra           985.469
       250   04 Jun 2027 13:47:32.848   04 Jun 2027 13:48:23.633            50.785                Irkutsk          1587.031
       251   04 Jun 2027 13:56:01.529   04 Jun 2027 13:56:05.038             3.509                Novosib           109.656
       252   04 Jun 2027 13:58:24.832   04 Jun 2027 13:59:26.407            61.575                Norilsk          1924.219
       253   04 Jun 2027 14:33:14.683   04 Jun 2027 14:41:06.738           472.055            RioGallegos         14751.719
       254   04 Jun 2027 15:08:08.555   04 Jun 2027 15:13:11.538           302.983                Sumatra          9468.219
       255   04 Jun 2027 15:24:03.766   04 Jun 2027 15:28:10.565           246.799                Irkutsk          7712.469
       256   04 Jun 2027 17:02:57.658   04 Jun 2027 17:04:59.387           121.729                Novosib          3804.031
       257   04 Jun 2027 19:46:49.880   04 Jun 2027 19:49:21.219           151.339               CapeTown          4729.344
       258   04 Jun 2027 20:16:39.163   04 Jun 2027 20:17:51.051            71.888              Murmansk1          2246.500
       259   04 Jun 2027 20:18:16.733   04 Jun 2027 20:22:13.262           236.529              Murmansk2          7391.531
       260   04 Jun 2027 20:22:57.874   04 Jun 2027 20:23:07.057             9.183              Murmansk1           286.969
       261   04 Jun 2027 20:23:09.848   04 Jun 2027 20:25:32.890           143.042              Murmansk1          4470.062
       262   04 Jun 2027 21:25:25.820   04 Jun 2027 21:30:33.918           308.098               CapeTown          9628.063
       263   04 Jun 2027 22:07:45.681   04 Jun 2027 22:08:02.276            16.595               Magadan1           518.594
       264   04 Jun 2027 22:08:10.679   04 Jun 2027 22:08:23.596            12.917               Magadan1           403.656
       265   04 Jun 2027 22:09:01.751   04 Jun 2027 22:09:37.753            36.002               Magadan2          1125.062
       266   04 Jun 2027 22:17:30.886   04 Jun 2027 22:17:40.364             9.478               Magadan1           296.188
       267   04 Jun 2027 23:39:15.237   04 Jun 2027 23:43:58.414           283.177                Anadyr2          8849.281
       268   04 Jun 2027 23:44:13.383   04 Jun 2027 23:44:30.871            17.488                Anadyr2           546.500
       269   04 Jun 2027 23:44:34.375   04 Jun 2027 23:44:49.402            15.027                Norilsk           469.594
       270   04 Jun 2027 23:44:58.345   04 Jun 2027 23:45:28.324            29.979               Magadan2           936.844
       271   04 Jun 2027 23:45:28.367   04 Jun 2027 23:46:14.343            45.976               Magadan1          1436.750
       272   04 Jun 2027 23:47:03.339   04 Jun 2027 23:47:09.451             6.112               Magadan1           191.000
       273   04 Jun 2027 23:47:17.370   04 Jun 2027 23:48:30.525            73.155                Irkutsk          2286.094
       274   04 Jun 2027 23:49:21.380   04 Jun 2027 23:49:28.629             7.249                Irkutsk           226.531
       275   04 Jun 2027 23:50:25.567   04 Jun 2027 23:50:52.081            26.514                Irkutsk           828.563
       276   04 Jun 2027 23:51:58.303   04 Jun 2027 23:52:26.052            27.749                Irkutsk           867.156
       277   05 Jun 2027 00:05:08.009   05 Jun 2027 00:06:17.043            69.034                Sumatra          2157.312
       278   05 Jun 2027 00:33:23.937   05 Jun 2027 00:35:15.475           111.538            RioGallegos          3485.563
       279   05 Jun 2027 00:35:58.586   05 Jun 2027 00:36:45.846            47.260            RioGallegos          1476.875
       280   05 Jun 2027 00:43:48.185   05 Jun 2027 00:43:56.771             8.586            RioGallegos           268.312
       281   05 Jun 2027 00:45:04.267   05 Jun 2027 00:45:08.359             4.092            RioGallegos           127.875
       282   05 Jun 2027 01:14:44.427   05 Jun 2027 01:15:53.441            69.014                Anadyr1          2156.687
       283   05 Jun 2027 01:16:40.284   05 Jun 2027 01:17:21.201            40.917                Anadyr1          1278.656
       284   05 Jun 2027 01:17:24.157   05 Jun 2027 01:19:06.820           102.663                Norilsk          3208.219
       285   05 Jun 2027 01:19:28.560   05 Jun 2027 01:20:27.320            58.760               Magadan1          1836.250
       286   05 Jun 2027 01:21:06.601   05 Jun 2027 01:22:27.785            81.184                Irkutsk          2537.000
       287   05 Jun 2027 01:24:35.376   05 Jun 2027 01:24:36.071             0.695                Novosib            21.719
       288   05 Jun 2027 01:25:12.052   05 Jun 2027 01:25:19.940             7.888                Novosib           246.500
       289   05 Jun 2027 01:25:46.726   05 Jun 2027 01:25:56.331             9.605                Novosib           300.156
       290   05 Jun 2027 01:27:51.764   05 Jun 2027 01:28:18.223            26.459                Novosib           826.844
       291   05 Jun 2027 01:28:26.331   05 Jun 2027 01:28:45.470            19.139                Irkutsk           598.094
       292   05 Jun 2027 01:34:48.407   05 Jun 2027 01:37:42.256           173.849                Sumatra          5432.781
       293   05 Jun 2027 02:12:14.649   05 Jun 2027 02:12:41.924            27.275            RioGallegos           852.344
       294   05 Jun 2027 02:13:03.554   05 Jun 2027 02:14:42.380            98.826            RioGallegos          3088.313
       295   05 Jun 2027 02:53:04.321   05 Jun 2027 02:53:25.831            21.510                Norilsk           672.187
       296   05 Jun 2027 02:53:48.882   05 Jun 2027 02:54:05.433            16.551                Norilsk           517.219
       297   05 Jun 2027 02:55:43.360   05 Jun 2027 02:56:09.476            26.116               Magadan1           816.125
       298   05 Jun 2027 02:56:55.768   05 Jun 2027 02:57:24.890            29.122              Murmansk2           910.062
       299   05 Jun 2027 02:57:45.606   05 Jun 2027 02:58:54.982            69.376                Novosib          2168.000
       300   05 Jun 2027 02:59:04.287   05 Jun 2027 02:59:49.252            44.965                Irkutsk          1405.156
       301   05 Jun 2027 03:00:48.603   05 Jun 2027 03:01:25.806            37.203                Novosib          1162.594
       302   05 Jun 2027 03:01:31.538   05 Jun 2027 03:02:20.884            49.346                Irkutsk          1542.063
       303   05 Jun 2027 03:02:33.773   05 Jun 2027 03:02:40.480             6.707                Norilsk           209.594
       304   05 Jun 2027 03:02:46.107   05 Jun 2027 03:03:05.571            19.464                Novosib           608.250
       305   05 Jun 2027 03:03:30.677   05 Jun 2027 03:03:59.101            28.424                Norilsk           888.250
       306   05 Jun 2027 03:04:26.137   05 Jun 2027 03:06:27.598           121.461                  Delhi          3795.656
       307   05 Jun 2027 03:07:41.532   05 Jun 2027 03:08:32.099            50.567                Novosib          1580.219
       308   05 Jun 2027 03:08:51.848   05 Jun 2027 03:09:14.282            22.434                Irkutsk           701.062
       309   05 Jun 2027 03:15:29.396   05 Jun 2027 03:17:47.512           138.116                Sumatra          4316.125
       310   05 Jun 2027 03:45:42.205   05 Jun 2027 03:50:16.396           274.191            RioGallegos          8568.469
       311   05 Jun 2027 04:36:56.570   05 Jun 2027 04:39:02.320           125.750                Irkutsk          3929.688
       312   05 Jun 2027 04:39:24.658   05 Jun 2027 04:39:51.761            27.103                Novosib           846.969
       313   05 Jun 2027 04:39:52.883   05 Jun 2027 04:40:45.225            52.342              Murmansk1          1635.688
       314   05 Jun 2027 04:40:59.142   05 Jun 2027 04:46:25.656           326.514                  Delhi         10203.563
       315   05 Jun 2027 06:13:50.759   05 Jun 2027 06:14:00.128             9.369              Murmansk1           292.781
       316   05 Jun 2027 06:14:14.049   05 Jun 2027 06:14:31.514            17.465              Murmansk2           545.781
       317   05 Jun 2027 06:14:31.514   05 Jun 2027 06:14:59.550            28.036              Murmansk1           876.125
       318   05 Jun 2027 06:15:12.091   05 Jun 2027 06:15:26.320            14.229              Murmansk1           444.656
       319   05 Jun 2027 06:15:31.554   05 Jun 2027 06:16:04.759            33.205                Novosib          1037.656
       320   05 Jun 2027 06:16:06.456   05 Jun 2027 06:16:12.332             5.876                 Moscow           183.625
       321   05 Jun 2027 06:16:17.434   05 Jun 2027 06:16:42.189            24.755              Murmansk1           773.594
       322   05 Jun 2027 06:16:42.189   05 Jun 2027 06:16:46.336             4.147              Murmansk2           129.594
       323   05 Jun 2027 06:17:15.451   05 Jun 2027 06:17:42.035            26.584              Murmansk1           830.750
       324   05 Jun 2027 06:17:43.630   05 Jun 2027 06:18:13.028            29.398              Murmansk2           918.687
       325   05 Jun 2027 06:18:13.178   05 Jun 2027 06:18:33.757            20.579                 Moscow           643.094
       326   05 Jun 2027 06:18:43.777   05 Jun 2027 06:19:38.223            54.446              Murmansk1          1701.437
       327   05 Jun 2027 06:19:50.377   05 Jun 2027 06:20:01.543            11.166                 Moscow           348.938
       328   05 Jun 2027 06:20:13.753   05 Jun 2027 06:21:16.408            62.655                 Moscow          1957.969
       329   05 Jun 2027 06:34:27.254   05 Jun 2027 06:35:33.874            66.620               CapeTown          2081.875
       330   05 Jun 2027 06:41:26.334   05 Jun 2027 06:41:39.459            13.125               CapeTown           410.156
       331   05 Jun 2027 07:37:34.819   05 Jun 2027 07:37:37.532             2.713                Anadyr2            84.781
       332   05 Jun 2027 07:37:37.532   05 Jun 2027 07:38:05.121            27.589                Anadyr1           862.156
       333   05 Jun 2027 07:38:14.039   05 Jun 2027 07:38:37.585            23.546               Magadan1           735.812
       334   05 Jun 2027 07:39:06.031   05 Jun 2027 07:39:09.008             2.977               Magadan2            93.031
       335   05 Jun 2027 07:39:09.649   05 Jun 2027 07:40:02.873            53.224                Anadyr1          1663.250
       336   05 Jun 2027 07:42:09.063   05 Jun 2027 07:42:43.451            34.388                Anadyr1          1074.625
       337   05 Jun 2027 07:46:28.590   05 Jun 2027 07:47:28.260            59.670                 Moscow          1864.687
       338   05 Jun 2027 07:49:30.518   05 Jun 2027 07:50:32.736            62.218                 Moscow          1944.313
       339   05 Jun 2027 07:53:46.770   05 Jun 2027 07:54:07.195            20.425                 Moscow           638.281
       340   05 Jun 2027 07:54:35.912   05 Jun 2027 07:54:59.631            23.719                 Moscow           741.219
       341   05 Jun 2027 08:12:03.433   05 Jun 2027 08:19:10.012           426.579               CapeTown         13330.594
       342   05 Jun 2027 09:11:48.963   05 Jun 2027 09:14:06.170           137.207                Anadyr2          4287.719
       343   05 Jun 2027 09:14:16.661   05 Jun 2027 09:15:35.911            79.250               Magadan1          2476.563
       344   05 Jun 2027 09:15:56.384   05 Jun 2027 09:16:23.057            26.673                Norilsk           833.531
       345   05 Jun 2027 09:16:25.649   05 Jun 2027 09:17:39.052            73.403                Anadyr1          2293.844
       346   05 Jun 2027 09:17:39.052   05 Jun 2027 09:18:33.388            54.336                Anadyr2          1698.000
       347   05 Jun 2027 09:30:05.905   05 Jun 2027 09:30:40.821            34.916                 Moscow          1091.125
       348   05 Jun 2027 10:45:50.561   05 Jun 2027 10:47:03.807            73.246               Magadan2          2288.937
       349   05 Jun 2027 10:47:49.449   05 Jun 2027 10:54:59.372           429.923                Anadyr1         13435.094
       350   05 Jun 2027 12:23:26.231   05 Jun 2027 12:29:55.852           389.621               Magadan1         12175.656
       351   05 Jun 2027 13:55:04.442   05 Jun 2027 13:55:22.961            18.519                Irkutsk           578.719
       352   05 Jun 2027 13:57:25.856   05 Jun 2027 13:57:37.300            11.444                Irkutsk           357.625
       353   05 Jun 2027 14:00:22.739   05 Jun 2027 14:00:51.073            28.334                Norilsk           885.438
       354   05 Jun 2027 14:01:00.113   05 Jun 2027 14:01:41.111            40.998                Irkutsk          1281.187
       355   05 Jun 2027 14:46:19.225   05 Jun 2027 14:52:32.061           372.836            RioGallegos         11651.125
       356   05 Jun 2027 15:34:52.201   05 Jun 2027 15:37:15.309           143.108                Novosib          4472.125
       357   05 Jun 2027 17:09:24.810   05 Jun 2027 17:10:49.784            84.974                 Moscow          2655.438
       358   05 Jun 2027 17:11:46.562   05 Jun 2027 17:12:13.390            26.828                 Moscow           838.375
       359   05 Jun 2027 17:16:52.924   05 Jun 2027 17:19:32.242           159.318                Norilsk          4978.687
       360   05 Jun 2027 17:20:27.392   05 Jun 2027 17:22:18.820           111.428                Norilsk          3482.125
       361   05 Jun 2027 18:46:48.092   05 Jun 2027 18:47:49.894            61.802                 Moscow          1931.313
       362   05 Jun 2027 18:49:56.075   05 Jun 2027 18:51:25.676            89.601              Murmansk1          2800.031
       363   05 Jun 2027 18:51:43.697   05 Jun 2027 18:52:09.555            25.858                 Moscow           808.063
       364   05 Jun 2027 18:54:04.638   05 Jun 2027 18:54:45.495            40.857              Murmansk2          1276.781
       365   05 Jun 2027 18:59:00.876   05 Jun 2027 18:59:45.222            44.346              Murmansk1          1385.813
       366   05 Jun 2027 19:58:55.337   05 Jun 2027 20:00:27.414            92.077               CapeTown          2877.406
       367   05 Jun 2027 20:01:54.535   05 Jun 2027 20:03:11.453            76.918               CapeTown          2403.688
       368   05 Jun 2027 20:29:16.405   05 Jun 2027 20:30:53.420            97.015              Murmansk2          3031.719
       369   05 Jun 2027 20:31:38.119   05 Jun 2027 20:35:01.491           203.372              Murmansk1          6355.375
       370   05 Jun 2027 20:35:08.608   05 Jun 2027 20:37:30.432           141.824              Murmansk2          4432.000
       371   05 Jun 2027 22:15:23.588   05 Jun 2027 22:17:20.098           116.510                Anadyr1          3640.937
       372   05 Jun 2027 22:17:43.644   05 Jun 2027 22:21:04.511           200.867               Magadan1          6277.094
       373   05 Jun 2027 22:21:17.028   05 Jun 2027 22:21:24.185             7.157               Magadan1           223.656
       374   05 Jun 2027 22:22:21.079   05 Jun 2027 22:22:45.876            24.797               Magadan2           774.906
       375   05 Jun 2027 22:26:26.606   05 Jun 2027 22:27:09.514            42.908               Magadan1          1340.875
       376   05 Jun 2027 23:12:58.913   05 Jun 2027 23:14:31.550            92.637            RioGallegos          2894.906
       377   05 Jun 2027 23:51:15.572   05 Jun 2027 23:52:50.401            94.829                Anadyr2          2963.406
       378   05 Jun 2027 23:52:56.607   05 Jun 2027 23:54:43.429           106.822                Anadyr1          3338.187
       379   05 Jun 2027 23:54:43.429   05 Jun 2027 23:54:46.242             2.813                Anadyr2            87.906
       380   05 Jun 2027 23:54:51.295   05 Jun 2027 23:55:09.613            18.318                Norilsk           572.437
       381   05 Jun 2027 23:55:17.908   05 Jun 2027 23:55:33.424            15.516                Norilsk           484.875
       382   05 Jun 2027 23:56:00.982   05 Jun 2027 23:56:51.567            50.585                Norilsk          1580.781
       383   05 Jun 2027 23:57:01.025   05 Jun 2027 23:57:30.759            29.734               Magadan1           929.187
       384   05 Jun 2027 23:58:38.315   05 Jun 2027 23:59:06.770            28.455               Magadan2           889.219
       385   05 Jun 2027 23:59:13.076   05 Jun 2027 23:59:51.058            37.982                Irkutsk          1186.938
       386   06 Jun 2027 00:01:24.096   06 Jun 2027 00:01:48.280            24.184                Irkutsk           755.750
       387   06 Jun 2027 00:03:55.726   06 Jun 2027 00:06:00.444           124.718                Irkutsk          3897.437
       388   06 Jun 2027 00:14:27.921   06 Jun 2027 00:16:01.078            93.157                Sumatra          2911.156
       389   06 Jun 2027 00:46:37.819   06 Jun 2027 00:47:05.162            27.343            RioGallegos           854.469
       390   06 Jun 2027 00:52:55.056   06 Jun 2027 00:53:09.209            14.153            RioGallegos           442.281
       391   06 Jun 2027 00:56:42.179   06 Jun 2027 00:56:46.853             4.674            RioGallegos           146.063
       392   06 Jun 2027 00:56:50.422   06 Jun 2027 00:57:27.774            37.352            RioGallegos          1167.250
       393   06 Jun 2027 01:26:39.255   06 Jun 2027 01:26:44.019             4.764                Anadyr2           148.875
       394   06 Jun 2027 01:26:55.248   06 Jun 2027 01:27:20.797            25.549                Anadyr1           798.406
       395   06 Jun 2027 01:28:08.677   06 Jun 2027 01:28:14.243             5.566                Anadyr1           173.937
       396   06 Jun 2027 01:28:14.243   06 Jun 2027 01:28:27.448            13.205                Anadyr2           412.656
       397   06 Jun 2027 01:28:40.633   06 Jun 2027 01:29:22.525            41.892                Anadyr1          1309.125
       398   06 Jun 2027 01:29:43.561   06 Jun 2027 01:31:27.617           104.056               Magadan1          3251.750
       399   06 Jun 2027 01:31:54.996   06 Jun 2027 01:32:18.690            23.694               Magadan1           740.437
       400   06 Jun 2027 01:33:04.656   06 Jun 2027 01:36:02.370           177.714                Irkutsk          5553.562
       401   06 Jun 2027 01:46:49.940   06 Jun 2027 01:49:57.852           187.912                Sumatra          5872.250
       402   06 Jun 2027 01:56:00.589   06 Jun 2027 01:56:22.085            21.496                Sumatra           671.750
       403   06 Jun 2027 02:27:23.937   06 Jun 2027 02:27:46.695            22.758            RioGallegos           711.188
       404   06 Jun 2027 02:30:42.756   06 Jun 2027 02:32:23.086           100.330            RioGallegos          3135.312
       405   06 Jun 2027 03:09:46.283   06 Jun 2027 03:10:16.202            29.919               Magadan1           934.969
       406   06 Jun 2027 03:11:11.673   06 Jun 2027 03:11:15.410             3.737               Magadan1           116.781
       407   06 Jun 2027 03:11:58.200   06 Jun 2027 03:12:27.963            29.763              Murmansk2           930.094
       408   06 Jun 2027 03:12:44.761   06 Jun 2027 03:13:27.643            42.882                Irkutsk          1340.062
       409   06 Jun 2027 03:13:48.481   06 Jun 2027 03:14:50.827            62.346                Novosib          1948.312
       410   06 Jun 2027 03:15:19.081   06 Jun 2027 03:15:56.253            37.172                Norilsk          1161.625
       411   06 Jun 2027 03:16:20.018   06 Jun 2027 03:23:53.638           453.620                  Delhi         14175.625
       412   06 Jun 2027 03:57:56.484   06 Jun 2027 04:02:43.471           286.987            RioGallegos          8968.344
       413   06 Jun 2027 04:46:31.884   06 Jun 2027 04:46:40.439             8.555                Irkutsk           267.344
       414   06 Jun 2027 04:49:02.301   06 Jun 2027 04:50:34.742            92.441              Murmansk2          2888.781
       415   06 Jun 2027 04:50:42.981   06 Jun 2027 04:52:05.127            82.146              Murmansk1          2567.063
       416   06 Jun 2027 04:52:05.127   06 Jun 2027 04:52:36.881            31.754              Murmansk2           992.313
       417   06 Jun 2027 04:53:24.392   06 Jun 2027 04:53:25.673             1.281                Novosib            40.031
       418   06 Jun 2027 04:53:26.850   06 Jun 2027 04:59:58.702           391.852                  Delhi         12245.375
       419   06 Jun 2027 06:25:44.136   06 Jun 2027 06:25:52.386             8.250              Murmansk1           257.812
       420   06 Jun 2027 06:26:06.258   06 Jun 2027 06:26:50.201            43.943                Novosib          1373.219
       421   06 Jun 2027 06:26:56.699   06 Jun 2027 06:27:00.055             3.356                Norilsk           104.875
       422   06 Jun 2027 06:27:01.593   06 Jun 2027 06:27:41.346            39.753              Murmansk1          1242.281
       423   06 Jun 2027 06:27:44.576   06 Jun 2027 06:28:13.535            28.959                 Moscow           904.969
       424   06 Jun 2027 06:28:21.596   06 Jun 2027 06:28:30.753             9.157                Norilsk           286.156
       425   06 Jun 2027 06:28:33.628   06 Jun 2027 06:29:02.114            28.486                Novosib           890.187
       426   06 Jun 2027 06:29:06.472   06 Jun 2027 06:29:32.126            25.654              Murmansk2           801.687
       427   06 Jun 2027 06:29:34.213   06 Jun 2027 06:30:22.576            48.363              Murmansk2          1511.344
       428   06 Jun 2027 06:30:32.785   06 Jun 2027 06:31:47.253            74.468              Murmansk1          2327.125
       429   06 Jun 2027 06:32:20.126   06 Jun 2027 06:32:37.715            17.589                 Moscow           549.656
       430   06 Jun 2027 06:46:21.907   06 Jun 2027 06:49:32.897           190.990               CapeTown          5968.437
       431   06 Jun 2027 07:49:38.426   06 Jun 2027 07:50:13.560            35.134                Anadyr2          1097.938
       432   06 Jun 2027 07:50:19.950   06 Jun 2027 07:50:27.821             7.871                Anadyr1           245.969
       433   06 Jun 2027 07:50:31.417   06 Jun 2027 07:50:53.496            22.079               Magadan1           689.969
       434   06 Jun 2027 07:50:56.229   06 Jun 2027 07:51:50.781            54.552               Magadan1          1704.750
       435   06 Jun 2027 07:59:02.203   06 Jun 2027 07:59:37.327            35.124                 Moscow          1097.625
       436   06 Jun 2027 08:24:56.000   06 Jun 2027 08:32:58.376           482.376               CapeTown         15074.250
       437   06 Jun 2027 09:25:41.528   06 Jun 2027 09:26:04.644            23.116                Anadyr2           722.375
       438   06 Jun 2027 09:26:04.644   06 Jun 2027 09:30:08.379           243.735                Anadyr1          7616.719
       439   06 Jun 2027 11:00:27.904   06 Jun 2027 11:05:01.194           273.290               Magadan2          8540.313
       440   06 Jun 2027 11:05:24.524   06 Jun 2027 11:07:21.913           117.389               Magadan2          3668.406
       441   06 Jun 2027 12:19:49.299   06 Jun 2027 12:21:40.401           111.102                Sumatra          3471.937
       442   06 Jun 2027 12:30:32.038   06 Jun 2027 12:32:50.465           138.427                Irkutsk          4325.844
       443   06 Jun 2027 12:36:34.703   06 Jun 2027 12:36:52.540            17.837                Norilsk           557.406
       444   06 Jun 2027 12:37:07.240   06 Jun 2027 12:41:21.258           254.018               Magadan1          7938.062
       445   06 Jun 2027 13:53:51.693   06 Jun 2027 13:55:56.156           124.463                Sumatra          3889.469
       446   06 Jun 2027 13:59:14.208   06 Jun 2027 14:01:37.664           143.456                Sumatra          4483.000
       447   06 Jun 2027 14:12:39.534   06 Jun 2027 14:12:40.639             1.105                Irkutsk            34.531
       448   06 Jun 2027 14:15:47.901   06 Jun 2027 14:17:22.673            94.772                Irkutsk          2961.625
       449   06 Jun 2027 14:59:54.980   06 Jun 2027 15:03:29.395           214.415            RioGallegos          6700.469
       450   06 Jun 2027 15:37:22.103   06 Jun 2027 15:38:02.935            40.832                  Delhi          1276.000
       451   06 Jun 2027 15:45:23.694   06 Jun 2027 15:46:33.026            69.332                Novosib          2166.625
       452   06 Jun 2027 15:49:22.510   06 Jun 2027 15:50:06.454            43.944                Norilsk          1373.250
       453   06 Jun 2027 15:50:11.906   06 Jun 2027 15:50:48.559            36.653                Novosib          1145.406
       454   06 Jun 2027 15:52:40.770   06 Jun 2027 15:53:06.300            25.530                Novosib           797.813
       455   06 Jun 2027 15:54:34.606   06 Jun 2027 15:54:46.785            12.179                Norilsk           380.594
       456   06 Jun 2027 17:21:26.192   06 Jun 2027 17:22:48.271            82.079                 Moscow          2564.969
       457   06 Jun 2027 17:23:31.305   06 Jun 2027 17:24:44.958            73.653                 Moscow          2301.656
       458   06 Jun 2027 17:29:39.021   06 Jun 2027 17:32:17.830           158.809                Norilsk          4962.781
       459   06 Jun 2027 17:32:59.847   06 Jun 2027 17:33:31.103            31.256                Norilsk           976.750
       460   06 Jun 2027 17:34:40.904   06 Jun 2027 17:35:49.430            68.526                Norilsk          2141.438
       461   06 Jun 2027 18:59:18.770   06 Jun 2027 19:01:03.004           104.234                 Moscow          3257.313
       462   06 Jun 2027 19:02:15.196   06 Jun 2027 19:02:22.668             7.472              Murmansk1           233.500
       463   06 Jun 2027 19:02:42.772   06 Jun 2027 19:04:08.270            85.498              Murmansk2          2671.812
       464   06 Jun 2027 19:04:40.517   06 Jun 2027 19:04:57.942            17.425                 Moscow           544.531
       465   06 Jun 2027 19:06:06.237   06 Jun 2027 19:06:39.806            33.569              Murmansk2          1049.031
       466   06 Jun 2027 19:11:55.565   06 Jun 2027 19:12:01.018             5.453              Murmansk2           170.406
       467   06 Jun 2027 20:11:03.723   06 Jun 2027 20:13:43.636           159.913               CapeTown          4997.281
       468   06 Jun 2027 20:18:51.509   06 Jun 2027 20:19:08.524            17.015               CapeTown           531.719
       469   06 Jun 2027 20:22:03.377   06 Jun 2027 20:23:05.453            62.076               CapeTown          1939.875
       470   06 Jun 2027 20:41:57.322   06 Jun 2027 20:44:21.967           144.645              Murmansk1          4520.156
       471   06 Jun 2027 20:44:41.078   06 Jun 2027 20:47:56.619           195.541              Murmansk2          6110.656
       472   06 Jun 2027 20:47:57.143   06 Jun 2027 20:49:26.414            89.271              Murmansk1          2789.719
       473   06 Jun 2027 22:27:25.447   06 Jun 2027 22:29:20.398           114.951                Anadyr2          3592.219
       474   06 Jun 2027 22:29:43.407   06 Jun 2027 22:31:29.541           106.134               Magadan2          3316.687
       475   06 Jun 2027 22:31:37.165   06 Jun 2027 22:32:39.322            62.157               Magadan1          1942.406
       476   06 Jun 2027 22:33:29.527   06 Jun 2027 22:33:52.354            22.827               Magadan1           713.344
       477   06 Jun 2027 22:34:51.317   06 Jun 2027 22:35:10.389            19.072               Magadan1           596.000
       478   06 Jun 2027 22:38:58.207   06 Jun 2027 22:39:22.616            24.409               Magadan2           762.781
       479   06 Jun 2027 23:23:35.485   06 Jun 2027 23:26:00.489           145.004            RioGallegos          4531.375
       480   06 Jun 2027 23:26:02.912   06 Jun 2027 23:26:10.327             7.415            RioGallegos           231.719
       481   07 Jun 2027 00:03:15.476   07 Jun 2027 00:04:45.414            89.938                Anadyr1          2810.563
       482   07 Jun 2027 00:04:48.599   07 Jun 2027 00:05:16.119            27.520                Anadyr2           860.000
