uniorb/output/strategy_2/Drop/Drop_KinoSat_111606.txt

KinoSat_111606
-------------------------
    Access    *     Start Time (UTCG)     *     Stop Time (UTCG)  *   Duration (s)        *       Station  *  Data (Mbytes)
         1   01 Jun 2027 03:06:45.683   01 Jun 2027 03:08:44.819           119.136                Novosib          3723.000
         2   01 Jun 2027 03:08:49.739   01 Jun 2027 03:10:50.603           120.864                 Moscow          3777.000
         3   01 Jun 2027 04:25:34.934   01 Jun 2027 04:26:00.798            25.864                Anadyr2           808.250
         4   01 Jun 2027 04:44:20.593   01 Jun 2027 04:44:52.226            31.633                Novosib           988.531
         5   01 Jun 2027 04:44:53.959   01 Jun 2027 04:45:00.458             6.499                Norilsk           203.094
         6   01 Jun 2027 04:45:16.659   01 Jun 2027 04:45:38.035            21.376              Murmansk2           668.000
         7   01 Jun 2027 04:46:27.377   01 Jun 2027 04:46:41.439            14.062                Novosib           439.438
         8   01 Jun 2027 04:46:53.942   01 Jun 2027 04:47:43.386            49.444              Murmansk2          1545.125
         9   01 Jun 2027 04:48:04.631   01 Jun 2027 04:48:09.055             4.424              Murmansk2           138.250
        10   01 Jun 2027 04:48:57.984   01 Jun 2027 04:49:41.290            43.306                 Moscow          1353.313
        11   01 Jun 2027 05:04:00.604   01 Jun 2027 05:07:00.265           179.661               CapeTown          5614.406
        12   01 Jun 2027 06:00:42.633   01 Jun 2027 06:01:20.489            37.856                Anadyr1          1183.000
        13   01 Jun 2027 06:02:06.920   01 Jun 2027 06:02:16.932            10.012               Magadan1           312.875
        14   01 Jun 2027 06:02:36.243   01 Jun 2027 06:02:54.717            18.474                Anadyr1           577.313
        15   01 Jun 2027 06:08:21.647   01 Jun 2027 06:11:11.103           169.456               Magadan2          5295.500
        16   01 Jun 2027 06:11:11.103   01 Jun 2027 06:12:41.550            90.447               Magadan1          2826.469
        17   01 Jun 2027 07:44:15.107   01 Jun 2027 07:45:46.584            91.477                Anadyr1          2858.656
        18   01 Jun 2027 07:47:05.865   01 Jun 2027 07:48:44.326            98.461                Anadyr2          3076.906
        19   01 Jun 2027 07:52:55.619   01 Jun 2027 07:53:42.132            46.513                 Moscow          1453.531
        20   01 Jun 2027 09:18:12.308   01 Jun 2027 09:18:37.631            25.323               Magadan2           791.344
        21   01 Jun 2027 09:19:01.054   01 Jun 2027 09:25:00.055           359.001               Magadan2         11218.781
        22   01 Jun 2027 10:54:20.651   01 Jun 2027 10:54:52.724            32.073               Magadan2          1002.281
        23   01 Jun 2027 10:54:52.724   01 Jun 2027 10:56:18.785            86.061               Magadan1          2689.406
        24   01 Jun 2027 10:56:18.785   01 Jun 2027 10:57:45.829            87.044               Magadan2          2720.125
        25   01 Jun 2027 10:58:26.824   01 Jun 2027 10:58:56.372            29.548               Magadan2           923.375
        26   01 Jun 2027 11:00:05.741   01 Jun 2027 11:00:58.358            52.617                Irkutsk          1644.281
        27   01 Jun 2027 11:36:01.449   01 Jun 2027 11:37:35.762            94.313            RioGallegos          2947.281
        28   01 Jun 2027 11:38:43.938   01 Jun 2027 11:39:08.182            24.244            RioGallegos           757.625
        29   01 Jun 2027 11:39:54.905   01 Jun 2027 11:40:31.772            36.867            RioGallegos          1152.094
        30   01 Jun 2027 12:10:31.646   01 Jun 2027 12:11:51.891            80.245                Sumatra          2507.656
        31   01 Jun 2027 12:25:06.488   01 Jun 2027 12:29:18.521           252.033                Irkutsk          7876.031
        32   01 Jun 2027 12:30:08.511   01 Jun 2027 12:32:01.998           113.487                Norilsk          3546.469
        33   01 Jun 2027 13:17:38.719   01 Jun 2027 13:19:11.164            92.445            RioGallegos          2888.906
        34   01 Jun 2027 13:56:46.710   01 Jun 2027 13:57:39.323            52.613                  Delhi          1644.156
        35   01 Jun 2027 14:03:03.272   01 Jun 2027 14:07:42.348           279.076                Novosib          8721.125
        36   01 Jun 2027 14:09:26.926   01 Jun 2027 14:09:47.647            20.721                Norilsk           647.531
        37   01 Jun 2027 14:10:18.392   01 Jun 2027 14:12:01.926           103.534                Norilsk          3235.438
        38   01 Jun 2027 15:39:04.951   01 Jun 2027 15:40:10.727            65.776                 Moscow          2055.500
        39   01 Jun 2027 15:41:24.142   01 Jun 2027 15:41:54.852            30.710                 Moscow           959.687
        40   01 Jun 2027 15:42:34.581   01 Jun 2027 15:45:02.731           148.150              Murmansk2          4629.687
        41   01 Jun 2027 15:47:20.383   01 Jun 2027 15:51:59.766           279.383                Norilsk          8730.719
        42   01 Jun 2027 17:16:58.466   01 Jun 2027 17:17:31.766            33.300                 Moscow          1040.625
        43   01 Jun 2027 17:19:54.617   01 Jun 2027 17:20:56.265            61.648              Murmansk1          1926.500
        44   01 Jun 2027 17:23:52.378   01 Jun 2027 17:24:16.326            23.948              Murmansk2           748.375
        45   01 Jun 2027 18:28:42.289   01 Jun 2027 18:30:34.353           112.064               CapeTown          3502.000
        46   01 Jun 2027 18:59:38.033   01 Jun 2027 19:01:10.012            91.979              Murmansk2          2874.344
        47   01 Jun 2027 19:01:38.372   01 Jun 2027 19:05:33.061           234.689              Murmansk1          7334.031
        48   01 Jun 2027 19:12:14.144   01 Jun 2027 19:13:31.392            77.248               Magadan2          2414.000
        49   01 Jun 2027 19:14:21.288   01 Jun 2027 19:14:59.825            38.537               Magadan2          1204.281
        50   01 Jun 2027 20:45:03.960   01 Jun 2027 20:48:14.658           190.698                Anadyr1          5959.313
        51   01 Jun 2027 20:48:32.514   01 Jun 2027 20:51:03.477           150.963               Magadan2          4717.594
        52   01 Jun 2027 21:42:25.932   01 Jun 2027 21:43:21.349            55.417            RioGallegos          1731.781
        53   01 Jun 2027 22:20:53.506   01 Jun 2027 22:22:51.673           118.167                Anadyr1          3692.719
        54   01 Jun 2027 22:23:00.995   01 Jun 2027 22:24:31.056            90.061                Norilsk          2814.406
        55   01 Jun 2027 22:24:37.134   01 Jun 2027 22:27:02.261           145.127               Magadan2          4535.219
        56   01 Jun 2027 22:27:57.300   01 Jun 2027 22:28:31.587            34.287                Irkutsk          1071.469
        57   01 Jun 2027 22:42:56.752   01 Jun 2027 22:44:50.420           113.668                Sumatra          3552.125
        58   01 Jun 2027 23:56:10.483   01 Jun 2027 23:58:41.047           150.564                Anadyr1          4705.125
        59   01 Jun 2027 23:58:47.297   02 Jun 2027 00:00:30.500           103.203                Norilsk          3225.094
        60   02 Jun 2027 00:00:46.802   02 Jun 2027 00:01:08.257            21.455               Magadan2           670.469
        61   02 Jun 2027 00:01:33.392   02 Jun 2027 00:02:20.647            47.255               Magadan1          1476.719
        62   02 Jun 2027 00:02:42.743   02 Jun 2027 00:03:47.693            64.950                Irkutsk          2029.688
        63   02 Jun 2027 00:04:24.354   02 Jun 2027 00:05:00.198            35.844                Novosib          1120.125
        64   02 Jun 2027 00:05:38.980   02 Jun 2027 00:06:33.223            54.243                Novosib          1695.094
        65   02 Jun 2027 00:13:24.687   02 Jun 2027 00:14:05.224            40.537                  Delhi          1266.781
        66   02 Jun 2027 00:14:50.763   02 Jun 2027 00:15:07.194            16.431                  Delhi           513.469
        67   02 Jun 2027 00:50:48.052   02 Jun 2027 00:51:59.201            71.149            RioGallegos          2223.406
        68   02 Jun 2027 01:31:15.232   02 Jun 2027 01:31:44.332            29.100                Anadyr2           909.375
        69   02 Jun 2027 01:32:09.071   02 Jun 2027 01:32:28.592            19.521                Anadyr1           610.031
        70   02 Jun 2027 01:32:50.490   02 Jun 2027 01:33:04.800            14.310                Anadyr2           447.187
        71   02 Jun 2027 01:34:48.030   02 Jun 2027 01:36:46.677           118.647                Norilsk          3707.719
        72   02 Jun 2027 01:37:42.511   02 Jun 2027 01:40:04.886           142.375              Murmansk2          4449.219
        73   02 Jun 2027 01:41:50.895   02 Jun 2027 01:41:58.938             8.043                Novosib           251.344
        74   02 Jun 2027 01:45:56.289   02 Jun 2027 01:48:29.867           153.578                  Delhi          4799.312
        75   02 Jun 2027 02:27:51.420   02 Jun 2027 02:29:07.357            75.937            RioGallegos          2373.031
        76   02 Jun 2027 02:29:49.270   02 Jun 2027 02:30:12.624            23.354            RioGallegos           729.813
        77   02 Jun 2027 02:32:15.822   02 Jun 2027 02:32:39.469            23.647            RioGallegos           738.969
        78   02 Jun 2027 03:19:48.223   02 Jun 2027 03:20:27.384            39.161                Novosib          1223.781
        79   02 Jun 2027 03:20:33.233   02 Jun 2027 03:20:51.648            18.415                Irkutsk           575.469
        80   02 Jun 2027 03:20:59.442   02 Jun 2027 03:21:32.139            32.697              Murmansk1          1021.781
        81   02 Jun 2027 03:21:37.908   02 Jun 2027 03:22:41.778            63.870                 Moscow          1995.938
        82   02 Jun 2027 04:56:16.654   02 Jun 2027 04:57:17.891            61.237                Norilsk          1913.656
        83   02 Jun 2027 04:57:30.657   02 Jun 2027 04:57:35.277             4.620              Murmansk1           144.375
        84   02 Jun 2027 04:58:23.751   02 Jun 2027 04:58:29.744             5.993              Murmansk2           187.281
        85   02 Jun 2027 04:58:43.781   02 Jun 2027 05:00:29.371           105.590              Murmansk2          3299.688
        86   02 Jun 2027 05:00:29.371   02 Jun 2027 05:01:15.792            46.421              Murmansk1          1450.656
        87   02 Jun 2027 05:16:00.266   02 Jun 2027 05:16:24.301            24.035               CapeTown           751.094
        88   02 Jun 2027 06:19:26.332   02 Jun 2027 06:21:13.142           106.810               Magadan1          3337.813
        89   02 Jun 2027 06:21:22.060   02 Jun 2027 06:22:24.976            62.916                Anadyr2          1966.125
        90   02 Jun 2027 06:23:32.376   02 Jun 2027 06:23:49.944            17.568                Anadyr1           549.000
        91   02 Jun 2027 07:57:46.854   02 Jun 2027 07:59:46.488           119.634                Anadyr1          3738.562
        92   02 Jun 2027 07:59:59.001   02 Jun 2027 08:00:48.019            49.018                Norilsk          1531.813
        93   02 Jun 2027 08:06:04.261   02 Jun 2027 08:06:34.715            30.454                 Moscow           951.688
        94   02 Jun 2027 09:29:32.556   02 Jun 2027 09:30:54.204            81.648               Magadan1          2551.500
        95   02 Jun 2027 09:30:55.565   02 Jun 2027 09:31:28.338            32.773               Magadan2          1024.156
        96   02 Jun 2027 09:31:28.338   02 Jun 2027 09:32:08.098            39.760               Magadan1          1242.500
        97   02 Jun 2027 09:32:59.008   02 Jun 2027 09:35:51.775           172.767                Anadyr2          5398.969
        98   02 Jun 2027 09:36:02.589   02 Jun 2027 09:36:16.405            13.816                Norilsk           431.750
        99   02 Jun 2027 09:36:19.152   02 Jun 2027 09:36:56.802            37.650               Magadan1          1176.563
       100   02 Jun 2027 09:37:00.778   02 Jun 2027 09:37:21.003            20.225              Murmansk2           632.031
       101   02 Jun 2027 09:38:21.959   02 Jun 2027 09:39:08.480            46.521              Murmansk1          1453.781
       102   02 Jun 2027 10:11:55.096   02 Jun 2027 10:12:51.338            56.242            RioGallegos          1757.563
       103   02 Jun 2027 10:48:31.640   02 Jun 2027 10:50:18.702           107.062                Sumatra          3345.688
       104   02 Jun 2027 11:06:24.327   02 Jun 2027 11:06:35.893            11.566                Novosib           361.437
       105   02 Jun 2027 11:06:40.713   02 Jun 2027 11:07:08.480            27.767                Irkutsk           867.719
       106   02 Jun 2027 11:07:25.257   02 Jun 2027 11:08:00.039            34.782                Irkutsk          1086.938
       107   02 Jun 2027 11:08:07.111   02 Jun 2027 11:08:21.736            14.625                Norilsk           457.031
       108   02 Jun 2027 11:08:35.554   02 Jun 2027 11:08:56.109            20.555                Novosib           642.344
       109   02 Jun 2027 11:08:59.356   02 Jun 2027 11:09:12.146            12.790                Irkutsk           399.687
       110   02 Jun 2027 11:09:17.485   02 Jun 2027 11:10:23.569            66.084                Novosib          2065.125
       111   02 Jun 2027 11:10:27.141   02 Jun 2027 11:10:45.219            18.078              Murmansk2           564.937
       112   02 Jun 2027 11:10:53.503   02 Jun 2027 11:12:09.631            76.128                Irkutsk          2379.000
       113   02 Jun 2027 11:12:13.087   02 Jun 2027 11:12:31.274            18.187              Murmansk2           568.344
       114   02 Jun 2027 11:12:33.962   02 Jun 2027 11:13:24.375            50.413                Norilsk          1575.406
       115   02 Jun 2027 11:48:19.581   02 Jun 2027 11:49:38.973            79.392            RioGallegos          2481.000
       116   02 Jun 2027 12:22:52.810   02 Jun 2027 12:24:43.196           110.386                Sumatra          3449.562
       117   02 Jun 2027 12:37:34.043   02 Jun 2027 12:38:20.067            46.024                Irkutsk          1438.250
       118   02 Jun 2027 12:38:52.047   02 Jun 2027 12:39:54.916            62.869                Irkutsk          1964.656
       119   02 Jun 2027 12:41:20.639   02 Jun 2027 12:42:03.939            43.300                Norilsk          1353.125
       120   02 Jun 2027 12:42:16.311   02 Jun 2027 12:42:27.604            11.293                Norilsk           352.906
       121   02 Jun 2027 12:44:19.595   02 Jun 2027 12:44:45.290            25.695              Murmansk2           802.969
       122   02 Jun 2027 14:07:21.912   02 Jun 2027 14:08:15.244            53.332                  Delhi          1666.625
       123   02 Jun 2027 14:09:28.367   02 Jun 2027 14:11:56.757           148.390                  Delhi          4637.187
       124   02 Jun 2027 14:15:35.046   02 Jun 2027 14:18:43.341           188.295                Novosib          5884.219
       125   02 Jun 2027 14:19:27.414   02 Jun 2027 14:20:02.637            35.223                Norilsk          1100.719
       126   02 Jun 2027 14:21:19.873   02 Jun 2027 14:21:44.449            24.576                Norilsk           768.000
       127   02 Jun 2027 14:24:02.452   02 Jun 2027 14:24:33.176            30.724                Norilsk           960.125
       128   02 Jun 2027 15:51:09.260   02 Jun 2027 15:54:21.663           192.403                 Moscow          6012.594
       129   02 Jun 2027 15:54:40.459   02 Jun 2027 15:55:40.489            60.030              Murmansk1          1875.937
       130   02 Jun 2027 15:55:50.263   02 Jun 2027 15:56:04.448            14.185              Murmansk1           443.281
       131   02 Jun 2027 15:56:34.485   02 Jun 2027 15:57:26.698            52.213              Murmansk1          1631.656
       132   02 Jun 2027 16:00:12.315   02 Jun 2027 16:01:39.534            87.219                Norilsk          2725.594
       133   02 Jun 2027 16:04:00.569   02 Jun 2027 16:04:11.763            11.194                Norilsk           349.812
       134   02 Jun 2027 17:05:02.548   02 Jun 2027 17:05:44.333            41.785               CapeTown          1305.781
       135   02 Jun 2027 17:06:11.248   02 Jun 2027 17:06:21.823            10.575               CapeTown           330.469
       136   02 Jun 2027 17:07:35.130   02 Jun 2027 17:08:26.182            51.052               CapeTown          1595.375
       137   02 Jun 2027 17:29:34.877   02 Jun 2027 17:29:49.437            14.560                 Moscow           455.000
       138   02 Jun 2027 17:30:54.403   02 Jun 2027 17:31:33.859            39.456                 Moscow          1233.000
       139   02 Jun 2027 17:32:11.960   02 Jun 2027 17:32:41.895            29.935                 Moscow           935.469
       140   02 Jun 2027 17:33:12.206   02 Jun 2027 17:34:25.260            73.054              Murmansk2          2282.937
       141   02 Jun 2027 17:35:54.498   02 Jun 2027 17:36:25.086            30.588              Murmansk2           955.875
       142   02 Jun 2027 17:36:25.086   02 Jun 2027 17:36:54.410            29.324              Murmansk1           916.375
       143   02 Jun 2027 17:45:25.633   02 Jun 2027 17:46:47.882            82.249                Anadyr2          2570.281
       144   02 Jun 2027 18:40:53.669   02 Jun 2027 18:42:34.296           100.627               CapeTown          3144.594
       145   02 Jun 2027 18:44:52.114   02 Jun 2027 18:45:16.856            24.742               CapeTown           773.188
       146   02 Jun 2027 19:12:23.411   02 Jun 2027 19:17:33.925           310.514              Murmansk1          9703.562
       147   02 Jun 2027 19:24:03.531   02 Jun 2027 19:25:08.939            65.408               Magadan2          2044.000
       148   02 Jun 2027 19:27:09.456   02 Jun 2027 19:27:26.441            16.985               Magadan2           530.781
       149   02 Jun 2027 20:57:05.533   02 Jun 2027 21:00:03.683           178.150                Anadyr2          5567.188
       150   02 Jun 2027 21:00:32.163   02 Jun 2027 21:02:29.023           116.860               Magadan1          3651.875
       151   02 Jun 2027 21:02:46.270   02 Jun 2027 21:03:20.080            33.810               Magadan1          1056.563
       152   02 Jun 2027 21:03:39.442   02 Jun 2027 21:04:08.068            28.626               Magadan1           894.562
       153   02 Jun 2027 21:04:28.709   02 Jun 2027 21:04:40.477            11.768               Magadan1           367.750
       154   02 Jun 2027 21:05:52.710   02 Jun 2027 21:06:14.339            21.629               Magadan1           675.906
       155   02 Jun 2027 21:06:41.137   02 Jun 2027 21:07:09.120            27.983               Magadan1           874.469
       156   02 Jun 2027 21:52:35.655   02 Jun 2027 21:55:27.443           171.788            RioGallegos          5368.375
       157   02 Jun 2027 21:57:55.714   02 Jun 2027 21:58:34.815            39.101            RioGallegos          1221.906
       158   02 Jun 2027 22:33:24.136   02 Jun 2027 22:34:49.526            85.390                Anadyr1          2668.438
       159   02 Jun 2027 22:34:59.041   02 Jun 2027 22:35:55.225            56.184                Norilsk          1755.750
       160   02 Jun 2027 22:35:55.502   02 Jun 2027 22:36:32.546            37.044                Norilsk          1157.625
       161   02 Jun 2027 22:36:44.050   02 Jun 2027 22:37:23.648            39.598               Magadan1          1237.437
       162   02 Jun 2027 22:38:08.236   02 Jun 2027 22:38:50.930            42.694               Magadan1          1334.188
       163   02 Jun 2027 22:39:40.098   02 Jun 2027 22:40:29.591            49.493                Irkutsk          1546.656
       164   02 Jun 2027 22:49:00.651   02 Jun 2027 22:49:04.034             3.383                Irkutsk           105.719
       165   02 Jun 2027 22:54:10.539   02 Jun 2027 22:55:38.555            88.016                Sumatra          2750.500
       166   02 Jun 2027 22:56:48.891   02 Jun 2027 22:57:21.792            32.901                Sumatra          1028.156
       167   02 Jun 2027 22:58:31.217   02 Jun 2027 22:59:04.287            33.070                Sumatra          1033.438
       168   02 Jun 2027 23:03:12.600   02 Jun 2027 23:03:17.766             5.166                Sumatra           161.438
       169   03 Jun 2027 00:08:02.860   03 Jun 2027 00:09:11.730            68.870                Anadyr2          2152.188
       170   03 Jun 2027 00:09:11.730   03 Jun 2027 00:09:45.238            33.508                Anadyr1          1047.125
       171   03 Jun 2027 00:10:29.942   03 Jun 2027 00:10:34.851             4.909                Anadyr1           153.406
       172   03 Jun 2027 00:10:41.103   03 Jun 2027 00:11:07.310            26.207                Anadyr2           818.969
       173   03 Jun 2027 00:11:27.867   03 Jun 2027 00:13:45.348           137.481               Magadan1          4296.281
       174   03 Jun 2027 00:13:45.348   03 Jun 2027 00:14:10.657            25.309               Magadan2           790.906
       175   03 Jun 2027 00:14:42.842   03 Jun 2027 00:15:30.215            47.373                Irkutsk          1480.406
       176   03 Jun 2027 00:15:42.068   03 Jun 2027 00:16:56.784            74.716                Irkutsk          2334.875
       177   03 Jun 2027 00:21:33.487   03 Jun 2027 00:21:59.752            26.265                Novosib           820.781
       178   03 Jun 2027 00:24:18.190   03 Jun 2027 00:26:24.797           126.607                  Delhi          3956.469
       179   03 Jun 2027 00:39:54.186   03 Jun 2027 00:40:09.821            15.635                Sumatra           488.594
       180   03 Jun 2027 01:06:50.910   03 Jun 2027 01:08:00.657            69.747            RioGallegos          2179.594
       181   03 Jun 2027 01:42:00.997   03 Jun 2027 01:42:23.290            22.293                Anadyr2           696.656
       182   03 Jun 2027 01:42:43.754   03 Jun 2027 01:43:14.144            30.390                Anadyr2           949.687
       183   03 Jun 2027 01:43:45.825   03 Jun 2027 01:43:56.740            10.915                Anadyr2           341.094
       184   03 Jun 2027 01:44:11.207   03 Jun 2027 01:44:43.563            32.356                Anadyr2          1011.125
       185   03 Jun 2027 01:46:50.168   03 Jun 2027 01:48:21.400            91.232                Norilsk          2851.000
       186   03 Jun 2027 01:49:31.552   03 Jun 2027 01:50:44.224            72.672              Murmansk2          2271.000
       187   03 Jun 2027 01:50:47.532   03 Jun 2027 01:51:12.602            25.070              Murmansk1           783.438
       188   03 Jun 2027 01:51:26.000   03 Jun 2027 01:53:55.436           149.436                Novosib          4669.875
       189   03 Jun 2027 02:40:13.527   03 Jun 2027 02:42:39.071           145.544            RioGallegos          4548.250
       190   03 Jun 2027 02:43:59.648   03 Jun 2027 02:44:10.264            10.616            RioGallegos           331.750
       191   03 Jun 2027 02:45:10.515   03 Jun 2027 02:45:34.041            23.526            RioGallegos           735.188
       192   03 Jun 2027 03:31:10.244   03 Jun 2027 03:31:27.038            16.794              Murmansk1           524.813
       193   03 Jun 2027 03:31:58.498   03 Jun 2027 03:32:27.980            29.482              Murmansk1           921.312
       194   03 Jun 2027 03:33:39.545   03 Jun 2027 03:35:11.137            91.592                 Moscow          2862.250
       195   03 Jun 2027 03:35:17.256   03 Jun 2027 03:35:17.732             0.476                Norilsk            14.875
       196   03 Jun 2027 03:35:32.919   03 Jun 2027 03:36:08.666            35.747              Murmansk2          1117.094
       197   03 Jun 2027 03:36:57.040   03 Jun 2027 03:37:32.769            35.729                 Moscow          1116.531
       198   03 Jun 2027 03:54:10.617   03 Jun 2027 03:56:42.256           151.639               CapeTown          4738.719
       199   03 Jun 2027 05:07:23.274   03 Jun 2027 05:07:24.297             1.023                Norilsk            31.969
       200   03 Jun 2027 05:07:47.745   03 Jun 2027 05:07:48.066             0.321                Novosib            10.031
       201   03 Jun 2027 05:07:49.840   03 Jun 2027 05:07:50.465             0.625                Norilsk            19.531
       202   03 Jun 2027 05:08:05.460   03 Jun 2027 05:08:40.138            34.678              Murmansk1          1083.688
       203   03 Jun 2027 05:08:51.024   03 Jun 2027 05:09:47.921            56.897                Norilsk          1778.031
       204   03 Jun 2027 05:09:55.282   03 Jun 2027 05:09:58.831             3.549                 Moscow           110.906
       205   03 Jun 2027 05:10:10.260   03 Jun 2027 05:10:32.902            22.642              Murmansk2           707.563
       206   03 Jun 2027 05:10:38.151   03 Jun 2027 05:11:02.494            24.343                 Moscow           760.719
       207   03 Jun 2027 05:11:05.258   03 Jun 2027 05:12:47.515           102.257                 Moscow          3195.531
       208   03 Jun 2027 05:28:05.034   03 Jun 2027 05:28:46.064            41.030               CapeTown          1282.187
       209   03 Jun 2027 05:30:09.237   03 Jun 2027 05:30:23.714            14.477               CapeTown           452.406
       210   03 Jun 2027 05:32:39.218   03 Jun 2027 05:33:07.272            28.054               CapeTown           876.688
       211   03 Jun 2027 06:30:58.451   03 Jun 2027 06:32:32.816            94.365                Anadyr2          2948.906
       212   03 Jun 2027 06:32:40.431   03 Jun 2027 06:33:09.702            29.271                Anadyr1           914.719
       213   03 Jun 2027 06:33:09.702   03 Jun 2027 06:33:56.259            46.557                Anadyr2          1454.906
       214   03 Jun 2027 06:34:55.550   03 Jun 2027 06:35:06.031            10.481               Magadan1           327.531
       215   03 Jun 2027 06:35:32.764   03 Jun 2027 06:35:51.733            18.969                Anadyr2           592.781
       216   03 Jun 2027 06:44:59.019   03 Jun 2027 06:45:17.851            18.832                 Moscow           588.500
       217   03 Jun 2027 08:07:26.619   03 Jun 2027 08:07:27.288             0.669               Magadan2            20.906
       218   03 Jun 2027 08:07:38.049   03 Jun 2027 08:07:57.771            19.722                Anadyr2           616.312
       219   03 Jun 2027 08:08:28.331   03 Jun 2027 08:08:47.384            19.053               Magadan1           595.406
       220   03 Jun 2027 08:08:51.246   03 Jun 2027 08:09:46.638            55.392                Anadyr1          1731.000
       221   03 Jun 2027 08:10:01.762   03 Jun 2027 08:11:25.817            84.055               Magadan1          2626.719
       222   03 Jun 2027 08:12:41.143   03 Jun 2027 08:12:55.640            14.497                Anadyr1           453.031
       223   03 Jun 2027 08:50:29.323   03 Jun 2027 08:50:45.107            15.784            RioGallegos           493.250
       224   03 Jun 2027 08:56:01.003   03 Jun 2027 08:56:17.441            16.438            RioGallegos           513.687
       225   03 Jun 2027 09:39:27.689   03 Jun 2027 09:40:10.462            42.773               Magadan1          1336.656
       226   03 Jun 2027 09:41:37.813   03 Jun 2027 09:42:48.140            70.327               Magadan1          2197.719
       227   03 Jun 2027 09:42:57.630   03 Jun 2027 09:43:14.084            16.454               Magadan1           514.188
       228   03 Jun 2027 09:43:14.084   03 Jun 2027 09:43:30.307            16.223               Magadan2           506.969
       229   03 Jun 2027 09:44:05.216   03 Jun 2027 09:44:08.985             3.769                Norilsk           117.781
       230   03 Jun 2027 09:44:15.727   03 Jun 2027 09:44:32.825            17.098               Magadan2           534.313
       231   03 Jun 2027 09:44:56.667   03 Jun 2027 09:45:38.573            41.906                Irkutsk          1309.563
       232   03 Jun 2027 09:45:43.676   03 Jun 2027 09:46:29.167            45.491                Irkutsk          1421.594
       233   03 Jun 2027 09:46:32.369   03 Jun 2027 09:46:35.644             3.275                Norilsk           102.344
       234   03 Jun 2027 09:46:51.063   03 Jun 2027 09:48:03.186            72.123                Norilsk          2253.844
       235   03 Jun 2027 09:48:25.653   03 Jun 2027 09:48:29.413             3.760               Magadan2           117.500
       236   03 Jun 2027 09:48:33.866   03 Jun 2027 09:48:52.216            18.350               Magadan2           573.437
       237   03 Jun 2027 09:49:11.884   03 Jun 2027 09:49:40.256            28.372              Murmansk1           886.625
       238   03 Jun 2027 09:57:47.384   03 Jun 2027 09:57:54.035             6.651              Murmansk1           207.844
       239   03 Jun 2027 10:23:48.440   03 Jun 2027 10:24:37.149            48.709            RioGallegos          1522.156
       240   03 Jun 2027 10:24:51.421   03 Jun 2027 10:25:38.837            47.416            RioGallegos          1481.750
       241   03 Jun 2027 10:59:52.660   03 Jun 2027 11:00:19.593            26.933                Sumatra           841.656
       242   03 Jun 2027 11:08:48.928   03 Jun 2027 11:09:03.983            15.055                Sumatra           470.469
       243   03 Jun 2027 11:18:17.719   03 Jun 2027 11:18:27.701             9.982                Norilsk           311.937
       244   03 Jun 2027 11:18:32.189   03 Jun 2027 11:18:38.204             6.015                Novosib           187.969
       245   03 Jun 2027 11:19:14.496   03 Jun 2027 11:20:17.118            62.622                Novosib          1956.937
       246   03 Jun 2027 11:20:23.199   03 Jun 2027 11:22:04.441           101.242                Norilsk          3163.813
       247   03 Jun 2027 11:22:10.205   03 Jun 2027 11:22:28.545            18.340              Murmansk2           573.125
       248   03 Jun 2027 11:22:32.257   03 Jun 2027 11:23:32.344            60.087                Novosib          1877.719
       249   03 Jun 2027 11:23:42.517   03 Jun 2027 11:23:52.206             9.689                Novosib           302.781
       250   03 Jun 2027 11:23:58.609   03 Jun 2027 11:24:27.590            28.981                Novosib           905.656
       251   03 Jun 2027 11:24:39.444   03 Jun 2027 11:25:25.929            46.485                Norilsk          1452.656
       252   03 Jun 2027 12:00:42.299   03 Jun 2027 12:00:55.750            13.451            RioGallegos           420.344
       253   03 Jun 2027 12:02:34.740   03 Jun 2027 12:03:36.742            62.002            RioGallegos          1937.562
       254   03 Jun 2027 12:34:58.648   03 Jun 2027 12:35:43.905            45.257                Sumatra          1414.281
       255   03 Jun 2027 12:39:41.797   03 Jun 2027 12:39:48.336             6.539                Sumatra           204.344
       256   03 Jun 2027 12:43:16.901   03 Jun 2027 12:43:47.005            30.104                  Delhi           940.750
       257   03 Jun 2027 12:49:39.965   03 Jun 2027 12:52:54.202           194.237                Novosib          6069.906
       258   03 Jun 2027 12:53:56.863   03 Jun 2027 12:54:18.288            21.425                Norilsk           669.531
       259   03 Jun 2027 12:56:22.700   03 Jun 2027 12:56:49.429            26.729                Norilsk           835.281
       260   03 Jun 2027 14:19:50.608   03 Jun 2027 14:23:08.276           197.668                  Delhi          6177.125
       261   03 Jun 2027 14:28:12.822   03 Jun 2027 14:31:06.206           173.384                Novosib          5418.250
       262   03 Jun 2027 14:31:54.996   03 Jun 2027 14:33:02.703            67.707                Norilsk          2115.844
       263   03 Jun 2027 14:33:41.329   03 Jun 2027 14:33:55.917            14.588                Novosib           455.875
       264   03 Jun 2027 14:36:02.392   03 Jun 2027 14:36:49.949            47.557                Norilsk          1486.156
       265   03 Jun 2027 16:03:16.648   03 Jun 2027 16:05:13.007           116.359                 Moscow          3636.219
       266   03 Jun 2027 16:06:24.985   03 Jun 2027 16:06:53.582            28.597                 Moscow           893.656
       267   03 Jun 2027 16:07:35.393   03 Jun 2027 16:08:35.736            60.343              Murmansk1          1885.719
       268   03 Jun 2027 16:09:35.879   03 Jun 2027 16:09:46.157            10.278              Murmansk2           321.188
       269   03 Jun 2027 16:11:57.324   03 Jun 2027 16:12:29.189            31.865              Murmansk2           995.781
       270   03 Jun 2027 16:13:13.296   03 Jun 2027 16:16:00.803           167.507                Norilsk          5234.594
       271   03 Jun 2027 17:16:52.690   03 Jun 2027 17:18:14.433            81.743               CapeTown          2554.469
       272   03 Jun 2027 17:42:18.396   03 Jun 2027 17:43:01.066            42.670                 Moscow          1333.438
       273   03 Jun 2027 17:44:08.359   03 Jun 2027 17:46:11.931           123.572                 Moscow          3861.625
       274   03 Jun 2027 17:47:16.177   03 Jun 2027 17:47:56.539            40.362              Murmansk2          1261.313
       275   03 Jun 2027 17:52:43.493   03 Jun 2027 17:53:14.208            30.715              Murmansk1           959.844
       276   03 Jun 2027 17:53:40.243   03 Jun 2027 17:54:34.024            53.781              Murmansk1          1680.656
       277   03 Jun 2027 17:58:36.305   03 Jun 2027 17:58:54.407            18.102                Anadyr2           565.688
       278   03 Jun 2027 18:07:36.179   03 Jun 2027 18:07:45.781             9.602                Anadyr2           300.062
       279   03 Jun 2027 18:53:08.777   03 Jun 2027 18:54:37.046            88.269               CapeTown          2758.406
       280   03 Jun 2027 18:57:06.517   03 Jun 2027 18:57:45.432            38.915               CapeTown          1216.094
       281   03 Jun 2027 19:25:14.556   03 Jun 2027 19:29:49.499           274.943              Murmansk1          8591.969
       282   03 Jun 2027 19:29:52.160   03 Jun 2027 19:30:46.193            54.033              Murmansk2          1688.531
       283   03 Jun 2027 19:35:55.675   03 Jun 2027 19:36:19.952            24.277               Magadan2           758.656
       284   03 Jun 2027 19:36:44.796   03 Jun 2027 19:37:37.038            52.242               Magadan2          1632.563
       285   03 Jun 2027 21:09:06.972   03 Jun 2027 21:12:50.367           223.395                Anadyr1          6981.094
       286   03 Jun 2027 21:12:56.972   03 Jun 2027 21:13:10.969            13.997                Anadyr2           437.406
       287   03 Jun 2027 21:13:35.846   03 Jun 2027 21:15:59.189           143.343               Magadan1          4479.469
       288   03 Jun 2027 21:16:00.994   03 Jun 2027 21:16:08.045             7.051               Magadan1           220.344
       289   03 Jun 2027 21:16:08.045   03 Jun 2027 21:16:16.815             8.770               Magadan2           274.062
       290   03 Jun 2027 21:17:42.629   03 Jun 2027 21:17:53.480            10.851               Magadan1           339.094
       291   03 Jun 2027 21:18:27.017   03 Jun 2027 21:18:59.691            32.674               Magadan1          1021.062
       292   03 Jun 2027 22:04:09.596   03 Jun 2027 22:06:31.741           142.145            RioGallegos          4442.031
       293   03 Jun 2027 22:06:39.263   03 Jun 2027 22:07:14.953            35.690            RioGallegos          1115.312
       294   03 Jun 2027 22:10:38.042   03 Jun 2027 22:10:46.970             8.928            RioGallegos           279.000
       295   03 Jun 2027 22:44:51.393   03 Jun 2027 22:46:22.415            91.022                Anadyr1          2844.437
       296   03 Jun 2027 22:46:32.132   03 Jun 2027 22:46:49.624            17.492                Anadyr1           546.625
       297   03 Jun 2027 22:46:58.137   03 Jun 2027 22:48:34.254            96.117                Norilsk          3003.656
       298   03 Jun 2027 22:48:48.330   03 Jun 2027 22:49:16.482            28.152               Magadan2           879.750
       299   03 Jun 2027 22:50:43.115   03 Jun 2027 22:51:10.972            27.857               Magadan1           870.531
       300   03 Jun 2027 22:51:27.395   03 Jun 2027 22:52:28.741            61.346                Irkutsk          1917.063
       301   03 Jun 2027 23:01:15.959   03 Jun 2027 23:02:03.193            47.234                Irkutsk          1476.062
       302   03 Jun 2027 23:05:37.475   03 Jun 2027 23:06:49.223            71.748                Sumatra          2242.125
       303   03 Jun 2027 23:11:20.708   03 Jun 2027 23:11:34.103            13.395                Sumatra           418.594
       304   03 Jun 2027 23:12:06.325   03 Jun 2027 23:12:16.472            10.147                Sumatra           317.094
       305   03 Jun 2027 23:42:33.276   03 Jun 2027 23:43:04.037            30.761            RioGallegos           961.281
       306   03 Jun 2027 23:50:40.538   03 Jun 2027 23:51:31.747            51.209            RioGallegos          1600.281
       307   04 Jun 2027 00:19:53.990   04 Jun 2027 00:21:09.779            75.789                Anadyr1          2368.406
       308   04 Jun 2027 00:21:46.524   04 Jun 2027 00:22:14.325            27.801                Anadyr2           868.781
       309   04 Jun 2027 00:22:41.478   04 Jun 2027 00:22:49.976             8.498                Anadyr2           265.563
       310   04 Jun 2027 00:22:51.456   04 Jun 2027 00:23:58.844            67.388                Norilsk          2105.875
       311   04 Jun 2027 00:24:07.411   04 Jun 2027 00:24:30.034            22.623               Magadan1           706.969
       312   04 Jun 2027 00:24:30.034   04 Jun 2027 00:25:39.448            69.414               Magadan2          2169.188
       313   04 Jun 2027 00:26:43.884   04 Jun 2027 00:27:00.816            16.932                Irkutsk           529.125
       314   04 Jun 2027 00:27:05.958   04 Jun 2027 00:27:35.435            29.477                Novosib           921.156
       315   04 Jun 2027 00:28:48.164   04 Jun 2027 00:29:12.055            23.891                Novosib           746.594
       316   04 Jun 2027 00:32:56.819   04 Jun 2027 00:33:32.306            35.487                Novosib          1108.969
       317   04 Jun 2027 00:35:36.464   04 Jun 2027 00:36:18.147            41.683                  Delhi          1302.594
       318   04 Jun 2027 00:38:51.103   04 Jun 2027 00:38:54.247             3.144                  Delhi            98.250
       319   04 Jun 2027 00:40:08.764   04 Jun 2027 00:40:15.536             6.772                  Delhi           211.625
       320   04 Jun 2027 00:41:09.878   04 Jun 2027 00:41:30.592            20.714                Sumatra           647.312
       321   04 Jun 2027 00:42:30.067   04 Jun 2027 00:42:42.178            12.111                  Delhi           378.469
       322   04 Jun 2027 00:44:35.254   04 Jun 2027 00:45:07.089            31.835                  Delhi           994.844
       323   04 Jun 2027 01:15:00.011   04 Jun 2027 01:15:32.042            32.031            RioGallegos          1000.969
       324   04 Jun 2027 01:17:25.399   04 Jun 2027 01:17:40.934            15.535            RioGallegos           485.469
       325   04 Jun 2027 01:21:44.716   04 Jun 2027 01:22:24.794            40.078            RioGallegos          1252.438
       326   04 Jun 2027 01:53:43.083   04 Jun 2027 01:54:56.296            73.213                Anadyr2          2287.906
       327   04 Jun 2027 01:55:57.287   04 Jun 2027 01:56:37.755            40.468                Anadyr2          1264.625
       328   04 Jun 2027 01:58:52.197   04 Jun 2027 02:00:16.664            84.467                Norilsk          2639.594
       329   04 Jun 2027 02:01:24.478   04 Jun 2027 02:02:44.550            80.072              Murmansk1          2502.250
       330   04 Jun 2027 02:02:59.524   04 Jun 2027 02:03:12.223            12.699                Novosib           396.844
       331   04 Jun 2027 02:03:24.172   04 Jun 2027 02:05:29.472           125.300                Novosib          3915.625
       332   04 Jun 2027 02:18:19.076   04 Jun 2027 02:18:34.535            15.459                  Delhi           483.094
       333   04 Jun 2027 02:20:36.416   04 Jun 2027 02:21:41.819            65.403                  Delhi          2043.844
       334   04 Jun 2027 02:52:45.182   04 Jun 2027 02:54:45.514           120.332            RioGallegos          3760.375
       335   04 Jun 2027 02:55:28.591   04 Jun 2027 02:55:46.675            18.084            RioGallegos           565.125
       336   04 Jun 2027 02:56:55.160   04 Jun 2027 02:57:01.305             6.145            RioGallegos           192.031
       337   04 Jun 2027 03:43:26.218   04 Jun 2027 03:43:47.918            21.700                Novosib           678.125
       338   04 Jun 2027 03:43:54.166   04 Jun 2027 03:44:53.365            59.199              Murmansk2          1849.969
       339   04 Jun 2027 03:45:46.236   04 Jun 2027 03:46:19.901            33.665              Murmansk1          1052.031
       340   04 Jun 2027 03:46:35.252   04 Jun 2027 03:47:20.063            44.811              Murmansk2          1400.344
       341   04 Jun 2027 05:20:06.191   04 Jun 2027 05:20:24.224            18.033                Novosib           563.531
       342   04 Jun 2027 05:21:25.975   04 Jun 2027 05:21:52.955            26.980              Murmansk1           843.125
       343   04 Jun 2027 05:22:00.018   04 Jun 2027 05:22:41.195            41.177                 Moscow          1286.781
       344   04 Jun 2027 05:22:48.402   04 Jun 2027 05:23:02.492            14.090              Murmansk1           440.312
       345   04 Jun 2027 05:23:26.766   04 Jun 2027 05:23:47.872            21.106              Murmansk2           659.562
       346   04 Jun 2027 05:24:33.523   04 Jun 2027 05:25:11.483            37.960              Murmansk1          1186.250
       347   04 Jun 2027 05:25:11.483   04 Jun 2027 05:25:44.732            33.249              Murmansk2          1039.031
       348   04 Jun 2027 05:40:15.134   04 Jun 2027 05:41:02.723            47.589               CapeTown          1487.156
       349   04 Jun 2027 05:46:28.645   04 Jun 2027 05:48:20.668           112.023               CapeTown          3500.719
       350   04 Jun 2027 06:43:15.690   04 Jun 2027 06:43:57.943            42.253                Anadyr2          1320.406
       351   04 Jun 2027 06:43:57.943   04 Jun 2027 06:44:37.306            39.363                Anadyr1          1230.094
       352   04 Jun 2027 06:45:02.736   04 Jun 2027 06:45:28.603            25.867                Anadyr1           808.344
       353   04 Jun 2027 06:45:31.614   04 Jun 2027 06:46:02.331            30.717               Magadan1           959.906
       354   04 Jun 2027 06:46:41.961   04 Jun 2027 06:47:32.735            50.774                Anadyr2          1586.687
       355   04 Jun 2027 06:59:14.063   04 Jun 2027 06:59:45.074            31.011                 Moscow           969.094
       356   04 Jun 2027 08:19:21.540   04 Jun 2027 08:19:54.681            33.141                Anadyr1          1035.656
       357   04 Jun 2027 08:20:16.099   04 Jun 2027 08:21:04.419            48.320                Anadyr2          1510.000
       358   04 Jun 2027 08:21:35.313   04 Jun 2027 08:22:07.940            32.627               Magadan2          1019.594
       359   04 Jun 2027 08:22:40.560   04 Jun 2027 08:25:12.889           152.329                Anadyr1          4760.281
       360   04 Jun 2027 09:54:26.168   04 Jun 2027 09:54:47.385            21.217                Irkutsk           663.031
       361   04 Jun 2027 09:55:31.937   04 Jun 2027 09:55:37.554             5.617               Magadan1           175.531
       362   04 Jun 2027 09:55:39.866   04 Jun 2027 09:57:16.163            96.297               Magadan2          3009.281
       363   04 Jun 2027 09:57:28.425   04 Jun 2027 09:57:48.370            19.945                Novosib           623.281
       364   04 Jun 2027 09:58:08.027   04 Jun 2027 09:58:33.766            25.739                Norilsk           804.344
       365   04 Jun 2027 09:58:37.474   04 Jun 2027 09:58:48.552            11.078                Norilsk           346.187
       366   04 Jun 2027 09:58:50.925   04 Jun 2027 09:58:57.213             6.288                Novosib           196.500
       367   04 Jun 2027 09:58:57.653   04 Jun 2027 09:59:09.592            11.939                Novosib           373.094
       368   04 Jun 2027 09:59:25.035   04 Jun 2027 10:00:45.948            80.913               Magadan1          2528.531
       369   04 Jun 2027 10:01:03.507   04 Jun 2027 10:01:33.077            29.570              Murmansk1           924.063
       370   04 Jun 2027 10:03:44.386   04 Jun 2027 10:03:51.071             6.685              Murmansk2           208.906
       371   04 Jun 2027 10:35:45.015   04 Jun 2027 10:36:46.667            61.652            RioGallegos          1926.625
       372   04 Jun 2027 11:11:24.617   04 Jun 2027 11:12:31.198            66.581                Sumatra          2080.656
       373   04 Jun 2027 11:25:27.127   04 Jun 2027 11:26:24.270            57.143                Irkutsk          1785.719
       374   04 Jun 2027 11:31:06.756   04 Jun 2027 11:31:47.245            40.489                Irkutsk          1265.281
       375   04 Jun 2027 11:31:58.099   04 Jun 2027 11:32:37.484            39.385                Novosib          1230.781
       376   04 Jun 2027 11:32:42.922   04 Jun 2027 11:33:11.552            28.630                Novosib           894.688
       377   04 Jun 2027 11:33:17.716   04 Jun 2027 11:34:18.993            61.277                Irkutsk          1914.906
       378   04 Jun 2027 11:34:22.023   04 Jun 2027 11:34:29.778             7.755              Murmansk1           242.344
       379   04 Jun 2027 11:34:29.778   04 Jun 2027 11:34:46.986            17.208              Murmansk2           537.750
       380   04 Jun 2027 11:34:50.357   04 Jun 2027 11:34:55.059             4.702                Norilsk           146.937
       381   04 Jun 2027 11:35:04.382   04 Jun 2027 11:35:13.030             8.648              Murmansk2           270.250
       382   04 Jun 2027 11:35:24.644   04 Jun 2027 11:36:05.716            41.072                Norilsk          1283.500
       383   04 Jun 2027 11:36:06.956   04 Jun 2027 11:36:13.805             6.849              Murmansk2           214.031
       384   04 Jun 2027 11:36:22.139   04 Jun 2027 11:36:46.957            24.818                Norilsk           775.562
       385   04 Jun 2027 11:36:55.686   04 Jun 2027 11:37:05.949            10.263              Murmansk2           320.719
       386   04 Jun 2027 11:37:19.416   04 Jun 2027 11:37:43.854            24.438              Murmansk1           763.687
       387   04 Jun 2027 11:44:05.147   04 Jun 2027 11:44:16.832            11.685              Murmansk2           365.156
       388   04 Jun 2027 12:13:10.178   04 Jun 2027 12:13:56.034            45.856            RioGallegos          1433.000
       389   04 Jun 2027 12:16:54.272   04 Jun 2027 12:17:38.334            44.062            RioGallegos          1376.938
       390   04 Jun 2027 12:47:23.308   04 Jun 2027 12:48:35.444            72.136                Sumatra          2254.250
       391   04 Jun 2027 12:55:13.403   04 Jun 2027 12:57:23.420           130.017                Sumatra          4063.031
       392   04 Jun 2027 13:02:47.750   04 Jun 2027 13:02:52.836             5.086                Irkutsk           158.938
       393   04 Jun 2027 13:03:57.366   04 Jun 2027 13:07:14.212           196.846                Irkutsk          6151.437
       394   04 Jun 2027 14:32:29.396   04 Jun 2027 14:34:53.402           144.006                  Delhi          4500.188
       395   04 Jun 2027 14:34:54.954   04 Jun 2027 14:35:53.958            59.004                  Delhi          1843.875
       396   04 Jun 2027 14:40:58.104   04 Jun 2027 14:42:35.074            96.970                Novosib          3030.313
       397   04 Jun 2027 14:44:25.035   04 Jun 2027 14:44:35.396            10.361                Norilsk           323.781
       398   04 Jun 2027 14:44:41.480   04 Jun 2027 14:45:57.302            75.822                Novosib          2369.438
       399   04 Jun 2027 16:15:27.258   04 Jun 2027 16:17:11.653           104.395                 Moscow          3262.344
       400   04 Jun 2027 16:18:24.502   04 Jun 2027 16:19:20.663            56.161                 Moscow          1755.031
       401   04 Jun 2027 16:19:27.800   04 Jun 2027 16:20:38.527            70.727              Murmansk1          2210.219
       402   04 Jun 2027 16:21:35.107   04 Jun 2027 16:21:59.238            24.131              Murmansk1           754.094
       403   04 Jun 2027 16:22:27.683   04 Jun 2027 16:22:33.031             5.348              Murmansk1           167.125
       404   04 Jun 2027 16:23:59.283   04 Jun 2027 16:24:35.857            36.574              Murmansk1          1142.938
       405   04 Jun 2027 16:26:38.679   04 Jun 2027 16:28:19.504           100.825                Norilsk          3150.781
       406   04 Jun 2027 16:34:30.237   04 Jun 2027 16:35:11.633            41.396                Anadyr2          1293.625
       407   04 Jun 2027 16:37:58.741   04 Jun 2027 16:38:39.890            41.149                Anadyr2          1285.906
       408   04 Jun 2027 17:28:46.472   04 Jun 2027 17:29:25.062            38.590               CapeTown          1205.938
       409   04 Jun 2027 17:29:38.194   04 Jun 2027 17:30:24.548            46.354               CapeTown          1448.563
       410   04 Jun 2027 17:55:11.476   04 Jun 2027 17:59:25.844           254.368                 Moscow          7949.000
       411   04 Jun 2027 18:10:54.010   04 Jun 2027 18:10:55.605             1.595                Anadyr1            49.844
       412   04 Jun 2027 18:11:05.106   04 Jun 2027 18:12:00.895            55.789                Anadyr1          1743.406
       413   04 Jun 2027 18:15:16.736   04 Jun 2027 18:15:25.333             8.597                Anadyr2           268.656
       414   04 Jun 2027 18:16:36.292   04 Jun 2027 18:17:07.685            31.393                Anadyr2           981.031
       415   04 Jun 2027 19:05:28.537   04 Jun 2027 19:06:42.590            74.053               CapeTown          2314.156
       416   04 Jun 2027 19:10:25.749   04 Jun 2027 19:10:52.307            26.558               CapeTown           829.938
       417   04 Jun 2027 19:38:14.469   04 Jun 2027 19:42:29.096           254.627              Murmansk1          7957.094
       418   04 Jun 2027 19:47:49.874   04 Jun 2027 19:48:53.386            63.512               Magadan1          1984.750
       419   04 Jun 2027 19:52:17.072   04 Jun 2027 19:53:06.131            49.059               Magadan2          1533.094
       420   04 Jun 2027 21:21:08.240   04 Jun 2027 21:24:50.998           222.758                Anadyr1          6961.188
       421   04 Jun 2027 21:25:04.342   04 Jun 2027 21:28:32.843           208.501               Magadan2          6515.656
       422   04 Jun 2027 21:30:26.671   04 Jun 2027 21:30:35.187             8.516               Magadan1           266.125
       423   04 Jun 2027 21:30:41.320   04 Jun 2027 21:31:04.734            23.414               Magadan1           731.687
       424   04 Jun 2027 21:34:07.692   04 Jun 2027 21:34:13.359             5.667               Magadan2           177.094
       425   04 Jun 2027 21:35:20.097   04 Jun 2027 21:35:45.415            25.318               Magadan1           791.188
       426   04 Jun 2027 22:15:51.055   04 Jun 2027 22:17:50.455           119.400            RioGallegos          3731.250
       427   04 Jun 2027 22:18:16.209   04 Jun 2027 22:18:35.926            19.717            RioGallegos           616.156
       428   04 Jun 2027 22:24:36.798   04 Jun 2027 22:25:09.234            32.436            RioGallegos          1013.625
       429   04 Jun 2027 22:56:49.420   04 Jun 2027 22:58:06.149            76.729                Anadyr1          2397.781
       430   04 Jun 2027 22:58:51.619   04 Jun 2027 22:59:02.201            10.582                Anadyr1           330.688
       431   04 Jun 2027 22:59:26.143   04 Jun 2027 23:01:05.929            99.786               Magadan2          3118.312
       432   04 Jun 2027 23:01:44.397   04 Jun 2027 23:02:12.510            28.113               Magadan2           878.531
       433   04 Jun 2027 23:02:35.571   04 Jun 2027 23:02:36.855             1.284                Norilsk            40.125
       434   04 Jun 2027 23:03:08.934   04 Jun 2027 23:03:14.059             5.125               Magadan2           160.156
       435   04 Jun 2027 23:03:17.939   04 Jun 2027 23:04:28.901            70.962                Irkutsk          2217.563
       436   04 Jun 2027 23:06:57.325   04 Jun 2027 23:07:53.285            55.960                Novosib          1748.750
       437   04 Jun 2027 23:11:51.007   04 Jun 2027 23:12:46.527            55.520                Irkutsk          1735.000
       438   04 Jun 2027 23:17:13.822   04 Jun 2027 23:17:40.903            27.081                Sumatra           846.281
       439   04 Jun 2027 23:18:39.470   04 Jun 2027 23:19:16.433            36.963                Sumatra          1155.094
       440   04 Jun 2027 23:27:12.022   04 Jun 2027 23:28:30.915            78.893                Sumatra          2465.406
       441   05 Jun 2027 00:31:43.819   05 Jun 2027 00:32:00.774            16.955                Anadyr2           529.844
       442   05 Jun 2027 00:32:00.774   05 Jun 2027 00:32:16.894            16.120                Anadyr1           503.750
       443   05 Jun 2027 00:32:44.139   05 Jun 2027 00:33:06.912            22.773                Anadyr1           711.656
       444   05 Jun 2027 00:33:21.204   05 Jun 2027 00:33:59.843            38.639                Anadyr2          1207.469
       445   05 Jun 2027 00:34:30.877   05 Jun 2027 00:34:40.873             9.996                Anadyr2           312.375
       446   05 Jun 2027 00:34:53.687   05 Jun 2027 00:36:36.581           102.894                Norilsk          3215.438
       447   05 Jun 2027 00:37:09.084   05 Jun 2027 00:37:30.269            21.185               Magadan1           662.031
       448   05 Jun 2027 00:38:45.784   05 Jun 2027 00:40:51.521           125.737                Irkutsk          3929.281
       449   05 Jun 2027 00:44:59.539   05 Jun 2027 00:45:21.739            22.200                Novosib           693.750
       450   05 Jun 2027 00:45:52.498   05 Jun 2027 00:46:06.486            13.988                Novosib           437.125
       451   05 Jun 2027 00:47:07.332   05 Jun 2027 00:47:41.802            34.470                  Delhi          1077.187
       452   05 Jun 2027 00:47:43.578   05 Jun 2027 00:47:55.465            11.887                  Delhi           371.469
       453   05 Jun 2027 00:49:29.741   05 Jun 2027 00:50:08.822            39.081                  Delhi          1221.281
       454   05 Jun 2027 00:56:13.882   05 Jun 2027 00:56:24.501            10.619                  Delhi           331.844
       455   05 Jun 2027 00:56:44.230   05 Jun 2027 00:57:06.847            22.617                  Delhi           706.781
       456   05 Jun 2027 00:59:34.752   05 Jun 2027 01:00:24.319            49.567                Sumatra          1548.969
       457   05 Jun 2027 01:31:50.550   05 Jun 2027 01:32:48.716            58.166            RioGallegos          1817.687
       458   05 Jun 2027 02:05:24.615   05 Jun 2027 02:06:11.081            46.466                Anadyr2          1452.063
       459   05 Jun 2027 02:07:17.621   05 Jun 2027 02:07:47.857            30.236                Anadyr1           944.875
       460   05 Jun 2027 02:10:54.091   05 Jun 2027 02:12:20.410            86.319                Norilsk          2697.469
       461   05 Jun 2027 02:13:19.859   05 Jun 2027 02:14:04.265            44.406              Murmansk2          1387.688
       462   05 Jun 2027 02:14:20.803   05 Jun 2027 02:15:12.748            51.945              Murmansk2          1623.281
       463   05 Jun 2027 02:15:12.995   05 Jun 2027 02:15:59.318            46.323                Irkutsk          1447.594
       464   05 Jun 2027 02:17:16.594   05 Jun 2027 02:18:10.496            53.902                Irkutsk          1684.438
       465   05 Jun 2027 02:26:50.195   05 Jun 2027 02:27:00.359            10.164                  Delhi           317.625
       466   05 Jun 2027 02:27:54.503   05 Jun 2027 02:30:05.922           131.419                  Delhi          4106.844
       467   05 Jun 2027 03:06:52.987   05 Jun 2027 03:07:21.864            28.877            RioGallegos           902.406
       468   05 Jun 2027 03:56:15.093   05 Jun 2027 03:56:18.570             3.477                Norilsk           108.656
       469   05 Jun 2027 03:56:18.822   05 Jun 2027 03:56:31.817            12.995              Murmansk1           406.094
       470   05 Jun 2027 03:56:37.128   05 Jun 2027 03:56:52.169            15.041              Murmansk1           470.031
       471   05 Jun 2027 03:57:32.392   05 Jun 2027 03:57:34.767             2.375              Murmansk2            74.219
       472   05 Jun 2027 03:57:43.212   05 Jun 2027 03:58:17.815            34.603                Novosib          1081.344
       473   05 Jun 2027 03:58:36.887   05 Jun 2027 04:00:28.680           111.793              Murmansk1          3493.531
       474   05 Jun 2027 04:00:39.401   05 Jun 2027 04:01:05.429            26.028                Novosib           813.375
       475   05 Jun 2027 04:03:02.559   05 Jun 2027 04:03:30.903            28.344                 Moscow           885.750
       476   05 Jun 2027 05:32:29.822   05 Jun 2027 05:32:44.008            14.186                Norilsk           443.312
       477   05 Jun 2027 05:32:54.165   05 Jun 2027 05:32:56.558             2.393                Norilsk            74.781
       478   05 Jun 2027 05:33:19.565   05 Jun 2027 05:35:14.796           115.231              Murmansk1          3600.969
       479   05 Jun 2027 06:55:24.665   05 Jun 2027 06:55:47.709            23.044               Magadan1           720.125
       480   05 Jun 2027 06:55:51.909   05 Jun 2027 06:56:35.993            44.084                Anadyr1          1377.625
       481   05 Jun 2027 06:56:35.993   05 Jun 2027 06:57:12.670            36.677                Anadyr2          1146.156
       482   05 Jun 2027 06:57:15.602   05 Jun 2027 06:57:34.764            19.162               Magadan2           598.813
