uniorb/output/strategy_2/Drop/Drop_KinoSat_110810.txt

KinoSat_110810
-------------------------
    Access    *     Start Time (UTCG)     *     Stop Time (UTCG)  *   Duration (s)        *       Station  *  Data (Mbytes)
         1   01 Jun 2027 04:25:58.463   01 Jun 2027 04:26:00.820             2.357                Norilsk            73.656
         2   01 Jun 2027 04:26:03.826   01 Jun 2027 04:26:28.654            24.828                Anadyr1           775.875
         3   01 Jun 2027 04:26:34.203   01 Jun 2027 04:27:21.644            47.441               Magadan1          1482.531
         4   01 Jun 2027 04:27:48.975   01 Jun 2027 04:28:35.993            47.018                Anadyr1          1469.313
         5   01 Jun 2027 05:07:44.443   01 Jun 2027 05:08:58.421            73.978            RioGallegos          2311.812
         6   01 Jun 2027 05:59:21.899   01 Jun 2027 05:59:22.845             0.946                Irkutsk            29.562
         7   01 Jun 2027 05:59:35.708   01 Jun 2027 06:01:34.573           118.865               Magadan2          3714.531
         8   01 Jun 2027 06:01:38.553   01 Jun 2027 06:02:10.569            32.016                Novosib          1000.500
         9   01 Jun 2027 06:02:16.932   01 Jun 2027 06:03:07.016            50.084               Magadan1          1565.125
        10   01 Jun 2027 06:03:09.775   01 Jun 2027 06:03:33.097            23.322                Anadyr2           728.812
        11   01 Jun 2027 06:04:01.692   01 Jun 2027 06:05:22.666            80.974               Magadan2          2530.438
        12   01 Jun 2027 06:05:31.602   01 Jun 2027 06:06:10.037            38.435                Norilsk          1201.094
        13   01 Jun 2027 06:40:32.516   01 Jun 2027 06:43:27.791           175.275            RioGallegos          5477.344
        14   01 Jun 2027 07:17:15.979   01 Jun 2027 07:19:51.505           155.526                Sumatra          4860.187
        15   01 Jun 2027 07:37:22.638   01 Jun 2027 07:38:12.926            50.288                Irkutsk          1571.500
        16   01 Jun 2027 07:38:18.255   01 Jun 2027 07:38:28.861            10.606                Irkutsk           331.437
        17   01 Jun 2027 07:38:33.912   01 Jun 2027 07:39:19.110            45.198                Norilsk          1412.437
        18   01 Jun 2027 07:39:24.835   01 Jun 2027 07:40:12.831            47.996                Irkutsk          1499.875
        19   01 Jun 2027 07:40:15.727   01 Jun 2027 07:40:26.866            11.139                Irkutsk           348.094
        20   01 Jun 2027 07:40:55.099   01 Jun 2027 07:41:36.444            41.345                Irkutsk          1292.031
        21   01 Jun 2027 07:41:37.882   01 Jun 2027 07:41:38.480             0.598              Murmansk1            18.688
        22   01 Jun 2027 07:41:39.968   01 Jun 2027 07:41:53.739            13.771                Novosib           430.344
        23   01 Jun 2027 07:41:58.135   01 Jun 2027 07:42:22.382            24.247              Murmansk1           757.719
        24   01 Jun 2027 07:42:29.893   01 Jun 2027 07:42:55.664            25.771                Norilsk           805.344
        25   01 Jun 2027 07:43:43.535   01 Jun 2027 07:44:01.656            18.121              Murmansk1           566.281
        26   01 Jun 2027 08:16:53.116   01 Jun 2027 08:17:43.292            50.176            RioGallegos          1568.000
        27   01 Jun 2027 08:51:15.908   01 Jun 2027 08:53:01.922           106.014                Sumatra          3312.938
        28   01 Jun 2027 09:00:16.065   01 Jun 2027 09:02:04.784           108.719                  Delhi          3397.469
        29   01 Jun 2027 09:03:30.279   01 Jun 2027 09:03:39.516             9.237                  Delhi           288.656
        30   01 Jun 2027 09:13:42.003   01 Jun 2027 09:14:01.898            19.895                 Moscow           621.719
        31   01 Jun 2027 09:14:09.030   01 Jun 2027 09:14:41.363            32.333                Irkutsk          1010.406
        32   01 Jun 2027 09:14:47.442   01 Jun 2027 09:15:48.770            61.328                Irkutsk          1916.500
        33   01 Jun 2027 09:16:04.736   01 Jun 2027 09:16:30.901            26.165              Murmansk2           817.656
        34   01 Jun 2027 09:16:32.803   01 Jun 2027 09:19:04.345           151.542                Novosib          4735.688
        35   01 Jun 2027 10:35:54.456   01 Jun 2027 10:36:53.431            58.975                  Delhi          1842.969
        36   01 Jun 2027 10:37:59.738   01 Jun 2027 10:40:01.170           121.432                  Delhi          3794.750
        37   01 Jun 2027 10:50:24.949   01 Jun 2027 10:52:36.375           131.426                Norilsk          4107.063
        38   01 Jun 2027 10:52:50.249   01 Jun 2027 10:53:52.876            62.627              Murmansk2          1957.094
        39   01 Jun 2027 10:54:20.677   01 Jun 2027 10:54:28.323             7.646              Murmansk1           238.937
        40   01 Jun 2027 10:54:45.441   01 Jun 2027 10:55:10.662            25.221              Murmansk2           788.156
        41   01 Jun 2027 10:55:34.205   01 Jun 2027 10:56:32.509            58.304                 Moscow          1822.000
        42   01 Jun 2027 12:19:44.724   01 Jun 2027 12:21:30.183           105.459                 Moscow          3295.594
        43   01 Jun 2027 12:22:36.535   01 Jun 2027 12:23:00.590            24.055                 Moscow           751.719
        44   01 Jun 2027 12:23:15.866   01 Jun 2027 12:24:41.763            85.897              Murmansk2          2684.281
        45   01 Jun 2027 12:24:42.600   01 Jun 2027 12:27:19.403           156.803              Murmansk1          4900.094
        46   01 Jun 2027 13:33:41.606   01 Jun 2027 13:37:50.574           248.968               CapeTown          7780.250
        47   01 Jun 2027 14:00:49.449   01 Jun 2027 14:02:57.571           128.122              Murmansk1          4003.812
        48   01 Jun 2027 14:03:59.156   01 Jun 2027 14:04:31.390            32.234              Murmansk2          1007.313
        49   01 Jun 2027 14:14:03.921   01 Jun 2027 14:16:13.699           129.778                Anadyr2          4055.563
        50   01 Jun 2027 14:16:38.280   01 Jun 2027 14:18:06.140            87.860                Anadyr1          2745.625
        51   01 Jun 2027 15:09:27.108   01 Jun 2027 15:10:35.692            68.584               CapeTown          2143.250
        52   01 Jun 2027 15:40:55.267   01 Jun 2027 15:41:30.416            35.149              Murmansk2          1098.406
        53   01 Jun 2027 15:42:06.479   01 Jun 2027 15:42:34.581            28.102              Murmansk2           878.188
        54   01 Jun 2027 15:49:45.667   01 Jun 2027 15:51:21.375            95.708                Anadyr2          2990.875
        55   01 Jun 2027 15:51:56.264   01 Jun 2027 15:53:24.031            87.767                Anadyr1          2742.719
        56   01 Jun 2027 15:53:27.228   01 Jun 2027 15:56:30.413           183.185               Magadan2          5724.531
        57   01 Jun 2027 17:25:41.038   01 Jun 2027 17:27:12.429            91.391                Anadyr2          2855.969
        58   01 Jun 2027 17:27:47.442   01 Jun 2027 17:28:28.713            41.271                Anadyr2          1289.719
        59   01 Jun 2027 17:28:34.157   01 Jun 2027 17:28:43.504             9.347                Anadyr1           292.094
        60   01 Jun 2027 17:29:03.596   01 Jun 2027 17:29:50.829            47.233                Anadyr1          1476.031
        61   01 Jun 2027 17:30:05.062   01 Jun 2027 17:30:47.483            42.421               Magadan1          1325.656
        62   01 Jun 2027 17:31:00.712   01 Jun 2027 17:31:17.989            17.277               Magadan1           539.906
        63   01 Jun 2027 17:31:41.544   01 Jun 2027 17:32:12.896            31.352               Magadan2           979.750
        64   01 Jun 2027 18:21:20.278   01 Jun 2027 18:24:24.320           184.042            RioGallegos          5751.312
        65   01 Jun 2027 19:02:51.414   01 Jun 2027 19:03:06.862            15.448                Anadyr1           482.750
        66   01 Jun 2027 19:03:38.242   01 Jun 2027 19:06:48.561           190.319                Norilsk          5947.469
        67   01 Jun 2027 19:08:20.709   01 Jun 2027 19:11:23.390           182.681                Irkutsk          5708.781
        68   01 Jun 2027 19:13:41.002   01 Jun 2027 19:14:39.354            58.352                Irkutsk          1823.500
        69   01 Jun 2027 19:22:53.685   01 Jun 2027 19:22:58.412             4.727                Sumatra           147.719
        70   01 Jun 2027 19:24:53.769   01 Jun 2027 19:27:10.808           137.039                Sumatra          4282.469
        71   01 Jun 2027 19:28:14.626   01 Jun 2027 19:29:40.690            86.064                Sumatra          2689.500
        72   01 Jun 2027 20:45:11.844   01 Jun 2027 20:45:39.024            27.180                Novosib           849.375
        73   01 Jun 2027 20:46:18.392   01 Jun 2027 20:46:54.363            35.971                Novosib          1124.094
        74   01 Jun 2027 20:53:04.946   01 Jun 2027 20:55:33.947           149.001                  Delhi          4656.281
        75   01 Jun 2027 20:57:05.618   01 Jun 2027 20:58:55.049           109.431                  Delhi          3419.719
        76   01 Jun 2027 22:18:13.422   01 Jun 2027 22:22:02.747           229.325              Murmansk2          7166.406
        77   01 Jun 2027 22:22:21.646   01 Jun 2027 22:24:22.431           120.785              Murmansk1          3774.531
        78   01 Jun 2027 23:49:48.431   01 Jun 2027 23:50:38.062            49.631               Magadan1          1550.969
        79   01 Jun 2027 23:53:36.049   01 Jun 2027 23:55:16.931           100.882              Murmansk2          3152.563
        80   01 Jun 2027 23:56:21.625   01 Jun 2027 23:57:46.125            84.500              Murmansk1          2640.625
        81   01 Jun 2027 23:58:05.895   01 Jun 2027 23:58:41.655            35.760                 Moscow          1117.500
        82   01 Jun 2027 23:58:50.913   01 Jun 2027 23:59:52.737            61.824                 Moscow          1932.000
        83   02 Jun 2027 00:22:52.549   02 Jun 2027 00:24:42.264           109.715               CapeTown          3428.594
        84   02 Jun 2027 00:27:46.313   02 Jun 2027 00:29:12.824            86.511               CapeTown          2703.469
        85   02 Jun 2027 01:22:38.975   02 Jun 2027 01:23:12.843            33.868               Magadan1          1058.375
        86   02 Jun 2027 01:29:20.108   02 Jun 2027 01:29:34.461            14.353               Magadan1           448.531
        87   02 Jun 2027 01:30:36.624   02 Jun 2027 01:31:02.006            25.382              Murmansk1           793.187
        88   02 Jun 2027 01:31:40.767   02 Jun 2027 01:32:13.447            32.680              Murmansk1          1021.250
        89   02 Jun 2027 01:32:39.985   02 Jun 2027 01:32:44.243             4.258              Murmansk1           133.062
        90   02 Jun 2027 01:32:44.549   02 Jun 2027 01:33:32.330            47.781                 Moscow          1493.156
        91   02 Jun 2027 01:36:20.675   02 Jun 2027 01:36:39.391            18.716                 Moscow           584.875
        92   02 Jun 2027 01:40:33.592   02 Jun 2027 01:41:11.186            37.594                 Moscow          1174.812
        93   02 Jun 2027 02:01:25.376   02 Jun 2027 02:01:30.551             5.175               CapeTown           161.719
        94   02 Jun 2027 02:02:11.150   02 Jun 2027 02:02:27.599            16.449               CapeTown           514.031
        95   02 Jun 2027 02:03:36.489   02 Jun 2027 02:05:08.201            91.712               CapeTown          2866.000
        96   02 Jun 2027 02:53:27.213   02 Jun 2027 02:54:15.477            48.264                Anadyr1          1508.250
        97   02 Jun 2027 02:54:29.086   02 Jun 2027 02:54:36.155             7.069                Anadyr1           220.906
        98   02 Jun 2027 02:54:39.274   02 Jun 2027 02:55:41.090            61.816               Magadan1          1931.750
        99   02 Jun 2027 02:55:52.087   02 Jun 2027 02:56:03.268            11.181               Magadan1           349.406
       100   02 Jun 2027 02:56:17.848   02 Jun 2027 02:56:21.540             3.692               Magadan2           115.375
       101   02 Jun 2027 02:56:22.999   02 Jun 2027 02:57:06.480            43.481               Magadan1          1358.781
       102   02 Jun 2027 03:00:18.807   02 Jun 2027 03:00:36.965            18.158                Anadyr2           567.438
       103   02 Jun 2027 03:00:36.965   02 Jun 2027 03:00:48.832            11.867                Anadyr1           370.844
       104   02 Jun 2027 03:00:51.419   02 Jun 2027 03:02:10.894            79.475                Anadyr1          2483.594
       105   02 Jun 2027 03:02:32.596   02 Jun 2027 03:03:21.191            48.595               Magadan2          1518.594
       106   02 Jun 2027 04:38:49.268   02 Jun 2027 04:39:11.655            22.387               Magadan1           699.594
       107   02 Jun 2027 04:39:11.655   02 Jun 2027 04:39:27.809            16.154               Magadan2           504.813
       108   02 Jun 2027 04:39:50.097   02 Jun 2027 04:40:07.761            17.664                Anadyr2           552.000
       109   02 Jun 2027 04:40:20.853   02 Jun 2027 04:40:48.081            27.228                Anadyr2           850.875
       110   02 Jun 2027 04:41:34.052   02 Jun 2027 04:41:55.060            21.008               Magadan1           656.500
       111   02 Jun 2027 06:11:43.490   02 Jun 2027 06:11:48.304             4.814               Magadan2           150.437
       112   02 Jun 2027 06:12:03.958   02 Jun 2027 06:13:36.972            93.014               Magadan2          2906.688
       113   02 Jun 2027 06:13:36.972   02 Jun 2027 06:13:48.775            11.803               Magadan1           368.844
       114   02 Jun 2027 06:13:57.452   02 Jun 2027 06:15:25.538            88.086                Anadyr1          2752.688
       115   02 Jun 2027 06:15:38.132   02 Jun 2027 06:16:28.071            49.939               Magadan2          1560.594
       116   02 Jun 2027 06:16:32.467   02 Jun 2027 06:17:44.336            71.869              Murmansk2          2245.906
       117   02 Jun 2027 06:18:01.698   02 Jun 2027 06:18:34.464            32.766              Murmansk2          1023.937
       118   02 Jun 2027 06:52:25.212   02 Jun 2027 06:55:05.235           160.023            RioGallegos          5000.719
       119   02 Jun 2027 07:28:34.774   02 Jun 2027 07:31:04.346           149.572                Sumatra          4674.125
       120   02 Jun 2027 07:49:01.315   02 Jun 2027 07:49:02.291             0.976                Irkutsk            30.500
       121   02 Jun 2027 07:49:31.530   02 Jun 2027 07:52:10.271           158.741                Irkutsk          4960.656
       122   02 Jun 2027 07:52:25.941   02 Jun 2027 07:53:37.363            71.422                Irkutsk          2231.938
       123   02 Jun 2027 07:53:37.377   02 Jun 2027 07:53:45.363             7.986              Murmansk1           249.563
       124   02 Jun 2027 07:56:44.531   02 Jun 2027 07:56:58.740            14.209              Murmansk2           444.031
       125   02 Jun 2027 07:57:40.333   02 Jun 2027 07:58:21.316            40.983              Murmansk2          1280.719
       126   02 Jun 2027 08:29:14.783   02 Jun 2027 08:29:46.656            31.873            RioGallegos           996.031
       127   02 Jun 2027 09:03:31.082   02 Jun 2027 09:04:49.442            78.360                Sumatra          2448.750
       128   02 Jun 2027 09:07:32.642   02 Jun 2027 09:08:34.070            61.428                Sumatra          1919.625
       129   02 Jun 2027 09:11:55.615   02 Jun 2027 09:14:19.556           143.941                  Delhi          4498.156
       130   02 Jun 2027 09:25:25.169   02 Jun 2027 09:25:35.388            10.219                 Moscow           319.344
       131   02 Jun 2027 09:25:53.535   02 Jun 2027 09:26:53.503            59.968                 Moscow          1874.000
       132   02 Jun 2027 09:26:56.377   02 Jun 2027 09:27:54.371            57.994              Murmansk1          1812.312
       133   02 Jun 2027 09:28:06.223   02 Jun 2027 09:29:39.971            93.748                 Moscow          2929.625
       134   02 Jun 2027 10:48:21.379   02 Jun 2027 10:51:34.860           193.481                  Delhi          6046.281
       135   02 Jun 2027 11:00:51.706   02 Jun 2027 11:00:54.976             3.270                Norilsk           102.188
       136   02 Jun 2027 11:01:14.783   02 Jun 2027 11:02:22.043            67.260                Norilsk          2101.875
       137   02 Jun 2027 11:02:26.806   02 Jun 2027 11:02:30.715             3.909                Norilsk           122.156
       138   02 Jun 2027 11:02:33.056   02 Jun 2027 11:02:48.004            14.948                Novosib           467.125
       139   02 Jun 2027 11:02:49.042   02 Jun 2027 11:03:48.276            59.234              Murmansk1          1851.063
       140   02 Jun 2027 11:03:56.305   02 Jun 2027 11:04:15.159            18.854                Norilsk           589.188
       141   02 Jun 2027 11:04:16.813   02 Jun 2027 11:04:22.799             5.986                 Moscow           187.062
       142   02 Jun 2027 11:04:35.861   02 Jun 2027 11:04:43.305             7.444                Novosib           232.625
       143   02 Jun 2027 11:05:03.284   02 Jun 2027 11:05:08.930             5.646                Norilsk           176.438
       144   02 Jun 2027 11:05:14.425   02 Jun 2027 11:05:16.861             2.436              Murmansk2            76.125
       145   02 Jun 2027 11:05:29.896   02 Jun 2027 11:05:54.537            24.641              Murmansk1           770.031
       146   02 Jun 2027 11:06:46.616   02 Jun 2027 11:07:00.301            13.685              Murmansk1           427.656
       147   02 Jun 2027 12:31:51.377   02 Jun 2027 12:35:56.513           245.136                 Moscow          7660.500
       148   02 Jun 2027 12:36:08.788   02 Jun 2027 12:36:41.492            32.704              Murmansk1          1022.000
       149   02 Jun 2027 12:36:41.836   02 Jun 2027 12:38:32.403           110.567              Murmansk2          3455.219
       150   02 Jun 2027 12:40:02.720   02 Jun 2027 12:40:24.895            22.175              Murmansk2           692.969
       151   02 Jun 2027 12:51:45.469   02 Jun 2027 12:55:40.825           235.356                Anadyr1          7354.875
       152   02 Jun 2027 13:56:56.756   02 Jun 2027 13:57:01.083             4.327               CapeTown           135.219
       153   02 Jun 2027 14:13:12.320   02 Jun 2027 14:16:00.843           168.523              Murmansk2          5266.344
       154   02 Jun 2027 14:26:01.483   02 Jun 2027 14:28:02.249           120.766                Anadyr1          3773.938
       155   02 Jun 2027 14:28:37.842   02 Jun 2027 14:30:05.701            87.859                Anadyr2          2745.594
       156   02 Jun 2027 15:21:48.415   02 Jun 2027 15:22:02.531            14.116               CapeTown           441.125
       157   02 Jun 2027 15:53:45.638   02 Jun 2027 15:54:40.459            54.821              Murmansk1          1713.156
       158   02 Jun 2027 15:55:40.489   02 Jun 2027 15:56:34.485            53.996              Murmansk2          1687.375
       159   02 Jun 2027 16:01:46.751   02 Jun 2027 16:03:21.172            94.421                Anadyr2          2950.656
       160   02 Jun 2027 16:03:41.888   02 Jun 2027 16:04:30.061            48.173                Anadyr1          1505.406
       161   02 Jun 2027 16:04:34.584   02 Jun 2027 16:08:26.737           232.153               Magadan1          7254.781
       162   02 Jun 2027 16:10:21.573   02 Jun 2027 16:10:28.584             7.011               Magadan2           219.094
       163   02 Jun 2027 16:13:40.842   02 Jun 2027 16:14:51.085            70.243               Magadan1          2195.094
       164   02 Jun 2027 17:37:42.124   02 Jun 2027 17:38:27.209            45.085                Anadyr1          1408.906
       165   02 Jun 2027 17:38:37.158   02 Jun 2027 17:39:14.795            37.637                Anadyr2          1176.156
       166   02 Jun 2027 17:39:59.343   02 Jun 2027 17:42:00.390           121.047               Magadan1          3782.719
       167   02 Jun 2027 17:47:28.604   02 Jun 2027 17:47:31.688             3.084               Magadan1            96.375
       168   02 Jun 2027 18:32:51.745   02 Jun 2027 18:37:03.555           251.810            RioGallegos          7869.063
       169   02 Jun 2027 18:38:00.098   02 Jun 2027 18:39:19.004            78.906            RioGallegos          2465.812
       170   02 Jun 2027 19:15:36.613   02 Jun 2027 19:19:43.375           246.762                Norilsk          7711.313
       171   02 Jun 2027 19:20:06.850   02 Jun 2027 19:21:20.371            73.521                Irkutsk          2297.531
       172   02 Jun 2027 19:22:31.578   02 Jun 2027 19:23:42.317            70.739                Irkutsk          2210.594
       173   02 Jun 2027 19:34:18.680   02 Jun 2027 19:37:17.038           178.358                Sumatra          5573.687
       174   02 Jun 2027 20:55:19.639   02 Jun 2027 20:56:51.835            92.196                Irkutsk          2881.125
       175   02 Jun 2027 20:57:00.811   02 Jun 2027 20:58:22.947            82.136                Novosib          2566.750
       176   02 Jun 2027 21:04:19.905   02 Jun 2027 21:07:17.464           177.559                  Delhi          5548.719
       177   02 Jun 2027 21:11:08.382   02 Jun 2027 21:11:54.599            46.217                  Delhi          1444.281
       178   02 Jun 2027 22:30:04.912   02 Jun 2027 22:35:59.880           354.968              Murmansk2         11092.750
       179   03 Jun 2027 00:01:19.036   03 Jun 2027 00:01:23.127             4.091               Magadan2           127.844
       180   03 Jun 2027 00:02:15.097   03 Jun 2027 00:03:17.611            62.514               Magadan2          1953.563
       181   03 Jun 2027 00:03:52.417   03 Jun 2027 00:04:09.098            16.681               Magadan2           521.281
       182   03 Jun 2027 00:04:46.419   03 Jun 2027 00:04:49.049             2.630               Magadan2            82.187
       183   03 Jun 2027 00:05:36.760   03 Jun 2027 00:06:32.839            56.079              Murmansk1          1752.469
       184   03 Jun 2027 00:06:33.737   03 Jun 2027 00:07:24.141            50.404              Murmansk2          1575.125
       185   03 Jun 2027 00:08:20.306   03 Jun 2027 00:08:55.951            35.645              Murmansk2          1113.906
       186   03 Jun 2027 00:09:10.117   03 Jun 2027 00:09:47.388            37.271                 Moscow          1164.719
       187   03 Jun 2027 00:10:45.227   03 Jun 2027 00:11:08.987            23.760              Murmansk2           742.500
       188   03 Jun 2027 00:11:57.702   03 Jun 2027 00:12:32.354            34.652                 Moscow          1082.875
       189   03 Jun 2027 00:13:06.975   03 Jun 2027 00:13:35.024            28.049                 Moscow           876.531
       190   03 Jun 2027 00:16:40.601   03 Jun 2027 00:16:45.802             5.201                 Moscow           162.531
       191   03 Jun 2027 00:17:02.077   03 Jun 2027 00:17:19.130            17.053                 Moscow           532.906
       192   03 Jun 2027 00:34:16.748   03 Jun 2027 00:37:17.440           180.692               CapeTown          5646.625
       193   03 Jun 2027 00:39:57.213   03 Jun 2027 00:41:04.538            67.325               CapeTown          2103.906
       194   03 Jun 2027 01:34:06.599   03 Jun 2027 01:35:10.490            63.891               Magadan1          1996.594
       195   03 Jun 2027 01:41:33.781   03 Jun 2027 01:42:28.670            54.889              Murmansk2          1715.281
       196   03 Jun 2027 01:42:28.670   03 Jun 2027 01:43:03.521            34.851              Murmansk1          1089.094
       197   03 Jun 2027 01:44:46.118   03 Jun 2027 01:46:01.655            75.537                 Moscow          2360.531
       198   03 Jun 2027 01:53:20.022   03 Jun 2027 01:53:27.203             7.181                 Moscow           224.406
       199   03 Jun 2027 01:53:34.352   03 Jun 2027 01:54:06.053            31.701                 Moscow           990.656
       200   03 Jun 2027 02:08:48.949   03 Jun 2027 02:10:23.923            94.974               CapeTown          2967.938
       201   03 Jun 2027 03:11:54.204   03 Jun 2027 03:12:34.736            40.532               Magadan2          1266.625
       202   03 Jun 2027 03:12:43.943   03 Jun 2027 03:14:10.975            87.032                Anadyr1          2719.750
       203   03 Jun 2027 03:14:14.276   03 Jun 2027 03:15:10.629            56.353                Anadyr2          1761.031
       204   03 Jun 2027 03:15:25.565   03 Jun 2027 03:15:26.410             0.845               Magadan2            26.406
       205   03 Jun 2027 03:15:29.882   03 Jun 2027 03:15:49.021            19.139                Anadyr2           598.094
       206   03 Jun 2027 03:15:55.593   03 Jun 2027 03:16:22.238            26.645               Magadan2           832.656
       207   03 Jun 2027 03:16:24.996   03 Jun 2027 03:17:04.317            39.321                Anadyr2          1228.781
       208   03 Jun 2027 03:17:17.435   03 Jun 2027 03:17:57.024            39.589               Magadan1          1237.156
       209   03 Jun 2027 04:50:42.689   03 Jun 2027 04:50:45.602             2.913               Magadan1            91.031
       210   03 Jun 2027 04:51:25.402   03 Jun 2027 04:51:42.591            17.189                Irkutsk           537.156
       211   03 Jun 2027 04:51:48.399   03 Jun 2027 04:53:56.970           128.571                Anadyr1          4017.844
       212   03 Jun 2027 05:32:13.229   03 Jun 2027 05:33:35.769            82.540            RioGallegos          2579.375
       213   03 Jun 2027 06:23:51.558   03 Jun 2027 06:24:19.919            28.361               Magadan2           886.281
       214   03 Jun 2027 06:24:43.495   03 Jun 2027 06:25:00.645            17.150                Norilsk           535.938
       215   03 Jun 2027 06:25:06.920   03 Jun 2027 06:25:10.832             3.912                Norilsk           122.250
       216   03 Jun 2027 06:25:19.558   03 Jun 2027 06:27:24.814           125.256                Irkutsk          3914.250
       217   03 Jun 2027 06:27:41.248   03 Jun 2027 06:28:42.834            61.586               Magadan1          1924.562
       218   03 Jun 2027 06:28:48.356   03 Jun 2027 06:29:15.424            27.068              Murmansk1           845.875
       219   03 Jun 2027 06:29:18.948   03 Jun 2027 06:29:44.574            25.626              Murmansk2           800.813
       220   03 Jun 2027 06:30:32.408   03 Jun 2027 06:31:00.085            27.677              Murmansk2           864.906
       221   03 Jun 2027 06:31:50.563   03 Jun 2027 06:31:52.742             2.179              Murmansk1            68.094
       222   03 Jun 2027 06:32:40.134   03 Jun 2027 06:32:48.832             8.698              Murmansk1           271.812
       223   03 Jun 2027 06:34:03.643   03 Jun 2027 06:34:08.319             4.676              Murmansk1           146.125
       224   03 Jun 2027 07:04:21.083   03 Jun 2027 07:05:47.791            86.708            RioGallegos          2709.625
       225   03 Jun 2027 07:40:04.981   03 Jun 2027 07:41:11.211            66.230                Sumatra          2069.687
       226   03 Jun 2027 07:41:35.506   03 Jun 2027 07:43:28.621           113.115                Sumatra          3534.844
       227   03 Jun 2027 08:00:50.454   03 Jun 2027 08:01:05.576            15.122                Novosib           472.562
       228   03 Jun 2027 08:01:33.959   03 Jun 2027 08:01:56.516            22.557                Irkutsk           704.906
       229   03 Jun 2027 08:02:22.968   03 Jun 2027 08:02:33.940            10.972                Norilsk           342.875
       230   03 Jun 2027 08:02:38.507   03 Jun 2027 08:03:00.710            22.203              Murmansk2           693.844
       231   03 Jun 2027 08:03:04.329   03 Jun 2027 08:04:11.733            67.404                Novosib          2106.375
       232   03 Jun 2027 08:04:19.247   03 Jun 2027 08:04:36.981            17.734                Irkutsk           554.188
       233   03 Jun 2027 08:04:45.247   03 Jun 2027 08:05:07.867            22.620                Novosib           706.875
       234   03 Jun 2027 08:05:11.459   03 Jun 2027 08:05:18.281             6.822              Murmansk1           213.188
       235   03 Jun 2027 08:05:20.565   03 Jun 2027 08:05:48.769            28.204                Norilsk           881.375
       236   03 Jun 2027 08:06:04.852   03 Jun 2027 08:07:06.497            61.645                Novosib          1926.406
       237   03 Jun 2027 08:41:41.475   03 Jun 2027 08:41:53.481            12.006            RioGallegos           375.188
       238   03 Jun 2027 08:45:01.526   03 Jun 2027 08:45:46.718            45.192            RioGallegos          1412.250
       239   03 Jun 2027 09:15:53.742   03 Jun 2027 09:16:42.946            49.204                Sumatra          1537.625
       240   03 Jun 2027 09:25:14.802   03 Jun 2027 09:26:30.156            75.354                  Delhi          2354.812
       241   03 Jun 2027 09:31:37.775   03 Jun 2027 09:32:32.225            54.450                  Delhi          1701.563
       242   03 Jun 2027 09:36:54.847   03 Jun 2027 09:37:09.484            14.637              Murmansk2           457.406
       243   03 Jun 2027 09:37:18.218   03 Jun 2027 09:37:48.367            30.149                Irkutsk           942.156
       244   03 Jun 2027 09:37:55.524   03 Jun 2027 09:38:33.895            38.371                Irkutsk          1199.094
       245   03 Jun 2027 09:38:41.146   03 Jun 2027 09:38:54.302            13.156              Murmansk1           411.125
       246   03 Jun 2027 09:39:00.139   03 Jun 2027 09:40:25.228            85.089                 Moscow          2659.031
       247   03 Jun 2027 09:40:40.646   03 Jun 2027 09:40:45.730             5.084                Novosib           158.875
       248   03 Jun 2027 09:40:46.550   03 Jun 2027 09:41:34.289            47.739              Murmansk2          1491.844
       249   03 Jun 2027 11:00:57.855   03 Jun 2027 11:03:14.554           136.699                  Delhi          4271.844
       250   03 Jun 2027 11:03:19.355   03 Jun 2027 11:04:03.446            44.091                  Delhi          1377.844
       251   03 Jun 2027 11:13:08.480   03 Jun 2027 11:13:25.485            17.005              Murmansk1           531.406
       252   03 Jun 2027 11:13:30.484   03 Jun 2027 11:13:43.063            12.579              Murmansk1           393.094
       253   03 Jun 2027 11:13:45.654   03 Jun 2027 11:14:23.443            37.789                Novosib          1180.906
       254   03 Jun 2027 11:14:28.548   03 Jun 2027 11:14:32.406             3.858                Norilsk           120.562
       255   03 Jun 2027 11:14:36.003   03 Jun 2027 11:14:51.115            15.112                Novosib           472.250
       256   03 Jun 2027 11:14:58.854   03 Jun 2027 11:16:10.758            71.904              Murmansk1          2247.000
       257   03 Jun 2027 11:16:13.500   03 Jun 2027 11:16:27.713            14.213              Murmansk2           444.156
       258   03 Jun 2027 11:16:27.714   03 Jun 2027 11:17:05.307            37.593                 Moscow          1174.781
       259   03 Jun 2027 11:17:12.274   03 Jun 2027 11:17:30.711            18.437              Murmansk2           576.156
       260   03 Jun 2027 11:17:30.711   03 Jun 2027 11:17:56.197            25.486              Murmansk1           796.438
       261   03 Jun 2027 11:20:37.668   03 Jun 2027 11:20:40.006             2.338                 Moscow            73.063
       262   03 Jun 2027 12:44:01.192   03 Jun 2027 12:45:19.337            78.145                 Moscow          2442.031
       263   03 Jun 2027 12:46:59.867   03 Jun 2027 12:47:51.950            52.083                 Moscow          1627.594
       264   03 Jun 2027 12:48:09.843   03 Jun 2027 12:49:28.045            78.202              Murmansk2          2443.812
       265   03 Jun 2027 12:49:28.045   03 Jun 2027 12:50:44.020            75.975              Murmansk1          2374.219
       266   03 Jun 2027 12:51:08.234   03 Jun 2027 12:52:04.174            55.940              Murmansk2          1748.125
       267   03 Jun 2027 12:53:14.616   03 Jun 2027 12:53:31.224            16.608              Murmansk2           519.000
       268   03 Jun 2027 12:56:01.913   03 Jun 2027 12:56:22.700            20.787                Norilsk           649.594
       269   03 Jun 2027 13:03:14.244   03 Jun 2027 13:06:41.137           206.893                Anadyr1          6465.406
       270   03 Jun 2027 13:07:10.046   03 Jun 2027 13:08:51.942           101.896                Anadyr2          3184.250
       271   03 Jun 2027 14:25:37.573   03 Jun 2027 14:26:42.230            64.657              Murmansk1          2020.531
       272   03 Jun 2027 14:28:02.444   03 Jun 2027 14:28:33.310            30.866              Murmansk2           964.563
       273   03 Jun 2027 14:37:59.874   03 Jun 2027 14:41:09.883           190.009                Anadyr2          5937.781
       274   03 Jun 2027 16:06:44.644   03 Jun 2027 16:09:35.879           171.235              Murmansk2          5351.094
       275   03 Jun 2027 16:13:47.964   03 Jun 2027 16:14:01.775            13.811                Anadyr2           431.594
       276   03 Jun 2027 16:14:01.775   03 Jun 2027 16:15:23.326            81.551                Anadyr1          2548.469
       277   03 Jun 2027 16:15:48.704   03 Jun 2027 16:16:27.970            39.266                Anadyr1          1227.062
       278   03 Jun 2027 16:16:27.990   03 Jun 2027 16:19:03.550           155.560               Magadan1          4861.250
       279   03 Jun 2027 16:19:09.827   03 Jun 2027 16:20:24.135            74.308               Magadan2          2322.125
       280   03 Jun 2027 16:23:49.699   03 Jun 2027 16:24:34.645            44.946               Magadan1          1404.563
       281   03 Jun 2027 17:49:43.053   03 Jun 2027 17:51:29.235           106.182                Anadyr1          3318.187
       282   03 Jun 2027 17:51:59.995   03 Jun 2027 17:53:53.475           113.480               Magadan1          3546.250
       283   03 Jun 2027 17:53:53.475   03 Jun 2027 17:54:52.480            59.005               Magadan2          1843.906
       284   03 Jun 2027 18:44:31.554   03 Jun 2027 18:50:54.164           382.610            RioGallegos         11956.563
       285   03 Jun 2027 19:27:35.856   03 Jun 2027 19:28:11.973            36.117                Norilsk          1128.656
       286   03 Jun 2027 19:28:52.440   03 Jun 2027 19:29:28.061            35.621                Norilsk          1113.156
       287   03 Jun 2027 19:30:28.780   03 Jun 2027 19:31:44.165            75.385                Norilsk          2355.781
       288   03 Jun 2027 19:31:56.429   03 Jun 2027 19:33:06.759            70.330                Irkutsk          2197.813
       289   03 Jun 2027 19:33:30.043   03 Jun 2027 19:34:38.359            68.316                Irkutsk          2134.875
       290   03 Jun 2027 19:45:53.401   03 Jun 2027 19:47:48.424           115.023                Sumatra          3594.469
       291   03 Jun 2027 19:48:55.162   03 Jun 2027 19:50:20.456            85.294                Sumatra          2665.438
       292   03 Jun 2027 21:07:38.246   03 Jun 2027 21:07:56.366            18.120                Novosib           566.250
       293   03 Jun 2027 21:09:27.426   03 Jun 2027 21:10:28.015            60.589                Novosib          1893.406
       294   03 Jun 2027 21:14:28.846   03 Jun 2027 21:15:03.497            34.651                Novosib          1082.844
       295   03 Jun 2027 21:15:48.632   03 Jun 2027 21:18:08.883           140.251                  Delhi          4382.844
       296   03 Jun 2027 21:21:42.741   03 Jun 2027 21:22:39.339            56.598                  Delhi          1768.688
       297   03 Jun 2027 22:39:29.474   03 Jun 2027 22:39:41.503            12.029                Norilsk           375.906
       298   03 Jun 2027 22:39:47.920   03 Jun 2027 22:40:05.791            17.871               Magadan2           558.469
       299   03 Jun 2027 22:40:31.853   03 Jun 2027 22:41:14.566            42.713               Magadan1          1334.781
       300   03 Jun 2027 22:41:59.205   03 Jun 2027 22:47:48.549           349.344              Murmansk2         10917.000
       301   03 Jun 2027 22:47:49.866   03 Jun 2027 22:51:37.454           227.588                 Moscow          7112.125
       302   04 Jun 2027 00:17:37.769   04 Jun 2027 00:18:05.350            27.581              Murmansk2           861.906
       303   04 Jun 2027 00:18:19.736   04 Jun 2027 00:19:08.667            48.931              Murmansk1          1529.094
       304   04 Jun 2027 00:20:57.535   04 Jun 2027 00:21:22.596            25.061              Murmansk2           783.156
       305   04 Jun 2027 00:21:44.702   04 Jun 2027 00:22:19.052            34.350                 Moscow          1073.437
       306   04 Jun 2027 00:23:03.004   04 Jun 2027 00:23:24.056            21.052                 Moscow           657.875
       307   04 Jun 2027 00:24:03.202   04 Jun 2027 00:24:59.431            56.229                 Moscow          1757.156
       308   04 Jun 2027 00:29:20.130   04 Jun 2027 00:29:45.950            25.820                 Moscow           806.875
       309   04 Jun 2027 00:45:48.353   04 Jun 2027 00:46:51.144            62.791               CapeTown          1962.219
       310   04 Jun 2027 00:47:25.144   04 Jun 2027 00:48:35.855            70.711               CapeTown          2209.719
       311   04 Jun 2027 00:56:24.693   04 Jun 2027 00:56:31.713             7.020               CapeTown           219.375
       312   04 Jun 2027 01:44:31.623   04 Jun 2027 01:45:33.904            62.281               Magadan1          1946.281
       313   04 Jun 2027 01:45:33.904   04 Jun 2027 01:45:45.761            11.857               Magadan2           370.531
       314   04 Jun 2027 01:47:07.112   04 Jun 2027 01:47:13.157             6.045               Magadan2           188.906
       315   04 Jun 2027 01:48:31.663   04 Jun 2027 01:49:03.393            31.730               Magadan2           991.562
       316   04 Jun 2027 01:52:02.836   04 Jun 2027 01:52:16.256            13.420               Magadan1           419.375
       317   04 Jun 2027 01:52:16.256   04 Jun 2027 01:52:19.827             3.571               Magadan2           111.594
       318   04 Jun 2027 01:52:49.549   04 Jun 2027 01:52:52.360             2.811                Norilsk            87.844
       319   04 Jun 2027 01:52:53.646   04 Jun 2027 01:53:19.226            25.580               Magadan2           799.375
       320   04 Jun 2027 01:53:35.439   04 Jun 2027 01:55:05.157            89.718              Murmansk2          2803.687
       321   04 Jun 2027 01:56:39.899   04 Jun 2027 01:56:50.361            10.462              Murmansk1           326.938
       322   04 Jun 2027 01:56:51.911   04 Jun 2027 01:57:12.059            20.148                Novosib           629.625
       323   04 Jun 2027 01:58:37.857   04 Jun 2027 01:58:46.723             8.866                Novosib           277.062
       324   04 Jun 2027 02:00:33.155   04 Jun 2027 02:00:49.053            15.898                 Moscow           496.813
       325   04 Jun 2027 02:05:30.302   04 Jun 2027 02:05:32.280             1.978                 Moscow            61.812
       326   04 Jun 2027 02:06:16.511   04 Jun 2027 02:06:49.669            33.158                 Moscow          1036.188
       327   04 Jun 2027 02:21:03.478   04 Jun 2027 02:22:19.357            75.879               CapeTown          2371.219
       328   04 Jun 2027 02:31:30.821   04 Jun 2027 02:31:49.624            18.803               CapeTown           587.594
       329   04 Jun 2027 03:25:27.380   04 Jun 2027 03:26:00.423            33.043               Magadan2          1032.594
       330   04 Jun 2027 03:26:00.423   04 Jun 2027 03:26:56.996            56.573               Magadan1          1767.906
       331   04 Jun 2027 03:26:56.996   04 Jun 2027 03:27:00.910             3.914               Magadan2           122.313
       332   04 Jun 2027 03:27:04.085   04 Jun 2027 03:27:27.551            23.466                Anadyr2           733.313
       333   04 Jun 2027 03:27:27.551   04 Jun 2027 03:29:02.624            95.073                Anadyr1          2971.031
       334   04 Jun 2027 03:29:02.624   04 Jun 2027 03:30:19.180            76.556                Anadyr2          2392.375
       335   04 Jun 2027 05:00:50.525   04 Jun 2027 05:00:56.122             5.597                Irkutsk           174.906
       336   04 Jun 2027 05:02:30.494   04 Jun 2027 05:03:10.624            40.130               Magadan2          1254.063
       337   04 Jun 2027 05:04:39.981   04 Jun 2027 05:05:44.131            64.150                Anadyr2          2004.687
       338   04 Jun 2027 06:35:40.138   04 Jun 2027 06:35:54.798            14.660               Magadan1           458.125
       339   04 Jun 2027 06:36:05.296   04 Jun 2027 06:36:30.098            24.802               Magadan2           775.062
       340   04 Jun 2027 06:36:32.235   04 Jun 2027 06:37:00.390            28.155                Norilsk           879.844
       341   04 Jun 2027 06:37:01.927   04 Jun 2027 06:37:15.563            13.636                Irkutsk           426.125
       342   04 Jun 2027 06:37:18.488   04 Jun 2027 06:37:30.685            12.197               Magadan1           381.156
       343   04 Jun 2027 06:37:37.786   04 Jun 2027 06:38:07.626            29.840                Norilsk           932.500
       344   04 Jun 2027 06:38:08.862   04 Jun 2027 06:39:27.937            79.075               Magadan1          2471.094
       345   04 Jun 2027 06:39:44.283   04 Jun 2027 06:40:34.229            49.946               Magadan2          1560.812
       346   04 Jun 2027 06:40:40.155   04 Jun 2027 06:40:53.039            12.884                Novosib           402.625
       347   04 Jun 2027 06:41:00.765   04 Jun 2027 06:41:12.667            11.902               Magadan1           371.937
       348   04 Jun 2027 06:41:18.501   04 Jun 2027 06:41:44.855            26.354                Norilsk           823.562
       349   04 Jun 2027 06:41:45.086   04 Jun 2027 06:41:56.804            11.718              Murmansk2           366.187
       350   04 Jun 2027 06:41:56.804   04 Jun 2027 06:42:53.918            57.114              Murmansk1          1784.813
       351   04 Jun 2027 07:16:20.191   04 Jun 2027 07:16:51.711            31.520            RioGallegos           985.000
       352   04 Jun 2027 07:18:15.727   04 Jun 2027 07:18:30.142            14.415            RioGallegos           450.469
       353   04 Jun 2027 07:51:43.720   04 Jun 2027 07:53:59.198           135.478                Sumatra          4233.687
       354   04 Jun 2027 08:04:43.701   04 Jun 2027 08:05:40.844            57.143                  Delhi          1785.719
       355   04 Jun 2027 08:07:38.705   04 Jun 2027 08:08:29.376            50.671                  Delhi          1583.469
       356   04 Jun 2027 08:11:22.266   04 Jun 2027 08:11:41.169            18.903                Norilsk           590.719
       357   04 Jun 2027 08:11:57.223   04 Jun 2027 08:12:49.981            52.758                Norilsk          1648.687
       358   04 Jun 2027 08:13:20.121   04 Jun 2027 08:13:26.258             6.137                Irkutsk           191.781
       359   04 Jun 2027 08:13:35.590   04 Jun 2027 08:15:10.125            94.535                Irkutsk          2954.219
       360   04 Jun 2027 08:15:17.391   04 Jun 2027 08:15:51.972            34.581                Irkutsk          1080.656
       361   04 Jun 2027 08:15:59.593   04 Jun 2027 08:16:46.455            46.862                Irkutsk          1464.438
       362   04 Jun 2027 08:17:02.050   04 Jun 2027 08:17:41.469            39.419                Novosib          1231.844
       363   04 Jun 2027 08:22:24.063   04 Jun 2027 08:22:38.693            14.630              Murmansk1           457.188
       364   04 Jun 2027 08:54:13.990   04 Jun 2027 08:54:52.938            38.948            RioGallegos          1217.125
       365   04 Jun 2027 08:55:26.467   04 Jun 2027 08:55:40.402            13.935            RioGallegos           435.469
       366   04 Jun 2027 08:57:41.660   04 Jun 2027 08:58:03.875            22.215            RioGallegos           694.219
       367   04 Jun 2027 09:28:26.052   04 Jun 2027 09:28:42.103            16.051                Sumatra           501.594
       368   04 Jun 2027 09:31:23.605   04 Jun 2027 09:31:51.477            27.872                Sumatra           871.000
       369   04 Jun 2027 09:32:55.266   04 Jun 2027 09:33:04.163             8.897                Sumatra           278.031
       370   04 Jun 2027 09:35:24.770   04 Jun 2027 09:37:13.385           108.615                Sumatra          3394.219
       371   04 Jun 2027 09:49:14.902   04 Jun 2027 09:49:44.235            29.333                 Moscow           916.656
       372   04 Jun 2027 09:50:05.002   04 Jun 2027 09:50:32.886            27.884              Murmansk1           871.375
       373   04 Jun 2027 09:50:35.442   04 Jun 2027 09:51:03.335            27.893                Novosib           871.656
       374   04 Jun 2027 09:51:10.944   04 Jun 2027 09:51:13.939             2.995                Irkutsk            93.594
       375   04 Jun 2027 09:51:28.828   04 Jun 2027 09:51:35.240             6.412                Norilsk           200.375
       376   04 Jun 2027 09:51:35.711   04 Jun 2027 09:52:04.194            28.483              Murmansk2           890.094
       377   04 Jun 2027 09:52:14.403   04 Jun 2027 09:52:42.349            27.946              Murmansk2           873.312
       378   04 Jun 2027 09:52:42.349   04 Jun 2027 09:53:35.973            53.624              Murmansk1          1675.750
       379   04 Jun 2027 11:13:47.706   04 Jun 2027 11:15:00.233            72.527                  Delhi          2266.469
       380   04 Jun 2027 11:15:59.516   04 Jun 2027 11:17:10.257            70.741                  Delhi          2210.656
       381   04 Jun 2027 11:24:56.733   04 Jun 2027 11:25:17.843            21.110              Murmansk1           659.688
       382   04 Jun 2027 11:25:29.033   04 Jun 2027 11:25:38.693             9.660                Norilsk           301.875
       383   04 Jun 2027 11:26:06.536   04 Jun 2027 11:26:17.881            11.345                 Moscow           354.531
       384   04 Jun 2027 11:26:32.611   04 Jun 2027 11:26:51.215            18.604                 Moscow           581.375
       385   04 Jun 2027 11:26:53.709   04 Jun 2027 11:27:03.025             9.316                Novosib           291.125
       386   04 Jun 2027 11:27:06.482   04 Jun 2027 11:27:41.805            35.323                Norilsk          1103.844
       387   04 Jun 2027 11:27:53.360   04 Jun 2027 11:28:17.337            23.977              Murmansk2           749.281
       388   04 Jun 2027 11:28:19.324   04 Jun 2027 11:28:39.184            19.860                Norilsk           620.625
       389   04 Jun 2027 11:28:53.093   04 Jun 2027 11:29:24.465            31.372                Novosib           980.375
       390   04 Jun 2027 11:29:24.631   04 Jun 2027 11:29:35.064            10.433                 Moscow           326.031
       391   04 Jun 2027 11:29:37.939   04 Jun 2027 11:30:26.850            48.911                 Moscow          1528.469
       392   04 Jun 2027 12:36:51.245   04 Jun 2027 12:38:40.702           109.457               CapeTown          3420.531
       393   04 Jun 2027 12:41:20.058   04 Jun 2027 12:41:51.760            31.702               CapeTown           990.688
       394   04 Jun 2027 12:56:14.353   04 Jun 2027 12:57:18.064            63.711                 Moscow          1990.969
       395   04 Jun 2027 12:59:42.343   04 Jun 2027 13:00:45.389            63.046              Murmansk1          1970.187
       396   04 Jun 2027 13:01:27.408   04 Jun 2027 13:03:03.748            96.340              Murmansk2          3010.625
       397   04 Jun 2027 13:04:05.740   04 Jun 2027 13:04:32.049            26.309              Murmansk2           822.156
       398   04 Jun 2027 13:04:46.286   04 Jun 2027 13:05:23.589            37.303              Murmansk1          1165.719
       399   04 Jun 2027 13:14:55.459   04 Jun 2027 13:21:35.131           399.672                Anadyr1         12489.750
       400   04 Jun 2027 14:49:58.930   04 Jun 2027 14:51:48.083           109.153                Anadyr1          3411.031
       401   04 Jun 2027 14:52:35.539   04 Jun 2027 14:53:11.191            35.652                Anadyr2          1114.125
       402   04 Jun 2027 15:47:35.544   04 Jun 2027 15:48:42.542            66.998               CapeTown          2093.687
       403   04 Jun 2027 16:20:02.814   04 Jun 2027 16:21:35.107            92.293              Murmansk2          2884.156
       404   04 Jun 2027 16:25:49.276   04 Jun 2027 16:27:21.928            92.652                Anadyr2          2895.375
       405   04 Jun 2027 16:27:40.850   04 Jun 2027 16:28:14.544            33.694                Anadyr1          1052.938
       406   04 Jun 2027 16:28:23.065   04 Jun 2027 16:33:27.418           304.353               Magadan2          9511.031
       407   04 Jun 2027 18:01:43.765   04 Jun 2027 18:03:29.038           105.273                Anadyr2          3289.781
       408   04 Jun 2027 18:04:01.028   04 Jun 2027 18:07:03.095           182.067               Magadan2          5689.594
       409   04 Jun 2027 18:07:15.915   04 Jun 2027 18:08:15.388            59.473                Norilsk          1858.531
       410   04 Jun 2027 18:56:16.642   04 Jun 2027 18:58:41.557           144.915            RioGallegos          4528.594
       411   04 Jun 2027 18:59:58.151   04 Jun 2027 19:00:29.828            31.677            RioGallegos           989.906
       412   04 Jun 2027 19:00:36.749   04 Jun 2027 19:00:41.522             4.773            RioGallegos           149.156
       413   04 Jun 2027 19:40:03.060   04 Jun 2027 19:41:09.288            66.228               Magadan2          2069.625
       414   04 Jun 2027 19:41:16.133   04 Jun 2027 19:41:54.919            38.786               Magadan2          1212.062
       415   04 Jun 2027 19:42:50.764   04 Jun 2027 19:43:30.421            39.657               Magadan2          1239.281
       416   04 Jun 2027 19:43:45.274   04 Jun 2027 19:45:04.048            78.774                Norilsk          2461.688
       417   04 Jun 2027 19:45:34.830   04 Jun 2027 19:46:34.150            59.320                Irkutsk          1853.750
       418   04 Jun 2027 19:46:34.162   04 Jun 2027 19:49:21.635           167.473                Novosib          5233.531
       419   04 Jun 2027 19:57:35.777   04 Jun 2027 20:00:08.065           152.288                Sumatra          4759.000
       420   04 Jun 2027 20:01:26.712   04 Jun 2027 20:02:08.376            41.664                Sumatra          1302.000
       421   04 Jun 2027 21:19:33.808   04 Jun 2027 21:20:11.127            37.319                Novosib          1166.219
       422   04 Jun 2027 21:20:58.302   04 Jun 2027 21:21:32.783            34.481                Novosib          1077.531
       423   04 Jun 2027 21:21:49.596   04 Jun 2027 21:22:33.639            44.043                Novosib          1376.344
       424   04 Jun 2027 21:24:59.924   04 Jun 2027 21:25:45.779            45.855                Novosib          1432.969
       425   04 Jun 2027 21:27:26.073   04 Jun 2027 21:30:21.131           175.058                  Delhi          5470.562
       426   04 Jun 2027 22:51:40.127   04 Jun 2027 22:52:13.797            33.670               Magadan2          1052.188
       427   04 Jun 2027 22:52:13.797   04 Jun 2027 22:52:20.558             6.761               Magadan1           211.281
       428   04 Jun 2027 22:53:02.734   04 Jun 2027 22:53:07.368             4.634               Magadan2           144.812
       429   04 Jun 2027 22:53:55.377   04 Jun 2027 22:58:13.646           258.269              Murmansk2          8070.906
       430   04 Jun 2027 22:58:57.291   04 Jun 2027 23:04:42.310           345.019                 Moscow         10781.844
       431   05 Jun 2027 00:29:38.998   05 Jun 2027 00:31:05.461            86.463              Murmansk1          2701.969
       432   05 Jun 2027 00:32:31.277   05 Jun 2027 00:32:59.039            27.762              Murmansk1           867.563
       433   05 Jun 2027 00:33:02.000   05 Jun 2027 00:35:03.664           121.664                 Moscow          3802.000
       434   05 Jun 2027 00:57:26.272   05 Jun 2027 00:58:49.622            83.350               CapeTown          2604.687
       435   05 Jun 2027 01:09:22.234   05 Jun 2027 01:09:23.020             0.786               CapeTown            24.563
       436   05 Jun 2027 01:54:31.058   05 Jun 2027 01:54:58.179            27.121                Anadyr1           847.531
       437   05 Jun 2027 01:55:35.750   05 Jun 2027 01:55:38.034             2.284                Anadyr2            71.375
       438   05 Jun 2027 01:55:43.321   05 Jun 2027 01:55:47.302             3.981                Anadyr1           124.406
       439   05 Jun 2027 01:56:06.202   05 Jun 2027 01:57:46.800           100.598               Magadan2          3143.687
       440   05 Jun 2027 01:59:02.459   05 Jun 2027 01:59:07.771             5.312               Magadan2           166.000
       441   05 Jun 2027 01:59:47.918   05 Jun 2027 01:59:56.051             8.133               Magadan1           254.156
       442   05 Jun 2027 02:01:02.043   05 Jun 2027 02:01:16.540            14.497               Magadan2           453.031
       443   05 Jun 2027 02:01:36.825   05 Jun 2027 02:01:37.583             0.758               Magadan1            23.687
       444   05 Jun 2027 02:01:47.634   05 Jun 2027 02:02:26.959            39.325               Magadan2          1228.906
       445   05 Jun 2027 02:05:37.031   05 Jun 2027 02:07:20.049           103.018              Murmansk1          3219.313
       446   05 Jun 2027 02:08:50.877   05 Jun 2027 02:09:18.246            27.369                 Moscow           855.281
       447   05 Jun 2027 02:12:20.215   05 Jun 2027 02:12:40.508            20.293                 Moscow           634.156
       448   05 Jun 2027 02:16:02.645   05 Jun 2027 02:17:36.539            93.894                 Moscow          2934.188
       449   05 Jun 2027 02:43:20.658   05 Jun 2027 02:43:46.685            26.027               CapeTown           813.344
       450   05 Jun 2027 03:35:34.235   05 Jun 2027 03:36:39.166            64.931                Anadyr2          2029.094
       451   05 Jun 2027 03:36:43.283   05 Jun 2027 03:38:16.644            93.361                Anadyr1          2917.531
       452   05 Jun 2027 03:38:16.644   05 Jun 2027 03:38:44.445            27.801                Anadyr2           868.781
       453   05 Jun 2027 03:38:58.657   05 Jun 2027 03:38:59.832             1.175                Anadyr2            36.719
       454   05 Jun 2027 03:39:17.381   05 Jun 2027 03:39:41.119            23.738                Anadyr2           741.812
       455   05 Jun 2027 03:40:56.190   05 Jun 2027 03:41:21.539            25.349               Magadan2           792.156
       456   05 Jun 2027 04:23:24.590   05 Jun 2027 04:24:27.548            62.958            RioGallegos          1967.438
       457   05 Jun 2027 05:14:39.649   05 Jun 2027 05:15:42.595            62.946                Anadyr2          1967.062
       458   05 Jun 2027 05:16:13.352   05 Jun 2027 05:16:38.599            25.247                Anadyr2           788.969
       459   05 Jun 2027 05:16:45.678   05 Jun 2027 05:16:45.714             0.036                Irkutsk             1.125
       460   05 Jun 2027 05:17:36.788   05 Jun 2027 05:17:55.704            18.916               Magadan1           591.125
       461   05 Jun 2027 05:21:47.414   05 Jun 2027 05:22:10.707            23.293                Norilsk           727.906
       462   05 Jun 2027 06:46:58.734   05 Jun 2027 06:47:21.392            22.658                Irkutsk           708.062
       463   05 Jun 2027 06:47:39.416   05 Jun 2027 06:48:20.096            40.680                Irkutsk          1271.250
       464   05 Jun 2027 06:48:22.722   05 Jun 2027 06:48:25.325             2.603                Novosib            81.344
       465   05 Jun 2027 06:48:58.866   05 Jun 2027 06:50:13.897            75.031                Novosib          2344.719
       466   05 Jun 2027 06:50:28.621   05 Jun 2027 06:51:30.876            62.255                Irkutsk          1945.469
       467   05 Jun 2027 06:51:47.220   05 Jun 2027 06:52:14.255            27.035               Magadan2           844.844
       468   05 Jun 2027 06:52:27.792   05 Jun 2027 06:53:01.232            33.440               Magadan2          1045.000
       469   05 Jun 2027 06:53:22.655   05 Jun 2027 06:53:55.124            32.469              Murmansk1          1014.656
       470   05 Jun 2027 06:53:58.991   05 Jun 2027 06:54:14.252            15.261                Norilsk           476.906
       471   05 Jun 2027 06:54:24.390   05 Jun 2027 06:54:48.479            24.089              Murmansk1           752.781
       472   05 Jun 2027 07:28:22.600   05 Jun 2027 07:28:23.166             0.566            RioGallegos            17.687
       473   05 Jun 2027 07:28:51.893   05 Jun 2027 07:30:09.533            77.640            RioGallegos          2426.250
       474   05 Jun 2027 08:03:29.452   05 Jun 2027 08:04:46.543            77.091                Sumatra          2409.094
       475   05 Jun 2027 08:06:15.211   05 Jun 2027 08:07:13.691            58.480                Sumatra          1827.500
       476   05 Jun 2027 08:15:16.415   05 Jun 2027 08:17:05.687           109.272                  Delhi          3414.750
       477   05 Jun 2027 08:19:58.250   05 Jun 2027 08:20:15.427            17.177                  Delhi           536.781
       478   05 Jun 2027 08:23:57.464   05 Jun 2027 08:24:19.962            22.498                Irkutsk           703.063
       479   05 Jun 2027 08:24:32.887   05 Jun 2027 08:24:46.496            13.609                Novosib           425.281
       480   05 Jun 2027 08:24:47.855   05 Jun 2027 08:24:51.192             3.337                Irkutsk           104.281
       481   05 Jun 2027 08:25:11.106   05 Jun 2027 08:25:59.745            48.639                Irkutsk          1519.969
       482   05 Jun 2027 08:26:07.281   05 Jun 2027 08:26:08.177             0.896                Norilsk            28.000
