uniorb/output/strategy_2/Drop/Drop_KinoSat_110808.txt

KinoSat_110808
-------------------------
    Access    *     Start Time (UTCG)     *     Stop Time (UTCG)  *   Duration (s)        *       Station  *  Data (Mbytes)
         1   01 Jun 2027 03:06:54.669   01 Jun 2027 03:07:19.043            24.374                Anadyr2           761.687
         2   01 Jun 2027 03:07:34.505   01 Jun 2027 03:09:22.741           108.236                Anadyr1          3382.375
         3   01 Jun 2027 03:09:54.099   01 Jun 2027 03:11:07.687            73.588               Magadan2          2299.625
         4   01 Jun 2027 03:12:02.485   01 Jun 2027 03:12:20.037            17.552               Magadan2           548.500
         5   01 Jun 2027 03:12:47.740   01 Jun 2027 03:13:05.032            17.292               Magadan2           540.375
         6   01 Jun 2027 04:46:38.281   01 Jun 2027 04:47:18.040            39.759               Magadan2          1242.469
         7   01 Jun 2027 04:47:18.040   01 Jun 2027 04:47:27.123             9.083               Magadan1           283.844
         8   01 Jun 2027 04:47:27.123   01 Jun 2027 04:47:46.184            19.061               Magadan2           595.656
         9   01 Jun 2027 04:47:46.184   01 Jun 2027 04:49:04.545            78.361               Magadan1          2448.781
        10   01 Jun 2027 05:26:50.943   01 Jun 2027 05:28:52.569           121.626            RioGallegos          3800.812
        11   01 Jun 2027 06:20:44.539   01 Jun 2027 06:20:47.538             2.999               Magadan1            93.719
        12   01 Jun 2027 06:21:11.236   01 Jun 2027 06:22:41.291            90.055                Irkutsk          2814.219
        13   01 Jun 2027 06:22:48.587   01 Jun 2027 06:24:33.069           104.482               Magadan2          3265.063
        14   01 Jun 2027 06:24:48.567   01 Jun 2027 06:25:24.808            36.241                Norilsk          1132.531
        15   01 Jun 2027 06:29:21.998   01 Jun 2027 06:29:45.024            23.026                Norilsk           719.563
        16   01 Jun 2027 07:35:24.886   01 Jun 2027 07:38:28.863           183.977                Sumatra          5749.281
        17   01 Jun 2027 07:56:42.065   01 Jun 2027 07:57:32.391            50.326                Irkutsk          1572.688
        18   01 Jun 2027 07:57:35.067   01 Jun 2027 07:57:42.788             7.721                Norilsk           241.281
        19   01 Jun 2027 07:57:50.428   01 Jun 2027 07:58:28.765            38.337                Novosib          1198.031
        20   01 Jun 2027 07:58:54.564   01 Jun 2027 08:00:46.569           112.005              Murmansk1          3500.156
        21   01 Jun 2027 08:00:47.357   01 Jun 2027 08:00:47.438             0.081              Murmansk1             2.531
        22   01 Jun 2027 08:01:00.266   01 Jun 2027 08:01:58.432            58.166                Norilsk          1817.688
        23   01 Jun 2027 08:02:43.559   01 Jun 2027 08:02:56.981            13.422              Murmansk1           419.438
        24   01 Jun 2027 08:03:46.284   01 Jun 2027 08:04:00.126            13.842              Murmansk1           432.562
        25   01 Jun 2027 08:04:27.474   01 Jun 2027 08:05:34.339            66.865                Norilsk          2089.531
        26   01 Jun 2027 08:36:39.088   01 Jun 2027 08:36:59.245            20.157            RioGallegos           629.906
        27   01 Jun 2027 08:39:45.593   01 Jun 2027 08:39:59.296            13.703            RioGallegos           428.219
        28   01 Jun 2027 08:40:10.771   01 Jun 2027 08:40:55.243            44.472            RioGallegos          1389.750
        29   01 Jun 2027 09:10:52.623   01 Jun 2027 09:11:53.843            61.220                Sumatra          1913.125
        30   01 Jun 2027 09:14:11.258   01 Jun 2027 09:14:55.647            44.389                Sumatra          1387.156
        31   01 Jun 2027 09:15:09.720   01 Jun 2027 09:15:17.065             7.345                Sumatra           229.531
        32   01 Jun 2027 09:18:55.317   01 Jun 2027 09:22:15.693           200.376                  Delhi          6261.750
        33   01 Jun 2027 09:34:04.105   01 Jun 2027 09:34:37.688            33.583              Murmansk2          1049.469
        34   01 Jun 2027 09:34:37.688   01 Jun 2027 09:34:52.826            15.138              Murmansk1           473.063
        35   01 Jun 2027 09:34:57.356   01 Jun 2027 09:35:24.728            27.372              Murmansk1           855.375
        36   01 Jun 2027 09:35:31.114   01 Jun 2027 09:35:43.491            12.377                Irkutsk           386.781
        37   01 Jun 2027 09:35:55.767   01 Jun 2027 09:36:06.681            10.914                Norilsk           341.062
        38   01 Jun 2027 09:36:10.707   01 Jun 2027 09:36:33.332            22.625                Novosib           707.031
        39   01 Jun 2027 09:36:38.032   01 Jun 2027 09:38:09.988            91.956                 Moscow          2873.625
        40   01 Jun 2027 09:38:48.789   01 Jun 2027 09:39:15.559            26.770              Murmansk1           836.563
        41   01 Jun 2027 09:40:31.408   01 Jun 2027 09:40:38.297             6.889                Norilsk           215.281
        42   01 Jun 2027 09:41:15.286   01 Jun 2027 09:41:41.056            25.770                Norilsk           805.313
        43   01 Jun 2027 09:42:20.427   01 Jun 2027 09:42:52.487            32.060              Murmansk1          1001.875
        44   01 Jun 2027 10:55:50.838   01 Jun 2027 10:58:30.938           160.100                  Delhi          5003.125
        45   01 Jun 2027 11:09:27.529   01 Jun 2027 11:09:37.812            10.283                Novosib           321.344
        46   01 Jun 2027 11:09:46.007   01 Jun 2027 11:11:10.485            84.478              Murmansk2          2639.937
        47   01 Jun 2027 11:11:10.485   01 Jun 2027 11:11:22.635            12.150              Murmansk1           379.688
        48   01 Jun 2027 11:11:40.727   01 Jun 2027 11:12:39.477            58.750              Murmansk1          1835.938
        49   01 Jun 2027 11:12:54.490   01 Jun 2027 11:13:13.068            18.578                 Moscow           580.562
        50   01 Jun 2027 11:13:56.441   01 Jun 2027 11:14:26.988            30.547              Murmansk1           954.594
        51   01 Jun 2027 11:16:03.929   01 Jun 2027 11:17:07.629            63.700              Murmansk2          1990.625
        52   01 Jun 2027 12:39:05.871   01 Jun 2027 12:41:28.367           142.496                 Moscow          4453.000
        53   01 Jun 2027 12:41:47.270   01 Jun 2027 12:42:09.306            22.036                 Moscow           688.625
        54   01 Jun 2027 12:42:37.005   01 Jun 2027 12:44:25.846           108.841              Murmansk1          3401.281
        55   01 Jun 2027 12:44:25.846   01 Jun 2027 12:45:54.591            88.745              Murmansk2          2773.281
        56   01 Jun 2027 12:46:18.821   01 Jun 2027 12:47:18.812            59.991              Murmansk1          1874.719
        57   01 Jun 2027 12:48:07.642   01 Jun 2027 12:48:29.497            21.855              Murmansk2           682.969
        58   01 Jun 2027 12:49:38.660   01 Jun 2027 12:50:10.797            32.137                Norilsk          1004.281
        59   01 Jun 2027 12:58:33.682   01 Jun 2027 13:03:34.778           301.096                Anadyr2          9409.250
        60   01 Jun 2027 13:52:35.013   01 Jun 2027 13:52:56.207            21.194               CapeTown           662.312
        61   01 Jun 2027 13:54:12.188   01 Jun 2027 13:55:21.304            69.116               CapeTown          2159.875
        62   01 Jun 2027 14:20:36.116   01 Jun 2027 14:20:38.900             2.784              Murmansk1            87.000
        63   01 Jun 2027 14:21:11.667   01 Jun 2027 14:22:16.572            64.905              Murmansk2          2028.281
        64   01 Jun 2027 14:33:09.464   01 Jun 2027 14:35:06.006           116.542                Anadyr2          3641.938
        65   01 Jun 2027 14:35:46.370   01 Jun 2027 14:37:20.336            93.966                Anadyr1          2936.438
        66   01 Jun 2027 15:29:24.733   01 Jun 2027 15:29:51.567            26.834               CapeTown           838.562
        67   01 Jun 2027 16:01:28.483   01 Jun 2027 16:03:13.723           105.240              Murmansk1          3288.750
        68   01 Jun 2027 16:03:13.723   01 Jun 2027 16:03:43.545            29.822              Murmansk2           931.938
        69   01 Jun 2027 16:08:56.495   01 Jun 2027 16:10:39.786           103.291                Anadyr1          3227.844
        70   01 Jun 2027 16:11:38.277   01 Jun 2027 16:11:43.903             5.626                Anadyr1           175.812
        71   01 Jun 2027 16:12:13.374   01 Jun 2027 16:12:29.756            16.382                Anadyr2           511.938
        72   01 Jun 2027 16:12:43.009   01 Jun 2027 16:15:34.122           171.113               Magadan2          5347.281
        73   01 Jun 2027 16:19:02.400   01 Jun 2027 16:20:35.131            92.731               Magadan1          2897.844
        74   01 Jun 2027 17:44:51.731   01 Jun 2027 17:46:23.685            91.954                Anadyr2          2873.562
        75   01 Jun 2027 17:46:38.152   01 Jun 2027 17:47:19.374            41.222                Anadyr1          1288.187
        76   01 Jun 2027 17:47:25.323   01 Jun 2027 17:47:39.973            14.650                Anadyr1           457.812
        77   01 Jun 2027 17:47:49.592   01 Jun 2027 17:50:24.590           154.998               Magadan1          4843.688
        78   01 Jun 2027 17:50:24.590   01 Jun 2027 17:51:05.325            40.735               Magadan2          1272.969
        79   01 Jun 2027 18:39:47.971   01 Jun 2027 18:44:03.896           255.925            RioGallegos          7997.656
        80   01 Jun 2027 18:44:46.911   01 Jun 2027 18:45:12.536            25.625            RioGallegos           800.781
        81   01 Jun 2027 19:22:45.098   01 Jun 2027 19:26:52.854           247.756                Norilsk          7742.375
        82   01 Jun 2027 19:27:09.309   01 Jun 2027 19:30:37.533           208.224                Irkutsk          6507.000
        83   01 Jun 2027 19:41:11.624   01 Jun 2027 19:42:47.211            95.587                Sumatra          2987.094
        84   01 Jun 2027 19:44:37.173   01 Jun 2027 19:45:42.510            65.337                Sumatra          2041.781
        85   01 Jun 2027 19:46:35.996   01 Jun 2027 19:47:41.320            65.324                Sumatra          2041.375
        86   01 Jun 2027 21:02:29.365   01 Jun 2027 21:02:42.712            13.347                Irkutsk           417.094
        87   01 Jun 2027 21:02:49.503   01 Jun 2027 21:04:26.290            96.787                Novosib          3024.594
        88   01 Jun 2027 21:11:09.038   01 Jun 2027 21:14:19.122           190.084                  Delhi          5940.125
        89   01 Jun 2027 22:34:59.272   01 Jun 2027 22:36:27.437            88.165               Magadan2          2755.156
        90   01 Jun 2027 22:36:27.437   01 Jun 2027 22:36:42.983            15.546               Magadan1           485.812
        91   01 Jun 2027 22:37:10.267   01 Jun 2027 22:41:08.217           237.950              Murmansk2          7435.937
        92   01 Jun 2027 22:42:04.896   01 Jun 2027 22:43:00.319            55.423              Murmansk1          1731.969
        93   01 Jun 2027 22:43:41.279   01 Jun 2027 22:45:49.382           128.103                 Moscow          4003.219
        94   02 Jun 2027 00:05:17.250   02 Jun 2027 00:05:26.294             9.044                Anadyr2           282.625
        95   02 Jun 2027 00:08:09.761   02 Jun 2027 00:08:28.470            18.709               Magadan2           584.656
        96   02 Jun 2027 00:09:09.443   02 Jun 2027 00:10:04.717            55.274               Magadan2          1727.312
        97   02 Jun 2027 00:12:46.362   02 Jun 2027 00:13:23.041            36.679              Murmansk2          1146.219
        98   02 Jun 2027 00:13:38.411   02 Jun 2027 00:14:23.017            44.606              Murmansk1          1393.937
        99   02 Jun 2027 00:14:39.159   02 Jun 2027 00:15:50.500            71.341                Novosib          2229.406
       100   02 Jun 2027 00:16:16.136   02 Jun 2027 00:18:10.613           114.477                 Moscow          3577.406
       101   02 Jun 2027 00:20:02.090   02 Jun 2027 00:20:15.139            13.049                 Moscow           407.781
       102   02 Jun 2027 00:41:08.034   02 Jun 2027 00:44:19.076           191.042               CapeTown          5970.063
       103   02 Jun 2027 01:39:51.349   02 Jun 2027 01:42:17.615           146.266               Magadan1          4570.812
       104   02 Jun 2027 01:48:43.806   02 Jun 2027 01:50:13.441            89.635              Murmansk2          2801.094
       105   02 Jun 2027 01:50:54.439   02 Jun 2027 01:51:19.237            24.798              Murmansk1           774.937
       106   02 Jun 2027 01:51:50.041   02 Jun 2027 01:52:26.669            36.628                Novosib          1144.625
       107   02 Jun 2027 01:53:00.674   02 Jun 2027 01:53:30.388            29.714                 Moscow           928.562
       108   02 Jun 2027 01:55:10.510   02 Jun 2027 01:55:39.505            28.995                 Moscow           906.094
       109   02 Jun 2027 02:16:05.935   02 Jun 2027 02:17:31.669            85.734               CapeTown          2679.187
       110   02 Jun 2027 03:18:40.664   02 Jun 2027 03:18:51.566            10.902               Magadan1           340.688
       111   02 Jun 2027 03:18:53.707   02 Jun 2027 03:18:59.795             6.088               Magadan1           190.250
       112   02 Jun 2027 03:19:15.295   02 Jun 2027 03:19:50.697            35.402                Anadyr2          1106.313
       113   02 Jun 2027 03:19:54.813   02 Jun 2027 03:20:01.355             6.542                Anadyr2           204.438
       114   02 Jun 2027 03:20:01.355   02 Jun 2027 03:22:15.129           133.774                Anadyr1          4180.438
       115   02 Jun 2027 03:22:34.283   02 Jun 2027 03:23:00.239            25.956               Magadan2           811.125
       116   02 Jun 2027 03:23:00.239   02 Jun 2027 03:23:16.193            15.954               Magadan1           498.563
       117   02 Jun 2027 03:23:32.865   02 Jun 2027 03:25:03.808            90.943                Anadyr1          2841.969
       118   02 Jun 2027 04:55:39.393   02 Jun 2027 04:55:53.190            13.797                Irkutsk           431.156
       119   02 Jun 2027 04:58:19.212   02 Jun 2027 04:58:49.921            30.709                Irkutsk           959.656
       120   02 Jun 2027 04:59:00.355   02 Jun 2027 04:59:07.728             7.373                Anadyr2           230.406
       121   02 Jun 2027 05:38:43.413   02 Jun 2027 05:39:37.076            53.663            RioGallegos          1676.969
       122   02 Jun 2027 06:32:33.304   02 Jun 2027 06:32:43.510            10.206                Irkutsk           318.938
       123   02 Jun 2027 06:33:13.483   02 Jun 2027 06:34:23.769            70.286                Irkutsk          2196.437
       124   02 Jun 2027 06:34:35.776   02 Jun 2027 06:35:04.549            28.773                Norilsk           899.156
       125   02 Jun 2027 06:35:35.695   02 Jun 2027 06:35:52.831            17.136              Murmansk1           535.500
       126   02 Jun 2027 06:35:56.562   02 Jun 2027 06:36:28.596            32.034              Murmansk2          1001.063
       127   02 Jun 2027 06:36:39.564   02 Jun 2027 06:37:07.872            28.308                Novosib           884.625
       128   02 Jun 2027 06:37:23.280   02 Jun 2027 06:37:48.100            24.820                Norilsk           775.625
       129   02 Jun 2027 06:38:03.668   02 Jun 2027 06:38:21.929            18.261                Norilsk           570.656
       130   02 Jun 2027 06:38:25.346   02 Jun 2027 06:38:54.045            28.699              Murmansk1           896.844
       131   02 Jun 2027 06:39:22.977   02 Jun 2027 06:40:05.199            42.222                Norilsk          1319.437
       132   02 Jun 2027 06:40:43.284   02 Jun 2027 06:40:44.858             1.574                Norilsk            49.188
       133   02 Jun 2027 06:41:08.808   02 Jun 2027 06:43:15.213           126.405              Murmansk2          3950.156
       134   02 Jun 2027 07:11:29.191   02 Jun 2027 07:13:45.160           135.969            RioGallegos          4249.031
       135   02 Jun 2027 07:14:46.613   02 Jun 2027 07:15:49.403            62.790            RioGallegos          1962.187
       136   02 Jun 2027 07:47:00.424   02 Jun 2027 07:48:59.693           119.269                Sumatra          3727.156
       137   02 Jun 2027 08:00:50.205   02 Jun 2027 08:01:06.741            16.536                  Delhi           516.750
       138   02 Jun 2027 08:02:41.786   02 Jun 2027 08:03:37.886            56.100                  Delhi          1753.125
       139   02 Jun 2027 08:08:03.736   02 Jun 2027 08:08:56.376            52.640                Novosib          1645.000
       140   02 Jun 2027 08:09:29.062   02 Jun 2027 08:10:47.701            78.639              Murmansk2          2457.469
       141   02 Jun 2027 08:10:51.556   02 Jun 2027 08:11:06.322            14.766                Norilsk           461.438
       142   02 Jun 2027 08:11:06.361   02 Jun 2027 08:11:51.545            45.184                Irkutsk          1412.000
       143   02 Jun 2027 08:12:02.065   02 Jun 2027 08:12:25.683            23.618                Norilsk           738.062
       144   02 Jun 2027 08:12:33.740   02 Jun 2027 08:12:48.086            14.346              Murmansk1           448.313
       145   02 Jun 2027 08:12:48.086   02 Jun 2027 08:14:38.814           110.728              Murmansk2          3460.250
       146   02 Jun 2027 08:50:06.443   02 Jun 2027 08:50:44.842            38.399            RioGallegos          1199.969
       147   02 Jun 2027 09:23:20.676   02 Jun 2027 09:24:23.723            63.047                Sumatra          1970.219
       148   02 Jun 2027 09:25:58.295   02 Jun 2027 09:26:43.352            45.057                Sumatra          1408.031
       149   02 Jun 2027 09:33:43.751   02 Jun 2027 09:34:00.934            17.183                  Delhi           536.969
       150   02 Jun 2027 09:36:28.661   02 Jun 2027 09:36:45.970            17.309                  Delhi           540.906
       151   02 Jun 2027 09:38:56.202   02 Jun 2027 09:39:56.818            60.616                  Delhi          1894.250
       152   02 Jun 2027 09:44:25.909   02 Jun 2027 09:45:38.550            72.641                Norilsk          2270.031
       153   02 Jun 2027 09:45:41.458   02 Jun 2027 09:46:12.160            30.702                Novosib           959.438
       154   02 Jun 2027 09:46:16.863   02 Jun 2027 09:46:39.435            22.572                Irkutsk           705.375
       155   02 Jun 2027 09:46:48.089   02 Jun 2027 09:47:14.146            26.057              Murmansk1           814.281
       156   02 Jun 2027 09:47:16.354   02 Jun 2027 09:48:44.348            87.994              Murmansk1          2749.813
       157   02 Jun 2027 11:08:34.619   02 Jun 2027 11:09:13.916            39.297                  Delhi          1228.031
       158   02 Jun 2027 11:10:14.240   02 Jun 2027 11:11:10.491            56.251                  Delhi          1757.844
       159   02 Jun 2027 11:16:56.216   02 Jun 2027 11:17:27.970            31.754                  Delhi           992.313
       160   02 Jun 2027 11:20:10.038   02 Jun 2027 11:20:29.782            19.744              Murmansk2           617.000
       161   02 Jun 2027 11:20:29.782   02 Jun 2027 11:20:47.159            17.377              Murmansk1           543.031
       162   02 Jun 2027 11:20:54.214   02 Jun 2027 11:21:20.505            26.291                 Moscow           821.594
       163   02 Jun 2027 11:21:27.994   02 Jun 2027 11:21:59.613            31.619                 Moscow           988.094
       164   02 Jun 2027 11:22:13.899   02 Jun 2027 11:22:28.778            14.879                 Moscow           464.969
       165   02 Jun 2027 11:22:49.378   02 Jun 2027 11:23:27.345            37.967                Norilsk          1186.469
       166   02 Jun 2027 11:23:30.084   02 Jun 2027 11:24:09.021            38.937              Murmansk2          1216.781
       167   02 Jun 2027 11:24:13.024   02 Jun 2027 11:24:17.528             4.504              Murmansk1           140.750
       168   02 Jun 2027 11:24:17.528   02 Jun 2027 11:24:40.096            22.568              Murmansk2           705.250
       169   02 Jun 2027 11:24:44.399   02 Jun 2027 11:25:39.122            54.723                 Moscow          1710.094
       170   02 Jun 2027 12:32:48.188   02 Jun 2027 12:34:00.457            72.269               CapeTown          2258.406
       171   02 Jun 2027 12:35:21.060   02 Jun 2027 12:36:05.379            44.319               CapeTown          1384.969
       172   02 Jun 2027 12:51:17.663   02 Jun 2027 12:52:27.197            69.534                 Moscow          2172.937
       173   02 Jun 2027 12:54:46.877   02 Jun 2027 12:56:37.715           110.838              Murmansk1          3463.688
       174   02 Jun 2027 12:56:37.715   02 Jun 2027 12:57:19.350            41.635              Murmansk2          1301.094
       175   02 Jun 2027 12:57:44.153   02 Jun 2027 12:57:50.774             6.621              Murmansk2           206.906
       176   02 Jun 2027 12:58:14.038   02 Jun 2027 12:59:14.050            60.012              Murmansk1          1875.375
       177   02 Jun 2027 13:10:11.128   02 Jun 2027 13:13:45.928           214.800                Anadyr2          6712.500
       178   02 Jun 2027 13:14:31.617   02 Jun 2027 13:16:35.719           124.102                Anadyr1          3878.187
       179   02 Jun 2027 14:33:02.858   02 Jun 2027 14:33:34.850            31.992              Murmansk1           999.750
       180   02 Jun 2027 14:45:08.269   02 Jun 2027 14:47:45.181           156.912                Anadyr2          4903.500
       181   02 Jun 2027 14:48:19.737   02 Jun 2027 14:49:03.758            44.021                Anadyr2          1375.656
       182   02 Jun 2027 15:44:58.821   02 Jun 2027 15:45:03.906             5.085               CapeTown           158.906
       183   02 Jun 2027 15:46:40.746   02 Jun 2027 15:46:51.561            10.815               CapeTown           337.969
       184   02 Jun 2027 16:14:36.247   02 Jun 2027 16:15:45.683            69.436              Murmansk2          2169.875
       185   02 Jun 2027 16:16:44.426   02 Jun 2027 16:17:54.432            70.006              Murmansk2          2187.688
       186   02 Jun 2027 16:20:57.768   02 Jun 2027 16:22:30.626            92.858                Anadyr2          2901.812
       187   02 Jun 2027 16:22:53.452   02 Jun 2027 16:23:36.393            42.941                Anadyr2          1341.906
       188   02 Jun 2027 16:24:14.008   02 Jun 2027 16:24:17.871             3.863                Anadyr2           120.719
       189   02 Jun 2027 16:24:39.400   02 Jun 2027 16:27:32.067           172.667               Magadan2          5395.844
       190   02 Jun 2027 16:29:51.276   02 Jun 2027 16:31:00.357            69.081               Magadan1          2158.781
       191   02 Jun 2027 17:56:52.537   02 Jun 2027 17:59:30.143           157.606                Anadyr1          4925.187
       192   02 Jun 2027 17:59:57.129   02 Jun 2027 18:02:54.600           177.471                Norilsk          5545.969
       193   02 Jun 2027 18:51:31.172   02 Jun 2027 18:55:07.677           216.505            RioGallegos          6765.781
       194   02 Jun 2027 18:55:20.135   02 Jun 2027 18:57:44.779           144.644            RioGallegos          4520.125
       195   02 Jun 2027 19:34:44.765   02 Jun 2027 19:37:17.661           152.896                Norilsk          4778.000
       196   02 Jun 2027 19:38:02.322   02 Jun 2027 19:38:58.894            56.572                Norilsk          1767.875
       197   02 Jun 2027 19:39:34.844   02 Jun 2027 19:40:33.184            58.340                Irkutsk          1823.125
       198   02 Jun 2027 19:41:45.229   02 Jun 2027 19:43:55.909           130.680                Novosib          4083.750
       199   02 Jun 2027 19:52:51.091   02 Jun 2027 19:54:09.846            78.755                Sumatra          2461.094
       200   02 Jun 2027 19:55:10.084   02 Jun 2027 19:56:35.051            84.967                Sumatra          2655.219
       201   02 Jun 2027 21:16:40.646   02 Jun 2027 21:17:40.362            59.716                Novosib          1866.125
       202   02 Jun 2027 21:19:37.229   02 Jun 2027 21:20:29.762            52.533                Novosib          1641.656
       203   02 Jun 2027 21:22:43.348   02 Jun 2027 21:25:24.789           161.441                  Delhi          5045.031
       204   02 Jun 2027 21:33:28.507   02 Jun 2027 21:33:43.442            14.935                  Delhi           466.719
       205   02 Jun 2027 22:46:52.703   02 Jun 2027 22:47:22.290            29.587               Magadan2           924.594
       206   02 Jun 2027 22:48:18.975   02 Jun 2027 22:48:24.479             5.504               Magadan1           172.000
       207   02 Jun 2027 22:49:05.757   02 Jun 2027 22:53:07.162           241.405              Murmansk1          7543.906
       208   02 Jun 2027 22:54:23.341   02 Jun 2027 22:59:42.841           319.500                 Moscow          9984.375
       209   03 Jun 2027 00:24:47.506   03 Jun 2027 00:26:23.601            96.095              Murmansk2          3002.969
       210   03 Jun 2027 00:27:26.505   03 Jun 2027 00:28:11.945            45.440                Novosib          1420.000
       211   03 Jun 2027 00:28:12.242   03 Jun 2027 00:28:45.386            33.144                 Moscow          1035.750
       212   03 Jun 2027 00:29:55.553   03 Jun 2027 00:30:24.312            28.759                 Moscow           898.719
       213   03 Jun 2027 00:31:15.824   03 Jun 2027 00:32:08.587            52.763                 Moscow          1648.844
       214   03 Jun 2027 00:52:43.499   03 Jun 2027 00:54:43.280           119.781               CapeTown          3743.156
       215   03 Jun 2027 00:55:58.896   03 Jun 2027 00:56:10.699            11.803               CapeTown           368.844
       216   03 Jun 2027 01:04:13.595   03 Jun 2027 01:04:27.820            14.225               CapeTown           444.531
       217   03 Jun 2027 01:50:51.944   03 Jun 2027 01:51:00.733             8.789                Anadyr1           274.656
       218   03 Jun 2027 01:51:25.309   03 Jun 2027 01:52:48.845            83.536               Magadan2          2610.500
       219   03 Jun 2027 01:52:55.255   03 Jun 2027 01:54:05.144            69.889               Magadan1          2184.031
       220   03 Jun 2027 02:00:45.429   03 Jun 2027 02:01:11.094            25.665              Murmansk1           802.031
       221   03 Jun 2027 02:01:11.094   03 Jun 2027 02:02:15.127            64.033              Murmansk2          2001.031
       222   03 Jun 2027 02:03:58.789   03 Jun 2027 02:04:41.744            42.955                 Moscow          1342.344
       223   03 Jun 2027 02:07:41.231   03 Jun 2027 02:08:41.016            59.785                 Moscow          1868.281
       224   03 Jun 2027 02:28:24.117   03 Jun 2027 02:28:57.610            33.493               CapeTown          1046.656
       225   03 Jun 2027 02:33:18.722   03 Jun 2027 02:33:26.944             8.222               CapeTown           256.938
       226   03 Jun 2027 02:34:48.226   03 Jun 2027 02:35:23.980            35.754               CapeTown          1117.312
       227   03 Jun 2027 03:31:46.993   03 Jun 2027 03:32:16.866            29.873               Magadan2           933.531
       228   03 Jun 2027 03:32:42.694   03 Jun 2027 03:33:11.812            29.118               Magadan2           909.937
       229   03 Jun 2027 03:33:20.548   03 Jun 2027 03:34:35.008            74.460                Anadyr2          2326.875
       230   03 Jun 2027 03:34:37.067   03 Jun 2027 03:34:55.766            18.699               Magadan1           584.344
       231   03 Jun 2027 03:35:13.846   03 Jun 2027 03:35:16.004             2.158               Magadan2            67.437
       232   03 Jun 2027 03:35:20.651   03 Jun 2027 03:35:32.027            11.376                Anadyr2           355.500
       233   03 Jun 2027 03:35:42.087   03 Jun 2027 03:36:10.294            28.207                Anadyr2           881.469
       234   03 Jun 2027 03:37:04.938   03 Jun 2027 03:37:06.029             1.091                Anadyr2            34.094
       235   03 Jun 2027 03:37:17.369   03 Jun 2027 03:37:28.523            11.154                Anadyr2           348.562
       236   03 Jun 2027 04:19:09.619   03 Jun 2027 04:19:31.429            21.810            RioGallegos           681.562
       237   03 Jun 2027 04:19:48.001   03 Jun 2027 04:19:55.507             7.506            RioGallegos           234.562
       238   03 Jun 2027 05:06:50.795   03 Jun 2027 05:07:57.208            66.413                Irkutsk          2075.406
       239   03 Jun 2027 05:10:36.584   03 Jun 2027 05:10:43.170             6.586               Magadan2           205.812
       240   03 Jun 2027 05:10:43.170   03 Jun 2027 05:10:46.961             3.791               Magadan1           118.469
       241   03 Jun 2027 05:10:55.708   03 Jun 2027 05:11:00.833             5.125                Anadyr1           160.156
       242   03 Jun 2027 05:11:00.833   03 Jun 2027 05:12:58.090           117.257                Anadyr2          3664.281
       243   03 Jun 2027 05:49:22.189   03 Jun 2027 05:49:43.505            21.316            RioGallegos           666.125
       244   03 Jun 2027 05:50:28.319   03 Jun 2027 05:50:53.580            25.261            RioGallegos           789.406
       245   03 Jun 2027 05:51:06.481   03 Jun 2027 05:51:44.672            38.191            RioGallegos          1193.469
       246   03 Jun 2027 06:42:49.498   03 Jun 2027 06:43:05.238            15.740               Magadan2           491.875
       247   03 Jun 2027 06:43:46.409   03 Jun 2027 06:44:19.807            33.398               Magadan2          1043.687
       248   03 Jun 2027 06:44:29.053   03 Jun 2027 06:44:30.086             1.033                Irkutsk            32.281
       249   03 Jun 2027 06:44:36.871   03 Jun 2027 06:44:52.211            15.340               Magadan2           479.375
       250   03 Jun 2027 06:44:52.211   03 Jun 2027 06:44:54.446             2.235               Magadan1            69.844
       251   03 Jun 2027 06:45:01.681   03 Jun 2027 06:45:30.342            28.661                Irkutsk           895.656
       252   03 Jun 2027 06:45:47.634   03 Jun 2027 06:46:54.642            67.008               Magadan1          2094.000
       253   03 Jun 2027 06:47:30.857   03 Jun 2027 06:47:39.077             8.220               Magadan1           256.875
       254   03 Jun 2027 06:47:47.282   03 Jun 2027 06:48:46.914            59.632                Irkutsk          1863.500
       255   03 Jun 2027 06:48:54.523   03 Jun 2027 06:49:04.802            10.279              Murmansk1           321.219
       256   03 Jun 2027 06:49:04.802   03 Jun 2027 06:49:59.656            54.854              Murmansk2          1714.187
       257   03 Jun 2027 06:53:01.944   03 Jun 2027 06:53:30.807            28.863              Murmansk2           901.969
       258   03 Jun 2027 07:24:05.286   03 Jun 2027 07:24:20.843            15.557            RioGallegos           486.156
       259   03 Jun 2027 07:25:25.144   03 Jun 2027 07:25:31.165             6.021            RioGallegos           188.156
       260   03 Jun 2027 07:26:47.812   03 Jun 2027 07:27:19.869            32.057            RioGallegos          1001.781
       261   03 Jun 2027 07:58:43.469   03 Jun 2027 08:00:02.634            79.165                Sumatra          2473.906
       262   03 Jun 2027 08:01:18.605   03 Jun 2027 08:02:36.082            77.477                Sumatra          2421.156
       263   03 Jun 2027 08:10:55.712   03 Jun 2027 08:12:27.867            92.155                  Delhi          2879.844
       264   03 Jun 2027 08:18:29.181   03 Jun 2027 08:18:30.274             1.093                Norilsk            34.156
       265   03 Jun 2027 08:18:31.939   03 Jun 2027 08:19:25.542            53.603                Novosib          1675.094
       266   03 Jun 2027 08:19:32.996   03 Jun 2027 08:19:48.178            15.182                Irkutsk           474.437
       267   03 Jun 2027 08:19:55.325   03 Jun 2027 08:20:09.384            14.059                Irkutsk           439.344
       268   03 Jun 2027 08:20:11.756   03 Jun 2027 08:20:17.080             5.324                Norilsk           166.375
       269   03 Jun 2027 08:20:34.678   03 Jun 2027 08:20:36.068             1.390                Novosib            43.438
       270   03 Jun 2027 08:20:45.168   03 Jun 2027 08:20:56.455            11.287                Irkutsk           352.719
       271   03 Jun 2027 08:20:58.374   03 Jun 2027 08:22:04.338            65.964                Novosib          2061.375
       272   03 Jun 2027 08:22:09.542   03 Jun 2027 08:23:07.111            57.569                Novosib          1799.031
       273   03 Jun 2027 08:23:30.106   03 Jun 2027 08:24:08.952            38.846              Murmansk1          1213.937
       274   03 Jun 2027 08:24:19.845   03 Jun 2027 08:24:21.028             1.183              Murmansk1            36.969
       275   03 Jun 2027 08:24:21.258   03 Jun 2027 08:25:16.299            55.041                 Moscow          1720.031
       276   03 Jun 2027 09:01:45.689   03 Jun 2027 09:02:48.425            62.736            RioGallegos          1960.500
       277   03 Jun 2027 09:04:52.765   03 Jun 2027 09:05:23.926            31.161            RioGallegos           973.781
       278   03 Jun 2027 09:38:59.130   03 Jun 2027 09:40:19.200            80.070                Sumatra          2502.187
       279   03 Jun 2027 09:45:48.689   03 Jun 2027 09:46:28.815            40.126                  Delhi          1253.938
       280   03 Jun 2027 09:56:45.076   03 Jun 2027 09:57:47.902            62.826                Novosib          1963.313
       281   03 Jun 2027 09:57:54.035   03 Jun 2027 09:58:01.022             6.987              Murmansk2           218.344
       282   03 Jun 2027 09:58:12.380   03 Jun 2027 09:59:30.171            77.791                Novosib          2430.969
       283   03 Jun 2027 09:59:36.760   03 Jun 2027 09:59:54.418            17.658                Novosib           551.812
       284   03 Jun 2027 10:00:03.346   03 Jun 2027 10:00:03.646             0.300                Norilsk             9.375
       285   03 Jun 2027 10:00:08.009   03 Jun 2027 10:01:36.333            88.324                 Moscow          2760.125
       286   03 Jun 2027 11:21:36.254   03 Jun 2027 11:23:04.403            88.149                  Delhi          2754.656
       287   03 Jun 2027 11:23:37.595   03 Jun 2027 11:25:02.994            85.399                  Delhi          2668.719
       288   03 Jun 2027 11:31:58.579   03 Jun 2027 11:32:22.753            24.174              Murmansk1           755.438
       289   03 Jun 2027 11:32:40.062   03 Jun 2027 11:33:41.875            61.813              Murmansk1          1931.656
       290   03 Jun 2027 11:33:48.069   03 Jun 2027 11:34:27.424            39.355              Murmansk1          1229.844
       291   03 Jun 2027 11:34:30.345   03 Jun 2027 11:35:42.369            72.024                 Moscow          2250.750
       292   03 Jun 2027 11:35:48.685   03 Jun 2027 11:36:03.133            14.448                Norilsk           451.500
       293   03 Jun 2027 11:36:18.507   03 Jun 2027 11:37:04.542            46.035                 Moscow          1438.594
       294   03 Jun 2027 11:37:07.842   03 Jun 2027 11:37:39.398            31.556              Murmansk2           986.125
       295   03 Jun 2027 11:38:38.076   03 Jun 2027 11:38:44.638             6.562                 Moscow           205.062
       296   03 Jun 2027 11:43:14.385   03 Jun 2027 11:43:23.604             9.219              Murmansk1           288.094
       297   03 Jun 2027 12:43:15.072   03 Jun 2027 12:45:36.217           141.145               CapeTown          4410.781
       298   03 Jun 2027 12:48:34.925   03 Jun 2027 12:49:56.345            81.420               CapeTown          2544.375
       299   03 Jun 2027 13:03:32.918   03 Jun 2027 13:03:50.658            17.740                 Moscow           554.375
       300   03 Jun 2027 13:06:58.578   03 Jun 2027 13:09:19.897           141.319              Murmansk1          4416.219
       301   03 Jun 2027 13:11:15.677   03 Jun 2027 13:11:18.607             2.930              Murmansk2            91.562
       302   03 Jun 2027 13:11:30.772   03 Jun 2027 13:11:43.420            12.648              Murmansk2           395.250
       303   03 Jun 2027 13:13:47.044   03 Jun 2027 13:13:57.252            10.208              Murmansk2           319.000
       304   03 Jun 2027 13:18:13.411   03 Jun 2027 13:18:18.992             5.581              Murmansk2           174.406
       305   03 Jun 2027 13:21:56.340   03 Jun 2027 13:28:44.967           408.627                Anadyr1         12769.594
       306   03 Jun 2027 14:57:07.661   03 Jun 2027 14:59:10.720           123.059                Anadyr2          3845.594
       307   03 Jun 2027 15:00:21.065   03 Jun 2027 15:00:46.385            25.320                Anadyr1           791.250
       308   03 Jun 2027 15:01:03.413   03 Jun 2027 15:01:15.452            12.039                Anadyr2           376.219
       309   03 Jun 2027 15:01:57.461   03 Jun 2027 15:04:49.298           171.837               Magadan2          5369.906
       310   03 Jun 2027 15:04:49.298   03 Jun 2027 15:05:28.798            39.500               Magadan1          1234.375
       311   03 Jun 2027 16:32:59.115   03 Jun 2027 16:34:44.162           105.047                Anadyr1          3282.719
       312   03 Jun 2027 16:35:29.806   03 Jun 2027 16:37:42.962           133.156               Magadan1          4161.125
       313   03 Jun 2027 16:37:55.284   03 Jun 2027 16:38:22.863            27.579               Magadan2           861.844
       314   03 Jun 2027 16:38:32.840   03 Jun 2027 16:40:04.796            91.956               Magadan2          2873.625
       315   03 Jun 2027 18:08:53.112   03 Jun 2027 18:10:26.493            93.381                Anadyr1          2918.156
       316   03 Jun 2027 18:10:37.824   03 Jun 2027 18:11:40.018            62.194                Anadyr2          1943.562
       317   03 Jun 2027 18:11:46.600   03 Jun 2027 18:11:59.405            12.805                Anadyr2           400.156
       318   03 Jun 2027 18:12:06.342   03 Jun 2027 18:12:17.011            10.669                Anadyr2           333.406
       319   03 Jun 2027 18:12:25.611   03 Jun 2027 18:15:13.856           168.245                Norilsk          5257.656
       320   03 Jun 2027 19:03:18.613   03 Jun 2027 19:06:57.865           219.252            RioGallegos          6851.625
       321   03 Jun 2027 19:13:16.171   03 Jun 2027 19:14:09.608            53.437            RioGallegos          1669.906
       322   03 Jun 2027 19:46:45.000   03 Jun 2027 19:48:14.511            89.511                Norilsk          2797.219
       323   03 Jun 2027 19:50:53.955   03 Jun 2027 19:51:26.317            32.362                Irkutsk          1011.313
       324   03 Jun 2027 19:51:41.327   03 Jun 2027 19:52:47.409            66.082                Irkutsk          2065.063
       325   03 Jun 2027 19:53:27.854   03 Jun 2027 19:58:19.774           291.920                Novosib          9122.500
       326   03 Jun 2027 20:05:53.743   03 Jun 2027 20:07:25.433            91.690                Sumatra          2865.313
       327   03 Jun 2027 20:16:44.741   03 Jun 2027 20:17:07.595            22.854                Sumatra           714.187
       328   03 Jun 2027 21:26:40.834   03 Jun 2027 21:27:11.488            30.654                Novosib           957.937
       329   03 Jun 2027 21:28:33.728   03 Jun 2027 21:28:50.887            17.159                Novosib           536.219
       330   03 Jun 2027 21:29:46.337   03 Jun 2027 21:30:32.723            46.386                Novosib          1449.563
       331   03 Jun 2027 21:34:24.754   03 Jun 2027 21:38:05.114           220.360                  Delhi          6886.250
       332   03 Jun 2027 21:43:44.338   03 Jun 2027 21:43:48.364             4.026                  Delhi           125.812
       333   03 Jun 2027 22:58:42.887   03 Jun 2027 23:00:13.430            90.543               Magadan2          2829.469
       334   03 Jun 2027 23:01:02.782   03 Jun 2027 23:03:14.256           131.474              Murmansk1          4108.563
       335   03 Jun 2027 23:03:46.810   03 Jun 2027 23:06:39.896           173.086              Murmansk2          5408.937
       336   03 Jun 2027 23:07:00.518   03 Jun 2027 23:11:53.895           293.377                 Moscow          9168.031
       337   04 Jun 2027 00:36:48.855   04 Jun 2027 00:37:19.994            31.139              Murmansk2           973.094
       338   04 Jun 2027 00:37:19.994   04 Jun 2027 00:38:22.067            62.073              Murmansk1          1939.781
       339   04 Jun 2027 00:39:40.428   04 Jun 2027 00:40:08.964            28.536              Murmansk2           891.750
       340   04 Jun 2027 00:40:09.576   04 Jun 2027 00:40:29.250            19.674                 Moscow           614.812
       341   04 Jun 2027 00:43:22.322   04 Jun 2027 00:43:42.881            20.559                 Moscow           642.469
       342   04 Jun 2027 00:47:30.049   04 Jun 2027 00:47:49.369            19.320                 Moscow           603.750
       343   04 Jun 2027 00:47:56.987   04 Jun 2027 00:48:06.415             9.428                 Moscow           294.625
       344   04 Jun 2027 00:51:45.618   04 Jun 2027 00:52:37.221            51.603                 Moscow          1612.594
       345   04 Jun 2027 01:04:24.846   04 Jun 2027 01:05:39.402            74.556               CapeTown          2329.875
       346   04 Jun 2027 01:15:26.102   04 Jun 2027 01:16:19.055            52.953               CapeTown          1654.781
       347   04 Jun 2027 02:03:00.837   04 Jun 2027 02:04:56.635           115.798               Magadan1          3618.687
       348   04 Jun 2027 02:09:46.947   04 Jun 2027 02:09:57.246            10.299                Norilsk           321.844
       349   04 Jun 2027 02:11:42.093   04 Jun 2027 02:11:44.150             2.057                Norilsk            64.281
       350   04 Jun 2027 02:11:49.682   04 Jun 2027 02:11:53.901             4.219                Norilsk           131.844
       351   04 Jun 2027 02:12:46.967   04 Jun 2027 02:14:16.876            89.909              Murmansk1          2809.656
       352   04 Jun 2027 02:15:59.024   04 Jun 2027 02:16:06.394             7.370              Murmansk2           230.313
       353   04 Jun 2027 02:16:08.198   04 Jun 2027 02:16:55.555            47.357              Murmansk1          1479.906
       354   04 Jun 2027 02:19:54.425   04 Jun 2027 02:20:38.124            43.699                 Moscow          1365.594
       355   04 Jun 2027 02:27:03.408   04 Jun 2027 02:27:05.457             2.049                 Moscow            64.031
       356   04 Jun 2027 02:27:12.346   04 Jun 2027 02:28:17.114            64.768                 Moscow          2024.000
       357   04 Jun 2027 02:46:25.768   04 Jun 2027 02:47:12.929            47.161               CapeTown          1473.781
       358   04 Jun 2027 03:41:52.621   04 Jun 2027 03:42:02.163             9.542               Magadan2           298.188
       359   04 Jun 2027 03:42:13.413   04 Jun 2027 03:42:22.062             8.649                Anadyr1           270.281
       360   04 Jun 2027 03:42:27.717   04 Jun 2027 03:42:38.878            11.161                Anadyr1           348.781
       361   04 Jun 2027 03:42:44.692   04 Jun 2027 03:42:45.821             1.129               Magadan1            35.281
       362   04 Jun 2027 03:42:51.044   04 Jun 2027 03:43:44.890            53.846               Magadan1          1682.688
       363   04 Jun 2027 03:44:00.438   04 Jun 2027 03:45:21.436            80.998                Anadyr1          2531.188
       364   04 Jun 2027 03:45:26.235   04 Jun 2027 03:45:44.070            17.835                Anadyr1           557.344
       365   04 Jun 2027 03:45:53.799   04 Jun 2027 03:46:05.918            12.119               Magadan2           378.719
       366   04 Jun 2027 03:46:10.098   04 Jun 2027 03:49:28.790           198.692                Anadyr1          6209.125
       367   04 Jun 2027 04:30:03.796   04 Jun 2027 04:32:24.776           140.980            RioGallegos          4405.625
       368   04 Jun 2027 05:20:43.201   04 Jun 2027 05:22:45.075           121.874                Anadyr1          3808.563
       369   04 Jun 2027 05:23:00.955   04 Jun 2027 05:23:22.961            22.006                Anadyr2           687.688
       370   04 Jun 2027 05:23:22.961   04 Jun 2027 05:24:50.659            87.698                Anadyr1          2740.562
       371   04 Jun 2027 06:52:49.726   04 Jun 2027 06:52:59.346             9.620                Novosib           300.625
       372   04 Jun 2027 06:54:49.991   04 Jun 2027 06:55:08.400            18.409               Magadan2           575.281
       373   04 Jun 2027 06:55:10.884   04 Jun 2027 06:55:39.320            28.436                Novosib           888.625
       374   04 Jun 2027 06:55:45.063   04 Jun 2027 06:56:00.489            15.426                Novosib           482.063
       375   04 Jun 2027 06:56:02.235   04 Jun 2027 06:56:09.039             6.804               Magadan1           212.625
       376   04 Jun 2027 06:56:30.876   04 Jun 2027 06:56:54.205            23.329               Magadan2           729.031
       377   04 Jun 2027 06:56:57.779   04 Jun 2027 06:58:35.611            97.832               Magadan2          3057.250
       378   04 Jun 2027 06:58:48.427   04 Jun 2027 07:00:04.159            75.732                Novosib          2366.625
       379   04 Jun 2027 07:00:28.601   04 Jun 2027 07:01:07.070            38.469                Norilsk          1202.156
       380   04 Jun 2027 07:01:54.636   04 Jun 2027 07:02:09.624            14.988              Murmansk1           468.375
       381   04 Jun 2027 07:05:41.875   04 Jun 2027 07:05:48.601             6.726              Murmansk2           210.188
       382   04 Jun 2027 07:35:34.689   04 Jun 2027 07:37:13.894            99.205            RioGallegos          3100.156
       383   04 Jun 2027 08:11:43.037   04 Jun 2027 08:12:52.704            69.667                Sumatra          2177.094
       384   04 Jun 2027 08:13:43.933   04 Jun 2027 08:14:08.162            24.229                Sumatra           757.156
       385   04 Jun 2027 08:21:47.950   04 Jun 2027 08:23:57.610           129.660                  Delhi          4051.875
       386   04 Jun 2027 08:31:23.771   04 Jun 2027 08:31:39.355            15.584                Irkutsk           487.000
       387   04 Jun 2027 08:32:41.808   04 Jun 2027 08:33:11.713            29.905                Norilsk           934.531
       388   04 Jun 2027 08:33:18.713   04 Jun 2027 08:34:33.465            74.752              Murmansk2          2336.000
       389   04 Jun 2027 08:34:36.181   04 Jun 2027 08:35:00.079            23.898              Murmansk2           746.812
       390   04 Jun 2027 08:35:05.001   04 Jun 2027 08:35:33.773            28.772                Irkutsk           899.125
       391   04 Jun 2027 08:35:39.263   04 Jun 2027 08:35:42.127             2.864                Norilsk            89.500
       392   04 Jun 2027 08:35:50.134   04 Jun 2027 08:36:02.389            12.255                 Moscow           382.969
       393   04 Jun 2027 08:36:07.801   04 Jun 2027 08:36:11.227             3.426                Irkutsk           107.063
       394   04 Jun 2027 08:36:15.566   04 Jun 2027 08:36:25.888            10.322                Norilsk           322.563
       395   04 Jun 2027 08:36:32.674   04 Jun 2027 08:38:06.249            93.575                 Moscow          2924.219
       396   04 Jun 2027 09:20:27.244   04 Jun 2027 09:20:39.797            12.553            RioGallegos           392.281
       397   04 Jun 2027 09:49:00.770   04 Jun 2027 09:50:02.397            61.627                Sumatra          1925.844
       398   04 Jun 2027 09:52:26.172   04 Jun 2027 09:52:38.171            11.999                Sumatra           374.969
       399   04 Jun 2027 09:54:37.893   04 Jun 2027 09:55:03.509            25.616                  Delhi           800.500
       400   04 Jun 2027 10:01:41.961   04 Jun 2027 10:02:13.894            31.933                  Delhi           997.906
       401   04 Jun 2027 10:08:41.113   04 Jun 2027 10:09:43.363            62.250                Novosib          1945.312
       402   04 Jun 2027 10:09:53.732   04 Jun 2027 10:10:11.836            18.104                Novosib           565.750
       403   04 Jun 2027 10:10:31.786   04 Jun 2027 10:11:02.660            30.874              Murmansk1           964.813
       404   04 Jun 2027 10:11:09.822   04 Jun 2027 10:11:21.075            11.253                Norilsk           351.656
       405   04 Jun 2027 10:11:22.025   04 Jun 2027 10:11:31.184             9.159                Norilsk           286.219
       406   04 Jun 2027 10:11:39.278   04 Jun 2027 10:11:55.783            16.505                Novosib           515.781
       407   04 Jun 2027 10:12:00.325   04 Jun 2027 10:12:04.884             4.559                Novosib           142.469
       408   04 Jun 2027 10:12:09.877   04 Jun 2027 10:12:24.629            14.752                Norilsk           461.000
       409   04 Jun 2027 10:12:43.967   04 Jun 2027 10:13:07.222            23.255                 Moscow           726.719
       410   04 Jun 2027 10:13:10.320   04 Jun 2027 10:13:11.303             0.983              Murmansk1            30.719
       411   04 Jun 2027 10:17:33.281   04 Jun 2027 10:17:35.497             2.216              Murmansk1            69.250
       412   04 Jun 2027 11:35:19.383   04 Jun 2027 11:37:53.781           154.398                  Delhi          4824.938
       413   04 Jun 2027 11:42:27.895   04 Jun 2027 11:42:57.784            29.889              Murmansk2           934.031
       414   04 Jun 2027 11:43:17.965   04 Jun 2027 11:43:25.929             7.964                 Moscow           248.875
       415   04 Jun 2027 11:43:27.332   04 Jun 2027 11:44:05.147            37.815              Murmansk2          1181.719
       416   04 Jun 2027 11:44:16.832   04 Jun 2027 11:44:33.732            16.900              Murmansk1           528.125
       417   04 Jun 2027 11:44:43.843   04 Jun 2027 11:45:18.192            34.349              Murmansk1          1073.406
       418   04 Jun 2027 11:45:18.192   04 Jun 2027 11:45:39.556            21.364              Murmansk2           667.625
       419   04 Jun 2027 11:45:43.323   04 Jun 2027 11:46:41.083            57.760                Novosib          1805.000
       420   04 Jun 2027 11:46:44.348   04 Jun 2027 11:47:10.824            26.476              Murmansk2           827.375
       421   04 Jun 2027 11:47:22.634   04 Jun 2027 11:47:55.345            32.711              Murmansk1          1022.219
       422   04 Jun 2027 11:48:15.677   04 Jun 2027 11:49:09.145            53.468                Norilsk          1670.875
       423   04 Jun 2027 11:49:14.811   04 Jun 2027 11:49:18.971             4.160                 Moscow           130.000
       424   04 Jun 2027 11:49:20.028   04 Jun 2027 11:49:50.455            30.427              Murmansk2           950.844
       425   04 Jun 2027 11:51:20.339   04 Jun 2027 11:51:23.415             3.076              Murmansk2            96.125
       426   04 Jun 2027 11:52:15.753   04 Jun 2027 11:52:52.942            37.189              Murmansk2          1162.156
       427   04 Jun 2027 12:54:25.599   04 Jun 2027 12:57:18.536           172.937               CapeTown          5404.281
       428   04 Jun 2027 13:00:47.347   04 Jun 2027 13:01:04.888            17.541               CapeTown           548.156
       429   04 Jun 2027 13:15:51.920   04 Jun 2027 13:16:30.953            39.033                 Moscow          1219.781
       430   04 Jun 2027 13:19:12.178   04 Jun 2027 13:20:38.930            86.752              Murmansk1          2711.000
       431   04 Jun 2027 13:20:38.930   04 Jun 2027 13:21:47.412            68.482              Murmansk2          2140.063
       432   04 Jun 2027 13:22:25.306   04 Jun 2027 13:23:06.070            40.764              Murmansk2          1273.875
       433   04 Jun 2027 13:29:40.807   04 Jun 2027 13:29:41.815             1.008              Murmansk1            31.500
       434   04 Jun 2027 13:30:13.511   04 Jun 2027 13:30:55.924            42.413              Murmansk2          1325.406
       435   04 Jun 2027 13:33:45.964   04 Jun 2027 13:37:36.314           230.350                Anadyr2          7198.437
       436   04 Jun 2027 13:38:41.769   04 Jun 2027 13:39:06.464            24.695                Anadyr1           771.719
       437   04 Jun 2027 13:39:21.889   04 Jun 2027 13:40:46.257            84.368                Anadyr1          2636.500
       438   04 Jun 2027 15:04:56.365   04 Jun 2027 15:05:12.488            16.123              Murmansk1           503.844
       439   04 Jun 2027 15:06:53.143   04 Jun 2027 15:07:10.058            16.915              Murmansk2           528.594
       440   04 Jun 2027 15:09:07.532   04 Jun 2027 15:10:50.765           103.233                Anadyr2          3226.031
       441   04 Jun 2027 15:11:26.331   04 Jun 2027 15:11:36.356            10.025                Anadyr1           313.281
       442   04 Jun 2027 15:12:22.400   04 Jun 2027 15:13:16.245            53.845                Anadyr1          1682.656
       443   04 Jun 2027 15:14:12.774   04 Jun 2027 15:16:18.990           126.216               Magadan2          3944.250
       444   04 Jun 2027 15:16:36.369   04 Jun 2027 15:18:53.562           137.193               Magadan1          4287.281
       445   04 Jun 2027 16:45:00.491   04 Jun 2027 16:45:46.976            46.485                Anadyr2          1452.656
       446   04 Jun 2027 16:46:33.599   04 Jun 2027 16:47:09.609            36.010                Anadyr1          1125.313
       447   04 Jun 2027 16:47:26.859   04 Jun 2027 16:49:30.929           124.070               Magadan1          3877.188
       448   04 Jun 2027 16:49:37.045   04 Jun 2027 16:50:15.367            38.322               Magadan2          1197.563
       449   04 Jun 2027 16:55:36.844   04 Jun 2027 16:56:53.249            76.405               Magadan1          2387.656
       450   04 Jun 2027 18:20:53.403   04 Jun 2027 18:22:27.788            94.385                Anadyr1          2949.531
       451   04 Jun 2027 18:22:38.316   04 Jun 2027 18:23:47.034            68.718                Anadyr2          2147.438
       452   04 Jun 2027 18:23:47.362   04 Jun 2027 18:24:49.846            62.484                Anadyr2          1952.625
       453   04 Jun 2027 18:25:08.234   04 Jun 2027 18:27:10.385           122.151                Norilsk          3817.219
       454   04 Jun 2027 18:29:32.412   04 Jun 2027 18:31:58.992           146.580                Irkutsk          4580.625
       455   04 Jun 2027 18:32:44.892   04 Jun 2027 18:34:01.572            76.680                Irkutsk          2396.250
       456   04 Jun 2027 19:18:01.420   04 Jun 2027 19:18:10.435             9.015            RioGallegos           281.719
       457   04 Jun 2027 19:58:45.675   04 Jun 2027 20:00:24.821            99.146                Norilsk          3098.313
       458   04 Jun 2027 20:02:49.210   04 Jun 2027 20:03:03.322            14.112                Irkutsk           441.000
       459   04 Jun 2027 20:04:07.375   04 Jun 2027 20:04:18.053            10.678                Norilsk           333.687
       460   04 Jun 2027 20:04:33.525   04 Jun 2027 20:05:18.448            44.923                Irkutsk          1403.844
       461   04 Jun 2027 20:05:30.286   04 Jun 2027 20:11:19.568           349.282                Novosib         10915.063
       462   04 Jun 2027 20:17:30.320   04 Jun 2027 20:19:01.490            91.170                Sumatra          2849.062
       463   04 Jun 2027 21:38:37.163   04 Jun 2027 21:39:02.235            25.072                Irkutsk           783.500
       464   04 Jun 2027 21:39:06.006   04 Jun 2027 21:40:42.054            96.048                Novosib          3001.500
       465   04 Jun 2027 21:43:21.204   04 Jun 2027 21:44:00.030            38.826                Novosib          1213.313
       466   04 Jun 2027 21:46:11.575   04 Jun 2027 21:48:37.945           146.370                  Delhi          4574.062
       467   04 Jun 2027 21:52:32.588   04 Jun 2027 21:53:15.458            42.870                  Delhi          1339.688
       468   04 Jun 2027 23:10:29.152   04 Jun 2027 23:10:50.108            20.956               Magadan2           654.875
       469   04 Jun 2027 23:11:25.800   04 Jun 2027 23:12:10.117            44.317               Magadan1          1384.906
       470   04 Jun 2027 23:13:00.932   04 Jun 2027 23:15:00.671           119.739              Murmansk2          3741.844
       471   04 Jun 2027 23:15:47.103   04 Jun 2027 23:18:06.913           139.810              Murmansk1          4369.062
       472   04 Jun 2027 23:18:18.294   04 Jun 2027 23:21:43.128           204.834                 Moscow          6401.062
       473   04 Jun 2027 23:22:01.624   04 Jun 2027 23:22:33.890            32.266                 Moscow          1008.313
       474   04 Jun 2027 23:46:12.828   04 Jun 2027 23:46:41.262            28.434               CapeTown           888.563
       475   04 Jun 2027 23:48:28.499   04 Jun 2027 23:49:16.843            48.344               CapeTown          1510.750
       476   05 Jun 2027 00:46:18.625   05 Jun 2027 00:46:39.328            20.703               Magadan1           646.969
       477   05 Jun 2027 00:48:50.346   05 Jun 2027 00:50:22.560            92.214              Murmansk1          2881.687
       478   05 Jun 2027 00:51:20.385   05 Jun 2027 00:51:25.157             4.772              Murmansk2           149.125
       479   05 Jun 2027 00:51:30.958   05 Jun 2027 00:51:40.334             9.376              Murmansk2           293.000
       480   05 Jun 2027 00:52:07.946   05 Jun 2027 00:53:46.588            98.642                 Moscow          3082.562
       481   05 Jun 2027 00:59:33.746   05 Jun 2027 00:59:49.089            15.343                 Moscow           479.469
       482   05 Jun 2027 01:16:11.570   05 Jun 2027 01:17:50.015            98.445               CapeTown          3076.406
