uniorb/output/strategy_2/Drop/Drop_KinoSat_111407.txt

KinoSat_111407
-------------------------
    Access    *     Start Time (UTCG)     *     Stop Time (UTCG)  *   Duration (s)        *       Station  *  Data (Mbytes)
         1   01 Jun 2027 03:05:27.290   01 Jun 2027 03:05:39.879            12.589                Norilsk           393.406
         2   01 Jun 2027 03:05:50.583   01 Jun 2027 03:06:49.693            59.110              Murmansk2          1847.187
         3   01 Jun 2027 03:07:00.245   01 Jun 2027 03:07:58.939            58.694                Norilsk          1834.187
         4   01 Jun 2027 03:08:08.183   01 Jun 2027 03:08:49.739            41.556                 Moscow          1298.625
         5   01 Jun 2027 03:08:51.439   01 Jun 2027 03:10:15.053            83.614                Novosib          2612.938
         6   01 Jun 2027 03:26:59.895   01 Jun 2027 03:28:13.688            73.793               CapeTown          2306.031
         7   01 Jun 2027 03:28:36.832   01 Jun 2027 03:29:59.323            82.491               CapeTown          2577.844
         8   01 Jun 2027 04:22:51.850   01 Jun 2027 04:23:58.611            66.761                Anadyr1          2086.281
         9   01 Jun 2027 04:24:22.622   01 Jun 2027 04:24:23.920             1.298                Anadyr1            40.563
        10   01 Jun 2027 04:44:10.988   01 Jun 2027 04:45:44.390            93.402                 Moscow          2918.812
        11   01 Jun 2027 04:46:01.032   01 Jun 2027 04:46:06.027             4.995              Murmansk1           156.094
        12   01 Jun 2027 04:46:27.664   01 Jun 2027 04:46:53.942            26.278              Murmansk2           821.188
        13   01 Jun 2027 05:02:46.551   01 Jun 2027 05:03:13.321            26.770               CapeTown           836.563
        14   01 Jun 2027 05:03:55.320   01 Jun 2027 05:04:00.604             5.284               CapeTown           165.125
        15   01 Jun 2027 05:58:55.931   01 Jun 2027 05:59:23.920            27.989                Anadyr2           874.656
        16   01 Jun 2027 06:06:46.818   01 Jun 2027 06:07:05.911            19.093                Norilsk           596.656
        17   01 Jun 2027 06:07:13.754   01 Jun 2027 06:08:21.647            67.893               Magadan2          2121.656
        18   01 Jun 2027 06:08:21.647   01 Jun 2027 06:08:50.458            28.811               Magadan1           900.344
        19   01 Jun 2027 06:08:51.840   01 Jun 2027 06:10:45.463           113.623                Anadyr1          3550.719
        20   01 Jun 2027 07:41:36.444   01 Jun 2027 07:42:58.949            82.505                Irkutsk          2578.281
        21   01 Jun 2027 07:43:48.036   01 Jun 2027 07:43:56.831             8.795                Irkutsk           274.844
        22   01 Jun 2027 07:44:09.949   01 Jun 2027 07:44:25.118            15.169                Irkutsk           474.031
        23   01 Jun 2027 07:45:46.584   01 Jun 2027 07:47:05.865            79.281                Anadyr1          2477.531
        24   01 Jun 2027 09:18:37.631   01 Jun 2027 09:22:25.887           228.256               Magadan1          7133.000
        25   01 Jun 2027 09:22:44.779   01 Jun 2027 09:22:46.516             1.737                Irkutsk            54.281
        26   01 Jun 2027 09:22:52.109   01 Jun 2027 09:23:11.225            19.116              Murmansk2           597.375
        27   01 Jun 2027 09:57:32.246   01 Jun 2027 10:00:33.377           181.131            RioGallegos          5660.344
        28   01 Jun 2027 10:32:55.051   01 Jun 2027 10:34:31.150            96.099                Sumatra          3003.094
        29   01 Jun 2027 10:54:09.981   01 Jun 2027 10:55:03.896            53.915                Novosib          1684.844
        30   01 Jun 2027 10:55:07.832   01 Jun 2027 10:57:42.434           154.602                Irkutsk          4831.312
        31   01 Jun 2027 10:57:48.569   01 Jun 2027 10:59:02.979            74.410                Norilsk          2325.313
        32   01 Jun 2027 11:35:26.371   01 Jun 2027 11:36:01.449            35.078            RioGallegos          1096.188
        33   01 Jun 2027 11:39:08.182   01 Jun 2027 11:39:54.905            46.723            RioGallegos          1460.094
        34   01 Jun 2027 12:09:39.601   01 Jun 2027 12:10:13.717            34.116                Sumatra          1066.125
        35   01 Jun 2027 12:12:56.091   01 Jun 2027 12:13:46.164            50.073                Sumatra          1564.781
        36   01 Jun 2027 12:17:35.759   01 Jun 2027 12:19:44.258           128.499                  Delhi          4015.594
        37   01 Jun 2027 12:24:18.904   01 Jun 2027 12:25:03.696            44.792                Novosib          1399.750
        38   01 Jun 2027 12:26:41.244   01 Jun 2027 12:28:01.006            79.762                Novosib          2492.563
        39   01 Jun 2027 12:28:12.721   01 Jun 2027 12:30:08.511           115.790                Norilsk          3618.438
        40   01 Jun 2027 13:55:01.083   01 Jun 2027 13:56:46.710           105.627                  Delhi          3300.844
        41   01 Jun 2027 13:57:39.323   01 Jun 2027 13:59:42.878           123.555                  Delhi          3861.094
        42   01 Jun 2027 14:04:31.390   01 Jun 2027 14:06:11.503           100.113              Murmansk2          3128.531
        43   01 Jun 2027 14:06:40.687   01 Jun 2027 14:07:11.367            30.680                Norilsk           958.750
        44   01 Jun 2027 14:07:42.348   01 Jun 2027 14:08:07.691            25.343                Novosib           791.969
        45   01 Jun 2027 14:08:18.225   01 Jun 2027 14:08:54.884            36.659                Norilsk          1145.594
        46   01 Jun 2027 14:09:47.647   01 Jun 2027 14:10:18.392            30.745                Norilsk           960.781
        47   01 Jun 2027 15:37:26.591   01 Jun 2027 15:39:04.951            98.360                 Moscow          3073.750
        48   01 Jun 2027 15:40:10.727   01 Jun 2027 15:41:24.142            73.415                 Moscow          2294.219
        49   01 Jun 2027 15:41:30.416   01 Jun 2027 15:43:43.880           133.464              Murmansk1          4170.750
        50   01 Jun 2027 15:56:04.537   01 Jun 2027 15:57:06.448            61.911                Anadyr1          1934.719
        51   01 Jun 2027 16:50:31.324   01 Jun 2027 16:52:55.932           144.608               CapeTown          4519.000
        52   01 Jun 2027 17:17:56.419   01 Jun 2027 17:20:14.288           137.869                 Moscow          4308.406
        53   01 Jun 2027 17:20:56.265   01 Jun 2027 17:21:54.478            58.213              Murmansk1          1819.156
        54   01 Jun 2027 17:23:33.977   01 Jun 2027 17:23:52.378            18.401              Murmansk1           575.031
        55   01 Jun 2027 17:31:10.217   01 Jun 2027 17:31:11.873             1.656                Anadyr2            51.750
        56   01 Jun 2027 17:36:58.146   01 Jun 2027 17:37:31.107            32.961               Magadan2          1030.031
        57   01 Jun 2027 18:27:37.223   01 Jun 2027 18:28:42.289            65.066               CapeTown          2033.313
        58   01 Jun 2027 19:01:10.012   01 Jun 2027 19:03:46.401           156.389              Murmansk2          4887.156
        59   01 Jun 2027 19:07:01.352   01 Jun 2027 19:08:56.662           115.310                Anadyr2          3603.437
        60   01 Jun 2027 19:09:34.120   01 Jun 2027 19:12:14.144           160.024               Magadan2          5000.750
        61   01 Jun 2027 20:42:56.443   01 Jun 2027 20:45:03.960           127.517                Anadyr1          3984.906
        62   01 Jun 2027 20:45:13.124   01 Jun 2027 20:49:36.314           263.190               Magadan1          8224.688
        63   01 Jun 2027 21:37:27.221   01 Jun 2027 21:40:43.030           195.809            RioGallegos          6119.031
        64   01 Jun 2027 22:18:34.219   01 Jun 2027 22:19:20.045            45.826                Anadyr2          1432.062
        65   01 Jun 2027 22:20:46.519   01 Jun 2027 22:22:34.884           108.365                Norilsk          3386.406
        66   01 Jun 2027 22:23:11.890   01 Jun 2027 22:23:12.230             0.340               Magadan2            10.625
        67   01 Jun 2027 22:23:50.414   01 Jun 2027 22:24:37.134            46.720               Magadan2          1460.000
        68   01 Jun 2027 22:24:59.722   01 Jun 2027 22:25:32.295            32.573                Irkutsk          1017.906
        69   01 Jun 2027 22:27:11.058   01 Jun 2027 22:28:21.085            70.027                Novosib          2188.344
        70   01 Jun 2027 22:28:57.209   01 Jun 2027 22:29:55.588            58.379                Novosib          1824.344
        71   01 Jun 2027 22:41:00.036   01 Jun 2027 22:42:13.326            73.290                Sumatra          2290.312
        72   01 Jun 2027 23:53:21.011   01 Jun 2027 23:54:01.843            40.832                Anadyr1          1276.000
        73   01 Jun 2027 23:54:36.013   01 Jun 2027 23:55:24.304            48.291                Anadyr1          1509.094
        74   01 Jun 2027 23:56:43.363   01 Jun 2027 23:57:00.996            17.633                Norilsk           551.031
        75   01 Jun 2027 23:57:22.584   01 Jun 2027 23:58:59.637            97.053               Magadan2          3032.906
        76   02 Jun 2027 00:00:35.484   02 Jun 2027 00:01:36.076            60.592                Irkutsk          1893.500
        77   02 Jun 2027 00:01:45.422   02 Jun 2027 00:02:52.928            67.506                Novosib          2109.563
        78   02 Jun 2027 00:03:19.471   02 Jun 2027 00:04:24.354            64.883                Novosib          2027.594
        79   02 Jun 2027 00:08:36.963   02 Jun 2027 00:09:02.128            25.165                  Delhi           786.406
        80   02 Jun 2027 00:09:08.741   02 Jun 2027 00:09:21.413            12.672                  Delhi           396.000
        81   02 Jun 2027 00:09:45.121   02 Jun 2027 00:10:00.937            15.816                  Delhi           494.250
        82   02 Jun 2027 00:10:40.403   02 Jun 2027 00:11:49.489            69.086                  Delhi          2158.937
        83   02 Jun 2027 01:27:12.766   02 Jun 2027 01:27:21.585             8.819                Anadyr2           275.594
        84   02 Jun 2027 01:27:21.585   02 Jun 2027 01:28:01.297            39.712                Anadyr1          1241.000
        85   02 Jun 2027 01:29:15.193   02 Jun 2027 01:29:48.696            33.503                Anadyr1          1046.969
        86   02 Jun 2027 01:32:43.093   02 Jun 2027 01:32:53.536            10.443                Norilsk           326.344
        87   02 Jun 2027 01:32:56.508   02 Jun 2027 01:34:39.995           103.487               Magadan1          3233.969
        88   02 Jun 2027 01:34:42.623   02 Jun 2027 01:35:17.857            35.234               Magadan2          1101.063
        89   02 Jun 2027 01:35:59.950   02 Jun 2027 01:37:42.511           102.561              Murmansk2          3205.031
        90   02 Jun 2027 01:37:45.703   02 Jun 2027 01:38:03.187            17.484                Novosib           546.375
        91   02 Jun 2027 01:38:19.794   02 Jun 2027 01:39:01.729            41.935                Novosib          1310.469
        92   02 Jun 2027 01:44:05.410   02 Jun 2027 01:44:23.844            18.434                  Delhi           576.062
        93   02 Jun 2027 03:00:36.965   02 Jun 2027 03:00:48.832            11.867                Anadyr2           370.844
        94   02 Jun 2027 03:00:48.832   02 Jun 2027 03:00:51.419             2.587                Anadyr1            80.844
        95   02 Jun 2027 03:03:54.574   02 Jun 2027 03:03:56.444             1.870                Anadyr1            58.438
        96   02 Jun 2027 03:04:26.770   02 Jun 2027 03:04:30.421             3.651                Anadyr1           114.094
        97   02 Jun 2027 03:06:51.331   02 Jun 2027 03:06:55.241             3.910               Magadan2           122.188
        98   02 Jun 2027 03:18:26.835   02 Jun 2027 03:19:57.485            90.650              Murmansk2          2832.812
        99   02 Jun 2027 03:20:02.190   02 Jun 2027 03:20:26.187            23.997              Murmansk2           749.906
       100   02 Jun 2027 03:20:35.040   02 Jun 2027 03:21:32.139            57.099              Murmansk2          1784.344
       101   02 Jun 2027 03:22:00.407   02 Jun 2027 03:22:04.544             4.137              Murmansk2           129.281
       102   02 Jun 2027 03:22:32.712   02 Jun 2027 03:22:51.423            18.711              Murmansk1           584.719
       103   02 Jun 2027 03:22:55.018   02 Jun 2027 03:23:23.071            28.053                 Moscow           876.656
       104   02 Jun 2027 03:23:46.294   02 Jun 2027 03:25:29.856           103.562                 Moscow          3236.312
       105   02 Jun 2027 03:38:37.993   02 Jun 2027 03:41:50.172           192.179               CapeTown          6005.594
       106   02 Jun 2027 04:34:47.822   02 Jun 2027 04:36:00.075            72.253                Anadyr1          2257.906
       107   02 Jun 2027 04:37:18.610   02 Jun 2027 04:38:37.170            78.560               Magadan2          2455.000
       108   02 Jun 2027 04:42:13.701   02 Jun 2027 04:43:33.416            79.715                Anadyr2          2491.094
       109   02 Jun 2027 04:54:20.858   02 Jun 2027 04:54:22.812             1.954                Norilsk            61.063
       110   02 Jun 2027 04:54:34.066   02 Jun 2027 04:54:41.219             7.153                Norilsk           223.531
       111   02 Jun 2027 04:54:42.647   02 Jun 2027 04:55:55.949            73.302              Murmansk1          2290.688
       112   02 Jun 2027 04:56:18.324   02 Jun 2027 04:56:24.915             6.591              Murmansk1           205.969
       113   02 Jun 2027 04:56:53.944   02 Jun 2027 04:57:49.557            55.613                 Moscow          1737.906
       114   02 Jun 2027 04:57:55.688   02 Jun 2027 04:58:10.190            14.502              Murmansk2           453.188
       115   02 Jun 2027 04:58:23.751   02 Jun 2027 04:58:29.744             5.993              Murmansk1           187.281
       116   02 Jun 2027 04:58:29.744   02 Jun 2027 04:58:43.781            14.037              Murmansk2           438.656
       117   02 Jun 2027 05:01:08.117   02 Jun 2027 05:01:42.651            34.534                 Moscow          1079.187
       118   02 Jun 2027 05:15:55.918   02 Jun 2027 05:16:00.266             4.348               CapeTown           135.875
       119   02 Jun 2027 05:16:41.335   02 Jun 2027 05:18:39.145           117.810               CapeTown          3681.562
       120   02 Jun 2027 06:16:43.862   02 Jun 2027 06:17:14.245            30.383                Anadyr2           949.469
       121   02 Jun 2027 06:17:24.891   02 Jun 2027 06:17:53.334            28.443               Magadan1           888.844
       122   02 Jun 2027 06:18:05.918   02 Jun 2027 06:23:32.376           326.458                Anadyr1         10201.813
       123   02 Jun 2027 07:55:03.628   02 Jun 2027 07:57:41.464           157.836                Irkutsk          4932.375
       124   02 Jun 2027 07:57:46.854   02 Jun 2027 07:59:00.046            73.192                Anadyr2          2287.250
       125   02 Jun 2027 09:28:14.447   02 Jun 2027 09:28:43.277            28.830                Irkutsk           900.937
       126   02 Jun 2027 09:29:01.649   02 Jun 2027 09:29:05.620             3.971                Irkutsk           124.094
       127   02 Jun 2027 09:29:15.133   02 Jun 2027 09:29:27.112            11.979                Novosib           374.344
       128   02 Jun 2027 09:29:32.556   02 Jun 2027 09:30:55.565            83.009               Magadan2          2594.031
       129   02 Jun 2027 09:30:55.565   02 Jun 2027 09:31:28.338            32.773               Magadan1          1024.156
       130   02 Jun 2027 09:31:42.068   02 Jun 2027 09:32:07.418            25.350                Irkutsk           792.188
       131   02 Jun 2027 09:32:08.098   02 Jun 2027 09:34:14.762           126.664               Magadan2          3958.250
       132   02 Jun 2027 09:34:29.101   02 Jun 2027 09:34:45.241            16.140              Murmansk1           504.375
       133   02 Jun 2027 09:34:45.241   02 Jun 2027 09:35:11.218            25.977              Murmansk2           811.781
       134   02 Jun 2027 09:35:56.913   02 Jun 2027 09:36:16.112            19.199              Murmansk2           599.969
       135   02 Jun 2027 10:09:34.896   02 Jun 2027 10:10:35.762            60.866            RioGallegos          1902.062
       136   02 Jun 2027 10:10:59.630   02 Jun 2027 10:11:55.096            55.466            RioGallegos          1733.312
       137   02 Jun 2027 10:45:23.502   02 Jun 2027 10:47:14.849           111.347                Sumatra          3479.594
       138   02 Jun 2027 11:04:48.708   02 Jun 2027 11:06:05.734            77.026                Irkutsk          2407.063
       139   02 Jun 2027 11:06:15.766   02 Jun 2027 11:06:26.556            10.790                Norilsk           337.188
       140   02 Jun 2027 11:06:35.893   02 Jun 2027 11:06:36.404             0.511                Novosib            15.969
       141   02 Jun 2027 11:06:39.077   02 Jun 2027 11:06:50.964            11.887                Norilsk           371.469
       142   02 Jun 2027 11:06:52.083   02 Jun 2027 11:07:07.675            15.592                Novosib           487.250
       143   02 Jun 2027 11:07:08.480   02 Jun 2027 11:07:25.257            16.777                Irkutsk           524.281
       144   02 Jun 2027 11:07:25.933   02 Jun 2027 11:07:35.152             9.219              Murmansk2           288.094
       145   02 Jun 2027 11:07:35.152   02 Jun 2027 11:07:46.434            11.282              Murmansk1           352.563
       146   02 Jun 2027 11:07:57.734   02 Jun 2027 11:08:09.017            11.283              Murmansk2           352.594
       147   02 Jun 2027 11:08:15.006   02 Jun 2027 11:08:59.356            44.350                Irkutsk          1385.938
       148   02 Jun 2027 11:09:04.705   02 Jun 2027 11:09:50.353            45.648                Norilsk          1426.500
       149   02 Jun 2027 11:09:55.135   02 Jun 2027 11:10:02.351             7.216                Norilsk           225.500
       150   02 Jun 2027 11:10:05.551   02 Jun 2027 11:10:27.141            21.590              Murmansk1           674.687
       151   02 Jun 2027 11:10:29.822   02 Jun 2027 11:10:57.880            28.058                Norilsk           876.813
       152   02 Jun 2027 11:12:31.274   02 Jun 2027 11:13:40.575            69.301              Murmansk1          2165.656
       153   02 Jun 2027 11:48:06.373   02 Jun 2027 11:48:19.581            13.208            RioGallegos           412.750
       154   02 Jun 2027 12:22:27.272   02 Jun 2027 12:22:52.810            25.538                Sumatra           798.063
       155   02 Jun 2027 12:24:43.196   02 Jun 2027 12:25:26.693            43.497                Sumatra          1359.281
       156   02 Jun 2027 12:31:52.976   02 Jun 2027 12:32:22.175            29.199                  Delhi           912.469
       157   02 Jun 2027 12:35:59.216   02 Jun 2027 12:38:39.664           160.448                Novosib          5014.000
       158   02 Jun 2027 12:40:33.007   02 Jun 2027 12:41:20.639            47.632                Norilsk          1488.500
       159   02 Jun 2027 12:49:49.231   02 Jun 2027 12:50:09.082            19.851                Norilsk           620.344
       160   02 Jun 2027 14:08:15.244   02 Jun 2027 14:09:28.367            73.123                  Delhi          2285.094
       161   02 Jun 2027 14:11:56.757   02 Jun 2027 14:12:25.603            28.846                  Delhi           901.437
       162   02 Jun 2027 14:13:14.306   02 Jun 2027 14:14:19.829            65.523                 Moscow          2047.594
       163   02 Jun 2027 14:16:30.876   02 Jun 2027 14:18:35.598           124.722              Murmansk1          3897.563
       164   02 Jun 2027 14:18:35.598   02 Jun 2027 14:18:42.993             7.395              Murmansk2           231.094
       165   02 Jun 2027 14:18:43.341   02 Jun 2027 14:20:39.968           116.627                Novosib          3644.594
       166   02 Jun 2027 14:21:04.287   02 Jun 2027 14:21:19.873            15.586                Norilsk           487.062
       167   02 Jun 2027 14:22:20.698   02 Jun 2027 14:24:02.452           101.754                Norilsk          3179.813
       168   02 Jun 2027 15:28:52.369   02 Jun 2027 15:31:17.460           145.091               CapeTown          4534.094
       169   02 Jun 2027 15:53:07.130   02 Jun 2027 15:53:47.616            40.486              Murmansk2          1265.187
       170   02 Jun 2027 15:54:08.343   02 Jun 2027 15:55:40.489            92.146              Murmansk2          2879.562
       171   02 Jun 2027 16:07:52.502   02 Jun 2027 16:09:18.290            85.788                Anadyr2          2680.875
       172   02 Jun 2027 16:09:29.170   02 Jun 2027 16:09:32.498             3.328                Anadyr2           104.000
       173   02 Jun 2027 16:10:07.149   02 Jun 2027 16:10:15.394             8.245                Anadyr2           257.656
       174   02 Jun 2027 16:10:17.753   02 Jun 2027 16:10:53.745            35.992                Anadyr2          1124.750
       175   02 Jun 2027 17:03:04.003   02 Jun 2027 17:05:02.548           118.545               CapeTown          3704.531
       176   02 Jun 2027 17:31:47.976   02 Jun 2027 17:33:12.206            84.230              Murmansk1          2632.187
       177   02 Jun 2027 17:34:25.260   02 Jun 2027 17:35:19.934            54.674              Murmansk2          1708.562
       178   02 Jun 2027 17:43:10.118   02 Jun 2027 17:43:13.212             3.094                Anadyr1            96.687
       179   02 Jun 2027 17:43:42.485   02 Jun 2027 17:44:42.989            60.504                Anadyr1          1890.750
       180   02 Jun 2027 17:44:42.989   02 Jun 2027 17:45:00.668            17.679                Anadyr2           552.469
       181   02 Jun 2027 17:46:47.882   02 Jun 2027 17:47:29.678            41.796                Anadyr1          1306.125
       182   02 Jun 2027 17:47:31.688   02 Jun 2027 17:48:44.006            72.318               Magadan1          2259.938
       183   02 Jun 2027 17:48:59.069   02 Jun 2027 17:49:20.782            21.713               Magadan1           678.531
       184   02 Jun 2027 19:19:02.985   02 Jun 2027 19:22:48.648           225.663                Anadyr1          7051.969
       185   02 Jun 2027 19:23:16.172   02 Jun 2027 19:25:08.939           112.767               Magadan1          3523.969
       186   02 Jun 2027 19:25:08.939   02 Jun 2027 19:26:25.824            76.885               Magadan2          2402.656
       187   02 Jun 2027 20:54:57.161   02 Jun 2027 20:57:05.533           128.372                Anadyr2          4011.625
       188   02 Jun 2027 20:57:12.504   02 Jun 2027 20:58:39.279            86.775                Anadyr1          2711.719
       189   02 Jun 2027 20:58:41.486   02 Jun 2027 20:59:00.641            19.155                Norilsk           598.594
       190   02 Jun 2027 20:59:21.363   02 Jun 2027 21:01:03.953           102.590                Norilsk          3205.938
       191   02 Jun 2027 21:01:42.186   02 Jun 2027 21:02:34.185            51.999                Norilsk          1624.969
       192   02 Jun 2027 21:04:24.034   02 Jun 2027 21:06:01.573            97.539                Irkutsk          3048.094
       193   02 Jun 2027 21:49:16.458   02 Jun 2027 21:51:12.445           115.987            RioGallegos          3624.594
       194   02 Jun 2027 21:52:33.223   02 Jun 2027 21:52:35.655             2.432            RioGallegos            76.000
       195   02 Jun 2027 22:30:30.737   02 Jun 2027 22:31:19.290            48.553                Anadyr1          1517.281
       196   02 Jun 2027 22:32:47.289   02 Jun 2027 22:33:26.956            39.667                Norilsk          1239.594
       197   02 Jun 2027 22:33:30.856   02 Jun 2027 22:35:02.711            91.855               Magadan2          2870.469
       198   02 Jun 2027 22:35:02.711   02 Jun 2027 22:35:26.253            23.542               Magadan1           735.687
       199   02 Jun 2027 22:37:31.470   02 Jun 2027 22:37:39.766             8.296               Magadan1           259.250
       200   02 Jun 2027 22:37:46.857   02 Jun 2027 22:37:57.817            10.960               Magadan1           342.500
       201   02 Jun 2027 22:38:15.140   02 Jun 2027 22:38:29.184            14.044                Norilsk           438.875
       202   02 Jun 2027 22:38:56.235   02 Jun 2027 22:39:59.471            63.236                Novosib          1976.125
       203   02 Jun 2027 22:40:35.977   02 Jun 2027 22:41:12.766            36.789                Novosib          1149.656
       204   02 Jun 2027 22:50:36.564   02 Jun 2027 22:52:57.081           140.517                Sumatra          4391.156
       205   03 Jun 2027 00:05:08.352   03 Jun 2027 00:07:25.110           136.758                Anadyr1          4273.688
       206   03 Jun 2027 00:08:45.557   03 Jun 2027 00:10:03.301            77.744                Norilsk          2429.500
       207   03 Jun 2027 00:10:17.395   03 Jun 2027 00:11:32.026            74.631                Norilsk          2332.219
       208   03 Jun 2027 00:12:42.389   03 Jun 2027 00:13:50.280            67.891                Novosib          2121.594
       209   03 Jun 2027 00:14:47.421   03 Jun 2027 00:15:05.054            17.633                Novosib           551.031
       210   03 Jun 2027 00:15:20.903   03 Jun 2027 00:15:59.531            38.628                Novosib          1207.125
       211   03 Jun 2027 00:17:36.631   03 Jun 2027 00:18:11.359            34.728                Novosib          1085.250
       212   03 Jun 2027 00:20:21.148   03 Jun 2027 00:21:04.601            43.453                  Delhi          1357.906
       213   03 Jun 2027 00:22:29.112   03 Jun 2027 00:23:44.041            74.929                  Delhi          2341.531
       214   03 Jun 2027 01:04:12.376   03 Jun 2027 01:04:44.874            32.498            RioGallegos          1015.563
       215   03 Jun 2027 01:09:11.844   03 Jun 2027 01:09:33.348            21.504            RioGallegos           672.000
       216   03 Jun 2027 01:38:41.945   03 Jun 2027 01:38:51.059             9.114                Anadyr2           284.813
       217   03 Jun 2027 01:39:15.387   03 Jun 2027 01:39:55.524            40.137                Anadyr2          1254.281
       218   03 Jun 2027 01:40:58.082   03 Jun 2027 01:41:34.269            36.187                Anadyr1          1130.844
       219   03 Jun 2027 01:43:45.825   03 Jun 2027 01:43:56.740            10.915                Anadyr1           341.094
       220   03 Jun 2027 01:44:11.207   03 Jun 2027 01:44:35.460            24.253                Anadyr1           757.906
       221   03 Jun 2027 01:44:44.580   03 Jun 2027 01:44:55.889            11.309                Norilsk           353.406
       222   03 Jun 2027 01:44:57.087   03 Jun 2027 01:45:44.097            47.010               Magadan1          1469.063
       223   03 Jun 2027 01:46:05.647   03 Jun 2027 01:46:38.484            32.837               Magadan1          1026.156
       224   03 Jun 2027 01:47:03.508   03 Jun 2027 01:47:03.709             0.201              Murmansk1             6.281
       225   03 Jun 2027 01:47:54.890   03 Jun 2027 01:49:58.697           123.807              Murmansk1          3868.969
       226   03 Jun 2027 01:51:00.341   03 Jun 2027 01:52:06.338            65.997                Irkutsk          2062.406
       227   03 Jun 2027 01:55:22.541   03 Jun 2027 01:55:55.753            33.212                 Moscow          1037.875
       228   03 Jun 2027 02:00:59.228   03 Jun 2027 02:01:09.199             9.971                  Delhi           311.594
       229   03 Jun 2027 02:04:33.664   03 Jun 2027 02:06:37.841           124.177                  Delhi          3880.531
       230   03 Jun 2027 03:29:54.178   03 Jun 2027 03:30:03.969             9.791                Norilsk           305.969
       231   03 Jun 2027 03:30:54.534   03 Jun 2027 03:31:20.764            26.230                Norilsk           819.688
       232   03 Jun 2027 03:31:27.038   03 Jun 2027 03:31:58.498            31.460              Murmansk1           983.125
       233   03 Jun 2027 03:32:05.428   03 Jun 2027 03:32:18.959            13.531                Norilsk           422.844
       234   03 Jun 2027 03:32:27.980   03 Jun 2027 03:32:55.656            27.676              Murmansk1           864.875
       235   03 Jun 2027 03:33:40.046   03 Jun 2027 03:34:18.330            38.284              Murmansk1          1196.375
       236   03 Jun 2027 03:34:33.839   03 Jun 2027 03:35:06.774            32.935              Murmansk1          1029.219
       237   03 Jun 2027 03:35:11.137   03 Jun 2027 03:36:57.040           105.903                 Moscow          3309.469
       238   03 Jun 2027 03:50:21.787   03 Jun 2027 03:54:10.617           228.830               CapeTown          7150.938
       239   03 Jun 2027 04:53:34.072   03 Jun 2027 04:53:44.002             9.930               Magadan2           310.312
       240   03 Jun 2027 04:53:56.970   03 Jun 2027 04:55:22.501            85.531                Anadyr1          2672.844
       241   03 Jun 2027 04:55:41.020   03 Jun 2027 04:56:07.572            26.552               Magadan2           829.750
       242   03 Jun 2027 05:05:54.775   03 Jun 2027 05:05:56.322             1.547              Murmansk2            48.344
       243   03 Jun 2027 05:06:14.719   03 Jun 2027 05:07:07.491            52.772                 Moscow          1649.125
       244   03 Jun 2027 05:08:01.114   03 Jun 2027 05:08:40.138            39.024              Murmansk2          1219.500
       245   03 Jun 2027 05:08:40.138   03 Jun 2027 05:09:31.237            51.099              Murmansk1          1596.844
       246   03 Jun 2027 05:27:05.808   03 Jun 2027 05:27:25.146            19.338               CapeTown           604.312
       247   03 Jun 2027 05:33:07.272   03 Jun 2027 05:33:45.791            38.519               CapeTown          1203.719
       248   03 Jun 2027 06:27:26.426   03 Jun 2027 06:27:39.754            13.328                Anadyr1           416.500
       249   03 Jun 2027 06:27:41.248   03 Jun 2027 06:28:42.834            61.586               Magadan2          1924.562
       250   03 Jun 2027 06:29:21.217   03 Jun 2027 06:29:26.891             5.674               Magadan2           177.313
       251   03 Jun 2027 06:29:26.891   03 Jun 2027 06:29:56.429            29.538               Magadan1           923.062
       252   03 Jun 2027 06:30:07.760   03 Jun 2027 06:30:58.451            50.691                Anadyr1          1584.094
       253   03 Jun 2027 06:31:17.459   03 Jun 2027 06:31:29.164            11.705               Magadan1           365.781
       254   03 Jun 2027 06:31:29.164   03 Jun 2027 06:32:43.694            74.530               Magadan2          2329.063
       255   03 Jun 2027 06:43:54.943   03 Jun 2027 06:44:18.688            23.745                 Moscow           742.031
       256   03 Jun 2027 07:15:51.285   03 Jun 2027 07:16:07.586            16.301            RioGallegos           509.406
       257   03 Jun 2027 08:02:44.987   03 Jun 2027 08:03:27.628            42.641                Anadyr1          1332.531
       258   03 Jun 2027 08:03:27.628   03 Jun 2027 08:03:52.603            24.975                Anadyr2           780.469
       259   03 Jun 2027 08:04:36.928   03 Jun 2027 08:05:02.861            25.933                Anadyr1           810.406
       260   03 Jun 2027 08:05:12.568   03 Jun 2027 08:05:43.539            30.971               Magadan2           967.844
       261   03 Jun 2027 08:06:02.288   03 Jun 2027 08:07:26.690            84.402                Anadyr2          2637.563
       262   03 Jun 2027 08:07:36.542   03 Jun 2027 08:07:51.653            15.111                Irkutsk           472.219
       263   03 Jun 2027 08:07:52.997   03 Jun 2027 08:08:51.246            58.249                Anadyr1          1820.281
       264   03 Jun 2027 08:08:55.536   03 Jun 2027 08:09:21.602            26.066                Irkutsk           814.563
       265   03 Jun 2027 08:09:46.638   03 Jun 2027 08:10:51.949            65.311                Anadyr1          2040.969
       266   03 Jun 2027 08:46:52.968   03 Jun 2027 08:47:27.341            34.373            RioGallegos          1074.156
       267   03 Jun 2027 09:39:21.658   03 Jun 2027 09:39:27.689             6.031               Magadan1           188.469
       268   03 Jun 2027 09:40:04.042   03 Jun 2027 09:40:40.646            36.604                Novosib          1143.875
       269   03 Jun 2027 09:41:37.813   03 Jun 2027 09:42:48.140            70.327               Magadan2          2197.719
       270   03 Jun 2027 09:42:52.713   03 Jun 2027 09:43:03.599            10.886                Irkutsk           340.188
       271   03 Jun 2027 09:43:12.473   03 Jun 2027 09:44:05.216            52.743                Norilsk          1648.219
       272   03 Jun 2027 09:44:08.985   03 Jun 2027 09:44:36.140            27.155                Norilsk           848.594
       273   03 Jun 2027 09:44:38.674   03 Jun 2027 09:44:45.204             6.530                Novosib           204.063
       274   03 Jun 2027 09:44:51.632   03 Jun 2027 09:45:19.930            28.298                Norilsk           884.313
       275   03 Jun 2027 09:45:29.605   03 Jun 2027 09:46:06.880            37.275                Norilsk          1164.844
       276   03 Jun 2027 09:46:20.690   03 Jun 2027 09:47:11.507            50.817              Murmansk1          1588.031
       277   03 Jun 2027 10:21:40.995   03 Jun 2027 10:22:30.317            49.322            RioGallegos          1541.312
       278   03 Jun 2027 10:28:28.782   03 Jun 2027 10:28:45.557            16.775            RioGallegos           524.219
       279   03 Jun 2027 10:56:33.440   03 Jun 2027 10:57:10.016            36.576                Sumatra          1143.000
       280   03 Jun 2027 10:59:37.334   03 Jun 2027 10:59:52.660            15.326                Sumatra           478.938
       281   03 Jun 2027 11:07:28.179   03 Jun 2027 11:07:39.728            11.549                  Delhi           360.906
       282   03 Jun 2027 11:10:33.288   03 Jun 2027 11:10:35.423             2.135                  Delhi            66.719
       283   03 Jun 2027 11:13:35.078   03 Jun 2027 11:15:01.567            86.489                  Delhi          2702.781
       284   03 Jun 2027 11:16:42.964   03 Jun 2027 11:17:22.151            39.187                Irkutsk          1224.594
       285   03 Jun 2027 11:17:33.537   03 Jun 2027 11:17:47.911            14.374                Norilsk           449.188
       286   03 Jun 2027 11:18:01.193   03 Jun 2027 11:18:50.103            48.910                Irkutsk          1528.438
       287   03 Jun 2027 11:18:59.353   03 Jun 2027 11:20:09.078            69.725                Norilsk          2178.906
       288   03 Jun 2027 11:20:14.135   03 Jun 2027 11:21:58.263           104.128              Murmansk1          3254.000
       289   03 Jun 2027 11:22:10.205   03 Jun 2027 11:22:14.072             3.867              Murmansk1           120.844
       290   03 Jun 2027 11:22:23.752   03 Jun 2027 11:22:32.257             8.505                Novosib           265.781
       291   03 Jun 2027 11:22:33.375   03 Jun 2027 11:22:37.741             4.366              Murmansk2           136.437
       292   03 Jun 2027 11:22:53.789   03 Jun 2027 11:23:06.314            12.525              Murmansk2           391.406
       293   03 Jun 2027 11:25:30.008   03 Jun 2027 11:25:47.801            17.793              Murmansk2           556.031
       294   03 Jun 2027 12:00:55.750   03 Jun 2027 12:01:45.671            49.921            RioGallegos          1560.031
       295   03 Jun 2027 12:04:55.214   03 Jun 2027 12:05:37.504            42.290            RioGallegos          1321.563
       296   03 Jun 2027 12:35:43.905   03 Jun 2027 12:36:36.442            52.537                Sumatra          1641.781
       297   03 Jun 2027 12:43:47.005   03 Jun 2027 12:44:51.753            64.748                  Delhi          2023.375
       298   03 Jun 2027 12:48:17.039   03 Jun 2027 12:49:39.965            82.926                Novosib          2591.437
       299   03 Jun 2027 12:51:43.687   03 Jun 2027 12:51:54.504            10.817                Irkutsk           338.031
       300   03 Jun 2027 12:52:21.053   03 Jun 2027 12:53:32.105            71.052                Norilsk          2220.375
       301   03 Jun 2027 12:54:18.288   03 Jun 2027 12:54:29.491            11.203                Norilsk           350.094
       302   03 Jun 2027 12:56:39.545   03 Jun 2027 12:57:04.313            24.768              Murmansk2           774.000
       303   03 Jun 2027 14:25:09.668   03 Jun 2027 14:28:51.746           222.078                 Moscow          6939.938
       304   03 Jun 2027 14:28:52.841   03 Jun 2027 14:30:54.581           121.740              Murmansk1          3804.375
       305   03 Jun 2027 14:31:06.206   03 Jun 2027 14:32:43.042            96.836                Novosib          3026.125
       306   03 Jun 2027 14:34:22.890   03 Jun 2027 14:36:02.392            99.502                Norilsk          3109.438
       307   03 Jun 2027 15:40:11.645   03 Jun 2027 15:40:24.954            13.309               CapeTown           415.906
       308   03 Jun 2027 15:41:19.029   03 Jun 2027 15:42:47.189            88.160               CapeTown          2755.000
       309   03 Jun 2027 16:02:04.551   03 Jun 2027 16:02:07.627             3.076                 Moscow            96.125
       310   03 Jun 2027 16:02:41.040   03 Jun 2027 16:03:16.648            35.608                 Moscow          1112.750
       311   03 Jun 2027 16:05:21.770   03 Jun 2027 16:06:10.319            48.549              Murmansk2          1517.156
       312   03 Jun 2027 16:13:42.780   03 Jun 2027 16:14:45.669            62.889              Murmansk2          1965.281
       313   03 Jun 2027 16:19:43.984   03 Jun 2027 16:20:57.008            73.024                Anadyr2          2282.000
       314   03 Jun 2027 16:20:57.008   03 Jun 2027 16:21:10.264            13.256                Anadyr1           414.250
       315   03 Jun 2027 16:22:16.565   03 Jun 2027 16:22:56.467            39.902                Anadyr1          1246.938
       316   03 Jun 2027 17:14:32.753   03 Jun 2027 17:16:52.690           139.937               CapeTown          4373.031
       317   03 Jun 2027 17:44:21.633   03 Jun 2027 17:45:04.250            42.617              Murmansk1          1331.781
       318   03 Jun 2027 17:45:54.318   03 Jun 2027 17:47:16.177            81.859              Murmansk2          2558.094
       319   03 Jun 2027 17:48:01.665   03 Jun 2027 17:49:36.129            94.464              Murmansk2          2952.000
       320   03 Jun 2027 17:55:10.451   03 Jun 2027 17:55:28.992            18.541                Anadyr1           579.406
       321   03 Jun 2027 17:58:57.194   03 Jun 2027 17:59:27.007            29.813               Magadan2           931.656
       322   03 Jun 2027 17:59:27.007   03 Jun 2027 18:00:56.864            89.857               Magadan1          2808.031
       323   03 Jun 2027 19:31:04.625   03 Jun 2027 19:34:56.174           231.549                Anadyr2          7235.906
       324   03 Jun 2027 19:35:02.444   03 Jun 2027 19:37:37.038           154.594               Magadan1          4831.063
       325   03 Jun 2027 19:38:47.695   03 Jun 2027 19:38:55.241             7.546               Magadan1           235.813
       326   03 Jun 2027 19:42:59.127   03 Jun 2027 19:44:10.549            71.422               Magadan1          2231.937
       327   03 Jun 2027 21:06:57.580   03 Jun 2027 21:09:30.522           152.942                Anadyr2          4779.437
       328   03 Jun 2027 21:09:32.154   03 Jun 2027 21:10:41.810            69.656                Norilsk          2176.750
       329   03 Jun 2027 21:11:12.174   03 Jun 2027 21:13:03.959           111.785               Magadan2          3493.281
       330   03 Jun 2027 21:13:06.415   03 Jun 2027 21:13:35.846            29.431               Magadan1           919.719
       331   03 Jun 2027 21:15:07.051   03 Jun 2027 21:16:22.588            75.537                Irkutsk          2360.531
       332   03 Jun 2027 21:16:57.134   03 Jun 2027 21:17:39.324            42.190                Irkutsk          1318.438
       333   03 Jun 2027 22:01:08.455   03 Jun 2027 22:01:52.825            44.370            RioGallegos          1386.562
       334   03 Jun 2027 22:03:32.822   03 Jun 2027 22:04:09.596            36.774            RioGallegos          1149.188
       335   03 Jun 2027 22:09:23.153   03 Jun 2027 22:09:59.601            36.448            RioGallegos          1139.000
       336   03 Jun 2027 22:42:26.364   03 Jun 2027 22:43:12.871            46.507                Anadyr2          1453.344
       337   03 Jun 2027 22:43:21.181   03 Jun 2027 22:44:51.393            90.212                Anadyr1          2819.125
       338   03 Jun 2027 22:45:22.010   03 Jun 2027 22:46:37.266            75.256               Magadan2          2351.750
       339   03 Jun 2027 22:47:06.018   03 Jun 2027 22:48:13.447            67.429               Magadan1          2107.156
       340   03 Jun 2027 22:50:00.893   03 Jun 2027 22:51:32.656            91.763                Novosib          2867.594
       341   03 Jun 2027 22:56:36.949   03 Jun 2027 22:56:52.662            15.713                Novosib           491.031
       342   03 Jun 2027 23:02:31.747   03 Jun 2027 23:03:34.988            63.241                Sumatra          1976.281
       343   03 Jun 2027 23:11:34.103   03 Jun 2027 23:12:06.325            32.222                Sumatra          1006.938
       344   04 Jun 2027 00:16:54.420   04 Jun 2027 00:18:16.934            82.514                Anadyr1          2578.562
       345   04 Jun 2027 00:18:16.934   04 Jun 2027 00:18:30.146            13.212                Anadyr2           412.875
       346   04 Jun 2027 00:19:10.805   04 Jun 2027 00:19:42.451            31.646                Anadyr2           988.937
       347   04 Jun 2027 00:20:47.753   04 Jun 2027 00:21:01.173            13.420                Norilsk           419.375
       348   04 Jun 2027 00:21:26.386   04 Jun 2027 00:23:04.006            97.620               Magadan2          3050.625
       349   04 Jun 2027 00:23:58.844   04 Jun 2027 00:24:34.630            35.786                Norilsk          1118.313
       350   04 Jun 2027 00:24:40.708   04 Jun 2027 00:25:35.364            54.656                Novosib          1708.000
       351   04 Jun 2027 00:26:07.739   04 Jun 2027 00:26:27.995            20.256              Murmansk2           633.000
       352   04 Jun 2027 00:27:00.816   04 Jun 2027 00:27:33.365            32.549                Irkutsk          1017.156
       353   04 Jun 2027 00:29:12.055   04 Jun 2027 00:29:31.512            19.457                Novosib           608.031
       354   04 Jun 2027 00:32:10.290   04 Jun 2027 00:33:01.732            51.442                  Delhi          1607.562
       355   04 Jun 2027 00:34:18.662   04 Jun 2027 00:34:49.465            30.803                  Delhi           962.594
       356   04 Jun 2027 00:38:55.971   04 Jun 2027 00:39:34.980            39.009                  Delhi          1219.031
       357   04 Jun 2027 01:13:22.882   04 Jun 2027 01:14:21.748            58.866            RioGallegos          1839.562
       358   04 Jun 2027 01:17:03.980   04 Jun 2027 01:17:25.399            21.419            RioGallegos           669.344
       359   04 Jun 2027 01:21:32.546   04 Jun 2027 01:21:44.716            12.170            RioGallegos           380.312
       360   04 Jun 2027 01:50:17.753   04 Jun 2027 01:51:10.852            53.099                Anadyr2          1659.344
       361   04 Jun 2027 01:51:47.609   04 Jun 2027 01:52:05.522            17.913                Anadyr2           559.781
       362   04 Jun 2027 01:52:16.506   04 Jun 2027 01:52:32.866            16.360                Anadyr1           511.250
       363   04 Jun 2027 01:52:48.497   04 Jun 2027 01:53:11.658            23.161                Anadyr2           723.781
       364   04 Jun 2027 01:55:57.287   04 Jun 2027 01:56:00.163             2.876                Anadyr1            89.875
       365   04 Jun 2027 01:56:30.047   04 Jun 2027 01:58:08.351            98.304               Magadan2          3072.000
       366   04 Jun 2027 01:58:57.383   04 Jun 2027 01:59:07.787            10.404               Magadan2           325.125
       367   04 Jun 2027 01:59:48.668   04 Jun 2027 02:01:24.478            95.810              Murmansk1          2994.063
       368   04 Jun 2027 02:01:28.471   04 Jun 2027 02:01:45.076            16.605                Novosib           518.906
       369   04 Jun 2027 02:02:06.546   04 Jun 2027 02:02:49.302            42.756                Novosib          1336.125
       370   04 Jun 2027 02:04:57.060   04 Jun 2027 02:06:02.334            65.274                Irkutsk          2039.812
       371   04 Jun 2027 02:16:17.211   04 Jun 2027 02:18:19.076           121.865                  Delhi          3808.281
       372   04 Jun 2027 03:42:28.436   04 Jun 2027 03:42:52.449            24.013                Norilsk           750.406
       373   04 Jun 2027 03:43:15.140   04 Jun 2027 03:43:42.981            27.841                Norilsk           870.031
       374   04 Jun 2027 03:43:47.918   04 Jun 2027 03:44:36.874            48.956                Novosib          1529.875
       375   04 Jun 2027 03:44:53.365   04 Jun 2027 03:45:42.568            49.203              Murmansk2          1537.594
       376   04 Jun 2027 03:47:20.063   04 Jun 2027 03:47:20.155             0.092              Murmansk1             2.875
       377   04 Jun 2027 03:47:21.024   04 Jun 2027 03:50:56.529           215.505                 Moscow          6734.531
       378   04 Jun 2027 04:14:43.447   04 Jun 2027 04:14:49.225             5.778               CapeTown           180.562
       379   04 Jun 2027 05:01:36.194   04 Jun 2027 05:01:46.378            10.184               Magadan1           318.250
       380   04 Jun 2027 05:01:53.129   04 Jun 2027 05:02:30.494            37.365               Magadan2          1167.656
       381   04 Jun 2027 05:05:25.314   04 Jun 2027 05:07:00.784            95.470               Magadan2          2983.437
       382   04 Jun 2027 05:07:13.035   04 Jun 2027 05:07:56.536            43.501                Anadyr1          1359.406
       383   04 Jun 2027 05:08:27.070   04 Jun 2027 05:09:50.900            83.830               Magadan1          2619.688
       384   04 Jun 2027 05:10:00.318   04 Jun 2027 05:11:12.990            72.672               Magadan1          2271.000
       385   04 Jun 2027 05:11:33.776   04 Jun 2027 05:11:41.302             7.526                Anadyr1           235.188
       386   04 Jun 2027 05:17:43.752   04 Jun 2027 05:17:52.574             8.822              Murmansk1           275.688
       387   04 Jun 2027 05:18:20.382   04 Jun 2027 05:18:46.884            26.502              Murmansk2           828.187
       388   04 Jun 2027 05:19:52.541   04 Jun 2027 05:21:25.975            93.434              Murmansk1          2919.812
       389   04 Jun 2027 05:45:15.081   04 Jun 2027 05:45:31.471            16.390               CapeTown           512.187
       390   04 Jun 2027 06:39:20.980   04 Jun 2027 06:40:07.991            47.011                Anadyr2          1469.094
       391   04 Jun 2027 06:40:11.064   04 Jun 2027 06:40:17.695             6.631                Anadyr2           207.219
       392   04 Jun 2027 06:40:34.229   04 Jun 2027 06:41:00.765            26.536               Magadan2           829.250
       393   04 Jun 2027 06:41:07.690   04 Jun 2027 06:41:38.900            31.210                Anadyr1           975.313
       394   04 Jun 2027 06:42:02.091   04 Jun 2027 06:43:15.694            73.603               Magadan1          2300.094
       395   04 Jun 2027 06:43:21.532   04 Jun 2027 06:43:33.636            12.104               Magadan2           378.250
       396   04 Jun 2027 06:43:41.037   04 Jun 2027 06:44:44.691            63.654                Norilsk          1989.187
       397   04 Jun 2027 06:47:01.321   04 Jun 2027 06:47:04.676             3.355              Murmansk2           104.844
       398   04 Jun 2027 06:55:26.057   04 Jun 2027 06:55:54.470            28.413              Murmansk1           887.906
       399   04 Jun 2027 07:26:36.200   04 Jun 2027 07:27:45.474            69.274            RioGallegos          2164.813
       400   04 Jun 2027 08:14:37.608   04 Jun 2027 08:15:26.795            49.187               Magadan2          1537.094
       401   04 Jun 2027 08:15:31.332   04 Jun 2027 08:15:50.495            19.163                Anadyr1           598.844
       402   04 Jun 2027 08:15:52.974   04 Jun 2027 08:15:59.593             6.619                Irkutsk           206.844
       403   04 Jun 2027 08:16:17.715   04 Jun 2027 08:18:02.779           105.064                Anadyr1          3283.250
       404   04 Jun 2027 08:18:15.460   04 Jun 2027 08:19:27.516            72.056               Magadan1          2251.750
       405   04 Jun 2027 08:19:53.824   04 Jun 2027 08:20:11.325            17.501                Irkutsk           546.906
       406   04 Jun 2027 08:20:16.099   04 Jun 2027 08:21:04.419            48.320                Anadyr1          1510.000
       407   04 Jun 2027 08:21:11.538   04 Jun 2027 08:21:33.275            21.737                Norilsk           679.281
       408   04 Jun 2027 08:21:35.313   04 Jun 2027 08:22:07.940            32.627               Magadan1          1019.594
       409   04 Jun 2027 08:22:07.940   04 Jun 2027 08:23:06.324            58.384               Magadan2          1824.500
       410   04 Jun 2027 08:58:23.475   04 Jun 2027 08:58:47.691            24.216            RioGallegos           756.750
       411   04 Jun 2027 09:37:13.385   04 Jun 2027 09:38:06.609            53.224                Sumatra          1663.250
       412   04 Jun 2027 09:52:13.996   04 Jun 2027 09:54:38.129           144.133               Magadan1          4504.156
       413   04 Jun 2027 09:54:47.385   04 Jun 2027 09:55:09.046            21.661                Irkutsk           676.906
       414   04 Jun 2027 09:55:37.554   04 Jun 2027 09:55:39.866             2.312               Magadan2            72.250
       415   04 Jun 2027 09:55:50.534   04 Jun 2027 09:55:53.993             3.459                Irkutsk           108.094
       416   04 Jun 2027 09:56:10.736   04 Jun 2027 09:56:21.227            10.491                Norilsk           327.844
       417   04 Jun 2027 09:56:26.130   04 Jun 2027 09:57:37.636            71.506               Magadan1          2234.562
       418   04 Jun 2027 09:57:48.370   04 Jun 2027 09:58:25.645            37.275                Novosib          1164.844
       419   04 Jun 2027 09:58:33.739   04 Jun 2027 09:59:12.065            38.326              Murmansk1          1197.688
       420   04 Jun 2027 10:33:50.709   04 Jun 2027 10:35:10.575            79.866            RioGallegos          2495.813
       421   04 Jun 2027 11:08:31.463   04 Jun 2027 11:09:06.373            34.910                Sumatra          1090.937
       422   04 Jun 2027 11:19:24.411   04 Jun 2027 11:21:16.569           112.158                  Delhi          3504.938
       423   04 Jun 2027 11:28:35.127   04 Jun 2027 11:28:48.718            13.591                Irkutsk           424.719
       424   04 Jun 2027 11:29:26.479   04 Jun 2027 11:29:59.810            33.331                Irkutsk          1041.594
       425   04 Jun 2027 11:30:00.454   04 Jun 2027 11:30:05.350             4.896                Norilsk           153.000
       426   04 Jun 2027 11:30:19.773   04 Jun 2027 11:30:28.527             8.754                Norilsk           273.563
       427   04 Jun 2027 11:30:38.800   04 Jun 2027 11:31:09.414            30.614                Norilsk           956.687
       428   04 Jun 2027 11:31:15.746   04 Jun 2027 11:31:59.184            43.438              Murmansk1          1357.437
       429   04 Jun 2027 11:32:09.916   04 Jun 2027 11:32:32.335            22.419              Murmansk1           700.594
       430   04 Jun 2027 11:32:38.016   04 Jun 2027 11:32:48.712            10.696                Irkutsk           334.250
       431   04 Jun 2027 11:32:51.010   04 Jun 2027 11:34:06.574            75.564                Norilsk          2361.375
       432   04 Jun 2027 11:34:18.993   04 Jun 2027 11:34:39.008            20.015                Irkutsk           625.469
       433   04 Jun 2027 11:34:46.986   04 Jun 2027 11:35:04.382            17.396              Murmansk2           543.625
       434   04 Jun 2027 11:36:06.956   04 Jun 2027 11:36:13.805             6.849              Murmansk1           214.031
       435   04 Jun 2027 11:36:55.686   04 Jun 2027 11:37:02.103             6.417              Murmansk1           200.531
       436   04 Jun 2027 11:37:43.854   04 Jun 2027 11:37:47.879             4.025              Murmansk1           125.781
       437   04 Jun 2027 12:13:59.223   04 Jun 2027 12:14:27.155            27.932            RioGallegos           872.875
       438   04 Jun 2027 12:15:32.532   04 Jun 2027 12:16:54.272            81.740            RioGallegos          2554.375
       439   04 Jun 2027 12:55:03.500   04 Jun 2027 12:55:50.609            47.109                  Delhi          1472.156
       440   04 Jun 2027 12:57:09.489   04 Jun 2027 12:57:14.256             4.767                  Delhi           148.969
       441   04 Jun 2027 13:00:38.829   04 Jun 2027 13:02:33.052           114.223                Novosib          3569.469
       442   04 Jun 2027 13:04:41.695   04 Jun 2027 13:07:11.151           149.456                Norilsk          4670.500
       443   04 Jun 2027 13:10:24.090   04 Jun 2027 13:11:16.559            52.469                Norilsk          1639.656
       444   04 Jun 2027 14:37:07.826   04 Jun 2027 14:38:19.417            71.591                 Moscow          2237.219
       445   04 Jun 2027 14:38:34.034   04 Jun 2027 14:40:56.734           142.700                 Moscow          4459.375
       446   04 Jun 2027 14:41:53.722   04 Jun 2027 14:43:08.074            74.352              Murmansk1          2323.500
       447   04 Jun 2027 14:44:35.396   04 Jun 2027 14:48:01.577           206.181                Norilsk          6443.156
       448   04 Jun 2027 15:51:43.277   04 Jun 2027 15:52:02.241            18.964               CapeTown           592.625
       449   04 Jun 2027 15:53:33.061   04 Jun 2027 15:54:45.860            72.799               CapeTown          2274.969
       450   04 Jun 2027 16:14:29.778   04 Jun 2027 16:14:42.350            12.572                 Moscow           392.875
       451   04 Jun 2027 16:17:38.422   04 Jun 2027 16:17:49.176            10.754              Murmansk2           336.063
       452   04 Jun 2027 16:18:12.366   04 Jun 2027 16:19:27.800            75.434              Murmansk2          2357.312
       453   04 Jun 2027 16:25:47.983   04 Jun 2027 16:26:21.852            33.869              Murmansk2          1058.406
       454   04 Jun 2027 16:31:37.860   04 Jun 2027 16:33:15.410            97.550                Anadyr1          3048.437
       455   04 Jun 2027 16:33:31.632   04 Jun 2027 16:34:17.607            45.975                Anadyr1          1436.719
       456   04 Jun 2027 16:38:39.890   04 Jun 2027 16:39:35.952            56.062                Anadyr2          1751.938
       457   04 Jun 2027 17:28:18.688   04 Jun 2027 17:28:46.472            27.784               CapeTown           868.250
       458   04 Jun 2027 17:34:49.798   04 Jun 2027 17:35:12.873            23.075               CapeTown           721.094
       459   04 Jun 2027 17:56:58.522   04 Jun 2027 17:58:03.085            64.563              Murmansk1          2017.594
       460   04 Jun 2027 17:58:41.500   04 Jun 2027 18:01:35.628           174.128              Murmansk2          5441.500
       461   04 Jun 2027 18:07:11.133   04 Jun 2027 18:07:15.582             4.449                Anadyr1           139.031
       462   04 Jun 2027 18:08:48.442   04 Jun 2027 18:08:57.835             9.393                Anadyr2           293.531
       463   04 Jun 2027 18:10:01.255   04 Jun 2027 18:10:30.012            28.757                Anadyr1           898.656
       464   04 Jun 2027 18:10:35.399   04 Jun 2027 18:11:23.077            47.678               Magadan1          1489.937
       465   04 Jun 2027 18:11:23.077   04 Jun 2027 18:11:24.257             1.180               Magadan2            36.875
       466   04 Jun 2027 18:12:07.813   04 Jun 2027 18:12:33.494            25.681               Magadan1           802.531
       467   04 Jun 2027 18:15:10.101   04 Jun 2027 18:15:37.732            27.631               Magadan2           863.469
       468   04 Jun 2027 18:16:34.370   04 Jun 2027 18:16:44.352             9.982               Magadan2           311.937
       469   04 Jun 2027 18:16:56.041   04 Jun 2027 18:17:02.308             6.267               Magadan2           195.844
       470   04 Jun 2027 18:18:23.069   04 Jun 2027 18:18:23.289             0.220               Magadan2             6.875
       471   04 Jun 2027 19:43:06.246   04 Jun 2027 19:44:51.114           104.868                Anadyr2          3277.125
       472   04 Jun 2027 19:45:03.580   04 Jun 2027 19:46:52.645           109.065                Anadyr1          3408.281
       473   04 Jun 2027 19:47:16.280   04 Jun 2027 19:48:53.386            97.106               Magadan2          3034.562
       474   04 Jun 2027 19:48:53.386   04 Jun 2027 19:50:27.393            94.007               Magadan1          2937.719
       475   04 Jun 2027 19:56:01.477   04 Jun 2027 19:56:14.282            12.805               Magadan2           400.156
       476   04 Jun 2027 19:56:28.503   04 Jun 2027 19:57:01.091            32.588               Magadan2          1018.375
       477   04 Jun 2027 20:41:07.292   04 Jun 2027 20:42:15.237            67.945            RioGallegos          2123.281
       478   04 Jun 2027 21:18:57.633   04 Jun 2027 21:21:08.240           130.607                Anadyr1          4081.469
       479   04 Jun 2027 21:21:10.124   04 Jun 2027 21:22:42.581            92.457                Norilsk          2889.281
       480   04 Jun 2027 21:22:43.530   04 Jun 2027 21:24:01.511            77.981               Magadan1          2436.906
       481   04 Jun 2027 21:24:01.511   04 Jun 2027 21:24:27.496            25.985               Magadan2           812.031
       482   04 Jun 2027 21:25:04.342   04 Jun 2027 21:25:41.330            36.988               Magadan1          1155.875
