uniorb/output/strategy_2/Drop/Drop_KinoSat_111206.txt

KinoSat_111206
-------------------------
    Access    *     Start Time (UTCG)     *     Stop Time (UTCG)  *   Duration (s)        *       Station  *  Data (Mbytes)
         1   01 Jun 2027 03:25:47.702   01 Jun 2027 03:25:57.846            10.144              Murmansk2           317.000
         2   01 Jun 2027 03:25:57.846   01 Jun 2027 03:28:45.893           168.047              Murmansk1          5251.469
         3   01 Jun 2027 04:46:11.351   01 Jun 2027 04:46:38.281            26.930               Magadan2           841.563
         4   01 Jun 2027 04:46:38.281   01 Jun 2027 04:46:41.539             3.258               Magadan1           101.813
         5   01 Jun 2027 04:46:59.583   01 Jun 2027 04:50:51.728           232.145                Anadyr1          7254.531
         6   01 Jun 2027 06:23:44.522   01 Jun 2027 06:24:10.521            25.999                Irkutsk           812.469
         7   01 Jun 2027 06:24:35.817   01 Jun 2027 06:24:57.590            21.773                Irkutsk           680.406
         8   01 Jun 2027 06:25:43.462   01 Jun 2027 06:26:11.475            28.013                Anadyr1           875.406
         9   01 Jun 2027 06:26:25.874   01 Jun 2027 06:26:36.697            10.823               Magadan2           338.219
        10   01 Jun 2027 07:58:51.927   01 Jun 2027 08:03:30.888           278.961               Magadan2          8717.531
        11   01 Jun 2027 08:03:43.773   01 Jun 2027 08:03:54.391            10.618               Magadan1           331.813
        12   01 Jun 2027 08:04:24.447   01 Jun 2027 08:04:38.808            14.361                Novosib           448.781
        13   01 Jun 2027 08:05:28.973   01 Jun 2027 08:05:31.129             2.156              Murmansk1            67.375
        14   01 Jun 2027 08:05:47.904   01 Jun 2027 08:06:38.852            50.948              Murmansk2          1592.125
        15   01 Jun 2027 08:40:55.243   01 Jun 2027 08:41:27.661            32.418            RioGallegos          1013.062
        16   01 Jun 2027 09:15:17.065   01 Jun 2027 09:15:53.839            36.774                Sumatra          1149.188
        17   01 Jun 2027 09:35:25.410   01 Jun 2027 09:35:55.767            30.357                Norilsk           948.656
        18   01 Jun 2027 09:35:59.853   01 Jun 2027 09:39:09.905           190.052                Irkutsk          5939.125
        19   01 Jun 2027 09:39:15.559   01 Jun 2027 09:39:42.582            27.023              Murmansk1           844.469
        20   01 Jun 2027 09:39:42.582   01 Jun 2027 09:40:20.292            37.710              Murmansk2          1178.438
        21   01 Jun 2027 09:41:50.427   01 Jun 2027 09:42:20.427            30.000              Murmansk1           937.500
        22   01 Jun 2027 10:15:33.634   01 Jun 2027 10:16:06.960            33.326            RioGallegos          1041.438
        23   01 Jun 2027 10:20:00.258   01 Jun 2027 10:20:32.290            32.032            RioGallegos          1001.000
        24   01 Jun 2027 10:49:52.530   01 Jun 2027 10:50:46.368            53.838                Sumatra          1682.438
        25   01 Jun 2027 10:54:42.842   01 Jun 2027 10:54:45.068             2.226                Sumatra            69.563
        26   01 Jun 2027 10:58:30.938   01 Jun 2027 10:58:59.698            28.760                  Delhi           898.750
        27   01 Jun 2027 10:59:13.014   01 Jun 2027 11:00:27.789            74.775                  Delhi          2336.719
        28   01 Jun 2027 11:11:54.350   01 Jun 2027 11:14:55.497           181.147                Irkutsk          5660.844
        29   01 Jun 2027 11:15:27.962   01 Jun 2027 11:16:13.236            45.274                Novosib          1414.813
        30   01 Jun 2027 12:34:37.914   01 Jun 2027 12:37:36.714           178.800                  Delhi          5587.500
        31   01 Jun 2027 12:42:55.974   01 Jun 2027 12:43:18.004            22.030                Novosib           688.438
        32   01 Jun 2027 12:44:46.170   01 Jun 2027 12:45:46.988            60.818                Novosib          1900.563
        33   01 Jun 2027 12:45:54.591   01 Jun 2027 12:48:07.642           133.051              Murmansk2          4157.844
        34   01 Jun 2027 12:49:37.143   01 Jun 2027 12:49:38.660             1.517                Norilsk            47.406
        35   01 Jun 2027 12:51:11.050   01 Jun 2027 12:51:30.373            19.323                Norilsk           603.844
        36   01 Jun 2027 14:18:16.426   01 Jun 2027 14:21:28.891           192.465                 Moscow          6014.531
        37   01 Jun 2027 14:21:47.946   01 Jun 2027 14:25:22.766           214.820              Murmansk1          6713.125
        38   01 Jun 2027 14:27:45.611   01 Jun 2027 14:28:50.517            64.906                Norilsk          2028.312
        39   01 Jun 2027 14:29:30.512   01 Jun 2027 14:31:11.193           100.681                Norilsk          3146.281
        40   01 Jun 2027 14:38:29.794   01 Jun 2027 14:38:51.707            21.913                Anadyr1           684.781
        41   01 Jun 2027 15:32:02.232   01 Jun 2027 15:33:51.825           109.593               CapeTown          3424.781
        42   01 Jun 2027 15:56:58.303   01 Jun 2027 15:57:04.203             5.900                 Moscow           184.375
        43   01 Jun 2027 15:59:30.801   01 Jun 2027 16:00:24.263            53.462              Murmansk2          1670.688
        44   01 Jun 2027 16:00:57.084   01 Jun 2027 16:01:28.483            31.399              Murmansk1           981.219
        45   01 Jun 2027 16:03:00.103   01 Jun 2027 16:03:13.723            13.620              Murmansk2           425.625
        46   01 Jun 2027 16:03:43.545   01 Jun 2027 16:04:22.898            39.353              Murmansk1          1229.781
        47   01 Jun 2027 16:12:29.756   01 Jun 2027 16:14:55.711           145.955                Anadyr2          4561.094
        48   01 Jun 2027 17:08:03.553   01 Jun 2027 17:09:40.295            96.742               CapeTown          3023.188
        49   01 Jun 2027 17:12:33.684   01 Jun 2027 17:12:41.506             7.822               CapeTown           244.437
        50   01 Jun 2027 17:39:51.756   01 Jun 2027 17:44:44.838           293.082              Murmansk1          9158.813
        51   01 Jun 2027 17:48:14.244   01 Jun 2027 17:48:22.945             8.701                Anadyr1           271.906
        52   01 Jun 2027 17:48:41.146   01 Jun 2027 17:48:57.600            16.454                Anadyr1           514.188
        53   01 Jun 2027 17:51:04.982   01 Jun 2027 17:54:36.992           212.010               Magadan1          6625.312
        54   01 Jun 2027 19:24:10.028   01 Jun 2027 19:26:12.698           122.670                Anadyr2          3833.437
        55   01 Jun 2027 19:26:27.138   01 Jun 2027 19:29:37.036           189.898               Magadan2          5934.312
        56   01 Jun 2027 19:29:37.036   01 Jun 2027 19:29:51.024            13.988               Magadan1           437.125
        57   01 Jun 2027 19:30:50.151   01 Jun 2027 19:31:07.256            17.105               Magadan1           534.531
        58   01 Jun 2027 20:19:28.535   01 Jun 2027 20:22:30.294           181.759            RioGallegos          5679.969
        59   01 Jun 2027 20:59:55.514   01 Jun 2027 21:02:06.197           130.683                Anadyr1          4083.844
        60   01 Jun 2027 21:02:25.295   01 Jun 2027 21:03:55.303            90.008               Magadan1          2812.750
        61   01 Jun 2027 21:04:07.892   01 Jun 2027 21:05:48.330           100.438                Norilsk          3138.688
        62   01 Jun 2027 21:06:39.121   01 Jun 2027 21:08:01.639            82.518                Irkutsk          2578.688
        63   01 Jun 2027 21:09:37.125   01 Jun 2027 21:10:02.956            25.831                Irkutsk           807.219
        64   01 Jun 2027 21:20:58.846   01 Jun 2027 21:23:49.272           170.426                Sumatra          5325.812
        65   01 Jun 2027 22:38:36.500   01 Jun 2027 22:38:58.166            21.666               Magadan2           677.063
        66   01 Jun 2027 22:39:30.001   01 Jun 2027 22:39:45.113            15.112               Magadan1           472.250
        67   01 Jun 2027 22:40:00.804   01 Jun 2027 22:40:10.361             9.557               Magadan2           298.656
        68   01 Jun 2027 22:40:37.706   01 Jun 2027 22:41:02.535            24.829               Magadan2           775.906
        69   01 Jun 2027 22:41:47.392   01 Jun 2027 22:42:07.105            19.713                Irkutsk           616.031
        70   01 Jun 2027 22:42:14.656   01 Jun 2027 22:43:46.676            92.020                Novosib          2875.625
        71   01 Jun 2027 22:45:32.885   01 Jun 2027 22:45:39.129             6.244                Novosib           195.125
        72   01 Jun 2027 22:47:53.954   01 Jun 2027 22:48:06.887            12.933                Novosib           404.156
        73   01 Jun 2027 22:49:04.336   01 Jun 2027 22:51:14.245           129.909                Novosib          4059.656
        74   01 Jun 2027 22:51:14.957   01 Jun 2027 22:52:03.647            48.690                  Delhi          1521.562
        75   01 Jun 2027 22:56:29.436   01 Jun 2027 22:56:59.597            30.161                  Delhi           942.531
        76   02 Jun 2027 00:08:56.019   02 Jun 2027 00:09:03.995             7.976                Anadyr2           249.250
        77   02 Jun 2027 00:09:40.239   02 Jun 2027 00:10:14.715            34.476                Anadyr2          1077.375
        78   02 Jun 2027 00:11:27.268   02 Jun 2027 00:11:36.557             9.289                Anadyr1           290.281
        79   02 Jun 2027 00:13:55.303   02 Jun 2027 00:14:12.149            16.846                Norilsk           526.438
        80   02 Jun 2027 00:14:24.446   02 Jun 2027 00:14:43.114            18.668               Magadan2           583.375
        81   02 Jun 2027 00:15:30.920   02 Jun 2027 00:16:06.869            35.949               Magadan1          1123.406
        82   02 Jun 2027 00:16:24.133   02 Jun 2027 00:16:48.990            24.857               Magadan1           776.781
        83   02 Jun 2027 00:16:57.454   02 Jun 2027 00:20:09.635           192.181              Murmansk2          6005.656
        84   02 Jun 2027 00:21:16.138   02 Jun 2027 00:22:41.847            85.709              Murmansk1          2678.406
        85   02 Jun 2027 00:27:15.929   02 Jun 2027 00:27:22.948             7.019                  Delhi           219.344
        86   02 Jun 2027 00:29:20.997   02 Jun 2027 00:29:34.358            13.361                  Delhi           417.531
        87   02 Jun 2027 01:07:27.473   02 Jun 2027 01:08:02.888            35.415            RioGallegos          1106.719
        88   02 Jun 2027 01:08:38.480   02 Jun 2027 01:09:07.378            28.898            RioGallegos           903.063
        89   02 Jun 2027 01:10:57.990   02 Jun 2027 01:11:19.391            21.401            RioGallegos           668.781
        90   02 Jun 2027 01:42:13.357   02 Jun 2027 01:44:08.620           115.263                Anadyr2          3601.969
        91   02 Jun 2027 01:44:08.620   02 Jun 2027 01:44:57.060            48.440                Anadyr1          1513.750
        92   02 Jun 2027 01:48:01.008   02 Jun 2027 01:48:30.865            29.857               Magadan2           933.031
        93   02 Jun 2027 01:48:50.504   02 Jun 2027 01:49:04.957            14.453               Magadan1           451.656
        94   02 Jun 2027 01:49:38.153   02 Jun 2027 01:50:04.872            26.719               Magadan2           834.969
        95   02 Jun 2027 01:52:03.992   02 Jun 2027 01:53:20.951            76.959              Murmansk1          2404.969
        96   02 Jun 2027 01:53:22.181   02 Jun 2027 01:54:13.739            51.558              Murmansk2          1611.187
        97   02 Jun 2027 01:54:53.760   02 Jun 2027 01:55:10.667            16.907                Novosib           528.344
        98   02 Jun 2027 01:55:30.270   02 Jun 2027 01:55:50.258            19.988                Novosib           624.625
        99   02 Jun 2027 01:56:05.439   02 Jun 2027 01:56:12.088             6.649                 Moscow           207.781
       100   02 Jun 2027 01:57:11.366   02 Jun 2027 01:57:26.466            15.100                 Moscow           471.875
       101   02 Jun 2027 02:04:29.793   02 Jun 2027 02:04:57.903            28.110                  Delhi           878.438
       102   02 Jun 2027 02:07:21.961   02 Jun 2027 02:07:24.739             2.778                  Delhi            86.812
       103   02 Jun 2027 02:20:57.994   02 Jun 2027 02:21:28.335            30.341               CapeTown           948.156
       104   02 Jun 2027 02:22:19.892   02 Jun 2027 02:23:39.891            79.999               CapeTown          2499.969
       105   02 Jun 2027 03:37:12.251   02 Jun 2027 03:37:36.983            24.732              Murmansk2           772.875
       106   02 Jun 2027 03:38:31.994   02 Jun 2027 03:39:06.799            34.805                 Moscow          1087.656
       107   02 Jun 2027 03:39:07.362   02 Jun 2027 03:40:52.777           105.415              Murmansk1          3294.219
       108   02 Jun 2027 04:57:50.572   02 Jun 2027 04:57:56.271             5.699               Magadan2           178.094
       109   02 Jun 2027 04:58:09.149   02 Jun 2027 04:58:44.129            34.980               Magadan2          1093.125
       110   02 Jun 2027 04:58:44.129   02 Jun 2027 04:58:51.237             7.108               Magadan1           222.125
       111   02 Jun 2027 04:59:00.355   02 Jun 2027 05:01:40.600           160.245                Anadyr1          5007.656
       112   02 Jun 2027 05:01:40.600   02 Jun 2027 05:02:25.350            44.750                Anadyr2          1398.437
       113   02 Jun 2027 06:36:48.170   02 Jun 2027 06:37:47.224            59.054                Anadyr2          1845.437
       114   02 Jun 2027 08:11:33.343   02 Jun 2027 08:13:23.630           110.287               Magadan2          3446.469
       115   02 Jun 2027 08:13:41.025   02 Jun 2027 08:13:47.622             6.597                Norilsk           206.156
       116   02 Jun 2027 08:13:55.441   02 Jun 2027 08:14:10.053            14.612                Norilsk           456.625
       117   02 Jun 2027 08:14:18.470   02 Jun 2027 08:14:30.730            12.260                Irkutsk           383.125
       118   02 Jun 2027 08:14:36.171   02 Jun 2027 08:15:16.545            40.374               Magadan2          1261.687
       119   02 Jun 2027 08:15:16.545   02 Jun 2027 08:15:52.761            36.216               Magadan1          1131.750
       120   02 Jun 2027 08:16:04.311   02 Jun 2027 08:16:22.161            17.850                Norilsk           557.812
       121   02 Jun 2027 08:16:33.117   02 Jun 2027 08:17:32.506            59.389              Murmansk2          1855.906
       122   02 Jun 2027 08:17:47.740   02 Jun 2027 08:18:05.723            17.983              Murmansk2           561.969
       123   02 Jun 2027 08:19:06.001   02 Jun 2027 08:19:06.480             0.479              Murmansk2            14.969
       124   02 Jun 2027 08:19:16.125   02 Jun 2027 08:19:40.993            24.868              Murmansk2           777.125
       125   02 Jun 2027 08:50:50.497   02 Jun 2027 08:51:55.361            64.864            RioGallegos          2027.000
       126   02 Jun 2027 09:26:43.352   02 Jun 2027 09:27:51.773            68.421                Sumatra          2138.156
       127   02 Jun 2027 09:46:15.205   02 Jun 2027 09:46:23.456             8.251                Norilsk           257.844
       128   02 Jun 2027 09:46:39.435   02 Jun 2027 09:47:14.615            35.180                Irkutsk          1099.375
       129   02 Jun 2027 09:47:21.486   02 Jun 2027 09:47:50.451            28.965                Novosib           905.156
       130   02 Jun 2027 09:47:53.664   02 Jun 2027 09:48:18.950            25.286                Irkutsk           790.188
       131   02 Jun 2027 09:48:22.001   02 Jun 2027 09:48:26.073             4.072                Norilsk           127.250
       132   02 Jun 2027 09:48:43.028   02 Jun 2027 09:48:47.533             4.505                Irkutsk           140.781
       133   02 Jun 2027 09:48:51.567   02 Jun 2027 09:49:10.320            18.753                Irkutsk           586.031
       134   02 Jun 2027 09:49:12.147   02 Jun 2027 09:49:37.690            25.543                Novosib           798.219
       135   02 Jun 2027 09:49:38.737   02 Jun 2027 09:50:06.807            28.070              Murmansk2           877.187
       136   02 Jun 2027 09:50:11.781   02 Jun 2027 09:50:56.592            44.811                Novosib          1400.344
       137   02 Jun 2027 09:51:01.740   02 Jun 2027 09:51:13.210            11.470                Irkutsk           358.437
       138   02 Jun 2027 09:51:18.920   02 Jun 2027 09:51:23.568             4.648                Norilsk           145.250
       139   02 Jun 2027 09:51:39.763   02 Jun 2027 09:52:09.648            29.885              Murmansk1           933.906
       140   02 Jun 2027 09:59:28.712   02 Jun 2027 09:59:41.172            12.460              Murmansk2           389.375
       141   02 Jun 2027 10:27:58.406   02 Jun 2027 10:28:55.019            56.613            RioGallegos          1769.156
       142   02 Jun 2027 11:02:12.320   02 Jun 2027 11:03:40.342            88.022                Sumatra          2750.687
       143   02 Jun 2027 11:17:27.970   02 Jun 2027 11:17:51.637            23.667                  Delhi           739.594
       144   02 Jun 2027 11:23:30.084   02 Jun 2027 11:23:34.361             4.277              Murmansk1           133.656
       145   02 Jun 2027 11:23:47.427   02 Jun 2027 11:24:33.281            45.854                Irkutsk          1432.938
       146   02 Jun 2027 11:24:36.876   02 Jun 2027 11:26:03.406            86.530                Irkutsk          2704.062
       147   02 Jun 2027 11:26:13.895   02 Jun 2027 11:26:26.562            12.667                Norilsk           395.844
       148   02 Jun 2027 11:26:28.332   02 Jun 2027 11:26:51.684            23.352              Murmansk2           729.750
       149   02 Jun 2027 11:27:01.515   02 Jun 2027 11:27:22.847            21.332                Novosib           666.625
       150   02 Jun 2027 11:27:28.023   02 Jun 2027 11:29:06.631            98.608              Murmansk1          3081.500
       151   02 Jun 2027 12:47:10.534   02 Jun 2027 12:50:16.972           186.438                  Delhi          5826.188
       152   02 Jun 2027 12:55:36.751   02 Jun 2027 12:55:38.122             1.371                Novosib            42.844
       153   02 Jun 2027 12:56:18.693   02 Jun 2027 12:56:52.927            34.234                Novosib          1069.813
       154   02 Jun 2027 12:57:50.774   02 Jun 2027 12:59:30.873           100.099              Murmansk2          3128.094
       155   02 Jun 2027 12:59:30.873   02 Jun 2027 12:59:34.294             3.421              Murmansk1           106.906
       156   02 Jun 2027 12:59:45.200   02 Jun 2027 13:00:48.283            63.083                Norilsk          1971.344
       157   02 Jun 2027 14:30:25.097   02 Jun 2027 14:32:16.984           111.887                 Moscow          3496.469
       158   02 Jun 2027 14:33:56.171   02 Jun 2027 14:37:25.270           209.099              Murmansk2          6534.344
       159   02 Jun 2027 14:37:42.164   02 Jun 2027 14:38:11.268            29.104              Murmansk2           909.500
       160   02 Jun 2027 14:43:10.713   02 Jun 2027 14:43:19.046             8.333                Norilsk           260.406
       161   02 Jun 2027 14:49:50.125   02 Jun 2027 14:50:44.714            54.589                Anadyr2          1705.906
       162   02 Jun 2027 14:51:40.488   02 Jun 2027 14:52:35.733            55.245                Anadyr1          1726.406
       163   02 Jun 2027 14:52:51.373   02 Jun 2027 14:53:30.953            39.580                Anadyr2          1236.875
       164   02 Jun 2027 15:43:53.823   02 Jun 2027 15:44:58.821            64.998               CapeTown          2031.187
       165   02 Jun 2027 16:09:45.617   02 Jun 2027 16:10:31.090            45.473                 Moscow          1421.031
       166   02 Jun 2027 16:10:56.191   02 Jun 2027 16:11:10.558            14.367                 Moscow           448.969
       167   02 Jun 2027 16:11:55.225   02 Jun 2027 16:12:40.077            44.852              Murmansk2          1401.625
       168   02 Jun 2027 16:13:20.075   02 Jun 2027 16:14:36.247            76.172              Murmansk2          2380.375
       169   02 Jun 2027 16:24:28.031   02 Jun 2027 16:26:28.670           120.639                Anadyr1          3769.969
       170   02 Jun 2027 17:20:20.207   02 Jun 2027 17:21:36.104            75.897               CapeTown          2371.781
       171   02 Jun 2027 17:23:49.105   02 Jun 2027 17:23:57.258             8.153               CapeTown           254.781
       172   02 Jun 2027 17:52:46.597   02 Jun 2027 17:56:53.327           246.730              Murmansk2          7710.313
       173   02 Jun 2027 17:57:17.223   02 Jun 2027 17:57:40.491            23.268              Murmansk2           727.125
       174   02 Jun 2027 18:00:15.578   02 Jun 2027 18:00:25.154             9.576                Anadyr2           299.250
       175   02 Jun 2027 18:00:25.154   02 Jun 2027 18:00:26.953             1.799                Anadyr1            56.219
       176   02 Jun 2027 18:00:33.266   02 Jun 2027 18:00:44.343            11.077                Anadyr1           346.156
       177   02 Jun 2027 18:00:53.911   02 Jun 2027 18:01:15.563            21.652                Anadyr1           676.625
       178   02 Jun 2027 18:02:57.826   02 Jun 2027 18:04:35.535            97.709               Magadan2          3053.406
       179   02 Jun 2027 18:07:41.583   02 Jun 2027 18:08:31.292            49.709               Magadan2          1553.406
       180   02 Jun 2027 19:36:11.173   02 Jun 2027 19:38:14.330           123.157                Anadyr2          3848.656
       181   02 Jun 2027 19:38:27.786   02 Jun 2027 19:42:01.227           213.441               Magadan1          6670.031
       182   02 Jun 2027 19:42:01.227   02 Jun 2027 19:42:37.148            35.921               Magadan2          1122.531
       183   02 Jun 2027 19:51:19.633   02 Jun 2027 19:51:21.931             2.298               Magadan2            71.812
       184   02 Jun 2027 20:31:05.895   02 Jun 2027 20:33:55.082           169.187            RioGallegos          5287.094
       185   02 Jun 2027 20:34:15.354   02 Jun 2027 20:34:19.527             4.173            RioGallegos           130.406
       186   02 Jun 2027 20:36:11.019   02 Jun 2027 20:37:33.092            82.073            RioGallegos          2564.781
       187   02 Jun 2027 21:11:53.690   02 Jun 2027 21:12:30.901            37.211                Anadyr1          1162.844
       188   02 Jun 2027 21:14:03.311   02 Jun 2027 21:14:52.790            49.479                Norilsk          1546.219
       189   02 Jun 2027 21:15:23.495   02 Jun 2027 21:16:45.678            82.183               Magadan2          2568.219
       190   02 Jun 2027 21:18:27.692   02 Jun 2027 21:20:54.411           146.719                Irkutsk          4584.969
       191   02 Jun 2027 21:21:31.457   02 Jun 2027 21:21:51.235            19.778                Irkutsk           618.063
       192   02 Jun 2027 21:32:30.193   02 Jun 2027 21:34:06.685            96.492                Sumatra          3015.375
       193   02 Jun 2027 21:34:14.973   02 Jun 2027 21:35:39.243            84.270                Sumatra          2633.438
       194   02 Jun 2027 22:49:16.558   02 Jun 2027 22:49:50.339            33.781                Anadyr2          1055.656
       195   02 Jun 2027 22:50:34.742   02 Jun 2027 22:51:54.750            80.008               Magadan1          2500.250
       196   02 Jun 2027 22:53:19.517   02 Jun 2027 22:53:33.008            13.491                Norilsk           421.594
       197   02 Jun 2027 22:53:40.793   02 Jun 2027 22:54:05.033            24.240               Magadan2           757.500
       198   02 Jun 2027 22:54:08.073   02 Jun 2027 22:54:32.675            24.602                Novosib           768.812
       199   02 Jun 2027 22:54:48.193   02 Jun 2027 22:55:03.977            15.784                Novosib           493.250
       200   02 Jun 2027 22:55:25.357   02 Jun 2027 22:55:46.239            20.882                Novosib           652.562
       201   02 Jun 2027 22:57:10.100   02 Jun 2027 22:59:01.868           111.768                Novosib          3492.750
       202   02 Jun 2027 23:02:27.117   02 Jun 2027 23:03:16.715            49.598                  Delhi          1549.938
       203   02 Jun 2027 23:03:33.474   02 Jun 2027 23:04:59.757            86.283                  Delhi          2696.344
       204   03 Jun 2027 00:20:37.810   03 Jun 2027 00:20:45.871             8.061                Anadyr2           251.906
       205   03 Jun 2027 00:21:32.275   03 Jun 2027 00:21:44.162            11.887                Anadyr2           371.469
       206   03 Jun 2027 00:23:00.721   03 Jun 2027 00:23:22.880            22.159                Anadyr2           692.469
       207   03 Jun 2027 00:25:32.191   03 Jun 2027 00:26:09.396            37.205                Anadyr2          1162.656
       208   03 Jun 2027 00:26:20.670   03 Jun 2027 00:27:14.648            53.978               Magadan1          1686.813
       209   03 Jun 2027 00:27:23.567   03 Jun 2027 00:27:47.613            24.046               Magadan1           751.438
       210   03 Jun 2027 00:28:09.351   03 Jun 2027 00:28:26.711            17.360               Magadan1           542.500
       211   03 Jun 2027 00:28:28.015   03 Jun 2027 00:30:18.747           110.732              Murmansk2          3460.375
       212   03 Jun 2027 00:30:27.236   03 Jun 2027 00:31:31.252            64.016              Murmansk1          2000.500
       213   03 Jun 2027 00:34:53.092   03 Jun 2027 00:36:01.577            68.485                 Moscow          2140.156
       214   03 Jun 2027 00:40:06.380   03 Jun 2027 00:40:31.150            24.770                  Delhi           774.062
       215   03 Jun 2027 00:46:18.119   03 Jun 2027 00:46:43.319            25.200                  Delhi           787.500
       216   03 Jun 2027 01:20:05.510   03 Jun 2027 01:20:56.856            51.346            RioGallegos          1604.562
       217   03 Jun 2027 01:23:22.269   03 Jun 2027 01:23:34.063            11.794            RioGallegos           368.562
       218   03 Jun 2027 01:53:56.699   03 Jun 2027 01:55:28.192            91.493                Anadyr2          2859.156
       219   03 Jun 2027 01:56:09.977   03 Jun 2027 01:56:39.059            29.082                Anadyr1           908.813
       220   03 Jun 2027 01:56:53.645   03 Jun 2027 01:57:06.524            12.879                Anadyr2           402.469
       221   03 Jun 2027 01:59:30.347   03 Jun 2027 02:00:54.393            84.046               Magadan2          2626.437
       222   03 Jun 2027 02:01:48.308   03 Jun 2027 02:02:06.941            18.633                Norilsk           582.281
       223   03 Jun 2027 02:04:05.073   03 Jun 2027 02:04:56.753            51.680              Murmansk2          1615.000
       224   03 Jun 2027 02:05:05.160   03 Jun 2027 02:05:05.229             0.069              Murmansk1             2.156
       225   03 Jun 2027 02:05:51.971   03 Jun 2027 02:06:10.880            18.909              Murmansk2           590.906
       226   03 Jun 2027 02:06:16.780   03 Jun 2027 02:07:48.087            91.307                Novosib          2853.344
       227   03 Jun 2027 02:11:43.093   03 Jun 2027 02:12:44.649            61.556                 Moscow          1923.625
       228   03 Jun 2027 02:33:46.198   03 Jun 2027 02:33:55.782             9.584               CapeTown           299.500
       229   03 Jun 2027 02:36:30.273   03 Jun 2027 02:37:39.009            68.736               CapeTown          2148.000
       230   03 Jun 2027 03:49:47.976   03 Jun 2027 03:49:53.168             5.192                 Moscow           162.250
       231   03 Jun 2027 03:50:16.545   03 Jun 2027 03:51:11.283            54.738                 Moscow          1710.562
       232   03 Jun 2027 03:51:19.520   03 Jun 2027 03:51:45.983            26.463              Murmansk1           826.969
       233   03 Jun 2027 05:10:21.600   03 Jun 2027 05:10:36.584            14.984               Magadan1           468.250
       234   03 Jun 2027 05:10:43.170   03 Jun 2027 05:11:12.555            29.385               Magadan2           918.281
       235   03 Jun 2027 05:11:12.555   03 Jun 2027 05:11:20.547             7.992               Magadan1           249.750
       236   03 Jun 2027 05:11:38.063   03 Jun 2027 05:12:44.504            66.441               Magadan1          2076.281
       237   03 Jun 2027 05:12:44.504   03 Jun 2027 05:13:41.948            57.444               Magadan2          1795.125
       238   03 Jun 2027 05:13:51.050   03 Jun 2027 05:16:47.413           176.363                Anadyr2          5511.344
       239   03 Jun 2027 06:46:43.137   03 Jun 2027 06:46:56.501            13.364                Irkutsk           417.625
       240   03 Jun 2027 06:47:17.383   03 Jun 2027 06:48:02.656            45.273                Anadyr2          1414.781
       241   03 Jun 2027 06:48:15.297   03 Jun 2027 06:48:21.985             6.688               Magadan2           209.000
       242   03 Jun 2027 06:48:25.190   03 Jun 2027 06:48:46.827            21.637                Anadyr1           676.156
       243   03 Jun 2027 06:48:46.827   03 Jun 2027 06:49:19.212            32.385                Anadyr2          1012.031
       244   03 Jun 2027 06:49:22.707   03 Jun 2027 06:49:51.556            28.849                Irkutsk           901.531
       245   03 Jun 2027 06:49:53.035   03 Jun 2027 06:51:00.407            67.372                Anadyr2          2105.375
       246   03 Jun 2027 07:28:50.191   03 Jun 2027 07:29:04.890            14.699            RioGallegos           459.344
       247   03 Jun 2027 07:29:31.734   03 Jun 2027 07:29:38.237             6.503            RioGallegos           203.219
       248   03 Jun 2027 07:30:49.347   03 Jun 2027 07:31:37.959            48.612            RioGallegos          1519.125
       249   03 Jun 2027 08:21:41.208   03 Jun 2027 08:22:50.736            69.528               Magadan1          2172.750
       250   03 Jun 2027 08:22:50.736   03 Jun 2027 08:22:54.504             3.768               Magadan2           117.750
       251   03 Jun 2027 08:23:06.299   03 Jun 2027 08:24:00.236            53.937                Irkutsk          1685.531
       252   03 Jun 2027 08:24:10.046   03 Jun 2027 08:24:16.317             6.271               Magadan1           195.969
       253   03 Jun 2027 08:24:27.013   03 Jun 2027 08:24:56.006            28.993               Magadan2           906.031
       254   03 Jun 2027 08:25:00.545   03 Jun 2027 08:25:27.964            27.419                Irkutsk           856.844
       255   03 Jun 2027 08:25:42.238   03 Jun 2027 08:25:53.002            10.764                Norilsk           336.375
       256   03 Jun 2027 08:25:56.386   03 Jun 2027 08:26:21.168            24.782                Irkutsk           774.438
       257   03 Jun 2027 08:26:32.489   03 Jun 2027 08:26:34.730             2.241              Murmansk2            70.031
       258   03 Jun 2027 08:26:36.069   03 Jun 2027 08:27:36.434            60.365               Magadan2          1886.406
       259   03 Jun 2027 08:27:40.169   03 Jun 2027 08:28:05.723            25.554                Norilsk           798.562
       260   03 Jun 2027 08:28:21.736   03 Jun 2027 08:29:22.878            61.142              Murmansk2          1910.688
       261   03 Jun 2027 09:02:48.425   03 Jun 2027 09:03:30.760            42.335            RioGallegos          1322.969
       262   03 Jun 2027 09:38:19.110   03 Jun 2027 09:38:39.243            20.133                Sumatra           629.156
       263   03 Jun 2027 09:40:19.200   03 Jun 2027 09:40:25.587             6.387                Sumatra           199.594
       264   03 Jun 2027 09:42:22.645   03 Jun 2027 09:43:18.493            55.848                Sumatra          1745.250
       265   03 Jun 2027 09:52:07.836   03 Jun 2027 09:52:12.079             4.243                  Delhi           132.594
       266   03 Jun 2027 09:58:26.570   03 Jun 2027 09:58:57.183            30.613                Irkutsk           956.656
       267   03 Jun 2027 09:59:29.510   03 Jun 2027 10:00:03.346            33.836                Norilsk          1057.375
       268   03 Jun 2027 10:00:09.516   03 Jun 2027 10:01:52.281           102.765                Irkutsk          3211.406
       269   03 Jun 2027 10:02:06.252   03 Jun 2027 10:03:06.738            60.486              Murmansk1          1890.188
       270   03 Jun 2027 10:03:20.336   03 Jun 2027 10:04:03.555            43.219              Murmansk2          1350.594
       271   03 Jun 2027 10:40:28.675   03 Jun 2027 10:41:06.954            38.279            RioGallegos          1196.219
       272   03 Jun 2027 10:42:20.189   03 Jun 2027 10:42:33.717            13.528            RioGallegos           422.750
       273   03 Jun 2027 10:44:35.180   03 Jun 2027 10:45:26.052            50.872            RioGallegos          1589.750
       274   03 Jun 2027 11:14:58.595   03 Jun 2027 11:15:01.342             2.747                Sumatra            85.844
       275   03 Jun 2027 11:15:24.334   03 Jun 2027 11:15:41.682            17.348                Sumatra           542.125
       276   03 Jun 2027 11:23:04.403   03 Jun 2027 11:23:37.595            33.192                  Delhi          1037.250
       277   03 Jun 2027 11:35:31.852   03 Jun 2027 11:35:38.093             6.241                Irkutsk           195.031
       278   03 Jun 2027 11:35:42.369   03 Jun 2027 11:35:43.522             1.153                 Moscow            36.031
       279   03 Jun 2027 11:35:48.567   03 Jun 2027 11:35:48.685             0.118                Norilsk             3.688
       280   03 Jun 2027 11:36:00.680   03 Jun 2027 11:36:05.101             4.421              Murmansk1           138.156
       281   03 Jun 2027 11:36:05.101   03 Jun 2027 11:36:07.646             2.545              Murmansk2            79.531
       282   03 Jun 2027 11:36:08.828   03 Jun 2027 11:37:07.842            59.014              Murmansk2          1844.187
       283   03 Jun 2027 11:37:21.190   03 Jun 2027 11:37:39.398            18.208              Murmansk1           569.000
       284   03 Jun 2027 11:37:48.595   03 Jun 2027 11:37:51.575             2.980                Novosib            93.125
       285   03 Jun 2027 11:37:59.358   03 Jun 2027 11:38:02.275             2.917              Murmansk1            91.156
       286   03 Jun 2027 11:38:19.571   03 Jun 2027 11:38:43.422            23.851              Murmansk2           745.344
       287   03 Jun 2027 11:38:44.638   03 Jun 2027 11:39:15.091            30.453                 Moscow           951.656
       288   03 Jun 2027 11:39:19.385   03 Jun 2027 11:39:38.908            19.523              Murmansk2           610.094
       289   03 Jun 2027 11:39:42.982   03 Jun 2027 11:40:02.708            19.726                Norilsk           616.438
       290   03 Jun 2027 11:41:16.643   03 Jun 2027 11:41:36.597            19.954                Norilsk           623.563
       291   03 Jun 2027 11:43:23.604   03 Jun 2027 11:44:13.544            49.940              Murmansk2          1560.625
       292   03 Jun 2027 12:59:54.730   03 Jun 2027 13:00:51.488            56.758                  Delhi          1773.688
       293   03 Jun 2027 13:01:16.286   03 Jun 2027 13:02:06.868            50.582                  Delhi          1580.688
       294   03 Jun 2027 13:03:36.425   03 Jun 2027 13:04:40.128            63.703                  Delhi          1990.719
       295   03 Jun 2027 13:07:46.511   03 Jun 2027 13:08:39.063            52.552                 Moscow          1642.250
       296   03 Jun 2027 13:09:48.260   03 Jun 2027 13:12:10.211           141.951              Murmansk1          4435.969
       297   03 Jun 2027 13:15:08.577   03 Jun 2027 13:15:34.955            26.378                Norilsk           824.313
       298   03 Jun 2027 13:19:20.735   03 Jun 2027 13:20:58.672            97.937                Norilsk          3060.531
       299   03 Jun 2027 14:24:02.293   03 Jun 2027 14:25:13.410            71.117               CapeTown          2222.406
       300   03 Jun 2027 14:42:37.048   03 Jun 2027 14:43:49.655            72.607                 Moscow          2268.969
       301   03 Jun 2027 14:46:06.180   03 Jun 2027 14:47:50.446           104.266              Murmansk2          3258.312
       302   03 Jun 2027 14:49:03.680   03 Jun 2027 14:49:26.073            22.393              Murmansk2           699.781
       303   03 Jun 2027 15:01:28.377   03 Jun 2027 15:02:34.000            65.623                Anadyr2          2050.719
       304   03 Jun 2027 15:02:34.000   03 Jun 2027 15:03:30.177            56.177                Anadyr1          1755.531
       305   03 Jun 2027 15:04:08.183   03 Jun 2027 15:04:35.473            27.290                Anadyr1           852.812
       306   03 Jun 2027 15:04:52.592   03 Jun 2027 15:05:32.094            39.502                Anadyr1          1234.437
       307   03 Jun 2027 15:55:48.813   03 Jun 2027 15:56:07.347            18.534               CapeTown           579.188
       308   03 Jun 2027 15:59:35.107   03 Jun 2027 15:59:51.555            16.448               CapeTown           514.000
       309   03 Jun 2027 16:03:44.911   03 Jun 2027 16:03:45.109             0.198               CapeTown             6.187
       310   03 Jun 2027 16:07:58.068   03 Jun 2027 16:07:59.610             1.542               CapeTown            48.188
       311   03 Jun 2027 16:22:44.413   03 Jun 2027 16:24:20.709            96.296                 Moscow          3009.250
       312   03 Jun 2027 16:24:22.120   03 Jun 2027 16:24:52.220            30.100              Murmansk2           940.625
       313   03 Jun 2027 16:27:03.493   03 Jun 2027 16:28:43.198            99.705              Murmansk2          3115.781
       314   03 Jun 2027 16:36:27.028   03 Jun 2027 16:37:30.172            63.144                Anadyr2          1973.250
       315   03 Jun 2027 16:38:18.417   03 Jun 2027 16:38:33.018            14.601                Anadyr1           456.281
       316   03 Jun 2027 16:38:36.249   03 Jun 2027 16:38:43.837             7.588                Anadyr1           237.125
       317   03 Jun 2027 16:40:40.101   03 Jun 2027 16:41:27.226            47.125                Anadyr2          1472.656
       318   03 Jun 2027 17:32:42.050   03 Jun 2027 17:33:04.427            22.377               CapeTown           699.281
       319   03 Jun 2027 17:33:12.458   03 Jun 2027 17:33:42.642            30.184               CapeTown           943.250
       320   03 Jun 2027 18:05:53.821   03 Jun 2027 18:09:16.540           202.719              Murmansk1          6334.969
       321   03 Jun 2027 18:12:17.011   03 Jun 2027 18:14:14.036           117.025                Anadyr2          3657.031
       322   03 Jun 2027 18:14:52.502   03 Jun 2027 18:15:37.564            45.062               Magadan2          1408.188
       323   03 Jun 2027 18:15:37.564   03 Jun 2027 18:17:34.559           116.995               Magadan1          3656.094
       324   03 Jun 2027 19:48:12.130   03 Jun 2027 19:50:15.924           123.794                Anadyr2          3868.562
       325   03 Jun 2027 19:50:28.849   03 Jun 2027 19:54:08.507           219.658               Magadan2          6864.312
       326   03 Jun 2027 19:58:27.994   03 Jun 2027 19:59:23.221            55.227               Magadan1          1725.844
       327   03 Jun 2027 20:03:22.059   03 Jun 2027 20:03:24.167             2.108               Magadan1            65.875
       328   03 Jun 2027 20:42:49.424   03 Jun 2027 20:45:26.241           156.817            RioGallegos          4900.531
       329   03 Jun 2027 20:46:11.486   03 Jun 2027 20:47:01.158            49.672            RioGallegos          1552.250
       330   03 Jun 2027 21:23:51.202   03 Jun 2027 21:24:32.499            41.297                Anadyr2          1290.531
       331   03 Jun 2027 21:26:03.199   03 Jun 2027 21:28:16.394           133.195                Norilsk          4162.344
       332   03 Jun 2027 21:30:19.133   03 Jun 2027 21:31:21.318            62.185                Irkutsk          1943.281
       333   03 Jun 2027 21:31:53.313   03 Jun 2027 21:32:02.760             9.447                Irkutsk           295.219
       334   03 Jun 2027 21:32:59.204   03 Jun 2027 21:34:31.755            92.551                Novosib          2892.219
       335   03 Jun 2027 21:44:09.895   03 Jun 2027 21:46:29.622           139.727                Sumatra          4366.469
       336   03 Jun 2027 21:47:34.624   03 Jun 2027 21:48:11.258            36.634                Sumatra          1144.813
       337   03 Jun 2027 23:00:45.010   03 Jun 2027 23:01:26.101            41.091                Anadyr1          1284.094
       338   03 Jun 2027 23:01:58.964   03 Jun 2027 23:02:24.902            25.938                Norilsk           810.562
       339   03 Jun 2027 23:02:37.133   03 Jun 2027 23:03:46.093            68.960               Magadan1          2155.000
       340   03 Jun 2027 23:05:48.325   03 Jun 2027 23:05:51.041             2.716                Norilsk            84.875
       341   03 Jun 2027 23:05:51.637   03 Jun 2027 23:06:31.337            39.700               Magadan2          1240.625
       342   03 Jun 2027 23:06:44.413   03 Jun 2027 23:07:01.044            16.631                Irkutsk           519.719
       343   03 Jun 2027 23:07:12.264   03 Jun 2027 23:09:08.807           116.543                Novosib          3641.969
       344   03 Jun 2027 23:14:01.746   03 Jun 2027 23:14:54.710            52.964                  Delhi          1655.125
       345   03 Jun 2027 23:15:02.874   03 Jun 2027 23:15:21.768            18.894                  Delhi           590.438
       346   03 Jun 2027 23:19:36.689   03 Jun 2027 23:19:37.505             0.816                  Delhi            25.500
       347   03 Jun 2027 23:20:53.862   03 Jun 2027 23:21:35.311            41.449                  Delhi          1295.281
       348   03 Jun 2027 23:23:50.295   03 Jun 2027 23:25:02.762            72.467                  Delhi          2264.594
       349   04 Jun 2027 00:32:19.148   04 Jun 2027 00:32:32.892            13.744                Anadyr2           429.500
       350   04 Jun 2027 00:33:25.896   04 Jun 2027 00:34:12.363            46.467                Anadyr1          1452.094
       351   04 Jun 2027 00:35:05.292   04 Jun 2027 00:35:30.437            25.145                Anadyr2           785.781
       352   04 Jun 2027 00:37:58.693   04 Jun 2027 00:38:16.205            17.512                Norilsk           547.250
       353   04 Jun 2027 00:38:43.566   04 Jun 2027 00:39:09.918            26.352                Norilsk           823.500
       354   04 Jun 2027 00:39:17.351   04 Jun 2027 00:39:41.063            23.712                Norilsk           741.000
       355   04 Jun 2027 00:40:11.712   04 Jun 2027 00:40:29.357            17.645               Magadan2           551.406
       356   04 Jun 2027 00:41:00.664   04 Jun 2027 00:42:19.672            79.008              Murmansk2          2469.000
       357   04 Jun 2027 00:42:39.640   04 Jun 2027 00:43:19.025            39.385              Murmansk1          1230.781
       358   04 Jun 2027 00:43:24.836   04 Jun 2027 00:44:12.569            47.733                Novosib          1491.656
       359   04 Jun 2027 00:45:19.445   04 Jun 2027 00:46:47.936            88.491              Murmansk2          2765.344
       360   04 Jun 2027 00:56:48.177   04 Jun 2027 00:57:11.856            23.679                  Delhi           739.969
       361   04 Jun 2027 02:05:40.960   04 Jun 2027 02:08:53.558           192.598                Anadyr2          6018.687
       362   04 Jun 2027 02:10:58.615   04 Jun 2027 02:12:06.795            68.180               Magadan2          2130.625
       363   04 Jun 2027 02:12:06.795   04 Jun 2027 02:12:17.020            10.225               Magadan1           319.531
       364   04 Jun 2027 02:13:06.503   04 Jun 2027 02:13:23.825            17.322               Magadan2           541.312
       365   04 Jun 2027 02:13:56.664   04 Jun 2027 02:14:17.179            20.515                Norilsk           641.094
       366   04 Jun 2027 02:16:06.394   04 Jun 2027 02:16:57.868            51.474              Murmansk2          1608.562
       367   04 Jun 2027 02:17:37.958   04 Jun 2027 02:18:10.885            32.927              Murmansk2          1028.969
       368   04 Jun 2027 02:18:44.808   04 Jun 2027 02:19:52.413            67.605                Novosib          2112.656
       369   04 Jun 2027 02:24:26.985   04 Jun 2027 02:25:02.218            35.233                Novosib          1101.031
       370   04 Jun 2027 02:44:02.449   04 Jun 2027 02:44:36.795            34.346               CapeTown          1073.313
       371   04 Jun 2027 02:45:39.049   04 Jun 2027 02:46:02.531            23.482               CapeTown           733.813
       372   04 Jun 2027 02:53:21.701   04 Jun 2027 02:54:11.297            49.596               CapeTown          1549.875
       373   04 Jun 2027 03:48:53.110   04 Jun 2027 03:48:58.901             5.791                Anadyr2           180.969
       374   04 Jun 2027 03:51:13.487   04 Jun 2027 03:51:56.698            43.211                Anadyr1          1350.344
       375   04 Jun 2027 04:01:40.479   04 Jun 2027 04:04:35.019           174.540              Murmansk1          5454.375
       376   04 Jun 2027 04:04:35.019   04 Jun 2027 04:05:01.583            26.564              Murmansk2           830.125
       377   04 Jun 2027 05:22:45.075   04 Jun 2027 05:23:00.955            15.880                Anadyr2           496.250
       378   04 Jun 2027 05:23:00.955   04 Jun 2027 05:23:22.961            22.006                Anadyr1           687.688
       379   04 Jun 2027 05:23:31.779   04 Jun 2027 05:24:38.700            66.921               Magadan2          2091.281
       380   04 Jun 2027 05:24:50.659   04 Jun 2027 05:26:33.575           102.916                Anadyr1          3216.125
       381   04 Jun 2027 05:26:33.575   04 Jun 2027 05:26:49.613            16.038                Anadyr2           501.188
       382   04 Jun 2027 05:27:07.910   04 Jun 2027 05:27:34.963            27.053                Anadyr1           845.406
       383   04 Jun 2027 06:58:57.499   04 Jun 2027 06:59:11.997            14.498               Magadan1           453.063
       384   04 Jun 2027 06:59:11.997   04 Jun 2027 06:59:33.436            21.439               Magadan2           669.969
       385   04 Jun 2027 06:59:57.839   04 Jun 2027 07:00:03.288             5.449                Anadyr1           170.281
       386   04 Jun 2027 07:00:03.288   04 Jun 2027 07:00:42.204            38.916                Anadyr2          1216.125
       387   04 Jun 2027 07:00:44.664   04 Jun 2027 07:01:19.119            34.455                Anadyr2          1076.719
       388   04 Jun 2027 07:01:19.119   04 Jun 2027 07:01:21.023             1.904                Anadyr1            59.500
       389   04 Jun 2027 07:01:25.532   04 Jun 2027 07:02:03.226            37.694               Magadan2          1177.938
       390   04 Jun 2027 07:02:03.226   04 Jun 2027 07:02:18.989            15.763               Magadan1           492.594
       391   04 Jun 2027 07:03:00.755   04 Jun 2027 07:03:09.206             8.451                Anadyr2           264.094
       392   04 Jun 2027 07:03:09.206   04 Jun 2027 07:03:44.549            35.343                Anadyr1          1104.469
       393   04 Jun 2027 07:40:47.274   04 Jun 2027 07:41:02.635            15.361            RioGallegos           480.031
       394   04 Jun 2027 07:43:08.495   04 Jun 2027 07:43:25.366            16.871            RioGallegos           527.219
       395   04 Jun 2027 08:32:59.656   04 Jun 2027 08:34:13.569            73.913                Novosib          2309.781
       396   04 Jun 2027 08:34:24.453   04 Jun 2027 08:35:05.975            41.522                Norilsk          1297.562
       397   04 Jun 2027 08:35:17.738   04 Jun 2027 08:35:19.670             1.932               Magadan1            60.375
       398   04 Jun 2027 08:35:19.670   04 Jun 2027 08:36:11.456            51.786               Magadan2          1618.313
       399   04 Jun 2027 08:36:15.015   04 Jun 2027 08:37:29.538            74.523               Magadan2          2328.844
       400   04 Jun 2027 08:37:42.034   04 Jun 2027 08:38:20.417            38.383                Irkutsk          1199.469
       401   04 Jun 2027 08:38:23.077   04 Jun 2027 08:38:27.637             4.560                Irkutsk           142.500
       402   04 Jun 2027 08:38:31.280   04 Jun 2027 08:38:38.303             7.023              Murmansk1           219.469
       403   04 Jun 2027 08:38:43.281   04 Jun 2027 08:39:30.831            47.550               Magadan1          1485.937
       404   04 Jun 2027 08:39:30.831   04 Jun 2027 08:39:35.322             4.491               Magadan2           140.344
       405   04 Jun 2027 08:39:59.820   04 Jun 2027 08:40:21.162            21.342              Murmansk2           666.937
       406   04 Jun 2027 08:45:21.502   04 Jun 2027 08:45:33.239            11.737              Murmansk1           366.781
       407   04 Jun 2027 09:14:49.639   04 Jun 2027 09:15:32.792            43.153            RioGallegos          1348.531
       408   04 Jun 2027 09:16:01.226   04 Jun 2027 09:16:03.804             2.578            RioGallegos            80.563
       409   04 Jun 2027 09:16:11.034   04 Jun 2027 09:17:12.413            61.379            RioGallegos          1918.094
       410   04 Jun 2027 09:50:02.397   04 Jun 2027 09:50:52.406            50.009                Sumatra          1562.781
       411   04 Jun 2027 10:02:13.894   04 Jun 2027 10:03:17.025            63.131                  Delhi          1972.844
       412   04 Jun 2027 10:09:43.363   04 Jun 2027 10:09:53.732            10.369                Novosib           324.031
       413   04 Jun 2027 10:10:15.196   04 Jun 2027 10:10:32.708            17.512                Irkutsk           547.250
       414   04 Jun 2027 10:11:17.942   04 Jun 2027 10:11:39.278            21.336                Novosib           666.750
       415   04 Jun 2027 10:11:55.783   04 Jun 2027 10:11:56.808             1.025                Novosib            32.031
       416   04 Jun 2027 10:12:02.395   04 Jun 2027 10:12:09.877             7.482                Norilsk           233.812
       417   04 Jun 2027 10:12:21.730   04 Jun 2027 10:12:48.853            27.123                Irkutsk           847.594
       418   04 Jun 2027 10:12:59.365   04 Jun 2027 10:13:47.228            47.863                Novosib          1495.719
       419   04 Jun 2027 10:14:00.258   04 Jun 2027 10:14:06.785             6.527              Murmansk2           203.969
       420   04 Jun 2027 10:14:06.785   04 Jun 2027 10:14:32.173            25.388              Murmansk1           793.375
       421   04 Jun 2027 10:14:36.867   04 Jun 2027 10:14:42.453             5.586                Novosib           174.562
       422   04 Jun 2027 10:14:54.713   04 Jun 2027 10:16:03.840            69.127                Irkutsk          2160.219
       423   04 Jun 2027 10:16:21.305   04 Jun 2027 10:16:38.486            17.181                 Moscow           536.906
       424   04 Jun 2027 10:53:05.479   04 Jun 2027 10:53:22.883            17.404            RioGallegos           543.875
       425   04 Jun 2027 10:55:54.881   04 Jun 2027 10:56:07.625            12.744            RioGallegos           398.250
       426   04 Jun 2027 11:27:21.369   04 Jun 2027 11:27:48.750            27.381                Sumatra           855.656
       427   04 Jun 2027 11:32:39.082   04 Jun 2027 11:33:33.712            54.630                Sumatra          1707.188
       428   04 Jun 2027 11:34:54.310   04 Jun 2027 11:35:19.383            25.073                  Delhi           783.531
       429   04 Jun 2027 11:47:55.345   04 Jun 2027 11:48:29.595            34.250              Murmansk1          1070.312
       430   04 Jun 2027 11:48:39.681   04 Jun 2027 11:49:14.811            35.130                 Moscow          1097.813
       431   04 Jun 2027 11:49:20.028   04 Jun 2027 11:49:50.455            30.427              Murmansk1           950.844
       432   04 Jun 2027 11:49:57.609   04 Jun 2027 11:50:52.369            54.760                Novosib          1711.250
       433   04 Jun 2027 11:50:56.317   04 Jun 2027 11:51:22.017            25.700                Novosib           803.125
       434   04 Jun 2027 11:51:22.588   04 Jun 2027 11:51:53.199            30.611                Norilsk           956.594
       435   04 Jun 2027 13:12:57.001   04 Jun 2027 13:14:02.197            65.196                  Delhi          2037.375
       436   04 Jun 2027 13:14:14.347   04 Jun 2027 13:14:41.287            26.940                  Delhi           841.875
       437   04 Jun 2027 13:17:01.589   04 Jun 2027 13:17:16.930            15.341                  Delhi           479.406
       438   04 Jun 2027 13:17:48.108   04 Jun 2027 13:18:40.266            52.158                  Delhi          1629.938
       439   04 Jun 2027 13:19:06.174   04 Jun 2027 13:19:34.046            27.872                 Moscow           871.000
       440   04 Jun 2027 13:20:36.642   04 Jun 2027 13:20:50.804            14.162                 Moscow           442.562
       441   04 Jun 2027 13:21:28.089   04 Jun 2027 13:24:01.498           153.409                Novosib          4794.031
       442   04 Jun 2027 13:24:17.744   04 Jun 2027 13:25:43.480            85.736                Norilsk          2679.250
       443   04 Jun 2027 13:27:05.643   04 Jun 2027 13:27:37.176            31.533                Norilsk           985.406
       444   04 Jun 2027 13:31:22.622   04 Jun 2027 13:31:22.857             0.235                Norilsk             7.344
       445   04 Jun 2027 13:32:06.079   04 Jun 2027 13:32:57.694            51.615                Norilsk          1612.969
       446   04 Jun 2027 14:34:31.962   04 Jun 2027 14:36:45.391           133.429               CapeTown          4169.656
       447   04 Jun 2027 14:38:18.110   04 Jun 2027 14:39:32.326            74.216               CapeTown          2319.250
       448   04 Jun 2027 14:58:18.025   04 Jun 2027 14:59:14.829            56.804              Murmansk1          1775.125
       449   04 Jun 2027 14:59:37.465   04 Jun 2027 15:00:48.389            70.924              Murmansk2          2216.375
       450   04 Jun 2027 15:06:53.143   04 Jun 2027 15:07:10.058            16.915              Murmansk1           528.594
       451   04 Jun 2027 15:07:15.644   04 Jun 2027 15:07:26.070            10.426              Murmansk2           325.813
       452   04 Jun 2027 15:10:08.871   04 Jun 2027 15:10:41.337            32.466              Murmansk2          1014.562
       453   04 Jun 2027 15:13:14.092   04 Jun 2027 15:14:22.972            68.880                Anadyr2          2152.500
       454   04 Jun 2027 15:14:45.211   04 Jun 2027 15:15:40.485            55.274                Anadyr2          1727.312
       455   04 Jun 2027 16:13:41.908   04 Jun 2027 16:14:26.577            44.669               CapeTown          1395.906
       456   04 Jun 2027 16:19:46.631   04 Jun 2027 16:20:23.977            37.346               CapeTown          1167.062
       457   04 Jun 2027 16:36:04.324   04 Jun 2027 16:36:23.975            19.651                 Moscow           614.094
       458   04 Jun 2027 16:36:51.649   04 Jun 2027 16:37:36.342            44.693              Murmansk2          1396.656
       459   04 Jun 2027 16:38:15.228   04 Jun 2027 16:38:24.618             9.390              Murmansk1           293.438
       460   04 Jun 2027 16:39:33.585   04 Jun 2027 16:39:41.073             7.488                 Moscow           234.000
       461   04 Jun 2027 16:39:54.734   04 Jun 2027 16:40:41.008            46.274              Murmansk1          1446.062
       462   04 Jun 2027 16:44:56.256   04 Jun 2027 16:45:33.830            37.574              Murmansk2          1174.188
       463   04 Jun 2027 16:48:26.606   04 Jun 2027 16:49:11.461            44.855                Anadyr1          1401.719
       464   04 Jun 2027 16:49:11.461   04 Jun 2027 16:50:14.507            63.046                Anadyr2          1970.187
       465   04 Jun 2027 16:53:12.211   04 Jun 2027 16:53:49.440            37.229               Magadan2          1163.406
       466   04 Jun 2027 16:53:49.440   04 Jun 2027 16:55:36.844           107.404               Magadan1          3356.375
       467   04 Jun 2027 18:24:18.518   04 Jun 2027 18:26:26.014           127.496                Anadyr1          3984.250
       468   04 Jun 2027 18:26:29.434   04 Jun 2027 18:28:09.092            99.658                Anadyr2          3114.313
       469   04 Jun 2027 18:28:34.840   04 Jun 2027 18:30:30.424           115.584               Magadan1          3612.000
       470   04 Jun 2027 18:32:02.190   04 Jun 2027 18:32:45.825            43.635               Magadan2          1363.594
       471   04 Jun 2027 20:00:12.855   04 Jun 2027 20:02:17.438           124.583                Anadyr2          3893.219
       472   04 Jun 2027 20:02:30.259   04 Jun 2027 20:06:44.026           253.767               Magadan1          7930.219
       473   04 Jun 2027 20:08:44.197   04 Jun 2027 20:08:45.729             1.532               Magadan1            47.875
       474   04 Jun 2027 20:08:53.111   04 Jun 2027 20:09:19.986            26.875               Magadan2           839.844
       475   04 Jun 2027 20:10:08.585   04 Jun 2027 20:11:10.954            62.369               Magadan2          1949.031
       476   04 Jun 2027 20:54:37.145   04 Jun 2027 20:56:38.725           121.580            RioGallegos          3799.375
       477   04 Jun 2027 20:57:35.819   04 Jun 2027 20:58:05.585            29.766            RioGallegos           930.187
       478   04 Jun 2027 21:03:38.870   04 Jun 2027 21:04:04.042            25.172            RioGallegos           786.625
       479   04 Jun 2027 21:04:35.494   04 Jun 2027 21:04:41.949             6.455            RioGallegos           201.719
       480   04 Jun 2027 21:05:29.051   04 Jun 2027 21:05:29.950             0.899            RioGallegos            28.094
       481   04 Jun 2027 21:35:54.859   04 Jun 2027 21:36:07.431            12.572                Anadyr1           392.875
       482   04 Jun 2027 21:36:27.306   04 Jun 2027 21:38:05.592            98.286                Anadyr1          3071.438
