uniorb/output/strategy_2/Drop/Drop_KinoSat_110308.txt

KinoSat_110308
-------------------------
    Access    *     Start Time (UTCG)     *     Stop Time (UTCG)  *   Duration (s)        *       Station  *  Data (Mbytes)
         1   01 Jun 2027 03:28:17.676   01 Jun 2027 03:28:50.716            33.040                Norilsk          1603.500
         2   01 Jun 2027 03:29:01.990   01 Jun 2027 03:29:11.923             9.933                Norilsk          1241.625
         3   01 Jun 2027 03:29:14.313   01 Jun 2027 03:30:05.910            51.597               Magadan2          5590.375
         4   01 Jun 2027 03:30:06.982   01 Jun 2027 03:30:34.774            27.792                Novosib           536.000
         5   01 Jun 2027 03:30:36.608   01 Jun 2027 03:31:22.770            46.162                Novosib           917.000
         6   01 Jun 2027 03:31:32.509   01 Jun 2027 03:32:42.347            69.838                Novosib          4869.500
         7   01 Jun 2027 03:32:50.591   01 Jun 2027 03:33:18.789            28.198                Norilsk          3524.750
         8   01 Jun 2027 03:33:28.789   01 Jun 2027 03:34:21.627            52.838              Murmansk2          5597.250
         9   01 Jun 2027 03:34:23.562   01 Jun 2027 03:34:41.142            17.580               Magadan2           967.500
        10   01 Jun 2027 03:34:46.482   01 Jun 2027 03:35:05.392            18.910                Norilsk          2363.750
        11   01 Jun 2027 03:35:06.349   01 Jun 2027 03:35:28.146            21.797                Novosib           306.250
        12   01 Jun 2027 05:04:43.594   01 Jun 2027 05:05:45.840            62.246                Novosib          3323.000
        13   01 Jun 2027 05:05:56.761   01 Jun 2027 05:06:49.764            53.003                Irkutsk          5460.500
        14   01 Jun 2027 05:06:50.424   01 Jun 2027 05:07:14.068            23.644                Norilsk           330.000
        15   01 Jun 2027 05:07:37.112   01 Jun 2027 05:09:19.599           102.487                Novosib         11522.000
        16   01 Jun 2027 05:09:21.239   01 Jun 2027 05:09:43.447            22.208                Novosib           820.000
        17   01 Jun 2027 05:09:45.104   01 Jun 2027 05:10:16.616            31.512                Norilsk           828.500
        18   01 Jun 2027 05:10:34.074   01 Jun 2027 05:11:44.526            70.452              Murmansk2          8729.000
        19   01 Jun 2027 06:41:53.813   01 Jun 2027 06:42:08.441            14.628              Murmansk1           736.500
        20   01 Jun 2027 06:42:16.562   01 Jun 2027 06:43:04.596            48.034              Murmansk1          4060.500
        21   01 Jun 2027 06:43:16.036   01 Jun 2027 06:44:19.613            63.577                Novosib          5720.000
        22   01 Jun 2027 06:44:20.584   01 Jun 2027 06:44:42.708            22.124                 Moscow           485.500
        23   01 Jun 2027 06:44:45.557   01 Jun 2027 06:45:10.952            25.395              Murmansk1          1424.500
        24   01 Jun 2027 06:45:16.003   01 Jun 2027 06:45:45.287            29.284                Novosib          2525.500
        25   01 Jun 2027 06:45:46.581   01 Jun 2027 06:46:12.364            25.783                Novosib           647.000
        26   01 Jun 2027 06:46:24.025   01 Jun 2027 06:47:24.686            60.661                 Moscow          5830.500
        27   01 Jun 2027 08:18:18.494   01 Jun 2027 08:19:04.481            45.987                Norilsk          5748.375
        28   01 Jun 2027 08:19:18.845   01 Jun 2027 08:20:23.483            64.638                Novosib          7232.125
        29   01 Jun 2027 08:20:31.159   01 Jun 2027 08:21:22.267            51.108              Murmansk1          3838.000
        30   01 Jun 2027 08:21:28.571   01 Jun 2027 08:22:10.137            41.566                Novosib          3152.000
        31   01 Jun 2027 08:22:10.366   01 Jun 2027 08:22:35.530            25.164              Murmansk1           114.500
        32   01 Jun 2027 08:22:46.120   01 Jun 2027 08:23:07.982            21.862                Novosib          2732.750
        33   01 Jun 2027 08:23:29.874   01 Jun 2027 08:24:39.367            69.493                 Moscow          2562.250
        34   02 Jun 2027 03:39:58.623   02 Jun 2027 03:40:12.299            13.676               Magadan2          1187.500
        35   02 Jun 2027 03:40:34.322   02 Jun 2027 03:42:02.808            88.486               Magadan2         11011.500
        36   02 Jun 2027 03:42:06.351   02 Jun 2027 03:42:21.047            14.696               Magadan1          1771.500
        37   02 Jun 2027 03:42:22.568   02 Jun 2027 03:42:31.622             9.054                Norilsk           760.500
        38   02 Jun 2027 03:42:52.791   02 Jun 2027 03:43:38.491            45.700                Novosib          5712.500
        39   02 Jun 2027 03:43:39.571   02 Jun 2027 03:44:38.199            58.628               Magadan2          5412.000
        40   02 Jun 2027 03:44:38.595   02 Jun 2027 03:44:48.721            10.126                Novosib           198.000
        41   02 Jun 2027 03:44:51.586   02 Jun 2027 03:45:13.638            22.052               Magadan1          1432.500
        42   02 Jun 2027 03:45:19.477   02 Jun 2027 03:45:45.627            26.150                Norilsk          2919.500
        43   02 Jun 2027 03:45:45.963   02 Jun 2027 03:46:23.140            37.177               Magadan1           168.000
        44   02 Jun 2027 03:46:23.439   02 Jun 2027 03:46:31.350             7.911              Murmansk1           149.500
        45   02 Jun 2027 03:46:35.820   02 Jun 2027 03:47:12.843            37.023              Murmansk1          2235.000
        46   02 Jun 2027 05:16:24.815   02 Jun 2027 05:17:48.457            83.642                Novosib          7969.500
        47   02 Jun 2027 05:17:51.840   02 Jun 2027 05:18:22.137            30.297                Irkutsk          1691.500
        48   02 Jun 2027 05:18:26.067   02 Jun 2027 05:18:50.341            24.274                Norilsk          1965.000
        49   02 Jun 2027 05:19:03.713   02 Jun 2027 05:20:47.025           103.312                Novosib          6686.000
        50   02 Jun 2027 05:20:53.481   02 Jun 2027 05:21:11.516            18.035                Novosib          2254.375
        51   02 Jun 2027 05:21:16.358   02 Jun 2027 05:21:39.816            23.458                Norilsk          2932.250
        52   02 Jun 2027 05:21:55.967   02 Jun 2027 05:22:56.568            60.601                Irkutsk          7575.125
        53   02 Jun 2027 05:22:59.314   02 Jun 2027 05:23:04.716             5.402                Norilsk           675.250
        54   02 Jun 2027 05:23:06.597   02 Jun 2027 05:23:11.367             4.770              Murmansk2           287.500
        55   02 Jun 2027 06:54:21.780   02 Jun 2027 06:54:22.284             0.504                Norilsk            63.000
        56   02 Jun 2027 06:54:22.776   02 Jun 2027 06:54:35.467            12.691                 Moscow           400.500
        57   02 Jun 2027 06:54:56.508   02 Jun 2027 06:56:39.265           102.757                Irkutsk         10520.500
        58   02 Jun 2027 06:56:40.710   02 Jun 2027 06:57:05.650            24.940              Murmansk1           722.500
        59   02 Jun 2027 06:57:06.473   02 Jun 2027 06:57:24.698            18.225                Irkutsk           411.500
        60   02 Jun 2027 06:57:27.516   02 Jun 2027 06:57:42.475            14.959              Murmansk1          1409.000
        61   02 Jun 2027 06:57:46.871   02 Jun 2027 06:57:57.709            10.838                Norilsk          1354.750
        62   02 Jun 2027 06:58:00.639   02 Jun 2027 06:58:56.462            55.823                 Moscow          2308.250
        63   02 Jun 2027 08:30:01.622   02 Jun 2027 08:31:10.633            69.011                Novosib          6044.500
        64   02 Jun 2027 08:31:22.411   02 Jun 2027 08:32:30.317            67.906              Murmansk1          5889.000
        65   02 Jun 2027 08:32:52.048   02 Jun 2027 08:34:22.784            90.736                Norilsk         10865.500
        66   02 Jun 2027 08:34:22.914   02 Jun 2027 08:34:37.684            14.770              Murmansk1            65.000
        67   02 Jun 2027 08:34:46.412   02 Jun 2027 08:35:15.355            28.943                Norilsk          3617.875
        68   02 Jun 2027 08:35:23.696   02 Jun 2027 08:35:53.662            29.966                Norilsk          1801.625
        69   03 Jun 2027 03:51:30.830   03 Jun 2027 03:51:54.578            23.748                Norilsk           570.500
        70   03 Jun 2027 03:52:05.423   03 Jun 2027 03:52:59.863            54.440               Magadan1          5422.500
        71   03 Jun 2027 03:53:11.636   03 Jun 2027 03:54:01.521            49.885               Magadan2          5886.500
        72   03 Jun 2027 03:54:15.372   03 Jun 2027 03:55:13.793            58.421                Norilsk          6925.500
        73   03 Jun 2027 03:55:14.905   03 Jun 2027 03:55:24.405             9.500               Magadan2           556.000
        74   03 Jun 2027 03:55:34.126   03 Jun 2027 03:56:24.763            50.637                Novosib          4860.500
        75   03 Jun 2027 03:56:25.947   03 Jun 2027 03:57:07.827            41.880               Magadan2           592.000
        76   03 Jun 2027 03:57:10.727   03 Jun 2027 03:57:30.114            19.387              Murmansk2          1450.000
        77   03 Jun 2027 03:57:30.575   03 Jun 2027 03:57:40.994            10.419                Novosib           230.500
        78   03 Jun 2027 03:57:44.397   03 Jun 2027 03:58:20.902            36.505               Magadan2          1701.500
        79   03 Jun 2027 03:58:30.982   03 Jun 2027 03:58:39.310             8.328              Murmansk1          1041.000
        80   03 Jun 2027 03:58:48.613   03 Jun 2027 03:59:00.158            11.545                Irkutsk          1443.125
        81   03 Jun 2027 03:59:10.722   03 Jun 2027 04:00:10.905            60.183                Novosib          7522.875
        82   03 Jun 2027 04:00:18.290   03 Jun 2027 04:00:36.900            18.610                Norilsk          1416.000
        83   03 Jun 2027 05:28:35.374   03 Jun 2027 05:29:14.699            39.325                Irkutsk          2275.000
        84   03 Jun 2027 05:29:21.121   03 Jun 2027 05:29:53.353            32.232                Norilsk          3211.000
        85   03 Jun 2027 05:29:55.151   03 Jun 2027 05:30:23.497            28.346                Irkutsk           899.000
        86   03 Jun 2027 05:30:23.666   03 Jun 2027 05:30:28.232             4.566                Norilsk            84.500
        87   03 Jun 2027 05:30:39.135   03 Jun 2027 05:32:00.764            81.629                Irkutsk          5451.500
        88   03 Jun 2027 05:32:08.332   03 Jun 2027 05:33:34.716            86.384                Irkutsk          3784.000
        89   03 Jun 2027 05:33:35.172   03 Jun 2027 05:34:03.838            28.666                Norilsk           228.000
        90   03 Jun 2027 05:34:12.400   03 Jun 2027 05:35:29.608            77.208                Novosib          4281.000
        91   03 Jun 2027 07:06:40.450   03 Jun 2027 07:07:38.210            57.760                Norilsk          4708.000
        92   03 Jun 2027 07:07:41.557   03 Jun 2027 07:08:05.058            23.501              Murmansk1          1673.500
        93   03 Jun 2027 07:08:11.826   03 Jun 2027 07:09:01.031            49.205              Murmansk1          3384.000
        94   03 Jun 2027 07:09:02.700   03 Jun 2027 07:09:43.690            40.990                Norilsk           834.500
        95   03 Jun 2027 07:09:45.627   03 Jun 2027 07:10:36.683            51.056              Murmansk2           968.500
        96   03 Jun 2027 08:40:14.007   03 Jun 2027 08:42:29.516           135.509                 Moscow         14666.000
        97   03 Jun 2027 08:42:50.608   03 Jun 2027 08:45:11.133           140.525                 Moscow         10546.000
        98   03 Jun 2027 08:45:15.708   03 Jun 2027 08:45:35.088            19.380                 Moscow          2287.500
        99   03 Jun 2027 08:45:36.049   03 Jun 2027 08:46:05.878            29.829                Novosib           480.500
       100   03 Jun 2027 08:46:10.140   03 Jun 2027 08:47:07.087            56.947              Murmansk1          2131.000
       101   03 Jun 2027 08:47:08.774   03 Jun 2027 08:47:16.011             7.237                Norilsk           843.500
       102   03 Jun 2027 08:47:20.042   03 Jun 2027 08:47:55.492            35.450                Norilsk          2015.500
       103   04 Jun 2027 04:03:43.226   04 Jun 2027 04:04:40.610            57.384                Norilsk          2185.500
       104   04 Jun 2027 04:04:50.037   04 Jun 2027 04:05:29.715            39.678                Novosib          4713.500
       105   04 Jun 2027 04:05:32.480   04 Jun 2027 04:05:36.990             4.510                Novosib           563.750
       106   04 Jun 2027 04:05:53.373   04 Jun 2027 04:07:14.862            81.489               Magadan1          9010.250
       107   04 Jun 2027 04:07:15.974   04 Jun 2027 04:07:38.981            23.007                Novosib           556.000
       108   04 Jun 2027 04:07:41.778   04 Jun 2027 04:08:17.404            35.626               Magadan1          1398.500
       109   04 Jun 2027 04:08:24.199   04 Jun 2027 04:09:17.937            53.738               Magadan2          3397.500
       110   04 Jun 2027 04:09:18.309   04 Jun 2027 04:09:27.339             9.030               Magadan2           186.000
       111   04 Jun 2027 04:09:32.065   04 Jun 2027 04:10:01.204            29.139              Murmansk2          2363.000
       112   04 Jun 2027 04:10:14.851   04 Jun 2027 04:11:04.143            49.292                Irkutsk          6161.500
       113   04 Jun 2027 04:11:13.743   04 Jun 2027 04:11:28.095            14.352                Novosib           882.000
       114   04 Jun 2027 05:40:46.974   04 Jun 2027 05:41:36.016            49.042                Irkutsk          5663.500
       115   04 Jun 2027 05:41:38.890   04 Jun 2027 05:42:09.996            31.106                Novosib          1437.000
       116   04 Jun 2027 05:42:23.993   04 Jun 2027 05:42:56.445            32.452                Irkutsk          4056.500
       117   04 Jun 2027 05:43:08.796   04 Jun 2027 05:44:36.274            87.478              Murmansk1          9117.500
       118   04 Jun 2027 05:44:38.424   04 Jun 2027 05:44:50.845            12.421                 Moscow          1075.000
       119   04 Jun 2027 05:45:00.830   04 Jun 2027 05:46:15.109            74.279                 Moscow          4992.500
       120   04 Jun 2027 05:46:25.343   04 Jun 2027 05:47:12.632            47.289              Murmansk1          5117.000
       121   04 Jun 2027 07:18:35.811   04 Jun 2027 07:19:13.123            37.312                Norilsk          3385.500
       122   04 Jun 2027 07:19:25.115   04 Jun 2027 07:20:53.998            88.883                 Moscow          5996.000
       123   04 Jun 2027 07:20:57.074   04 Jun 2027 07:21:17.309            20.235              Murmansk2          1538.000
       124   04 Jun 2027 07:21:17.367   04 Jun 2027 07:21:31.839            14.472              Murmansk1            29.000
       125   04 Jun 2027 07:21:37.960   04 Jun 2027 07:21:49.453            11.493                Norilsk          1436.625
       126   04 Jun 2027 07:22:11.644   04 Jun 2027 07:23:21.033            69.389                Norilsk          8673.625
       127   04 Jun 2027 07:23:27.901   04 Jun 2027 07:24:40.158            72.257                 Moscow          4045.750
       128   04 Jun 2027 08:52:22.738   04 Jun 2027 08:54:05.068           102.330                 Moscow          9703.500
       129   04 Jun 2027 08:54:18.459   04 Jun 2027 08:55:23.106            64.647              Murmansk2          6695.500
       130   04 Jun 2027 08:55:41.930   04 Jun 2027 08:57:24.640           102.710              Murmansk2          9412.000
       131   04 Jun 2027 08:57:24.643   04 Jun 2027 08:57:42.209            17.566                 Moscow             1.500
       132   04 Jun 2027 08:57:48.879   04 Jun 2027 08:58:29.384            40.505                Norilsk          3335.000
       133   04 Jun 2027 08:58:37.050   04 Jun 2027 08:59:09.382            32.332                Norilsk          3833.000
       134   04 Jun 2027 08:59:16.225   04 Jun 2027 08:59:57.239            41.014                Norilsk          3421.500
       135   05 Jun 2027 04:15:53.103   05 Jun 2027 04:16:38.416            45.313               Magadan1          5664.125
       136   05 Jun 2027 04:16:43.348   05 Jun 2027 04:17:56.206            72.858               Magadan1          2979.875
       137   05 Jun 2027 04:18:02.492   05 Jun 2027 04:19:10.840            68.348               Magadan1          3143.000
       138   05 Jun 2027 04:19:14.259   05 Jun 2027 04:19:30.068            15.809               Magadan1          1709.500
       139   05 Jun 2027 04:19:43.336   05 Jun 2027 04:21:28.187           104.851                Novosib          6634.000
       140   05 Jun 2027 04:21:34.072   05 Jun 2027 04:22:14.695            40.623              Murmansk1          2942.500
       141   05 Jun 2027 04:22:27.707   05 Jun 2027 04:23:15.306            47.599                Norilsk          5949.875
       142   05 Jun 2027 04:23:16.775   05 Jun 2027 04:23:29.712            12.937                Novosib           556.125
       143   05 Jun 2027 05:52:35.946   05 Jun 2027 05:53:34.216            58.270                Novosib          3747.000
       144   05 Jun 2027 05:53:42.589   05 Jun 2027 05:54:27.124            44.535                Norilsk          4186.500
       145   05 Jun 2027 05:54:31.834   05 Jun 2027 05:54:51.857            20.023                Norilsk          2355.000
       146   05 Jun 2027 05:54:56.013   05 Jun 2027 05:55:22.894            26.881              Murmansk1          2078.000
       147   05 Jun 2027 05:55:30.755   05 Jun 2027 05:56:04.991            34.236                Norilsk          3930.500
       148   05 Jun 2027 05:56:11.813   05 Jun 2027 05:56:45.873            34.060                Irkutsk          3411.000
       149   05 Jun 2027 05:57:01.232   05 Jun 2027 05:58:18.966            77.734              Murmansk1          7679.500
       150   05 Jun 2027 05:58:20.446   05 Jun 2027 05:58:41.958            21.512                Novosib           740.000
       151   05 Jun 2027 05:58:47.723   05 Jun 2027 05:59:00.080            12.357                Norilsk          1544.625
       152   05 Jun 2027 05:59:00.549   05 Jun 2027 05:59:08.234             7.685                 Moscow           960.625
       153   05 Jun 2027 05:59:13.880   05 Jun 2027 05:59:46.661            32.781                 Moscow          1948.750
       154   05 Jun 2027 07:30:37.361   05 Jun 2027 07:31:15.681            38.320                 Moscow          2579.500
       155   05 Jun 2027 07:31:33.252   05 Jun 2027 07:33:07.920            94.668                Novosib          8785.500
       156   05 Jun 2027 07:33:14.167   05 Jun 2027 07:34:48.305            94.138                 Moscow          3123.500
       157   05 Jun 2027 09:04:33.657   05 Jun 2027 09:04:47.598            13.941                 Moscow          1742.625
       158   05 Jun 2027 09:05:12.372   05 Jun 2027 09:07:40.746           148.374                 Moscow         16224.375
       159   05 Jun 2027 09:08:00.155   05 Jun 2027 09:09:27.905            87.750                 Moscow          9704.500
       160   05 Jun 2027 09:09:29.638   05 Jun 2027 09:09:38.421             8.783              Murmansk1           866.500
       161   05 Jun 2027 09:09:40.009   05 Jun 2027 09:10:05.851            25.842              Murmansk2           794.000
       162   05 Jun 2027 09:10:07.785   05 Jun 2027 09:10:38.168            30.383                Norilsk           967.000
       163   05 Jun 2027 09:10:50.365   05 Jun 2027 09:12:07.368            77.003                 Moscow          6098.500
       164   06 Jun 2027 04:28:08.059   06 Jun 2027 04:29:04.155            56.096                Novosib          7012.000
       165   06 Jun 2027 04:29:07.526   06 Jun 2027 04:30:04.130            56.604               Magadan1          6883.500
       166   06 Jun 2027 04:30:18.053   06 Jun 2027 04:31:15.966            57.913                Irkutsk          6961.500
       167   06 Jun 2027 04:31:29.050   06 Jun 2027 04:32:23.809            54.759                Norilsk          6542.000
       168   06 Jun 2027 04:32:27.151   06 Jun 2027 04:33:06.850            39.699               Magadan2          1671.000
       169   06 Jun 2027 04:33:18.783   06 Jun 2027 04:34:08.002            49.219                Norilsk          5966.500
       170   06 Jun 2027 04:34:19.785   06 Jun 2027 04:35:16.715            56.930                Norilsk          5891.500
       171   06 Jun 2027 06:04:45.808   06 Jun 2027 06:05:59.175            73.367                Novosib          3893.000
       172   06 Jun 2027 06:06:10.092   06 Jun 2027 06:07:04.460            54.368                Irkutsk          5458.500
       173   06 Jun 2027 06:07:10.922   06 Jun 2027 06:07:32.372            21.450                 Moscow          2681.250
       174   06 Jun 2027 06:07:49.811   06 Jun 2027 06:09:09.234            79.423              Murmansk1          9269.250
       175   06 Jun 2027 06:09:11.549   06 Jun 2027 06:09:45.980            34.431                Irkutsk          1157.500
       176   06 Jun 2027 06:09:59.913   06 Jun 2027 06:10:44.266            44.353                 Moscow          4080.000
       177   06 Jun 2027 06:10:48.501   06 Jun 2027 06:11:06.776            18.275              Murmansk1          2117.500
       178   06 Jun 2027 07:41:44.830   06 Jun 2027 07:41:59.838            15.008                 Moscow           210.000
       179   06 Jun 2027 07:42:17.036   06 Jun 2027 07:43:34.614            77.578                Norilsk          8599.000
       180   06 Jun 2027 07:43:42.019   06 Jun 2027 07:44:07.153            25.134                Norilsk          3141.750
       181   06 Jun 2027 07:44:09.125   06 Jun 2027 07:44:28.843            19.718              Murmansk2          1546.750
       182   06 Jun 2027 07:44:35.212   06 Jun 2027 07:45:32.117            56.905                Novosib          3184.500
       183   06 Jun 2027 07:45:34.778   06 Jun 2027 07:46:15.091            40.313              Murmansk1          1330.500
       184   06 Jun 2027 07:46:32.524   06 Jun 2027 07:48:20.785           108.261              Murmansk1          8716.500
       185   06 Jun 2027 09:16:52.018   06 Jun 2027 09:17:20.546            28.528                 Moscow          3032.000
       186   06 Jun 2027 09:17:31.298   06 Jun 2027 09:18:20.336            49.038              Murmansk2          4280.500
       187   06 Jun 2027 09:18:26.770   06 Jun 2027 09:18:44.774            18.004                 Moscow           627.000
       188   06 Jun 2027 09:19:01.625   06 Jun 2027 09:20:30.401            88.776              Murmansk2          8425.500
       189   06 Jun 2027 09:21:13.822   06 Jun 2027 09:21:30.685            16.863                 Moscow          2107.875
       190   06 Jun 2027 09:21:30.860   06 Jun 2027 09:24:39.057           188.197                Norilsk         19690.125
       191   07 Jun 2027 03:01:35.617   07 Jun 2027 03:02:55.188            79.571               Magadan1          9946.375
       192   07 Jun 2027 03:02:55.188   07 Jun 2027 03:03:05.805            10.617               Magadan2           195.625
       193   07 Jun 2027 03:03:31.088   07 Jun 2027 03:05:30.167           119.079               Magadan1         12641.500
       194   07 Jun 2027 03:05:38.836   07 Jun 2027 03:06:15.648            36.812                Irkutsk          4334.500
       195   07 Jun 2027 03:06:19.160   07 Jun 2027 03:06:36.730            17.570               Magadan2          1756.000
       196   07 Jun 2027 03:06:41.802   07 Jun 2027 03:07:25.581            43.779               Magadan1          2536.000
       197   07 Jun 2027 03:07:27.094   07 Jun 2027 03:07:49.963            22.869               Magadan2           756.500
       198   07 Jun 2027 03:07:56.580   07 Jun 2027 03:08:27.919            31.339               Magadan2          3308.500
       199   07 Jun 2027 03:08:33.045   07 Jun 2027 03:08:59.245            26.200                Novosib          2563.000
       200   07 Jun 2027 03:09:06.240   07 Jun 2027 03:10:00.405            54.165                Anadyr1          3497.500
       201   07 Jun 2027 03:10:03.038   07 Jun 2027 03:10:22.751            19.713               Magadan2          1316.500
       202   07 Jun 2027 03:10:24.274   07 Jun 2027 03:10:44.318            20.044                Norilsk           761.500
       203   07 Jun 2027 03:10:53.218   07 Jun 2027 03:11:32.201            38.983                Novosib          4450.000
       204   07 Jun 2027 04:40:16.021   07 Jun 2027 04:40:53.965            37.944                Novosib          3290.500
       205   07 Jun 2027 04:41:35.758   07 Jun 2027 04:44:19.740           163.982                Norilsk         20497.750
       206   07 Jun 2027 04:44:20.678   07 Jun 2027 04:45:26.448            65.770                Novosib           867.750
       207   07 Jun 2027 04:45:32.716   07 Jun 2027 04:45:59.800            27.084              Murmansk1          3134.000
       208   07 Jun 2027 04:46:15.112   07 Jun 2027 04:47:41.548            86.436              Murmansk2          7656.000
       209   07 Jun 2027 06:17:16.185   07 Jun 2027 06:17:34.357            18.172                Norilsk          2271.500
       210   07 Jun 2027 06:18:12.758   07 Jun 2027 06:21:33.298           200.540                Irkutsk         22324.500
       211   07 Jun 2027 06:21:38.270   07 Jun 2027 06:22:03.086            24.816              Murmansk1          1906.500
       212   07 Jun 2027 06:22:11.714   07 Jun 2027 06:23:05.969            54.255                 Moscow          4314.000
       213   07 Jun 2027 07:54:04.877   07 Jun 2027 07:55:06.433            61.556                Novosib          4532.000
       214   07 Jun 2027 07:55:08.093   07 Jun 2027 07:55:42.247            34.154              Murmansk1           830.000
       215   07 Jun 2027 07:55:42.590   07 Jun 2027 07:55:59.323            16.733                Norilsk           171.500
       216   07 Jun 2027 07:56:00.441   07 Jun 2027 07:56:10.713            10.272              Murmansk2           559.000
       217   07 Jun 2027 07:56:11.014   07 Jun 2027 07:56:16.049             5.035              Murmansk2           150.500
       218   07 Jun 2027 07:56:20.444   07 Jun 2027 07:56:53.571            33.127                 Moscow          2197.500
       219   07 Jun 2027 07:56:57.371   07 Jun 2027 07:57:24.680            27.309                Norilsk          1900.000
       220   07 Jun 2027 07:57:34.022   07 Jun 2027 07:58:50.917            76.895                Norilsk          4671.000
       221   07 Jun 2027 09:32:05.797   07 Jun 2027 09:34:41.554           155.757              Murmansk1         16427.500
       222   08 Jun 2027 03:15:35.900   08 Jun 2027 03:16:16.614            40.714                Irkutsk          3797.500
       223   08 Jun 2027 03:16:22.008   08 Jun 2027 03:16:58.844            36.836               Magadan2          2697.000
       224   08 Jun 2027 03:17:08.844   08 Jun 2027 03:18:39.689            90.845                Norilsk          5000.000
       225   08 Jun 2027 03:18:40.585   08 Jun 2027 03:18:55.435            14.850               Magadan2           448.000
       226   08 Jun 2027 03:19:05.057   08 Jun 2027 03:19:51.440            46.383               Magadan1          4811.000
       227   08 Jun 2027 03:20:04.983   08 Jun 2027 03:20:42.846            37.863               Magadan1          4732.875
       228   08 Jun 2027 03:20:46.066   08 Jun 2027 03:21:16.310            30.244                Norilsk          3648.625
       229   08 Jun 2027 03:21:18.131   08 Jun 2027 03:21:24.311             6.180                Irkutsk           772.500
       230   08 Jun 2027 03:21:33.600   08 Jun 2027 03:23:02.297            88.697               Magadan2          4782.500
       231   08 Jun 2027 03:23:04.119   08 Jun 2027 03:23:26.233            22.114                Norilsk           911.000
       232   08 Jun 2027 04:52:21.173   08 Jun 2027 04:52:46.170            24.997                Norilsk          2310.000
       233   08 Jun 2027 04:53:28.277   08 Jun 2027 04:56:01.997           153.720                Norilsk         19215.000
       234   08 Jun 2027 04:56:14.511   08 Jun 2027 04:57:24.671            70.160              Murmansk1          8095.500
       235   08 Jun 2027 04:57:29.904   08 Jun 2027 04:58:01.671            31.767                Novosib          2616.500
       236   08 Jun 2027 04:58:10.736   08 Jun 2027 04:59:30.888            80.152                Novosib          4532.500
       237   08 Jun 2027 06:30:05.134   08 Jun 2027 06:30:34.243            29.109                Novosib          3638.625
       238   08 Jun 2027 06:30:34.352   08 Jun 2027 06:30:36.012             1.660                Norilsk           207.500
       239   08 Jun 2027 06:30:47.431   08 Jun 2027 06:31:00.175            12.744                Norilsk          1593.000
       240   08 Jun 2027 06:31:04.666   08 Jun 2027 06:32:17.644            72.978              Murmansk1          6398.875
       241   08 Jun 2027 06:32:18.257   08 Jun 2027 06:32:25.127             6.870                 Moscow           306.500
       242   08 Jun 2027 06:32:25.977   08 Jun 2027 06:33:01.577            35.600                Irkutsk           425.000
       243   08 Jun 2027 06:33:05.843   08 Jun 2027 06:33:31.521            25.678              Murmansk2          2133.000
       244   08 Jun 2027 06:33:34.532   08 Jun 2027 06:33:53.747            19.215              Murmansk2          1505.500
       245   08 Jun 2027 06:34:01.424   08 Jun 2027 06:34:09.242             7.818                Novosib           977.250
       246   08 Jun 2027 06:34:20.806   08 Jun 2027 06:35:48.197            87.391                Norilsk          8643.250
       247   08 Jun 2027 08:06:03.576   08 Jun 2027 08:06:37.610            34.034                 Moscow          2639.000
       248   08 Jun 2027 08:06:46.821   08 Jun 2027 08:07:39.582            52.761                Novosib          4605.500
       249   08 Jun 2027 08:07:49.789   08 Jun 2027 08:08:31.950            42.161              Murmansk1          5103.500
       250   08 Jun 2027 08:08:37.792   08 Jun 2027 08:09:40.164            62.372                Novosib          2921.000
       251   08 Jun 2027 08:09:47.747   08 Jun 2027 08:10:29.774            42.027                Norilsk          3791.500
       252   08 Jun 2027 08:10:35.273   08 Jun 2027 08:11:03.742            28.469              Murmansk2          2749.500
       253   09 Jun 2027 03:28:32.762   09 Jun 2027 03:29:06.567            33.805                Norilsk          1812.500
       254   09 Jun 2027 03:29:09.115   09 Jun 2027 03:29:49.643            40.528                Irkutsk          1274.000
       255   09 Jun 2027 03:30:00.390   09 Jun 2027 03:30:52.282            51.892               Magadan2          5373.500
       256   09 Jun 2027 03:31:00.752   09 Jun 2027 03:32:01.989            61.237                Irkutsk          4235.000
       257   09 Jun 2027 03:32:13.659   09 Jun 2027 03:32:25.194            11.535               Magadan1          1441.875
       258   09 Jun 2027 03:32:32.866   09 Jun 2027 03:33:58.457            85.591               Magadan1          8229.125
       259   09 Jun 2027 03:33:58.720   09 Jun 2027 03:34:07.432             8.712                Novosib           131.500
       260   09 Jun 2027 03:34:09.780   09 Jun 2027 03:34:32.882            23.102                Irkutsk          1174.000
       261   09 Jun 2027 03:34:36.442   09 Jun 2027 03:35:01.493            25.051                Irkutsk          1780.000
       262   09 Jun 2027 03:35:02.656   09 Jun 2027 03:35:18.906            16.250                Norilsk           581.500
       263   09 Jun 2027 05:04:57.453   09 Jun 2027 05:06:04.100            66.647                Novosib          2777.500
       264   09 Jun 2027 05:06:11.523   09 Jun 2027 05:06:53.077            41.554                Irkutsk          3711.500
       265   09 Jun 2027 05:06:55.675   09 Jun 2027 05:07:51.818            56.143                Novosib          1299.000
       266   09 Jun 2027 05:08:01.347   09 Jun 2027 05:08:51.789            50.442                Irkutsk          4764.500
       267   09 Jun 2027 05:08:55.328   09 Jun 2027 05:09:13.675            18.347                Norilsk          1769.500
       268   09 Jun 2027 05:09:17.381   09 Jun 2027 05:09:41.989            24.608              Murmansk1          1853.000
       269   09 Jun 2027 05:09:45.431   09 Jun 2027 05:10:33.682            48.251              Murmansk2          1721.000
       270   09 Jun 2027 05:10:34.030   09 Jun 2027 05:10:56.907            22.877                Norilsk           174.000
       271   09 Jun 2027 05:11:08.336   09 Jun 2027 05:11:45.739            37.403              Murmansk2          3903.000
       272   09 Jun 2027 06:42:09.598   09 Jun 2027 06:42:35.458            25.860                Irkutsk          1446.500
       273   09 Jun 2027 06:42:39.578   09 Jun 2027 06:43:17.567            37.989                 Moscow          2060.000
       274   09 Jun 2027 06:43:20.508   09 Jun 2027 06:43:33.985            13.477              Murmansk1          1470.500
       275   09 Jun 2027 06:43:36.013   09 Jun 2027 06:44:04.201            28.188                Novosib          1014.000
       276   09 Jun 2027 06:44:08.905   09 Jun 2027 06:44:38.478            29.573                Irkutsk          2352.000
       277   09 Jun 2027 06:44:54.455   09 Jun 2027 06:46:01.061            66.606                Novosib          7988.500
       278   09 Jun 2027 06:46:10.210   09 Jun 2027 06:46:59.090            48.880              Murmansk1          4574.500
       279   09 Jun 2027 08:18:33.637   09 Jun 2027 08:19:21.465            47.828                Norilsk          5849.000
       280   09 Jun 2027 08:19:33.398   09 Jun 2027 08:20:38.130            64.732                Novosib          5966.500
       281   09 Jun 2027 08:20:45.769   09 Jun 2027 08:21:40.283            54.514              Murmansk1          3819.500
       282   09 Jun 2027 08:21:43.468   09 Jun 2027 08:22:24.965            41.497                Novosib          1592.500
       283   09 Jun 2027 08:22:27.119   09 Jun 2027 08:22:44.309            17.190              Murmansk2          1077.000
       284   09 Jun 2027 08:22:48.206   09 Jun 2027 08:23:05.495            17.289                Norilsk          1948.500
       285   10 Jun 2027 03:40:13.337   10 Jun 2027 03:40:27.366            14.029               Magadan2          1178.000
       286   10 Jun 2027 03:40:49.256   10 Jun 2027 03:42:19.646            90.390               Magadan2         10945.000
       287   10 Jun 2027 03:42:27.759   10 Jun 2027 03:44:07.296            99.537                Irkutsk          4056.500
       288   10 Jun 2027 03:44:07.333   10 Jun 2027 03:44:09.325             1.992               Magadan2            18.500
       289   10 Jun 2027 03:44:11.334   10 Jun 2027 03:44:35.128            23.794               Magadan2          1004.500
       290   10 Jun 2027 03:44:38.140   10 Jun 2027 03:45:01.058            22.918                Norilsk          1506.000
       291   10 Jun 2027 03:45:06.378   10 Jun 2027 03:45:28.351            21.973               Magadan2          2660.000
       292   10 Jun 2027 03:45:34.713   10 Jun 2027 03:46:09.157            34.444              Murmansk2          3181.000
       293   10 Jun 2027 03:46:20.453   10 Jun 2027 03:47:12.321            51.868                Novosib          5648.000
       294   10 Jun 2027 03:47:26.361   10 Jun 2027 03:47:44.874            18.513                Novosib           538.500
       295   10 Jun 2027 05:16:25.452   10 Jun 2027 05:17:07.613            42.161                Irkutsk           919.000
       296   10 Jun 2027 05:17:25.708   10 Jun 2027 05:17:45.423            19.715                Norilsk          2464.375
       297   10 Jun 2027 05:18:02.868   10 Jun 2027 05:21:01.711           178.843                Novosib         15305.625
       298   10 Jun 2027 05:21:10.839   10 Jun 2027 05:22:37.567            86.728              Murmansk2          4564.000
       299   10 Jun 2027 05:22:47.597   10 Jun 2027 05:23:31.312            43.715              Murmansk2          5015.000
       300   10 Jun 2027 06:54:52.470   10 Jun 2027 06:55:39.930            47.460                 Moscow          4125.000
       301   10 Jun 2027 06:55:50.620   10 Jun 2027 06:56:48.625            58.005                 Moscow          5345.000
       302   10 Jun 2027 06:56:54.095   10 Jun 2027 06:57:13.544            19.449                Irkutsk          2431.125
       303   10 Jun 2027 06:57:18.269   10 Jun 2027 06:58:02.081            43.812                Norilsk          2666.375
       304   10 Jun 2027 06:58:06.041   10 Jun 2027 06:58:40.967            34.926                Norilsk          1980.000
       305   10 Jun 2027 08:30:10.794   10 Jun 2027 08:30:44.888            34.094                 Moscow          3333.500
       306   10 Jun 2027 08:30:50.983   10 Jun 2027 08:31:25.157            34.174                Novosib          3047.500
       307   10 Jun 2027 08:31:26.680   10 Jun 2027 08:31:37.853            11.173              Murmansk1           761.500
       308   10 Jun 2027 08:31:38.383   10 Jun 2027 08:31:48.134             9.751                 Moscow           265.000
       309   10 Jun 2027 08:31:48.927   10 Jun 2027 08:32:09.237            20.310                Norilsk           396.500
       310   10 Jun 2027 08:32:12.985   10 Jun 2027 08:32:44.928            31.943              Murmansk1          1874.000
       311   10 Jun 2027 08:33:02.289   10 Jun 2027 08:34:18.027            75.738              Murmansk2          8680.500
       312   10 Jun 2027 08:34:25.860   10 Jun 2027 08:34:57.851            31.991                Novosib          3916.500
       313   10 Jun 2027 08:35:01.175   10 Jun 2027 08:35:24.669            23.494                Norilsk          1662.000
       314   10 Jun 2027 08:35:26.209   10 Jun 2027 08:35:38.810            12.601              Murmansk1           770.000
       315   11 Jun 2027 03:51:45.452   11 Jun 2027 03:52:09.666            24.214                Norilsk           632.000
       316   11 Jun 2027 03:52:10.615   11 Jun 2027 03:52:20.170             9.555               Magadan1           474.500
       317   11 Jun 2027 03:52:28.310   11 Jun 2027 03:53:10.012            41.702                Novosib          4070.000
       318   11 Jun 2027 03:53:14.847   11 Jun 2027 03:53:50.520            35.673               Magadan2          2417.500
       319   11 Jun 2027 03:53:51.802   11 Jun 2027 03:54:31.740            39.938                Norilsk           641.000
       320   11 Jun 2027 03:54:33.325   11 Jun 2027 03:55:20.251            46.926                Novosib           792.500
       321   11 Jun 2027 03:55:22.609   11 Jun 2027 03:55:31.860             9.251                Norilsk          1156.375
       322   11 Jun 2027 03:55:39.151   11 Jun 2027 03:56:25.358            46.207               Magadan1          3668.125
       323   11 Jun 2027 03:56:29.716   11 Jun 2027 03:57:04.969            35.253                Irkutsk          2179.000
       324   11 Jun 2027 03:57:07.151   11 Jun 2027 03:57:37.030            29.879                Norilsk          1091.000
       325   11 Jun 2027 03:57:46.822   11 Jun 2027 03:58:26.584            39.762              Murmansk1          4896.000
       326   11 Jun 2027 03:58:45.534   11 Jun 2027 04:00:17.457            91.923              Murmansk2          9475.000
       327   11 Jun 2027 05:28:49.809   11 Jun 2027 05:29:25.319            35.510                Irkutsk          2084.000
       328   11 Jun 2027 05:29:30.807   11 Jun 2027 05:30:08.414            37.607                Norilsk          2744.000
       329   11 Jun 2027 05:30:09.065   11 Jun 2027 05:30:38.148            29.083                Irkutsk           325.500
       330   11 Jun 2027 05:30:38.400   11 Jun 2027 05:30:43.264             4.864                Norilsk           126.000
       331   11 Jun 2027 05:30:57.995   11 Jun 2027 05:32:14.990            76.995                Irkutsk          7365.500
       332   11 Jun 2027 05:32:23.248   11 Jun 2027 05:33:49.201            85.953                Irkutsk          4129.000
       333   11 Jun 2027 05:33:50.094   11 Jun 2027 05:34:21.067            30.973                Norilsk           446.500
       334   11 Jun 2027 05:34:22.140   11 Jun 2027 05:34:32.015             9.875                 Moscow           536.500
       335   11 Jun 2027 05:34:46.345   11 Jun 2027 05:35:49.983            63.638              Murmansk2          7165.000
       336   11 Jun 2027 07:06:57.933   11 Jun 2027 07:07:52.939            55.006                Norilsk          6142.500
       337   11 Jun 2027 07:07:59.110   11 Jun 2027 07:08:20.061            20.951              Murmansk2          2618.875
       338   11 Jun 2027 07:08:20.061   11 Jun 2027 07:08:26.520             6.459              Murmansk1           466.625
       339   11 Jun 2027 07:08:36.499   11 Jun 2027 07:09:31.189            54.690                Novosib          4989.500
       340   11 Jun 2027 07:09:34.616   11 Jun 2027 07:09:44.652            10.036              Murmansk2          1254.500
       341   11 Jun 2027 07:09:44.652   11 Jun 2027 07:10:00.362            15.710              Murmansk1           459.000
       342   11 Jun 2027 07:10:07.779   11 Jun 2027 07:11:11.637            63.858                Norilsk          3708.500
       343   11 Jun 2027 08:40:29.623   11 Jun 2027 08:42:48.196           138.573                 Moscow         15379.500
       344   11 Jun 2027 08:43:05.077   11 Jun 2027 08:45:25.315           140.238                 Moscow          8440.500
       345   11 Jun 2027 08:45:30.544   11 Jun 2027 08:45:59.093            28.549                 Moscow          2614.500
       346   11 Jun 2027 08:45:59.500   11 Jun 2027 08:46:08.104             8.604              Murmansk1           203.500
       347   11 Jun 2027 08:46:25.966   11 Jun 2027 08:47:41.316            75.350              Murmansk2          7950.000
       348   11 Jun 2027 08:47:42.538   11 Jun 2027 08:48:11.539            29.001                 Moscow           611.000
       349   12 Jun 2027 04:03:58.321   12 Jun 2027 04:04:56.381            58.060                Norilsk          2307.000
       350   12 Jun 2027 04:05:07.603   12 Jun 2027 04:05:55.030            47.427                Novosib          5611.000
       351   12 Jun 2027 04:06:08.919   12 Jun 2027 04:07:07.504            58.585               Magadan2          6944.500
       352   12 Jun 2027 04:07:18.679   12 Jun 2027 04:08:19.692            61.013                Irkutsk          5587.500
       353   12 Jun 2027 04:08:20.155   12 Jun 2027 04:08:28.434             8.279                Irkutsk           231.500
       354   12 Jun 2027 04:08:34.426   12 Jun 2027 04:09:32.723            58.297               Magadan2          2996.000
       355   12 Jun 2027 04:09:32.938   12 Jun 2027 04:09:42.212             9.274               Magadan1           107.500
       356   12 Jun 2027 04:09:48.089   12 Jun 2027 04:09:53.473             5.384                Novosib           673.000
       357   12 Jun 2027 04:10:02.867   12 Jun 2027 04:10:19.569            16.702               Magadan1          2087.750
       358   12 Jun 2027 04:10:30.280   12 Jun 2027 04:11:18.900            48.620                Irkutsk          6077.500
       359   12 Jun 2027 04:11:28.923   12 Jun 2027 04:11:47.558            18.635                Norilsk          2329.375
       360   12 Jun 2027 04:11:53.301   12 Jun 2027 04:12:40.468            47.167              Murmansk2          2028.375
       361   12 Jun 2027 05:41:02.373   12 Jun 2027 05:42:38.633            96.260                Irkutsk          6175.500
       362   12 Jun 2027 05:42:45.115   12 Jun 2027 05:43:32.034            46.919                Norilsk          3241.000
       363   12 Jun 2027 05:43:35.916   12 Jun 2027 05:43:57.684            21.768                Norilsk          1941.000
       364   12 Jun 2027 05:43:59.869   12 Jun 2027 05:44:20.593            20.724                Novosib          1092.500
       365   12 Jun 2027 05:44:22.295   12 Jun 2027 05:44:33.354            11.059                Novosib           851.000
       366   12 Jun 2027 05:44:33.399   12 Jun 2027 05:44:50.898            17.499              Murmansk2            22.500
       367   12 Jun 2027 05:44:59.929   12 Jun 2027 05:45:50.530            50.601              Murmansk2          4515.500
       368   12 Jun 2027 05:46:13.229   12 Jun 2027 05:47:13.568            60.339                Norilsk          7542.375
       369   12 Jun 2027 05:47:16.252   12 Jun 2027 05:47:55.516            39.264                 Moscow          3807.125
       370   12 Jun 2027 07:19:01.917   12 Jun 2027 07:20:21.279            79.362              Murmansk2          8978.500
       371   12 Jun 2027 07:20:24.053   12 Jun 2027 07:20:43.923            19.870              Murmansk2          1387.000
       372   12 Jun 2027 07:20:45.122   12 Jun 2027 07:21:37.025            51.903                Novosib           599.500
       373   12 Jun 2027 07:21:46.813   12 Jun 2027 07:23:14.659            87.846                 Moscow          4894.000
       374   12 Jun 2027 08:52:37.665   12 Jun 2027 08:54:20.023           102.358                 Moscow          9808.500
       375   12 Jun 2027 08:54:33.716   12 Jun 2027 08:56:07.081            93.365                 Moscow          6846.500
       376   12 Jun 2027 08:56:14.820   12 Jun 2027 08:56:49.789            34.969                Novosib          3869.500
       377   12 Jun 2027 08:56:52.190   12 Jun 2027 08:57:50.717            58.527              Murmansk2          1200.500
       378   12 Jun 2027 08:57:51.608   12 Jun 2027 08:57:56.400             4.792              Murmansk1           445.500
       379   12 Jun 2027 08:57:56.948   12 Jun 2027 08:58:15.841            18.893                 Moscow           274.000
       380   12 Jun 2027 08:58:18.268   12 Jun 2027 08:59:04.792            46.524                 Moscow          1213.500
       381   12 Jun 2027 08:59:18.991   12 Jun 2027 09:00:17.137            58.146              Murmansk1          7099.500
       382   13 Jun 2027 04:16:07.952   13 Jun 2027 04:16:34.592            26.640               Magadan2          3330.000
       383   13 Jun 2027 04:16:34.592   13 Jun 2027 04:16:42.102             7.510               Magadan1           938.750
       384   13 Jun 2027 04:16:42.961   13 Jun 2027 04:17:50.390            67.429                Irkutsk          2323.250
       385   13 Jun 2027 04:18:11.748   13 Jun 2027 04:19:46.509            94.761               Magadan1         10679.000
       386   13 Jun 2027 04:19:58.226   13 Jun 2027 04:20:22.029            23.803                Novosib          2975.375
       387   13 Jun 2027 04:20:27.286   13 Jun 2027 04:21:43.096            75.810                Novosib          5511.625
       388   13 Jun 2027 04:21:50.779   13 Jun 2027 04:22:29.362            38.583              Murmansk1          3841.500
       389   13 Jun 2027 04:22:42.547   13 Jun 2027 04:23:39.540            56.993                Norilsk          6592.500
       390   13 Jun 2027 05:52:49.044   13 Jun 2027 05:53:18.324            29.280                Norilsk          2939.000
       391   13 Jun 2027 05:53:19.845   13 Jun 2027 05:53:54.469            34.624                Novosib           760.500
       392   13 Jun 2027 05:53:57.682   13 Jun 2027 05:54:41.860            44.178                Norilsk          1606.500
       393   13 Jun 2027 05:54:46.864   13 Jun 2027 05:55:06.485            19.621                Norilsk          2452.625
       394   13 Jun 2027 05:55:10.545   13 Jun 2027 05:55:38.870            28.325              Murmansk1          2079.375
       395   13 Jun 2027 05:55:46.702   13 Jun 2027 05:56:20.422            33.720                Norilsk          3916.000
       396   13 Jun 2027 05:56:26.829   13 Jun 2027 05:57:00.911            34.082                Irkutsk          3203.500
       397   13 Jun 2027 05:57:11.645   13 Jun 2027 05:57:42.652            31.007                Norilsk          3875.875
       398   13 Jun 2027 05:57:48.395   13 Jun 2027 05:58:34.638            46.243              Murmansk1          4362.625
       399   13 Jun 2027 05:58:35.892   13 Jun 2027 05:59:00.866            24.974                Novosib           627.000
       400   13 Jun 2027 05:59:03.504   13 Jun 2027 05:59:17.543            14.039                Norilsk          1319.000
       401   13 Jun 2027 05:59:18.070   13 Jun 2027 05:59:21.613             3.543              Murmansk2           263.500
       402   13 Jun 2027 05:59:24.520   13 Jun 2027 06:00:02.765            38.245                 Moscow          1453.500
       403   13 Jun 2027 07:30:51.983   13 Jun 2027 07:31:33.789            41.806                 Moscow          2522.500
       404   13 Jun 2027 07:31:48.857   13 Jun 2027 07:31:53.475             4.618                Novosib           577.250
       405   13 Jun 2027 07:31:55.309   13 Jun 2027 07:33:01.273            65.964                Norilsk          7873.750
       406   13 Jun 2027 07:33:08.316   13 Jun 2027 07:33:51.887            43.571              Murmansk1          3521.500
       407   13 Jun 2027 07:33:51.939   13 Jun 2027 07:34:36.170            44.231              Murmansk1            26.000
       408   13 Jun 2027 07:34:49.678   13 Jun 2027 07:35:30.129            40.451                Novosib          5056.375
       409   13 Jun 2027 07:35:34.473   13 Jun 2027 07:36:33.387            58.914                 Moscow          1697.625
       410   13 Jun 2027 09:04:48.389   13 Jun 2027 09:05:36.189            47.800                 Moscow          5687.500
       411   13 Jun 2027 09:05:39.069   13 Jun 2027 09:06:25.827            46.758              Murmansk2          1440.000
       412   13 Jun 2027 09:06:29.272   13 Jun 2027 09:06:43.230            13.958                 Moscow          1722.500
       413   13 Jun 2027 09:06:49.165   13 Jun 2027 09:07:02.283            13.118              Murmansk1          1639.750
       414   13 Jun 2027 09:07:02.283   13 Jun 2027 09:07:26.575            24.292              Murmansk2          1327.750
       415   13 Jun 2027 09:07:41.248   13 Jun 2027 09:08:44.550            63.302              Murmansk2          7336.500
       416   13 Jun 2027 09:09:00.275   13 Jun 2027 09:10:18.166            77.891                Norilsk          7862.500
       417   13 Jun 2027 09:10:18.516   13 Jun 2027 09:10:22.685             4.169                Norilsk           175.000
       418   13 Jun 2027 09:10:26.245   13 Jun 2027 09:10:53.644            27.399                Norilsk          1780.000
       419   13 Jun 2027 09:11:05.099   13 Jun 2027 09:12:21.799            76.700                 Moscow          5727.500
