uniorb/output/strategy_2/Drop/Drop_KinoSat_112004.txt

KinoSat_112004
-------------------------
    Access    *     Start Time (UTCG)     *     Stop Time (UTCG)  *   Duration (s)        *       Station  *  Data (Mbytes)
         1   01 Jun 2027 03:07:03.528   01 Jun 2027 03:07:42.902            39.374               Magadan1          1230.437
         2   01 Jun 2027 03:08:35.747   01 Jun 2027 03:08:41.671             5.924               Magadan1           185.125
         3   01 Jun 2027 03:09:22.474   01 Jun 2027 03:09:35.336            12.862              Murmansk2           401.938
         4   01 Jun 2027 03:10:15.053   01 Jun 2027 03:10:25.407            10.354                Novosib           323.562
         5   01 Jun 2027 03:10:42.698   01 Jun 2027 03:14:08.060           205.362                Novosib          6417.562
         6   01 Jun 2027 03:14:25.796   01 Jun 2027 03:14:29.491             3.695                Novosib           115.469
         7   01 Jun 2027 03:14:47.886   01 Jun 2027 03:20:03.806           315.920                  Delhi          9872.500
         8   01 Jun 2027 03:55:17.847   01 Jun 2027 04:00:01.085           283.238            RioGallegos          8851.187
         9   01 Jun 2027 04:46:27.664   01 Jun 2027 04:46:53.942            26.278              Murmansk1           821.188
        10   01 Jun 2027 04:47:08.617   01 Jun 2027 04:47:37.161            28.544                 Moscow           892.000
        11   01 Jun 2027 04:47:43.386   01 Jun 2027 04:48:04.631            21.245              Murmansk2           663.906
        12   01 Jun 2027 04:48:09.055   01 Jun 2027 04:49:18.769            69.714              Murmansk2          2178.563
        13   01 Jun 2027 04:49:28.540   01 Jun 2027 04:50:13.539            44.999              Murmansk1          1406.219
        14   01 Jun 2027 04:50:30.214   01 Jun 2027 04:51:15.365            45.151                Norilsk          1410.969
        15   01 Jun 2027 04:51:44.280   01 Jun 2027 04:52:01.120            16.840                Novosib           526.250
        16   01 Jun 2027 04:52:34.001   01 Jun 2027 04:56:50.487           256.486                  Delhi          8015.188
        17   01 Jun 2027 06:21:41.210   01 Jun 2027 06:23:22.079           100.869                Novosib          3152.156
        18   01 Jun 2027 06:25:42.047   01 Jun 2027 06:26:08.875            26.828              Murmansk1           838.375
        19   01 Jun 2027 06:26:34.990   01 Jun 2027 06:27:06.892            31.902              Murmansk1           996.937
        20   01 Jun 2027 06:27:08.363   01 Jun 2027 06:28:04.092            55.729                 Moscow          1741.531
        21   01 Jun 2027 06:28:15.290   01 Jun 2027 06:29:12.255            56.965              Murmansk2          1780.156
        22   01 Jun 2027 06:30:43.762   01 Jun 2027 06:31:34.789            51.027                 Moscow          1594.594
        23   01 Jun 2027 06:43:48.046   01 Jun 2027 06:44:54.092            66.046               CapeTown          2063.938
        24   01 Jun 2027 06:46:57.078   01 Jun 2027 06:47:45.232            48.154               CapeTown          1504.813
        25   01 Jun 2027 06:50:50.455   01 Jun 2027 06:52:12.801            82.346               CapeTown          2573.313
        26   01 Jun 2027 07:47:05.865   01 Jun 2027 07:47:31.040            25.175                Anadyr1           786.719
        27   01 Jun 2027 07:47:44.931   01 Jun 2027 07:47:47.953             3.022                Anadyr1            94.438
        28   01 Jun 2027 07:48:44.326   01 Jun 2027 07:49:28.354            44.028                Anadyr2          1375.875
        29   01 Jun 2027 07:49:28.354   01 Jun 2027 07:50:05.024            36.670                Anadyr1          1145.937
        30   01 Jun 2027 08:22:06.143   01 Jun 2027 08:30:34.646           508.503               CapeTown         15890.719
        31   01 Jun 2027 09:21:09.079   01 Jun 2027 09:22:55.620           106.541                Anadyr1          3329.406
        32   01 Jun 2027 09:24:19.271   01 Jun 2027 09:29:15.626           296.355                Anadyr1          9261.094
        33   01 Jun 2027 10:56:18.785   01 Jun 2027 10:57:45.829            87.044               Magadan1          2720.125
        34   01 Jun 2027 10:57:45.829   01 Jun 2027 10:58:26.824            40.995               Magadan2          1281.094
        35   01 Jun 2027 10:58:58.765   01 Jun 2027 11:02:59.464           240.699               Magadan1          7521.844
        36   01 Jun 2027 11:02:59.464   01 Jun 2027 11:04:47.770           108.306               Magadan2          3384.563
        37   01 Jun 2027 12:33:42.714   01 Jun 2027 12:38:57.385           314.671               Magadan2          9833.469
        38   01 Jun 2027 14:56:50.072   01 Jun 2027 15:01:16.037           265.965            RioGallegos          8311.406
        39   01 Jun 2027 17:26:51.974   01 Jun 2027 17:29:37.424           165.450                Norilsk          5170.313
        40   01 Jun 2027 17:30:26.721   01 Jun 2027 17:30:58.640            31.919                Norilsk           997.469
        41   01 Jun 2027 17:32:03.646   01 Jun 2027 17:33:08.099            64.453                Norilsk          2014.156
        42   01 Jun 2027 18:56:35.649   01 Jun 2027 18:58:07.880            92.231                 Moscow          2882.219
        43   01 Jun 2027 18:59:35.339   01 Jun 2027 18:59:38.033             2.694              Murmansk2            84.188
        44   01 Jun 2027 18:59:46.946   01 Jun 2027 19:00:57.728            70.782              Murmansk1          2211.938
        45   01 Jun 2027 20:08:26.541   01 Jun 2027 20:09:00.075            33.534               CapeTown          1047.938
        46   01 Jun 2027 20:11:12.175   01 Jun 2027 20:12:52.431           100.256               CapeTown          3133.000
        47   01 Jun 2027 20:39:11.688   01 Jun 2027 20:45:07.188           355.500              Murmansk1         11109.375
        48   01 Jun 2027 20:45:18.635   01 Jun 2027 20:46:52.914            94.279              Murmansk2          2946.219
        49   01 Jun 2027 22:27:08.649   01 Jun 2027 22:27:47.481            38.832               Magadan2          1213.500
        50   01 Jun 2027 22:27:47.481   01 Jun 2027 22:28:36.598            49.117               Magadan1          1534.906
        51   01 Jun 2027 22:28:39.446   01 Jun 2027 22:28:40.667             1.221               Magadan1            38.156
        52   01 Jun 2027 22:29:09.245   01 Jun 2027 22:29:34.505            25.260               Magadan1           789.375
        53   01 Jun 2027 22:30:01.249   01 Jun 2027 22:30:19.513            18.264               Magadan1           570.750
        54   01 Jun 2027 23:22:14.833   01 Jun 2027 23:22:34.943            20.110            RioGallegos           628.437
        55   01 Jun 2027 23:22:55.147   01 Jun 2027 23:23:26.298            31.151            RioGallegos           973.469
        56   02 Jun 2027 00:00:40.811   02 Jun 2027 00:02:12.454            91.643                Anadyr1          2863.844
        57   02 Jun 2027 00:02:15.537   02 Jun 2027 00:02:45.429            29.892                Anadyr2           934.125
        58   02 Jun 2027 00:02:46.682   02 Jun 2027 00:04:36.476           109.794                Norilsk          3431.063
        59   02 Jun 2027 00:04:51.648   02 Jun 2027 00:06:12.572            80.924               Magadan2          2528.875
        60   02 Jun 2027 00:07:48.294   02 Jun 2027 00:08:36.774            48.480                Irkutsk          1515.000
        61   02 Jun 2027 00:09:43.577   02 Jun 2027 00:10:12.378            28.801                Irkutsk           900.031
        62   02 Jun 2027 00:22:58.790   02 Jun 2027 00:24:53.277           114.487                Sumatra          3577.719
        63   02 Jun 2027 00:54:41.018   02 Jun 2027 00:56:33.456           112.438            RioGallegos          3513.688
        64   02 Jun 2027 01:35:59.981   02 Jun 2027 01:36:14.977            14.996                Anadyr1           468.625
        65   02 Jun 2027 01:36:17.318   02 Jun 2027 01:36:35.451            18.133                Anadyr2           566.656
        66   02 Jun 2027 01:37:31.358   02 Jun 2027 01:38:42.675            71.317                Anadyr2          2228.656
        67   02 Jun 2027 01:39:11.366   02 Jun 2027 01:39:51.349            39.983               Magadan1          1249.469
        68   02 Jun 2027 01:39:57.599   02 Jun 2027 01:40:36.645            39.046                Norilsk          1220.187
        69   02 Jun 2027 01:40:54.487   02 Jun 2027 01:41:20.872            26.385               Magadan2           824.531
        70   02 Jun 2027 01:42:17.615   02 Jun 2027 01:42:31.423            13.808               Magadan1           431.500
        71   02 Jun 2027 01:43:11.655   02 Jun 2027 01:46:59.164           227.509                Novosib          7109.656
        72   02 Jun 2027 01:53:37.028   02 Jun 2027 01:53:51.063            14.035                  Delhi           438.594
        73   02 Jun 2027 01:54:45.535   02 Jun 2027 01:55:04.041            18.506                  Delhi           578.313
        74   02 Jun 2027 01:56:20.070   02 Jun 2027 01:59:20.056           179.986                Sumatra          5624.563
        75   02 Jun 2027 02:04:50.050   02 Jun 2027 02:06:03.138            73.088                Sumatra          2284.000
        76   02 Jun 2027 02:30:33.573   02 Jun 2027 02:32:15.822           102.249            RioGallegos          3195.281
        77   02 Jun 2027 03:19:38.284   02 Jun 2027 03:20:41.743            63.459               Magadan2          1983.094
        78   02 Jun 2027 03:20:41.743   02 Jun 2027 03:20:44.053             2.310               Magadan1            72.187
        79   02 Jun 2027 03:22:32.584   02 Jun 2027 03:22:58.240            25.656                Irkutsk           801.750
        80   02 Jun 2027 03:23:59.772   02 Jun 2027 03:24:09.904            10.132                Norilsk           316.625
        81   02 Jun 2027 03:24:36.912   02 Jun 2027 03:25:20.242            43.330                Norilsk          1354.062
        82   02 Jun 2027 03:25:34.766   02 Jun 2027 03:25:45.148            10.382                Novosib           324.437
        83   02 Jun 2027 03:26:09.682   02 Jun 2027 03:26:49.801            40.119                Norilsk          1253.719
        84   02 Jun 2027 03:27:03.812   02 Jun 2027 03:28:40.644            96.832                Novosib          3026.000
        85   02 Jun 2027 03:28:41.499   02 Jun 2027 03:38:29.874           588.375                  Delhi         18386.719
        86   02 Jun 2027 04:07:34.422   02 Jun 2027 04:14:53.016           438.594            RioGallegos         13706.063
        87   02 Jun 2027 04:43:27.490   02 Jun 2027 04:44:20.242            52.752                Anadyr1          1648.500
        88   02 Jun 2027 04:45:35.612   02 Jun 2027 04:45:53.586            17.974                Anadyr1           561.688
        89   02 Jun 2027 04:49:25.299   02 Jun 2027 04:49:43.914            18.615                Anadyr1           581.719
        90   02 Jun 2027 04:49:43.914   02 Jun 2027 04:50:18.382            34.468                Anadyr2          1077.125
        91   02 Jun 2027 04:54:27.956   02 Jun 2027 04:54:58.454            30.498                Novosib           953.063
        92   02 Jun 2027 04:55:53.190   02 Jun 2027 04:58:19.212           146.022                Irkutsk          4563.188
        93   02 Jun 2027 04:59:46.396   02 Jun 2027 05:00:29.371            42.975              Murmansk1          1342.969
        94   02 Jun 2027 05:00:33.708   02 Jun 2027 05:01:29.674            55.966                Irkutsk          1748.938
        95   02 Jun 2027 05:01:37.092   02 Jun 2027 05:02:20.804            43.712                Norilsk          1366.000
        96   02 Jun 2027 05:02:57.379   02 Jun 2027 05:03:25.189            27.810              Murmansk1           869.062
        97   02 Jun 2027 05:05:08.960   02 Jun 2027 05:11:10.502           361.542                  Delhi         11298.187
        98   02 Jun 2027 06:37:45.724   02 Jun 2027 06:41:51.522           245.798                 Moscow          7681.188
        99   02 Jun 2027 06:42:14.244   02 Jun 2027 06:42:51.535            37.291                 Moscow          1165.344
       100   02 Jun 2027 06:43:09.762   02 Jun 2027 06:43:39.574            29.812                 Moscow           931.625
       101   02 Jun 2027 06:55:46.455   02 Jun 2027 06:56:43.669            57.214               CapeTown          1787.938
       102   02 Jun 2027 06:59:00.222   02 Jun 2027 06:59:41.575            41.353               CapeTown          1292.281
       103   02 Jun 2027 08:00:15.857   02 Jun 2027 08:01:17.953            62.096               Magadan1          1940.500
       104   02 Jun 2027 08:01:17.953   02 Jun 2027 08:01:51.499            33.546               Magadan2          1048.313
       105   02 Jun 2027 08:02:09.861   02 Jun 2027 08:04:43.045           153.184                Anadyr2          4787.000
       106   02 Jun 2027 08:35:14.408   02 Jun 2027 08:41:43.314           388.906               CapeTown         12153.313
       107   02 Jun 2027 09:35:23.629   02 Jun 2027 09:36:19.152            55.523               Magadan2          1735.094
       108   02 Jun 2027 09:36:56.802   02 Jun 2027 09:39:12.111           135.309               Magadan2          4228.406
       109   02 Jun 2027 09:39:51.976   02 Jun 2027 09:40:18.459            26.483                Anadyr1           827.594
       110   02 Jun 2027 11:05:14.495   02 Jun 2027 11:05:34.078            19.583               Magadan2           611.969
       111   02 Jun 2027 11:07:13.085   02 Jun 2027 11:07:59.391            46.306               Magadan1          1447.062
       112   02 Jun 2027 11:10:17.014   02 Jun 2027 11:10:46.625            29.611               Magadan2           925.344
       113   02 Jun 2027 11:10:46.625   02 Jun 2027 11:15:07.864           261.239               Magadan1          8163.719
       114   02 Jun 2027 11:15:36.954   02 Jun 2027 11:15:50.052            13.098              Murmansk1           409.312
       115   02 Jun 2027 11:15:51.686   02 Jun 2027 11:16:01.996            10.310                Norilsk           322.187
       116   02 Jun 2027 11:16:04.874   02 Jun 2027 11:16:12.284             7.410                Novosib           231.562
       117   02 Jun 2027 11:16:13.013   02 Jun 2027 11:16:14.138             1.125                Norilsk            35.156
       118   02 Jun 2027 11:16:22.187   02 Jun 2027 11:16:25.934             3.747              Murmansk2           117.094
       119   02 Jun 2027 11:16:31.904   02 Jun 2027 11:16:55.965            24.061                Norilsk           751.906
       120   02 Jun 2027 11:17:16.189   02 Jun 2027 11:17:24.485             8.296              Murmansk2           259.250
       121   02 Jun 2027 11:19:40.267   02 Jun 2027 11:19:44.975             4.708              Murmansk2           147.125
       122   02 Jun 2027 11:51:44.201   02 Jun 2027 11:52:55.028            70.827            RioGallegos          2213.344
       123   02 Jun 2027 11:57:12.935   02 Jun 2027 11:58:11.510            58.575            RioGallegos          1830.469
       124   02 Jun 2027 12:30:24.485   02 Jun 2027 12:30:55.703            31.218                Sumatra           975.562
       125   02 Jun 2027 12:39:54.916   02 Jun 2027 12:42:45.502           170.586                Irkutsk          5330.813
       126   02 Jun 2027 12:44:50.404   02 Jun 2027 12:45:25.298            34.894                Norilsk          1090.438
       127   02 Jun 2027 12:47:05.572   02 Jun 2027 12:48:05.359            59.787                Irkutsk          1868.344
       128   02 Jun 2027 12:48:11.047   02 Jun 2027 12:49:56.933           105.886               Magadan2          3308.938
       129   02 Jun 2027 14:02:25.213   02 Jun 2027 14:05:16.184           170.971                Sumatra          5342.844
       130   02 Jun 2027 14:10:19.669   02 Jun 2027 14:12:10.850           111.181                Sumatra          3474.406
       131   02 Jun 2027 14:17:12.354   02 Jun 2027 14:18:29.372            77.018                Irkutsk          2406.812
       132   02 Jun 2027 14:26:42.019   02 Jun 2027 14:27:11.213            29.194                Irkutsk           912.312
       133   02 Jun 2027 15:47:02.184   02 Jun 2027 15:48:31.111            88.927                  Delhi          2778.969
       134   02 Jun 2027 15:52:20.276   02 Jun 2027 15:52:21.336             1.060                  Delhi            33.125
       135   02 Jun 2027 15:54:06.273   02 Jun 2027 15:56:56.732           170.459                  Delhi          5326.844
       136   02 Jun 2027 15:59:06.395   02 Jun 2027 15:59:22.793            16.398                Norilsk           512.437
       137   02 Jun 2027 15:59:25.914   02 Jun 2027 16:00:36.498            70.584                Novosib          2205.750
       138   02 Jun 2027 16:02:01.410   02 Jun 2027 16:05:14.365           192.955                Novosib          6029.844
       139   02 Jun 2027 17:32:41.895   02 Jun 2027 17:34:11.201            89.306                 Moscow          2790.812
       140   02 Jun 2027 17:35:19.934   02 Jun 2027 17:35:54.498            34.564              Murmansk1          1080.125
       141   02 Jun 2027 17:39:41.972   02 Jun 2027 17:45:08.389           326.417                Norilsk         10200.531
       142   02 Jun 2027 19:09:10.512   02 Jun 2027 19:11:52.347           161.835                 Moscow          5057.344
       143   02 Jun 2027 19:11:56.088   02 Jun 2027 19:12:23.411            27.323              Murmansk1           853.844
       144   02 Jun 2027 19:12:44.161   02 Jun 2027 19:13:40.089            55.928              Murmansk2          1747.750
       145   02 Jun 2027 19:14:33.941   02 Jun 2027 19:15:06.853            32.912                 Moscow          1028.500
       146   02 Jun 2027 20:20:37.296   02 Jun 2027 20:21:55.395            78.099               CapeTown          2440.594
       147   02 Jun 2027 20:22:57.324   02 Jun 2027 20:25:14.160           136.836               CapeTown          4276.125
       148   02 Jun 2027 20:51:55.759   02 Jun 2027 20:58:47.306           411.547              Murmansk2         12860.844
       149   02 Jun 2027 22:36:52.031   02 Jun 2027 22:38:07.080            75.049                Anadyr2          2345.281
       150   02 Jun 2027 22:38:22.613   02 Jun 2027 22:40:09.205           106.592                Anadyr2          3331.000
       151   02 Jun 2027 22:40:09.263   02 Jun 2027 22:40:23.554            14.291               Magadan2           446.594
       152   02 Jun 2027 22:40:37.153   02 Jun 2027 22:40:43.899             6.746               Magadan2           210.812
       153   02 Jun 2027 22:40:58.246   02 Jun 2027 22:41:20.841            22.595               Magadan2           706.094
       154   02 Jun 2027 22:42:13.155   02 Jun 2027 22:42:36.399            23.244               Magadan1           726.375
       155   02 Jun 2027 22:42:57.711   02 Jun 2027 22:43:04.474             6.763               Magadan2           211.344
       156   02 Jun 2027 22:44:00.821   02 Jun 2027 22:44:22.352            21.531               Magadan1           672.844
       157   02 Jun 2027 22:44:44.277   02 Jun 2027 22:44:50.724             6.447               Magadan2           201.469
       158   02 Jun 2027 22:45:54.353   02 Jun 2027 22:46:07.549            13.196               Magadan1           412.375
       159   02 Jun 2027 22:48:24.479   02 Jun 2027 22:48:44.631            20.152               Magadan1           629.750
       160   02 Jun 2027 23:32:29.578   02 Jun 2027 23:35:18.470           168.892            RioGallegos          5277.875
       161   02 Jun 2027 23:37:35.369   02 Jun 2027 23:38:08.371            33.002            RioGallegos          1031.312
       162   03 Jun 2027 00:12:40.367   03 Jun 2027 00:14:56.672           136.305                Anadyr1          4259.531
       163   03 Jun 2027 00:15:06.538   03 Jun 2027 00:16:49.410           102.872               Magadan2          3214.750
       164   03 Jun 2027 00:18:13.022   03 Jun 2027 00:18:21.677             8.655                Norilsk           270.469
       165   03 Jun 2027 00:18:50.102   03 Jun 2027 00:19:07.999            17.897               Magadan1           559.281
       166   03 Jun 2027 00:19:29.861   03 Jun 2027 00:20:35.254            65.393                Irkutsk          2043.531
       167   03 Jun 2027 00:21:42.781   03 Jun 2027 00:21:59.139            16.358                Irkutsk           511.188
       168   03 Jun 2027 00:22:11.185   03 Jun 2027 00:22:53.074            41.889                Irkutsk          1309.031
       169   03 Jun 2027 00:25:57.968   03 Jun 2027 00:26:28.299            30.331                Irkutsk           947.844
       170   03 Jun 2027 00:28:20.662   03 Jun 2027 00:28:39.846            19.184                Irkutsk           599.500
       171   03 Jun 2027 00:34:07.844   03 Jun 2027 00:35:48.817           100.973                Sumatra          3155.406
       172   03 Jun 2027 00:39:00.715   03 Jun 2027 00:39:54.186            53.471                Sumatra          1670.969
       173   03 Jun 2027 01:10:28.862   03 Jun 2027 01:10:54.776            25.914            RioGallegos           809.813
       174   03 Jun 2027 01:14:27.698   03 Jun 2027 01:14:41.921            14.223            RioGallegos           444.469
       175   03 Jun 2027 01:16:32.297   03 Jun 2027 01:17:32.461            60.164            RioGallegos          1880.125
       176   03 Jun 2027 01:47:52.832   03 Jun 2027 01:47:56.007             3.175                Anadyr2            99.219
       177   03 Jun 2027 01:48:12.806   03 Jun 2027 01:48:19.791             6.985                Anadyr2           218.281
       178   03 Jun 2027 01:49:23.928   03 Jun 2027 01:49:40.000            16.072                Anadyr2           502.250
       179   03 Jun 2027 01:50:07.533   03 Jun 2027 01:50:47.618            40.085                Anadyr2          1252.656
       180   03 Jun 2027 01:51:14.723   03 Jun 2027 01:51:25.309            10.586               Magadan2           330.812
       181   03 Jun 2027 01:51:27.265   03 Jun 2027 01:52:55.255            87.990               Magadan1          2749.688
       182   03 Jun 2027 01:54:05.144   03 Jun 2027 01:54:07.972             2.828               Magadan1            88.375
       183   03 Jun 2027 01:54:29.286   03 Jun 2027 01:56:38.855           129.569                Irkutsk          4049.031
       184   03 Jun 2027 01:58:21.636   03 Jun 2027 01:58:24.564             2.928                Irkutsk            91.500
       185   03 Jun 2027 02:01:00.660   03 Jun 2027 02:02:18.424            77.764                Novosib          2430.125
       186   03 Jun 2027 02:08:31.954   03 Jun 2027 02:09:14.626            42.672                Sumatra          1333.500
       187   03 Jun 2027 02:11:10.782   03 Jun 2027 02:13:28.566           137.784                Sumatra          4305.750
       188   03 Jun 2027 02:15:41.514   03 Jun 2027 02:20:20.175           278.661                Sumatra          8708.156
       189   03 Jun 2027 03:34:18.330   03 Jun 2027 03:34:33.839            15.509              Murmansk2           484.656
       190   03 Jun 2027 03:35:01.982   03 Jun 2027 03:36:39.640            97.658                Irkutsk          3051.813
       191   03 Jun 2027 03:36:50.951   03 Jun 2027 03:37:16.361            25.410                Norilsk           794.063
       192   03 Jun 2027 03:37:32.663   03 Jun 2027 03:38:47.124            74.461                Novosib          2326.906
       193   03 Jun 2027 03:38:49.915   03 Jun 2027 03:39:58.652            68.737                Novosib          2148.031
       194   03 Jun 2027 03:40:22.100   03 Jun 2027 03:41:52.359            90.259                Irkutsk          2820.594
       195   03 Jun 2027 03:43:07.751   03 Jun 2027 03:43:12.321             4.570                Novosib           142.813
       196   03 Jun 2027 03:44:30.928   03 Jun 2027 03:49:32.765           301.837                  Delhi          9432.406
       197   03 Jun 2027 04:19:55.507   03 Jun 2027 04:26:03.840           368.333            RioGallegos         11510.406
       198   03 Jun 2027 05:08:24.259   03 Jun 2027 05:08:28.614             4.355                Irkutsk           136.094
       199   03 Jun 2027 05:10:10.260   03 Jun 2027 05:10:31.817            21.557              Murmansk1           673.656
       200   03 Jun 2027 05:10:32.902   03 Jun 2027 05:10:59.378            26.476              Murmansk2           827.375
       201   03 Jun 2027 05:11:02.494   03 Jun 2027 05:11:05.258             2.764                 Moscow            86.375
       202   03 Jun 2027 05:11:21.363   03 Jun 2027 05:12:30.162            68.799                Novosib          2149.969
       203   03 Jun 2027 05:12:31.406   03 Jun 2027 05:13:13.377            41.971              Murmansk2          1311.594
       204   03 Jun 2027 05:13:27.133   03 Jun 2027 05:13:47.081            19.948                Norilsk           623.375
       205   03 Jun 2027 05:13:47.812   03 Jun 2027 05:13:58.897            11.085                 Moscow           346.406
       206   03 Jun 2027 05:14:00.428   03 Jun 2027 05:14:17.371            16.943              Murmansk1           529.469
       207   03 Jun 2027 05:14:19.529   03 Jun 2027 05:15:12.611            53.082              Murmansk2          1658.812
       208   03 Jun 2027 05:16:12.066   03 Jun 2027 05:16:15.630             3.564                Novosib           111.375
       209   03 Jun 2027 05:16:59.542   03 Jun 2027 05:21:57.663           298.121                  Delhi          9316.281
       210   03 Jun 2027 06:47:03.784   03 Jun 2027 06:47:23.161            19.377              Murmansk2           605.531
       211   03 Jun 2027 06:47:52.455   03 Jun 2027 06:48:10.720            18.265                 Moscow           570.781
       212   03 Jun 2027 06:48:19.028   03 Jun 2027 06:49:51.572            92.544                 Moscow          2892.000
       213   03 Jun 2027 06:49:59.656   03 Jun 2027 06:50:14.923            15.267              Murmansk1           477.094
       214   03 Jun 2027 06:50:14.923   03 Jun 2027 06:50:17.800             2.877              Murmansk2            89.906
       215   03 Jun 2027 06:50:41.156   03 Jun 2027 06:51:33.489            52.333              Murmansk1          1635.406
       216   03 Jun 2027 06:51:33.489   03 Jun 2027 06:51:41.856             8.367              Murmansk2           261.469
       217   03 Jun 2027 06:51:48.945   03 Jun 2027 06:52:10.917            21.972                 Moscow           686.625
       218   03 Jun 2027 07:07:49.951   03 Jun 2027 07:11:00.559           190.608               CapeTown          5956.500
       219   03 Jun 2027 08:10:51.949   03 Jun 2027 08:12:41.143           109.194                Anadyr1          3412.313
       220   03 Jun 2027 08:12:55.640   03 Jun 2027 08:13:25.325            29.685                Anadyr2           927.656
       221   03 Jun 2027 08:13:57.387   03 Jun 2027 08:14:16.792            19.405                Anadyr2           606.406
       222   03 Jun 2027 08:15:36.969   03 Jun 2027 08:16:57.093            80.124                Anadyr1          2503.875
       223   03 Jun 2027 08:49:17.611   03 Jun 2027 08:51:59.532           161.921               CapeTown          5060.031
       224   03 Jun 2027 09:43:40.474   03 Jun 2027 09:52:19.416           518.942                Anadyr1         16216.938
       225   03 Jun 2027 11:17:39.137   03 Jun 2027 11:18:21.222            42.085               Magadan1          1315.156
       226   03 Jun 2027 11:21:45.082   03 Jun 2027 11:22:58.554            73.472                Irkutsk          2296.000
       227   03 Jun 2027 11:23:10.358   03 Jun 2027 11:24:04.304            53.946                Norilsk          1685.812
       228   03 Jun 2027 11:24:08.203   03 Jun 2027 11:24:22.754            14.551                Norilsk           454.719
       229   03 Jun 2027 11:24:24.796   03 Jun 2027 11:27:05.695           160.899                Anadyr2          5028.094
       230   03 Jun 2027 11:27:21.935   03 Jun 2027 11:28:12.100            50.165                Novosib          1567.656
       231   03 Jun 2027 11:28:23.539   03 Jun 2027 11:28:41.086            17.547               Magadan1           548.344
       232   03 Jun 2027 11:28:52.021   03 Jun 2027 11:29:32.130            40.109              Murmansk1          1253.406
       233   03 Jun 2027 12:03:36.742   03 Jun 2027 12:04:55.214            78.472            RioGallegos          2452.250
       234   03 Jun 2027 12:39:48.336   03 Jun 2027 12:40:07.279            18.943                Sumatra           591.969
       235   03 Jun 2027 12:41:01.835   03 Jun 2027 12:42:38.256            96.421                Sumatra          3013.156
       236   03 Jun 2027 12:51:54.504   03 Jun 2027 12:55:10.256           195.752                Irkutsk          6117.250
       237   03 Jun 2027 13:06:23.805   03 Jun 2027 13:06:49.553            25.748                Norilsk           804.625
       238   03 Jun 2027 13:40:22.257   03 Jun 2027 13:41:06.036            43.779            RioGallegos          1368.094
       239   03 Jun 2027 13:42:23.667   03 Jun 2027 13:43:32.920            69.253            RioGallegos          2164.156
       240   03 Jun 2027 13:45:14.371   03 Jun 2027 13:45:33.313            18.942            RioGallegos           591.938
       241   03 Jun 2027 13:48:50.996   03 Jun 2027 13:50:17.032            86.036            RioGallegos          2688.625
       242   03 Jun 2027 14:14:40.391   03 Jun 2027 14:16:03.464            83.073                Sumatra          2596.031
       243   03 Jun 2027 14:19:47.811   03 Jun 2027 14:19:49.945             2.134                Sumatra            66.688
       244   03 Jun 2027 14:29:44.174   03 Jun 2027 14:32:00.100           135.926                Irkutsk          4247.688
       245   03 Jun 2027 14:32:43.042   03 Jun 2027 14:33:41.329            58.287                Novosib          1821.469
       246   03 Jun 2027 14:35:31.884   03 Jun 2027 14:35:50.275            18.391                Irkutsk           574.719
       247   03 Jun 2027 14:36:30.620   03 Jun 2027 14:38:15.154           104.534                Irkutsk          3266.687
       248   03 Jun 2027 15:59:28.794   03 Jun 2027 16:05:20.750           351.956                  Delhi         10998.625
       249   03 Jun 2027 16:07:56.261   03 Jun 2027 16:10:37.832           161.571                Novosib          5049.094
       250   03 Jun 2027 16:12:28.675   03 Jun 2027 16:13:50.307            81.632                Novosib          2551.000
       251   03 Jun 2027 17:52:39.412   03 Jun 2027 17:56:54.841           255.429                Norilsk          7982.156
       252   03 Jun 2027 19:07:50.407   03 Jun 2027 19:08:23.577            33.170               CapeTown          1036.563
       253   03 Jun 2027 19:21:52.047   03 Jun 2027 19:28:21.754           389.707                 Moscow         12178.344
       254   03 Jun 2027 20:32:51.647   03 Jun 2027 20:33:17.005            25.358               CapeTown           792.438
       255   03 Jun 2027 20:36:17.837   03 Jun 2027 20:37:43.074            85.237               CapeTown          2663.656
       256   03 Jun 2027 20:41:05.283   03 Jun 2027 20:42:40.261            94.978               CapeTown          2968.063
       257   03 Jun 2027 21:04:45.047   03 Jun 2027 21:10:38.588           353.541              Murmansk1         11048.156
       258   03 Jun 2027 22:48:53.702   03 Jun 2027 22:51:11.449           137.747                Anadyr2          4304.594
       259   03 Jun 2027 22:51:38.607   03 Jun 2027 22:52:35.289            56.682               Magadan2          1771.312
       260   03 Jun 2027 22:52:39.947   03 Jun 2027 22:53:00.817            20.870               Magadan2           652.187
       261   03 Jun 2027 22:54:29.130   03 Jun 2027 22:54:53.903            24.773               Magadan2           774.156
       262   03 Jun 2027 22:55:02.032   03 Jun 2027 22:55:31.680            29.648               Magadan2           926.500
       263   03 Jun 2027 22:56:02.118   03 Jun 2027 22:56:27.475            25.357               Magadan2           792.406
       264   03 Jun 2027 23:00:13.430   03 Jun 2027 23:00:44.667            31.237               Magadan1           976.156
       265   03 Jun 2027 23:44:01.142   03 Jun 2027 23:47:11.463           190.321            RioGallegos          5947.531
       266   03 Jun 2027 23:51:31.747   03 Jun 2027 23:51:39.988             8.241            RioGallegos           257.531
       267   04 Jun 2027 00:24:39.370   04 Jun 2027 00:26:01.948            82.578                Anadyr2          2580.562
       268   04 Jun 2027 00:26:43.842   04 Jun 2027 00:28:22.978            99.136                Norilsk          3098.000
       269   04 Jun 2027 00:29:35.661   04 Jun 2027 00:30:35.308            59.647               Magadan1          1863.969
       270   04 Jun 2027 00:31:06.278   04 Jun 2027 00:31:41.044            34.766               Magadan2          1086.437
       271   04 Jun 2027 00:31:41.531   04 Jun 2027 00:32:34.851            53.320                Irkutsk          1666.250
       272   04 Jun 2027 00:33:38.821   04 Jun 2027 00:34:46.905            68.084                Irkutsk          2127.625
       273   04 Jun 2027 00:38:16.621   04 Jun 2027 00:39:19.001            62.380                Irkutsk          1949.375
       274   04 Jun 2027 00:45:31.802   04 Jun 2027 00:46:19.214            47.412                Sumatra          1481.625
       275   04 Jun 2027 00:51:06.651   04 Jun 2027 00:52:10.480            63.829                Sumatra          1994.656
       276   04 Jun 2027 01:19:54.317   04 Jun 2027 01:20:42.731            48.414            RioGallegos          1512.938
       277   04 Jun 2027 01:28:11.538   04 Jun 2027 01:28:42.463            30.925            RioGallegos           966.406
       278   04 Jun 2027 01:59:44.441   04 Jun 2027 02:00:25.780            41.339                Anadyr2          1291.844
       279   04 Jun 2027 02:00:25.780   04 Jun 2027 02:00:42.984            17.204                Anadyr1           537.625
       280   04 Jun 2027 02:01:13.667   04 Jun 2027 02:01:40.027            26.360                Anadyr2           823.750
       281   04 Jun 2027 02:02:06.671   04 Jun 2027 02:02:40.110            33.439                Anadyr2          1044.969
       282   04 Jun 2027 02:03:17.990   04 Jun 2027 02:04:16.709            58.719               Magadan2          1834.969
       283   04 Jun 2027 02:04:30.310   04 Jun 2027 02:04:41.188            10.878                Norilsk           339.937
       284   04 Jun 2027 02:05:29.006   04 Jun 2027 02:05:35.823             6.817               Magadan1           213.031
       285   04 Jun 2027 02:05:35.823   04 Jun 2027 02:05:48.900            13.077               Magadan2           408.656
       286   04 Jun 2027 02:06:30.301   04 Jun 2027 02:09:16.302           166.001                Irkutsk          5187.531
       287   04 Jun 2027 02:15:32.028   04 Jun 2027 02:15:48.460            16.432                  Delhi           513.500
       288   04 Jun 2027 02:19:01.077   04 Jun 2027 02:19:41.231            40.154                  Delhi          1254.813
       289   04 Jun 2027 02:20:50.692   04 Jun 2027 02:23:38.775           168.083                Sumatra          5252.594
       290   04 Jun 2027 02:25:11.031   04 Jun 2027 02:26:15.904            64.873                Sumatra          2027.281
       291   04 Jun 2027 02:59:51.402   04 Jun 2027 03:00:12.619            21.217            RioGallegos           663.031
       292   04 Jun 2027 03:01:28.753   04 Jun 2027 03:02:20.091            51.338            RioGallegos          1604.312
       293   04 Jun 2027 03:45:48.240   04 Jun 2027 03:46:11.326            23.086                Irkutsk           721.437
       294   04 Jun 2027 03:46:19.901   04 Jun 2027 03:46:35.252            15.351              Murmansk2           479.719
       295   04 Jun 2027 03:47:20.155   04 Jun 2027 03:48:20.661            60.506              Murmansk1          1890.812
       296   04 Jun 2027 03:48:32.512   04 Jun 2027 03:49:18.935            46.423                Novosib          1450.719
       297   04 Jun 2027 03:49:27.740   04 Jun 2027 03:49:30.528             2.788                Novosib            87.125
       298   04 Jun 2027 03:49:34.621   04 Jun 2027 03:50:11.106            36.485                Norilsk          1140.156
       299   04 Jun 2027 03:50:53.909   04 Jun 2027 03:51:28.863            34.954                Irkutsk          1092.313
       300   04 Jun 2027 03:51:32.515   04 Jun 2027 03:51:48.351            15.836                Irkutsk           494.875
       301   04 Jun 2027 03:52:30.613   04 Jun 2027 03:53:24.936            54.323                Irkutsk          1697.594
       302   04 Jun 2027 03:53:25.390   04 Jun 2027 03:54:15.491            50.101                Novosib          1565.656
       303   04 Jun 2027 03:58:52.618   04 Jun 2027 04:02:22.755           210.137                  Delhi          6566.781
       304   04 Jun 2027 04:32:24.776   04 Jun 2027 04:37:04.152           279.376            RioGallegos          8730.500
       305   04 Jun 2027 05:21:57.105   04 Jun 2027 05:22:06.232             9.127                Norilsk           285.219
       306   04 Jun 2027 05:22:21.414   04 Jun 2027 05:22:33.845            12.431              Murmansk1           388.469
       307   04 Jun 2027 05:22:33.845   04 Jun 2027 05:22:48.402            14.557              Murmansk2           454.906
       308   04 Jun 2027 05:23:02.492   04 Jun 2027 05:23:26.766            24.274              Murmansk2           758.563
       309   04 Jun 2027 05:23:36.120   04 Jun 2027 05:24:15.677            39.557                Novosib          1236.156
       310   04 Jun 2027 05:24:27.312   04 Jun 2027 05:25:44.132            76.820                Norilsk          2400.625
       311   04 Jun 2027 05:25:47.780   04 Jun 2027 05:27:09.749            81.969              Murmansk1          2561.531
       312   04 Jun 2027 05:30:19.703   04 Jun 2027 05:31:26.941            67.238                  Delhi          2101.188
       313   04 Jun 2027 05:50:58.035   04 Jun 2027 05:51:43.430            45.395               CapeTown          1418.594
       314   04 Jun 2027 06:58:16.253   04 Jun 2027 06:58:48.427            32.174                Novosib          1005.438
       315   04 Jun 2027 07:00:01.848   04 Jun 2027 07:00:32.137            30.289              Murmansk1           946.531
       316   04 Jun 2027 07:00:55.419   04 Jun 2027 07:01:29.734            34.315              Murmansk1          1072.344
       317   04 Jun 2027 07:01:29.734   04 Jun 2027 07:02:03.828            34.094              Murmansk2          1065.438
       318   04 Jun 2027 07:02:08.479   04 Jun 2027 07:02:52.445            43.966                 Moscow          1373.938
       319   04 Jun 2027 07:03:32.729   04 Jun 2027 07:03:51.463            18.734              Murmansk2           585.437
       320   04 Jun 2027 07:03:53.597   04 Jun 2027 07:04:01.002             7.405                 Moscow           231.406
       321   04 Jun 2027 07:04:46.036   04 Jun 2027 07:05:14.963            28.927                 Moscow           903.969
       322   04 Jun 2027 07:05:56.707   04 Jun 2027 07:06:07.838            11.131                 Moscow           347.844
       323   04 Jun 2027 07:06:10.415   04 Jun 2027 07:06:33.966            23.551                 Moscow           735.969
       324   04 Jun 2027 07:07:31.855   04 Jun 2027 07:07:50.722            18.867                 Moscow           589.594
       325   04 Jun 2027 07:19:58.740   04 Jun 2027 07:20:07.909             9.169               CapeTown           286.531
       326   04 Jun 2027 07:22:18.476   04 Jun 2027 07:24:39.675           141.199               CapeTown          4412.469
       327   04 Jun 2027 08:23:28.743   04 Jun 2027 08:24:01.299            32.556               Magadan2          1017.375
       328   04 Jun 2027 08:24:06.401   04 Jun 2027 08:25:20.366            73.965               Magadan1          2311.406
       329   04 Jun 2027 08:25:31.878   04 Jun 2027 08:25:36.158             4.280                Norilsk           133.750
       330   04 Jun 2027 08:26:25.910   04 Jun 2027 08:27:37.109            71.199                Anadyr2          2224.969
       331   04 Jun 2027 08:29:01.625   04 Jun 2027 08:29:06.628             5.003               Magadan1           156.344
       332   04 Jun 2027 08:35:09.618   04 Jun 2027 08:35:50.134            40.516                 Moscow          1266.125
       333   04 Jun 2027 08:39:46.434   04 Jun 2027 08:40:08.399            21.965                 Moscow           686.406
       334   04 Jun 2027 09:54:38.129   04 Jun 2027 09:55:31.937            53.808               Magadan2          1681.500
       335   04 Jun 2027 09:55:38.277   04 Jun 2027 09:59:09.116           210.839                Anadyr1          6588.719
       336   04 Jun 2027 09:59:09.116   04 Jun 2027 10:00:11.634            62.518                Anadyr2          1953.687
       337   04 Jun 2027 10:00:42.964   04 Jun 2027 10:05:10.727           267.763                Anadyr1          8367.594
       338   04 Jun 2027 11:30:07.852   04 Jun 2027 11:30:58.091            50.239               Magadan1          1569.969
       339   04 Jun 2027 11:31:05.857   04 Jun 2027 11:33:42.928           157.071               Magadan2          4908.469
       340   04 Jun 2027 11:34:18.233   04 Jun 2027 11:34:36.819            18.586               Magadan1           580.812
       341   04 Jun 2027 11:34:36.819   04 Jun 2027 11:40:35.549           358.730               Magadan2         11210.313
       342   04 Jun 2027 13:52:48.838   04 Jun 2027 13:54:12.003            83.165            RioGallegos          2598.906
       343   04 Jun 2027 13:57:36.972   04 Jun 2027 13:58:17.342            40.370            RioGallegos          1261.563
       344   04 Jun 2027 14:00:14.928   04 Jun 2027 14:02:48.097           153.169            RioGallegos          4786.531
       345   04 Jun 2027 14:27:03.067   04 Jun 2027 14:32:48.328           345.261                Sumatra         10789.406
       346   04 Jun 2027 14:42:22.631   04 Jun 2027 14:48:41.090           378.459                Irkutsk         11826.844
       347   04 Jun 2027 16:14:54.409   04 Jun 2027 16:18:55.794           241.385                  Delhi          7543.281
       348   04 Jun 2027 16:20:31.429   04 Jun 2027 16:21:52.261            80.832                Novosib          2526.000
       349   04 Jun 2027 16:22:35.147   04 Jun 2027 16:27:11.515           276.368                Novosib          8636.500
       350   04 Jun 2027 18:05:52.045   04 Jun 2027 18:06:31.712            39.667                Norilsk          1239.594
       351   04 Jun 2027 18:06:57.266   04 Jun 2027 18:07:15.915            18.649                Norilsk           582.781
       352   04 Jun 2027 18:08:15.388   04 Jun 2027 18:08:28.000            12.612                Norilsk           394.125
       353   04 Jun 2027 19:34:42.278   04 Jun 2027 19:42:19.123           456.845                 Moscow         14276.406
       354   04 Jun 2027 20:47:22.049   04 Jun 2027 20:50:23.863           181.814               CapeTown          5681.687
       355   04 Jun 2027 21:17:41.755   04 Jun 2027 21:22:24.550           282.795              Murmansk2          8837.344
       356   04 Jun 2027 23:01:33.390   04 Jun 2027 23:02:11.775            38.385                Anadyr1          1199.531
       357   04 Jun 2027 23:03:10.837   04 Jun 2027 23:04:31.063            80.226               Magadan1          2507.063
       358   04 Jun 2027 23:04:47.422   04 Jun 2027 23:06:06.715            79.293               Magadan2          2477.906
       359   04 Jun 2027 23:08:50.363   04 Jun 2027 23:08:53.768             3.405               Magadan2           106.406
       360   04 Jun 2027 23:13:24.499   04 Jun 2027 23:14:00.339            35.840               Magadan2          1120.000
       361   04 Jun 2027 23:55:41.266   04 Jun 2027 23:58:52.687           191.421            RioGallegos          5981.906
       362   05 Jun 2027 00:02:19.993   05 Jun 2027 00:02:36.619            16.626            RioGallegos           519.562
       363   05 Jun 2027 00:03:43.812   05 Jun 2027 00:04:01.722            17.910            RioGallegos           559.687
       364   05 Jun 2027 00:36:37.760   05 Jun 2027 00:37:53.274            75.514                Anadyr2          2359.812
       365   05 Jun 2027 00:38:43.822   05 Jun 2027 00:40:24.576           100.754                Norilsk          3148.562
       366   05 Jun 2027 00:41:10.568   05 Jun 2027 00:42:34.313            83.745               Magadan1          2617.031
       367   05 Jun 2027 00:43:06.391   05 Jun 2027 00:44:35.441            89.050                Irkutsk          2782.813
       368   05 Jun 2027 00:47:32.695   05 Jun 2027 00:47:52.885            20.190                Irkutsk           630.937
       369   05 Jun 2027 00:49:11.300   05 Jun 2027 00:50:24.078            72.778                Irkutsk          2274.312
       370   05 Jun 2027 00:57:05.992   05 Jun 2027 00:57:44.518            38.526                Sumatra          1203.937
       371   05 Jun 2027 00:58:49.906   05 Jun 2027 00:59:34.752            44.846                Sumatra          1401.437
       372   05 Jun 2027 01:03:44.224   05 Jun 2027 01:03:45.525             1.301                Sumatra            40.656
       373   05 Jun 2027 01:04:16.878   05 Jun 2027 01:04:58.326            41.448                Sumatra          1295.250
       374   05 Jun 2027 01:34:32.924   05 Jun 2027 01:34:42.813             9.889            RioGallegos           309.031
       375   05 Jun 2027 01:35:05.552   05 Jun 2027 01:35:23.548            17.996            RioGallegos           562.375
       376   05 Jun 2027 01:37:38.793   05 Jun 2027 01:37:47.020             8.227            RioGallegos           257.094
       377   05 Jun 2027 01:38:00.739   05 Jun 2027 01:38:29.805            29.066            RioGallegos           908.312
       378   05 Jun 2027 01:42:47.957   05 Jun 2027 01:43:30.105            42.148            RioGallegos          1317.125
       379   05 Jun 2027 02:11:34.736   05 Jun 2027 02:11:45.606            10.870                Anadyr2           339.687
       380   05 Jun 2027 02:13:40.390   05 Jun 2027 02:14:05.167            24.777                Anadyr2           774.281
       381   05 Jun 2027 02:14:39.607   05 Jun 2027 02:15:58.509            78.902                Norilsk          2465.687
       382   05 Jun 2027 02:16:20.141   05 Jun 2027 02:16:23.275             3.134                Norilsk            97.938
       383   05 Jun 2027 02:17:05.329   05 Jun 2027 02:18:00.542            55.213               Magadan1          1725.406
       384   05 Jun 2027 02:18:32.193   05 Jun 2027 02:20:31.851           119.658                Irkutsk          3739.312
       385   05 Jun 2027 02:27:00.359   05 Jun 2027 02:27:08.560             8.201                  Delhi           256.281
       386   05 Jun 2027 02:27:17.380   05 Jun 2027 02:27:50.812            33.432                  Delhi          1044.750
       387   05 Jun 2027 02:32:30.194   05 Jun 2027 02:33:38.788            68.594                  Delhi          2143.562
       388   05 Jun 2027 02:34:31.845   05 Jun 2027 02:39:31.385           299.540                Sumatra          9360.625
       389   05 Jun 2027 03:57:50.783   05 Jun 2027 03:58:21.346            30.563              Murmansk1           955.094
       390   05 Jun 2027 03:58:22.696   05 Jun 2027 03:58:36.025            13.329                Irkutsk           416.531
       391   05 Jun 2027 03:58:59.209   05 Jun 2027 03:59:03.808             4.599                Irkutsk           143.719
       392   05 Jun 2027 03:59:07.172   05 Jun 2027 03:59:18.277            11.105                Irkutsk           347.031
       393   05 Jun 2027 03:59:20.633   05 Jun 2027 04:00:14.917            54.284                 Moscow          1696.375
       394   05 Jun 2027 04:00:16.322   05 Jun 2027 04:00:45.507            29.185                Norilsk           912.031
       395   05 Jun 2027 04:00:48.978   05 Jun 2027 04:02:00.217            71.239                 Moscow          2226.219
       396   05 Jun 2027 04:02:11.107   05 Jun 2027 04:02:23.927            12.820                Norilsk           400.625
       397   05 Jun 2027 04:02:28.184   05 Jun 2027 04:03:41.009            72.825                Irkutsk          2275.781
       398   05 Jun 2027 04:04:36.587   05 Jun 2027 04:05:52.645            76.058                Novosib          2376.813
       399   05 Jun 2027 04:10:42.094   05 Jun 2027 04:11:35.831            53.737                  Delhi          1679.281
       400   05 Jun 2027 04:45:17.023   05 Jun 2027 04:47:39.192           142.169            RioGallegos          4442.781
       401   05 Jun 2027 05:35:14.796   05 Jun 2027 05:35:46.453            31.657              Murmansk2           989.281
       402   05 Jun 2027 05:35:46.453   05 Jun 2027 05:36:35.696            49.243              Murmansk1          1538.844
       403   05 Jun 2027 05:36:39.677   05 Jun 2027 05:36:44.658             4.981                Norilsk           155.656
       404   05 Jun 2027 05:36:46.837   05 Jun 2027 05:36:52.217             5.380                Novosib           168.125
       405   05 Jun 2027 05:37:08.889   05 Jun 2027 05:38:24.474            75.585                Norilsk          2362.031
       406   05 Jun 2027 05:38:50.937   05 Jun 2027 05:39:00.172             9.235                 Moscow           288.594
       407   05 Jun 2027 05:39:37.240   05 Jun 2027 05:40:10.470            33.230              Murmansk1          1038.437
       408   05 Jun 2027 05:40:11.619   05 Jun 2027 05:40:25.376            13.757                Novosib           429.906
       409   05 Jun 2027 05:42:20.515   05 Jun 2027 05:42:39.542            19.027                 Moscow           594.594
       410   05 Jun 2027 05:43:37.973   05 Jun 2027 05:43:49.283            11.310                 Moscow           353.438
       411   05 Jun 2027 05:57:02.345   05 Jun 2027 05:58:01.143            58.798               CapeTown          1837.437
       412   05 Jun 2027 05:58:33.461   05 Jun 2027 06:00:07.000            93.539               CapeTown          2923.094
       413   05 Jun 2027 06:07:28.134   05 Jun 2027 06:07:44.983            16.849               CapeTown           526.531
       414   05 Jun 2027 07:11:15.206   05 Jun 2027 07:11:30.166            14.960                Norilsk           467.500
       415   05 Jun 2027 07:11:31.723   05 Jun 2027 07:11:50.961            19.238                 Moscow           601.188
       416   05 Jun 2027 07:12:03.975   05 Jun 2027 07:12:33.648            29.673              Murmansk1           927.281
       417   05 Jun 2027 07:12:42.302   05 Jun 2027 07:14:01.604            79.302                 Moscow          2478.188
       418   05 Jun 2027 07:14:09.150   05 Jun 2027 07:14:16.284             7.134              Murmansk2           222.937
       419   05 Jun 2027 07:14:22.201   05 Jun 2027 07:15:24.334            62.133              Murmansk2          1941.656
       420   05 Jun 2027 07:17:11.443   05 Jun 2027 07:17:45.029            33.586                 Moscow          1049.562
       421   05 Jun 2027 07:32:13.201   05 Jun 2027 07:32:47.273            34.072               CapeTown          1064.750
       422   05 Jun 2027 07:34:52.215   05 Jun 2027 07:37:12.629           140.414               CapeTown          4387.938
       423   05 Jun 2027 07:40:41.542   05 Jun 2027 07:42:03.275            81.733               CapeTown          2554.156
       424   05 Jun 2027 08:35:04.103   05 Jun 2027 08:35:31.487            27.384               Magadan1           855.750
       425   05 Jun 2027 08:35:43.068   05 Jun 2027 08:36:05.203            22.135               Magadan2           691.719
       426   05 Jun 2027 08:37:09.085   05 Jun 2027 08:37:48.626            39.541                Anadyr2          1235.656
       427   05 Jun 2027 08:37:48.626   05 Jun 2027 08:37:57.017             8.391                Anadyr1           262.219
       428   05 Jun 2027 08:38:37.298   05 Jun 2027 08:39:36.728            59.430                Anadyr2          1857.188
       429   05 Jun 2027 08:47:30.565   05 Jun 2027 08:47:53.132            22.567                 Moscow           705.219
       430   05 Jun 2027 10:05:35.794   05 Jun 2027 10:06:24.478            48.684               Magadan1          1521.375
       431   05 Jun 2027 10:07:23.039   05 Jun 2027 10:11:50.622           267.583                Anadyr1          8361.969
       432   05 Jun 2027 10:11:50.622   05 Jun 2027 10:12:54.751            64.129                Anadyr2          2004.031
       433   05 Jun 2027 10:13:46.937   05 Jun 2027 10:13:51.588             4.651                Norilsk           145.344
       434   05 Jun 2027 10:14:01.120   05 Jun 2027 10:15:08.297            67.177               Magadan1          2099.281
       435   05 Jun 2027 10:15:08.297   05 Jun 2027 10:17:08.045           119.748               Magadan2          3742.125
       436   05 Jun 2027 11:42:41.167   05 Jun 2027 11:42:59.940            18.773               Magadan1           586.656
       437   05 Jun 2027 11:42:59.940   05 Jun 2027 11:48:25.335           325.395               Magadan2         10168.594
       438   05 Jun 2027 11:48:44.496   05 Jun 2027 11:52:27.978           223.482               Magadan2          6983.812
       439   05 Jun 2027 12:38:29.016   05 Jun 2027 12:40:24.997           115.981            RioGallegos          3624.406
       440   05 Jun 2027 13:10:11.224   05 Jun 2027 13:10:22.329            11.105                Sumatra           347.031
       441   05 Jun 2027 13:12:18.452   05 Jun 2027 13:13:10.786            52.334                Sumatra          1635.437
       442   05 Jun 2027 13:16:03.598   05 Jun 2027 13:16:34.996            31.398                Irkutsk           981.187
       443   05 Jun 2027 13:17:07.178   05 Jun 2027 13:19:14.742           127.564                Irkutsk          3986.375
       444   05 Jun 2027 13:32:02.589   05 Jun 2027 13:32:16.546            13.957                Norilsk           436.156
       445   05 Jun 2027 13:33:15.350   05 Jun 2027 13:33:48.644            33.294                Norilsk          1040.437
       446   05 Jun 2027 13:36:03.038   05 Jun 2027 13:36:15.879            12.841              Murmansk2           401.281
       447   05 Jun 2027 14:05:21.193   05 Jun 2027 14:07:52.483           151.290            RioGallegos          4727.812
       448   05 Jun 2027 14:11:07.577   05 Jun 2027 14:11:12.345             4.768            RioGallegos           149.000
       449   05 Jun 2027 14:14:27.654   05 Jun 2027 14:15:32.278            64.624            RioGallegos          2019.500
       450   05 Jun 2027 14:39:35.336   05 Jun 2027 14:46:39.578           424.242                Sumatra         13257.563
       451   05 Jun 2027 14:55:09.558   05 Jun 2027 15:02:33.280           443.722                Irkutsk         13866.312
       452   05 Jun 2027 16:25:18.165   05 Jun 2027 16:33:19.289           481.124                  Delhi         15035.125
       453   05 Jun 2027 16:33:41.620   05 Jun 2027 16:40:43.170           421.550                Novosib         13173.437
       454   05 Jun 2027 19:47:45.451   05 Jun 2027 19:53:48.698           363.247                 Moscow         11351.469
       455   05 Jun 2027 19:53:54.187   05 Jun 2027 19:55:20.817            86.630              Murmansk2          2707.187
       456   05 Jun 2027 20:59:08.125   05 Jun 2027 21:03:32.667           264.542               CapeTown          8266.938
       457   05 Jun 2027 21:30:52.342   05 Jun 2027 21:33:58.711           186.369              Murmansk1          5824.031
       458   06 Jun 2027 00:07:26.774   06 Jun 2027 00:08:42.794            76.020            RioGallegos          2375.625
       459   06 Jun 2027 00:09:34.607   06 Jun 2027 00:09:45.144            10.537            RioGallegos           329.281
       460   06 Jun 2027 00:10:55.744   06 Jun 2027 00:11:55.870            60.126            RioGallegos          1878.937
       461   06 Jun 2027 00:14:34.214   06 Jun 2027 00:15:44.247            70.033            RioGallegos          2188.531
       462   06 Jun 2027 00:48:35.438   06 Jun 2027 00:49:40.921            65.483                Anadyr1          2046.344
       463   06 Jun 2027 00:50:44.431   06 Jun 2027 00:51:17.510            33.079                Norilsk          1033.719
       464   06 Jun 2027 00:51:32.732   06 Jun 2027 00:52:43.900            71.168               Magadan2          2224.000
       465   06 Jun 2027 00:53:20.151   06 Jun 2027 00:53:26.732             6.581               Magadan2           205.656
       466   06 Jun 2027 00:54:39.272   06 Jun 2027 00:54:58.040            18.768               Magadan2           586.500
       467   06 Jun 2027 00:54:59.042   06 Jun 2027 00:56:25.568            86.526                Irkutsk          2703.937
       468   06 Jun 2027 00:57:12.533   06 Jun 2027 00:57:34.655            22.122                Novosib           691.313
       469   06 Jun 2027 00:58:02.148   06 Jun 2027 00:58:35.256            33.108                Novosib          1034.625
       470   06 Jun 2027 01:01:32.794   06 Jun 2027 01:01:39.410             6.616                Novosib           206.750
       471   06 Jun 2027 01:05:45.182   06 Jun 2027 01:06:12.997            27.815                Irkutsk           869.219
       472   06 Jun 2027 01:08:48.137   06 Jun 2027 01:09:39.195            51.058                Sumatra          1595.562
       473   06 Jun 2027 01:14:57.746   06 Jun 2027 01:16:29.388            91.642                Sumatra          2863.813
       474   06 Jun 2027 01:48:58.353   06 Jun 2027 01:49:18.292            19.939            RioGallegos           623.094
       475   06 Jun 2027 01:51:22.670   06 Jun 2027 01:52:00.842            38.172            RioGallegos          1192.875
       476   06 Jun 2027 02:23:57.999   06 Jun 2027 02:24:36.860            38.861                Anadyr1          1214.406
       477   06 Jun 2027 02:25:41.039   06 Jun 2027 02:26:02.876            21.837                Anadyr2           682.406
       478   06 Jun 2027 02:26:42.081   06 Jun 2027 02:27:22.560            40.479                Norilsk          1264.969
       479   06 Jun 2027 02:27:35.253   06 Jun 2027 02:27:45.012             9.759               Magadan1           304.969
       480   06 Jun 2027 02:27:47.001   06 Jun 2027 02:28:33.852            46.851               Magadan1          1464.094
       481   06 Jun 2027 02:30:34.918   06 Jun 2027 02:33:28.692           173.774                Irkutsk          5430.437
       482   06 Jun 2027 02:39:58.889   06 Jun 2027 02:40:11.848            12.959                Irkutsk           404.969
