uniorb/output/strategy_2/Drop/Drop_KinoSat_111807.txt

KinoSat_111807
-------------------------
    Access    *     Start Time (UTCG)     *     Stop Time (UTCG)  *   Duration (s)        *       Station  *  Data (Mbytes)
         1   01 Jun 2027 04:23:51.245   01 Jun 2027 04:23:58.120             6.875                Irkutsk           214.844
         2   01 Jun 2027 04:24:32.409   01 Jun 2027 04:25:19.003            46.594                Irkutsk          1456.063
         3   01 Jun 2027 04:28:14.098   01 Jun 2027 04:28:23.880             9.782                Novosib           305.687
         4   01 Jun 2027 04:28:53.686   01 Jun 2027 04:29:42.022            48.336                 Moscow          1510.500
         5   01 Jun 2027 04:29:51.893   01 Jun 2027 04:29:57.399             5.506                Norilsk           172.063
         6   01 Jun 2027 04:30:00.963   01 Jun 2027 04:30:59.863            58.900              Murmansk2          1840.625
         7   01 Jun 2027 04:31:11.317   01 Jun 2027 04:32:26.496            75.179                Novosib          2349.344
         8   01 Jun 2027 04:32:40.671   01 Jun 2027 04:35:40.329           179.658                  Delhi          5614.313
         9   01 Jun 2027 04:48:38.566   01 Jun 2027 04:51:18.294           159.728               CapeTown          4991.500
        10   01 Jun 2027 06:04:12.839   01 Jun 2027 06:04:49.334            36.495              Murmansk1          1140.469
        11   01 Jun 2027 06:04:49.334   01 Jun 2027 06:04:57.432             8.098              Murmansk2           253.062
        12   01 Jun 2027 06:05:40.351   01 Jun 2027 06:05:44.419             4.068              Murmansk2           127.125
        13   01 Jun 2027 06:06:04.995   01 Jun 2027 06:06:35.131            30.136              Murmansk1           941.750
        14   01 Jun 2027 06:06:35.131   01 Jun 2027 06:07:01.314            26.183              Murmansk2           818.219
        15   01 Jun 2027 06:07:01.314   01 Jun 2027 06:07:39.704            38.390              Murmansk1          1199.687
        16   01 Jun 2027 06:07:39.704   01 Jun 2027 06:08:09.881            30.177              Murmansk2           943.031
        17   01 Jun 2027 07:26:36.813   01 Jun 2027 07:29:18.055           161.242                Anadyr1          5038.813
        18   01 Jun 2027 07:29:18.055   01 Jun 2027 07:30:20.219            62.164                Anadyr2          1942.625
        19   01 Jun 2027 09:04:23.310   01 Jun 2027 09:05:03.913            40.603                Irkutsk          1268.844
        20   01 Jun 2027 09:05:32.097   01 Jun 2027 09:05:48.689            16.592                Irkutsk           518.500
        21   01 Jun 2027 09:05:54.468   01 Jun 2027 09:06:39.508            45.040               Magadan1          1407.500
        22   01 Jun 2027 09:06:39.508   01 Jun 2027 09:08:02.165            82.657               Magadan2          2583.031
        23   01 Jun 2027 10:34:02.634   01 Jun 2027 10:36:07.849           125.215               Magadan1          3912.969
        24   01 Jun 2027 10:37:30.150   01 Jun 2027 10:42:34.793           304.643               Magadan2          9520.094
        25   01 Jun 2027 13:35:03.522   01 Jun 2027 13:35:07.543             4.021                Sumatra           125.656
        26   01 Jun 2027 13:39:45.644   01 Jun 2027 13:40:39.444            53.800                Sumatra          1681.250
        27   01 Jun 2027 13:45:20.704   01 Jun 2027 13:47:40.709           140.005                Irkutsk          4375.156
        28   01 Jun 2027 15:14:46.664   01 Jun 2027 15:15:17.561            30.897                  Delhi           965.531
        29   01 Jun 2027 15:18:11.650   01 Jun 2027 15:20:48.729           157.079                  Delhi          4908.719
        30   01 Jun 2027 15:23:11.426   01 Jun 2027 15:25:10.607           119.181                Novosib          3724.406
        31   01 Jun 2027 15:27:54.106   01 Jun 2027 15:28:47.938            53.832                Novosib          1682.250
        32   01 Jun 2027 15:31:57.485   01 Jun 2027 15:32:06.250             8.765                Novosib           273.906
        33   01 Jun 2027 18:19:01.248   01 Jun 2027 18:19:30.326            29.078               CapeTown           908.687
        34   01 Jun 2027 18:21:57.066   01 Jun 2027 18:22:43.099            46.033               CapeTown          1438.531
        35   01 Jun 2027 18:37:19.636   01 Jun 2027 18:44:02.680           403.044                 Moscow         12595.125
        36   01 Jun 2027 19:51:30.163   01 Jun 2027 19:52:48.921            78.758               CapeTown          2461.187
        37   01 Jun 2027 19:57:40.038   01 Jun 2027 19:57:49.858             9.820               CapeTown           306.875
        38   01 Jun 2027 20:20:17.635   01 Jun 2027 20:25:24.453           306.818              Murmansk2          9588.062
        39   01 Jun 2027 22:03:50.006   01 Jun 2027 22:06:36.533           166.527                Anadyr1          5203.969
        40   01 Jun 2027 22:06:36.533   01 Jun 2027 22:06:37.175             0.642                Anadyr2            20.063
        41   01 Jun 2027 22:06:48.389   01 Jun 2027 22:07:13.232            24.843                Anadyr2           776.344
        42   01 Jun 2027 22:07:45.583   01 Jun 2027 22:08:11.690            26.107                Anadyr1           815.844
        43   01 Jun 2027 22:09:22.057   01 Jun 2027 22:09:29.022             6.965               Magadan1           217.656
        44   01 Jun 2027 22:09:59.832   01 Jun 2027 22:10:22.588            22.756               Magadan2           711.125
        45   01 Jun 2027 22:10:37.313   01 Jun 2027 22:10:43.174             5.861               Magadan2           183.156
        46   01 Jun 2027 22:11:12.640   01 Jun 2027 22:11:20.297             7.657               Magadan1           239.281
        47   01 Jun 2027 22:11:20.297   01 Jun 2027 22:11:55.953            35.656               Magadan2          1114.250
        48   01 Jun 2027 22:14:55.483   01 Jun 2027 22:15:55.804            60.321               Magadan1          1885.031
        49   01 Jun 2027 22:59:32.724   01 Jun 2027 23:00:30.771            58.047            RioGallegos          1813.969
        50   01 Jun 2027 23:03:05.797   01 Jun 2027 23:03:45.368            39.571            RioGallegos          1236.594
        51   01 Jun 2027 23:06:45.859   01 Jun 2027 23:07:20.112            34.253            RioGallegos          1070.406
        52   01 Jun 2027 23:39:33.477   01 Jun 2027 23:41:09.754            96.277                Anadyr1          3008.656
        53   01 Jun 2027 23:41:39.693   01 Jun 2027 23:43:21.297           101.604                Norilsk          3175.125
        54   01 Jun 2027 23:43:51.086   01 Jun 2027 23:44:09.156            18.070               Magadan2           564.687
        55   01 Jun 2027 23:44:39.432   01 Jun 2027 23:45:08.999            29.567               Magadan2           923.969
        56   01 Jun 2027 23:45:49.422   01 Jun 2027 23:46:48.761            59.339               Magadan1          1854.344
        57   01 Jun 2027 23:50:41.328   01 Jun 2027 23:50:59.092            17.764                Irkutsk           555.125
        58   01 Jun 2027 23:51:36.596   01 Jun 2027 23:51:40.658             4.062                Irkutsk           126.937
        59   01 Jun 2027 23:51:49.421   01 Jun 2027 23:52:12.960            23.539                Irkutsk           735.594
        60   01 Jun 2027 23:54:39.887   01 Jun 2027 23:54:48.336             8.449                Irkutsk           264.031
        61   02 Jun 2027 00:01:43.229   02 Jun 2027 00:03:16.116            92.887                Sumatra          2902.719
        62   02 Jun 2027 00:11:05.854   02 Jun 2027 00:11:37.031            31.177                Sumatra           974.281
        63   02 Jun 2027 00:38:54.019   02 Jun 2027 00:39:20.806            26.787            RioGallegos           837.094
        64   02 Jun 2027 00:43:07.442   02 Jun 2027 00:43:14.746             7.304            RioGallegos           228.250
        65   02 Jun 2027 00:43:38.525   02 Jun 2027 00:44:06.919            28.394            RioGallegos           887.313
        66   02 Jun 2027 01:14:33.150   02 Jun 2027 01:14:51.202            18.052                Anadyr2           564.125
        67   02 Jun 2027 01:15:21.861   02 Jun 2027 01:16:12.216            50.355                Anadyr2          1573.594
        68   02 Jun 2027 01:16:12.216   02 Jun 2027 01:16:43.513            31.297                Anadyr1           978.031
        69   02 Jun 2027 01:17:17.846   02 Jun 2027 01:17:49.315            31.469                Anadyr2           983.406
        70   02 Jun 2027 01:18:04.416   02 Jun 2027 01:18:23.022            18.606                Norilsk           581.438
        71   02 Jun 2027 01:18:25.114   02 Jun 2027 01:19:57.555            92.441               Magadan2          2888.781
        72   02 Jun 2027 01:20:10.263   02 Jun 2027 01:20:50.276            40.013               Magadan1          1250.406
        73   02 Jun 2027 01:22:29.872   02 Jun 2027 01:23:23.023            53.151                Irkutsk          1660.969
        74   02 Jun 2027 01:28:19.217   02 Jun 2027 01:28:57.272            38.055                Novosib          1189.219
        75   02 Jun 2027 01:32:10.793   02 Jun 2027 01:32:48.420            37.627                Novosib          1175.844
        76   02 Jun 2027 01:36:02.679   02 Jun 2027 01:37:05.109            62.430                Sumatra          1950.937
        77   02 Jun 2027 01:39:50.282   02 Jun 2027 01:41:14.186            83.904                Sumatra          2622.000
        78   02 Jun 2027 02:14:26.651   02 Jun 2027 02:15:01.603            34.952            RioGallegos          1092.250
        79   02 Jun 2027 02:17:20.439   02 Jun 2027 02:17:53.400            32.961            RioGallegos          1030.031
        80   02 Jun 2027 02:48:57.955   02 Jun 2027 02:50:14.456            76.501                Anadyr2          2390.656
        81   02 Jun 2027 02:53:35.273   02 Jun 2027 02:53:49.910            14.637                Norilsk           457.406
        82   02 Jun 2027 02:54:30.721   02 Jun 2027 02:54:32.248             1.527                Norilsk            47.719
        83   02 Jun 2027 02:56:03.851   02 Jun 2027 02:56:50.670            46.819              Murmansk1          1463.094
        84   02 Jun 2027 02:57:21.657   02 Jun 2027 02:58:05.554            43.897                Novosib          1371.781
        85   02 Jun 2027 02:58:34.857   02 Jun 2027 02:58:53.850            18.993                Irkutsk           593.531
        86   02 Jun 2027 02:59:06.131   02 Jun 2027 02:59:17.981            11.850                Irkutsk           370.312
        87   02 Jun 2027 03:00:23.434   02 Jun 2027 03:00:43.884            20.450                Norilsk           639.062
        88   02 Jun 2027 03:00:59.101   02 Jun 2027 03:01:36.049            36.948                Novosib          1154.625
        89   02 Jun 2027 03:01:39.095   02 Jun 2027 03:02:01.732            22.637              Murmansk2           707.406
        90   02 Jun 2027 03:02:28.932   02 Jun 2027 03:03:37.542            68.610                 Moscow          2144.062
        91   02 Jun 2027 03:04:03.427   02 Jun 2027 03:04:12.926             9.499                Novosib           296.844
        92   02 Jun 2027 03:04:31.450   02 Jun 2027 03:05:16.095            44.645                Irkutsk          1395.156
        93   02 Jun 2027 03:06:09.391   02 Jun 2027 03:07:45.149            95.758                  Delhi          2992.438
        94   02 Jun 2027 03:47:47.455   02 Jun 2027 03:48:01.203            13.748            RioGallegos           429.625
        95   02 Jun 2027 04:37:29.703   02 Jun 2027 04:37:39.709            10.006                Novosib           312.688
        96   02 Jun 2027 04:37:44.443   02 Jun 2027 04:38:32.707            48.264                 Moscow          1508.250
        97   02 Jun 2027 04:39:17.829   02 Jun 2027 04:39:50.613            32.784              Murmansk2          1024.500
        98   02 Jun 2027 04:39:51.148   02 Jun 2027 04:41:17.702            86.554                 Moscow          2704.813
        99   02 Jun 2027 04:41:41.929   02 Jun 2027 04:42:32.179            50.250                 Moscow          1570.313
       100   02 Jun 2027 04:43:36.221   02 Jun 2027 04:43:46.115             9.894                 Moscow           309.187
       101   02 Jun 2027 04:45:47.150   02 Jun 2027 04:45:55.091             7.941                 Moscow           248.156
       102   02 Jun 2027 05:00:06.954   02 Jun 2027 05:01:22.661            75.707               CapeTown          2365.844
       103   02 Jun 2027 05:02:11.017   02 Jun 2027 05:03:01.820            50.803               CapeTown          1587.594
       104   02 Jun 2027 06:13:43.019   02 Jun 2027 06:14:41.966            58.947                Novosib          1842.094
       105   02 Jun 2027 06:16:32.467   02 Jun 2027 06:16:46.012            13.545              Murmansk1           423.281
       106   02 Jun 2027 06:16:48.719   02 Jun 2027 06:17:36.592            47.873                 Moscow          1496.031
       107   02 Jun 2027 06:17:44.336   02 Jun 2027 06:18:01.698            17.362              Murmansk2           542.563
       108   02 Jun 2027 06:18:24.816   02 Jun 2027 06:19:42.776            77.960                 Moscow          2436.250
       109   02 Jun 2027 06:35:02.965   02 Jun 2027 06:36:42.876            99.911               CapeTown          3122.219
       110   02 Jun 2027 07:38:37.671   02 Jun 2027 07:40:35.492           117.821                Anadyr1          3681.906
       111   02 Jun 2027 09:15:20.927   02 Jun 2027 09:17:21.407           120.480                Anadyr1          3765.000
       112   02 Jun 2027 09:17:52.822   02 Jun 2027 09:18:36.183            43.361               Magadan1          1355.031
       113   02 Jun 2027 09:18:36.405   02 Jun 2027 09:20:03.115            86.710               Magadan2          2709.687
       114   02 Jun 2027 10:49:18.763   02 Jun 2027 10:50:21.237            62.474               Magadan2          1952.313
       115   02 Jun 2027 10:51:19.860   02 Jun 2027 10:51:32.767            12.907                Norilsk           403.344
       116   02 Jun 2027 10:51:40.522   02 Jun 2027 10:53:48.158           127.636                Irkutsk          3988.625
       117   02 Jun 2027 10:54:00.656   02 Jun 2027 10:54:39.081            38.425                Norilsk          1200.781
       118   02 Jun 2027 10:55:01.782   02 Jun 2027 10:56:13.917            72.135                Novosib          2254.219
       119   02 Jun 2027 11:30:26.948   02 Jun 2027 11:31:36.800            69.852            RioGallegos          2182.875
       120   02 Jun 2027 12:05:58.243   02 Jun 2027 12:06:28.115            29.872                Sumatra           933.500
       121   02 Jun 2027 12:11:18.071   02 Jun 2027 12:12:13.579            55.508                Sumatra          1734.625
       122   02 Jun 2027 12:18:56.477   02 Jun 2027 12:20:53.631           117.154                Irkutsk          3661.063
       123   02 Jun 2027 12:22:10.008   02 Jun 2027 12:23:07.057            57.049                Irkutsk          1782.781
       124   02 Jun 2027 12:26:46.528   02 Jun 2027 12:27:07.922            21.394                Norilsk           668.562
       125   02 Jun 2027 12:34:36.783   02 Jun 2027 12:34:54.795            18.012              Murmansk1           562.875
       126   02 Jun 2027 13:08:04.861   02 Jun 2027 13:09:26.334            81.473            RioGallegos          2546.031
       127   02 Jun 2027 13:11:24.225   02 Jun 2027 13:12:15.775            51.550            RioGallegos          1610.938
       128   02 Jun 2027 13:42:18.154   02 Jun 2027 13:45:19.669           181.515                Sumatra          5672.344
       129   02 Jun 2027 13:46:15.033   02 Jun 2027 13:47:22.528            67.495                Sumatra          2109.219
       130   02 Jun 2027 13:59:42.030   02 Jun 2027 14:02:26.103           164.073                Irkutsk          5127.281
       131   02 Jun 2027 15:27:30.505   02 Jun 2027 15:30:23.554           173.049                  Delhi          5407.781
       132   02 Jun 2027 15:36:00.319   02 Jun 2027 15:39:48.715           228.396                Novosib          7137.375
       133   02 Jun 2027 17:10:14.649   02 Jun 2027 17:10:43.852            29.203                 Moscow           912.594
       134   02 Jun 2027 17:13:06.624   02 Jun 2027 17:14:38.595            91.971                 Moscow          2874.094
       135   02 Jun 2027 17:14:42.145   02 Jun 2027 17:15:08.835            26.690              Murmansk2           834.062
       136   02 Jun 2027 17:19:51.712   02 Jun 2027 17:20:31.654            39.942              Murmansk1          1248.187
       137   02 Jun 2027 17:25:28.050   02 Jun 2027 17:25:47.503            19.453              Murmansk1           607.906
       138   02 Jun 2027 17:29:04.240   02 Jun 2027 17:29:38.238            33.998                Anadyr1          1062.438
       139   02 Jun 2027 17:29:55.013   02 Jun 2027 17:29:56.754             1.741                Anadyr2            54.406
       140   02 Jun 2027 17:30:13.166   02 Jun 2027 17:31:03.526            50.360                Anadyr2          1573.750
       141   02 Jun 2027 17:35:29.895   02 Jun 2027 17:35:33.969             4.074                Anadyr2           127.313
       142   02 Jun 2027 18:23:27.212   02 Jun 2027 18:25:19.633           112.421               CapeTown          3513.156
       143   02 Jun 2027 18:30:08.890   02 Jun 2027 18:30:23.186            14.296               CapeTown           446.750
       144   02 Jun 2027 18:50:17.608   02 Jun 2027 18:54:00.021           222.413                 Moscow          6950.406
       145   02 Jun 2027 18:56:21.613   02 Jun 2027 18:56:58.189            36.576              Murmansk1          1143.000
       146   02 Jun 2027 19:01:25.111   02 Jun 2027 19:01:36.006            10.895              Murmansk2           340.469
       147   02 Jun 2027 19:12:14.460   02 Jun 2027 19:13:26.139            71.679                Anadyr2          2239.969
       148   02 Jun 2027 20:00:20.739   02 Jun 2027 20:01:13.335            52.596               CapeTown          1643.625
       149   02 Jun 2027 20:02:33.766   02 Jun 2027 20:04:09.951            96.185               CapeTown          3005.781
       150   02 Jun 2027 20:33:22.384   02 Jun 2027 20:37:03.555           221.171              Murmansk2          6911.594
       151   02 Jun 2027 20:42:30.043   02 Jun 2027 20:43:41.681            71.638               Magadan2          2238.687
       152   02 Jun 2027 20:47:18.625   02 Jun 2027 20:47:43.415            24.790               Magadan1           774.687
       153   02 Jun 2027 20:49:38.866   02 Jun 2027 20:50:32.686            53.820               Magadan1          1681.875
       154   02 Jun 2027 22:15:51.290   02 Jun 2027 22:20:29.717           278.427                Anadyr2          8700.844
       155   02 Jun 2027 22:20:53.462   02 Jun 2027 22:20:59.196             5.734                Anadyr2           179.188
       156   02 Jun 2027 22:21:06.670   02 Jun 2027 22:22:01.652            54.982                Norilsk          1718.187
       157   02 Jun 2027 22:22:10.779   02 Jun 2027 22:22:32.878            22.099               Magadan1           690.594
       158   02 Jun 2027 22:23:14.314   02 Jun 2027 22:23:50.685            36.371               Magadan1          1136.594
       159   02 Jun 2027 23:10:27.083   02 Jun 2027 23:13:47.623           200.540            RioGallegos          6266.875
       160   02 Jun 2027 23:51:31.326   02 Jun 2027 23:53:32.428           121.102                Anadyr2          3784.437
       161   02 Jun 2027 23:53:39.990   02 Jun 2027 23:55:19.853            99.863                Norilsk          3120.719
       162   02 Jun 2027 23:55:43.630   02 Jun 2027 23:56:02.081            18.451               Magadan1           576.594
       163   02 Jun 2027 23:56:08.008   02 Jun 2027 23:57:15.181            67.173               Magadan2          2099.156
       164   02 Jun 2027 23:57:56.980   02 Jun 2027 23:59:15.863            78.883                Irkutsk          2465.094
       165   03 Jun 2027 00:00:35.161   03 Jun 2027 00:00:55.042            19.881                Novosib           621.281
       166   03 Jun 2027 00:02:10.294   03 Jun 2027 00:02:13.606             3.312                Novosib           103.500
       167   03 Jun 2027 00:02:35.278   03 Jun 2027 00:03:54.886            79.608                Novosib          2487.750
       168   03 Jun 2027 00:13:35.921   03 Jun 2027 00:14:47.598            71.677                Sumatra          2239.906
       169   03 Jun 2027 00:45:49.144   03 Jun 2027 00:45:52.824             3.680            RioGallegos           115.000
       170   03 Jun 2027 00:45:57.909   03 Jun 2027 00:46:30.714            32.805            RioGallegos          1025.156
       171   03 Jun 2027 00:55:06.525   03 Jun 2027 00:55:08.843             2.318            RioGallegos            72.438
       172   03 Jun 2027 00:55:56.488   03 Jun 2027 00:56:09.120            12.632            RioGallegos           394.750
       173   03 Jun 2027 01:26:22.522   03 Jun 2027 01:28:20.603           118.081                Anadyr2          3690.031
       174   03 Jun 2027 01:28:44.046   03 Jun 2027 01:28:55.165            11.119                Anadyr1           347.469
       175   03 Jun 2027 01:29:36.765   03 Jun 2027 01:31:24.018           107.253                Norilsk          3351.656
       176   03 Jun 2027 01:31:39.337   03 Jun 2027 01:32:00.963            21.626               Magadan2           675.812
       177   03 Jun 2027 01:33:29.216   03 Jun 2027 01:35:21.289           112.073                Irkutsk          3502.281
       178   03 Jun 2027 01:35:59.839   03 Jun 2027 01:37:02.984            63.145                Novosib          1973.281
       179   03 Jun 2027 01:42:19.445   03 Jun 2027 01:42:30.852            11.407                Irkutsk           356.469
       180   03 Jun 2027 01:44:37.373   03 Jun 2027 01:44:49.823            12.450                  Delhi           389.062
       181   03 Jun 2027 01:47:03.877   03 Jun 2027 01:47:27.906            24.029                  Delhi           750.906
       182   03 Jun 2027 01:48:36.584   03 Jun 2027 01:49:07.565            30.981                Sumatra           968.156
       183   03 Jun 2027 01:50:41.165   03 Jun 2027 01:52:14.296            93.131                Sumatra          2910.344
       184   03 Jun 2027 02:22:37.933   03 Jun 2027 02:23:17.946            40.013            RioGallegos          1250.406
       185   03 Jun 2027 02:29:38.108   03 Jun 2027 02:30:21.175            43.067            RioGallegos          1345.844
       186   03 Jun 2027 03:12:27.134   03 Jun 2027 03:13:47.480            80.346                Novosib          2510.812
       187   03 Jun 2027 03:13:54.115   03 Jun 2027 03:14:17.771            23.656              Murmansk2           739.250
       188   03 Jun 2027 03:14:17.771   03 Jun 2027 03:14:55.944            38.173              Murmansk1          1192.906
       189   03 Jun 2027 03:14:55.944   03 Jun 2027 03:16:21.179            85.235              Murmansk2          2663.594
       190   03 Jun 2027 03:16:55.301   03 Jun 2027 03:18:36.213           100.912                  Delhi          3153.500
       191   03 Jun 2027 03:18:42.866   03 Jun 2027 03:19:38.535            55.669                Irkutsk          1739.656
       192   03 Jun 2027 03:20:05.576   03 Jun 2027 03:20:20.969            15.393                Novosib           481.031
       193   03 Jun 2027 04:50:37.567   03 Jun 2027 04:51:59.593            82.026                 Moscow          2563.313
       194   03 Jun 2027 04:52:36.067   03 Jun 2027 04:54:24.086           108.019              Murmansk2          3375.594
       195   03 Jun 2027 04:54:33.150   03 Jun 2027 04:54:44.529            11.379                 Moscow           355.594
       196   03 Jun 2027 04:55:09.294   03 Jun 2027 04:55:10.910             1.616              Murmansk1            50.500
       197   03 Jun 2027 04:55:22.383   03 Jun 2027 04:56:20.580            58.197                 Moscow          1818.656
       198   03 Jun 2027 04:56:41.581   03 Jun 2027 04:57:51.704            70.123                 Moscow          2191.344
       199   03 Jun 2027 05:11:42.231   03 Jun 2027 05:12:44.230            61.999               CapeTown          1937.469
       200   03 Jun 2027 05:15:43.196   03 Jun 2027 05:16:20.493            37.297               CapeTown          1165.531
       201   03 Jun 2027 06:15:13.002   03 Jun 2027 06:15:30.476            17.474                Anadyr1           546.062
       202   03 Jun 2027 06:17:20.035   03 Jun 2027 06:17:53.117            33.082               Magadan2          1033.812
       203   03 Jun 2027 06:26:01.750   03 Jun 2027 06:26:01.840             0.090                 Moscow             2.813
       204   03 Jun 2027 06:26:03.441   03 Jun 2027 06:26:05.589             2.148                 Moscow            67.125
       205   03 Jun 2027 06:26:12.356   03 Jun 2027 06:26:58.650            46.294                Norilsk          1446.687
       206   03 Jun 2027 06:27:02.308   03 Jun 2027 06:27:33.764            31.456                Norilsk           983.000
       207   03 Jun 2027 06:28:34.070   03 Jun 2027 06:28:40.489             6.419              Murmansk1           200.594
       208   03 Jun 2027 06:28:48.356   03 Jun 2027 06:29:15.424            27.068              Murmansk2           845.875
       209   03 Jun 2027 06:29:15.424   03 Jun 2027 06:29:18.948             3.524              Murmansk1           110.125
       210   03 Jun 2027 06:29:25.408   03 Jun 2027 06:29:41.144            15.736                 Moscow           491.750
       211   03 Jun 2027 06:29:58.981   03 Jun 2027 06:30:32.408            33.427              Murmansk1          1044.594
       212   03 Jun 2027 06:31:10.810   03 Jun 2027 06:31:56.631            45.821                 Moscow          1431.906
       213   03 Jun 2027 06:47:21.388   03 Jun 2027 06:48:38.351            76.963               CapeTown          2405.094
       214   03 Jun 2027 06:55:40.550   03 Jun 2027 06:57:15.087            94.537               CapeTown          2954.281
       215   03 Jun 2027 07:50:21.259   03 Jun 2027 07:50:48.633            27.374               Magadan2           855.437
       216   03 Jun 2027 07:51:37.167   03 Jun 2027 07:52:03.030            25.863                Norilsk           808.219
       217   03 Jun 2027 07:52:12.457   03 Jun 2027 07:52:55.595            43.138               Magadan1          1348.062
       218   03 Jun 2027 07:53:41.462   03 Jun 2027 07:54:19.352            37.890                Anadyr1          1184.063
       219   03 Jun 2027 08:02:03.003   03 Jun 2027 08:02:09.227             6.224                 Moscow           194.500
       220   03 Jun 2027 08:04:14.071   03 Jun 2027 08:04:56.903            42.832                 Moscow          1338.500
       221   03 Jun 2027 09:24:33.091   03 Jun 2027 09:25:36.584            63.493                Anadyr2          1984.156
       222   03 Jun 2027 09:25:56.747   03 Jun 2027 09:28:06.927           130.180                Anadyr1          4068.125
       223   03 Jun 2027 09:28:21.246   03 Jun 2027 09:31:59.153           217.907                Anadyr2          6809.594
       224   03 Jun 2027 10:58:01.420   03 Jun 2027 10:59:52.012           110.592               Magadan1          3456.000
       225   03 Jun 2027 11:00:57.004   03 Jun 2027 11:01:12.358            15.354                Norilsk           479.813
       226   03 Jun 2027 11:01:14.261   03 Jun 2027 11:01:24.337            10.076                Novosib           314.875
       227   03 Jun 2027 11:02:49.834   03 Jun 2027 11:03:42.345            52.511               Magadan1          1640.969
       228   03 Jun 2027 11:03:42.345   03 Jun 2027 11:07:16.458           214.113               Magadan2          6691.031
       229   03 Jun 2027 11:07:38.668   03 Jun 2027 11:07:55.558            16.890              Murmansk2           527.813
       230   03 Jun 2027 11:08:00.933   03 Jun 2027 11:08:41.786            40.853                Norilsk          1276.656
       231   03 Jun 2027 11:42:28.170   03 Jun 2027 11:43:16.916            48.746            RioGallegos          1523.313
       232   03 Jun 2027 12:17:41.425   03 Jun 2027 12:18:23.506            42.081                Sumatra          1315.031
       233   03 Jun 2027 12:19:22.552   03 Jun 2027 12:19:48.103            25.551                Sumatra           798.469
       234   03 Jun 2027 12:31:04.948   03 Jun 2027 12:32:48.206           103.258                Irkutsk          3226.812
       235   03 Jun 2027 12:32:48.364   03 Jun 2027 12:33:06.364            18.000                Novosib           562.500
       236   03 Jun 2027 12:34:09.791   03 Jun 2027 12:35:05.483            55.692                Irkutsk          1740.375
       237   03 Jun 2027 12:35:48.812   03 Jun 2027 12:36:53.247            64.435                Norilsk          2013.594
       238   03 Jun 2027 12:41:38.046   03 Jun 2027 12:42:28.524            50.478              Murmansk1          1577.437
       239   03 Jun 2027 13:20:41.548   03 Jun 2027 13:23:21.980           160.432            RioGallegos          5013.500
       240   03 Jun 2027 13:54:58.667   03 Jun 2027 13:58:12.128           193.461                Sumatra          6045.656
       241   03 Jun 2027 14:10:42.108   03 Jun 2027 14:15:03.843           261.735                Irkutsk          8179.219
       242   03 Jun 2027 15:40:31.979   03 Jun 2027 15:44:46.477           254.498                  Delhi          7953.063
       243   03 Jun 2027 15:52:26.555   03 Jun 2027 15:53:13.113            46.558                Novosib          1454.937
       244   03 Jun 2027 15:55:28.590   03 Jun 2027 15:56:51.691            83.101                Norilsk          2596.906
       245   03 Jun 2027 17:25:04.944   03 Jun 2027 17:25:45.472            40.528                 Moscow          1266.500
       246   03 Jun 2027 17:25:55.819   03 Jun 2027 17:26:43.718            47.899              Murmansk1          1496.844
       247   03 Jun 2027 17:27:02.042   03 Jun 2027 17:27:07.445             5.403                 Moscow           168.844
       248   03 Jun 2027 17:27:13.421   03 Jun 2027 17:28:12.660            59.239              Murmansk1          1851.219
       249   03 Jun 2027 17:40:50.517   03 Jun 2027 17:41:55.448            64.931                Anadyr2          2029.094
       250   03 Jun 2027 17:42:59.896   03 Jun 2027 17:43:10.962            11.066                Anadyr2           345.813
       251   03 Jun 2027 17:43:10.962   03 Jun 2027 17:43:30.478            19.516                Anadyr1           609.875
       252   03 Jun 2027 17:44:07.181   03 Jun 2027 17:44:16.812             9.631                Anadyr1           300.969
       253   03 Jun 2027 18:35:25.470   03 Jun 2027 18:37:52.007           146.537               CapeTown          4579.281
       254   03 Jun 2027 19:03:35.196   03 Jun 2027 19:07:23.821           228.625                 Moscow          7144.531
       255   03 Jun 2027 19:08:07.260   03 Jun 2027 19:08:20.008            12.748              Murmansk2           398.375
       256   03 Jun 2027 19:08:57.020   03 Jun 2027 19:09:34.972            37.952              Murmansk2          1186.000
       257   03 Jun 2027 19:20:47.368   03 Jun 2027 19:20:58.863            11.495               Magadan2           359.219
       258   03 Jun 2027 19:21:17.391   03 Jun 2027 19:21:23.132             5.741               Magadan2           179.406
       259   03 Jun 2027 20:12:50.380   03 Jun 2027 20:13:51.796            61.416               CapeTown          1919.250
       260   03 Jun 2027 20:15:58.203   03 Jun 2027 20:17:52.326           114.123               CapeTown          3566.344
       261   03 Jun 2027 20:47:05.246   03 Jun 2027 20:48:06.597            61.351              Murmansk1          1917.219
       262   03 Jun 2027 20:53:00.941   03 Jun 2027 20:53:40.119            39.178                Anadyr2          1224.312
       263   03 Jun 2027 20:54:26.482   03 Jun 2027 20:55:45.933            79.451               Magadan1          2482.844
       264   03 Jun 2027 20:55:45.933   03 Jun 2027 20:56:48.654            62.721               Magadan2          1960.031
       265   03 Jun 2027 20:57:02.383   03 Jun 2027 20:57:31.162            28.779               Magadan2           899.344
       266   03 Jun 2027 20:58:42.901   03 Jun 2027 20:59:13.804            30.903               Magadan2           965.719
       267   03 Jun 2027 22:27:52.348   03 Jun 2027 22:31:37.553           225.205                Anadyr2          7037.656
       268   03 Jun 2027 22:31:48.171   03 Jun 2027 22:34:58.172           190.001               Magadan2          5937.531
       269   03 Jun 2027 22:35:16.338   03 Jun 2027 22:35:47.135            30.797               Magadan2           962.406
       270   03 Jun 2027 22:41:14.566   03 Jun 2027 22:41:34.466            19.900               Magadan2           621.875
       271   03 Jun 2027 23:22:15.074   03 Jun 2027 23:25:14.321           179.247            RioGallegos          5601.469
       272   03 Jun 2027 23:25:41.886   03 Jun 2027 23:25:44.389             2.503            RioGallegos            78.219
       273   04 Jun 2027 00:03:28.418   04 Jun 2027 00:05:32.262           123.844                Anadyr1          3870.125
       274   04 Jun 2027 00:05:40.826   04 Jun 2027 00:07:25.504           104.678                Norilsk          3271.188
       275   04 Jun 2027 00:08:05.083   04 Jun 2027 00:08:27.287            22.204               Magadan1           693.875
       276   04 Jun 2027 00:08:48.106   04 Jun 2027 00:09:49.861            61.755               Magadan2          1929.844
       277   04 Jun 2027 00:09:50.940   04 Jun 2027 00:10:46.372            55.432                Irkutsk          1732.250
       278   04 Jun 2027 00:11:10.588   04 Jun 2027 00:11:17.473             6.885                Irkutsk           215.156
       279   04 Jun 2027 00:11:36.756   04 Jun 2027 00:13:15.458            98.702                Novosib          3084.437
       280   04 Jun 2027 00:23:35.521   04 Jun 2027 00:24:19.001            43.480                Sumatra          1358.750
       281   04 Jun 2027 00:26:23.150   04 Jun 2027 00:27:11.846            48.696                Sumatra          1521.750
       282   04 Jun 2027 00:57:34.998   04 Jun 2027 00:57:50.556            15.558            RioGallegos           486.188
       283   04 Jun 2027 00:58:05.623   04 Jun 2027 00:58:19.617            13.994            RioGallegos           437.312
       284   04 Jun 2027 01:02:16.514   04 Jun 2027 01:02:33.608            17.094            RioGallegos           534.187
       285   04 Jun 2027 01:03:39.361   04 Jun 2027 01:04:06.663            27.302            RioGallegos           853.187
       286   04 Jun 2027 01:07:42.370   04 Jun 2027 01:07:52.106             9.736            RioGallegos           304.250
       287   04 Jun 2027 01:38:10.558   04 Jun 2027 01:40:21.289           130.731                Anadyr2          4085.344
       288   04 Jun 2027 01:41:39.175   04 Jun 2027 01:43:22.202           103.027                Norilsk          3219.594
       289   04 Jun 2027 01:43:22.797   04 Jun 2027 01:43:25.172             2.375                Norilsk            74.219
       290   04 Jun 2027 01:45:32.360   04 Jun 2027 01:47:20.720           108.360                Irkutsk          3386.250
       291   04 Jun 2027 01:49:05.329   04 Jun 2027 01:49:35.743            30.414                Novosib           950.437
       292   04 Jun 2027 01:51:25.841   04 Jun 2027 01:52:00.074            34.233                Novosib          1069.781
       293   04 Jun 2027 01:53:54.417   04 Jun 2027 01:54:38.645            44.228                  Delhi          1382.125
       294   04 Jun 2027 02:00:23.364   04 Jun 2027 02:00:33.434            10.070                  Delhi           314.688
       295   04 Jun 2027 02:01:25.590   04 Jun 2027 02:04:08.495           162.905                Sumatra          5090.781
       296   04 Jun 2027 02:35:27.346   04 Jun 2027 02:36:59.874            92.528            RioGallegos          2891.500
       297   04 Jun 2027 03:24:48.223   04 Jun 2027 03:25:49.199            60.976              Murmansk1          1905.500
       298   04 Jun 2027 03:26:26.710   04 Jun 2027 03:26:51.153            24.443              Murmansk2           763.844
       299   04 Jun 2027 03:26:55.699   04 Jun 2027 03:27:14.508            18.809                Norilsk           587.781
       300   04 Jun 2027 03:27:22.464   04 Jun 2027 03:27:56.836            34.372                 Moscow          1074.125
       301   04 Jun 2027 03:28:11.350   04 Jun 2027 03:29:00.027            48.677              Murmansk2          1521.156
       302   04 Jun 2027 03:29:28.300   04 Jun 2027 03:30:29.823            61.523                Irkutsk          1922.594
       303   04 Jun 2027 03:30:44.350   04 Jun 2027 03:30:52.861             8.511                 Moscow           265.969
       304   04 Jun 2027 04:45:06.360   04 Jun 2027 04:45:37.165            30.805                Anadyr1           962.656
       305   04 Jun 2027 05:02:42.641   04 Jun 2027 05:03:21.980            39.339              Murmansk2          1229.344
       306   04 Jun 2027 05:03:56.773   04 Jun 2027 05:04:09.386            12.613                 Moscow           394.156
       307   04 Jun 2027 05:04:33.273   04 Jun 2027 05:04:58.247            24.974                 Moscow           780.438
       308   04 Jun 2027 05:05:21.693   04 Jun 2027 05:05:58.444            36.751              Murmansk2          1148.469
       309   04 Jun 2027 05:06:05.743   04 Jun 2027 05:06:32.901            27.158              Murmansk1           848.687
       310   04 Jun 2027 05:06:45.522   04 Jun 2027 05:06:55.922            10.400                 Moscow           325.000
       311   04 Jun 2027 05:06:58.801   04 Jun 2027 05:07:07.597             8.796              Murmansk1           274.875
       312   04 Jun 2027 05:07:08.429   04 Jun 2027 05:07:20.493            12.064                 Moscow           377.000
       313   04 Jun 2027 05:08:25.201   04 Jun 2027 05:08:40.267            15.066                 Moscow           470.813
       314   04 Jun 2027 05:09:25.907   04 Jun 2027 05:09:53.287            27.380                 Moscow           855.625
       315   04 Jun 2027 05:10:50.115   04 Jun 2027 05:10:56.894             6.779                 Moscow           211.844
       316   04 Jun 2027 05:11:33.762   04 Jun 2027 05:11:37.311             3.549                 Moscow           110.906
       317   04 Jun 2027 05:23:23.541   04 Jun 2027 05:24:05.381            41.840               CapeTown          1307.500
       318   04 Jun 2027 05:24:54.273   04 Jun 2027 05:24:58.466             4.193               CapeTown           131.031
       319   04 Jun 2027 05:25:52.772   04 Jun 2027 05:26:17.212            24.440               CapeTown           763.750
       320   04 Jun 2027 06:26:46.659   04 Jun 2027 06:27:19.147            32.488                Anadyr1          1015.250
       321   04 Jun 2027 06:27:40.278   04 Jun 2027 06:27:55.208            14.930               Magadan1           466.563
       322   04 Jun 2027 06:27:55.208   04 Jun 2027 06:27:59.217             4.009               Magadan2           125.281
       323   04 Jun 2027 06:28:23.834   04 Jun 2027 06:29:50.998            87.164                Anadyr1          2723.875
       324   04 Jun 2027 06:37:56.074   04 Jun 2027 06:38:06.377            10.303                 Moscow           321.969
       325   04 Jun 2027 06:38:07.626   04 Jun 2027 06:38:16.702             9.076                Norilsk           283.625
       326   04 Jun 2027 06:38:33.325   04 Jun 2027 06:39:37.821            64.496              Murmansk2          2015.500
       327   04 Jun 2027 06:39:46.173   04 Jun 2027 06:40:04.079            17.906                 Moscow           559.563
       328   04 Jun 2027 06:42:32.488   04 Jun 2027 06:42:39.115             6.627                 Moscow           207.094
       329   04 Jun 2027 06:59:46.736   04 Jun 2027 07:00:38.871            52.135               CapeTown          1629.219
       330   04 Jun 2027 07:01:29.539   04 Jun 2027 07:01:30.911             1.372               CapeTown            42.875
       331   04 Jun 2027 07:03:52.286   04 Jun 2027 07:04:20.604            28.318               CapeTown           884.938
       332   04 Jun 2027 08:00:43.540   04 Jun 2027 08:00:44.961             1.421                Anadyr2            44.406
       333   04 Jun 2027 08:01:10.869   04 Jun 2027 08:01:41.440            30.571               Magadan2           955.344
       334   04 Jun 2027 08:01:41.440   04 Jun 2027 08:02:23.589            42.149               Magadan1          1317.156
       335   04 Jun 2027 08:02:38.255   04 Jun 2027 08:03:48.286            70.031                Anadyr1          2188.469
       336   04 Jun 2027 08:03:59.377   04 Jun 2027 08:04:15.592            16.215               Magadan2           506.719
       337   04 Jun 2027 08:04:38.617   04 Jun 2027 08:05:15.572            36.955                Anadyr2          1154.844
       338   04 Jun 2027 08:05:56.761   04 Jun 2027 08:06:17.926            21.165                Anadyr1           661.406
       339   04 Jun 2027 08:48:55.928   04 Jun 2027 08:49:10.295            14.367            RioGallegos           448.969
       340   04 Jun 2027 08:49:47.684   04 Jun 2027 08:49:53.454             5.770            RioGallegos           180.313
       341   04 Jun 2027 08:51:08.577   04 Jun 2027 08:51:14.462             5.885            RioGallegos           183.906
       342   04 Jun 2027 08:52:48.402   04 Jun 2027 08:53:10.826            22.424            RioGallegos           700.750
       343   04 Jun 2027 09:34:29.357   04 Jun 2027 09:35:27.023            57.666               Magadan1          1802.062
       344   04 Jun 2027 09:36:12.550   04 Jun 2027 09:36:32.632            20.082                Anadyr2           627.562
       345   04 Jun 2027 09:36:32.632   04 Jun 2027 09:40:04.963           212.331                Anadyr1          6635.344
       346   04 Jun 2027 09:40:15.618   04 Jun 2027 09:40:31.514            15.896               Magadan1           496.750
       347   04 Jun 2027 09:40:48.078   04 Jun 2027 09:41:45.671            57.593               Magadan2          1799.781
       348   04 Jun 2027 09:41:45.671   04 Jun 2027 09:42:36.781            51.110               Magadan1          1597.188
       349   04 Jun 2027 10:21:21.804   04 Jun 2027 10:21:25.606             3.802            RioGallegos           118.812
       350   04 Jun 2027 10:22:42.288   04 Jun 2027 10:22:50.267             7.979            RioGallegos           249.344
       351   04 Jun 2027 11:12:03.561   04 Jun 2027 11:15:30.315           206.754               Magadan1          6461.062
       352   04 Jun 2027 11:15:42.401   04 Jun 2027 11:19:03.632           201.231               Magadan2          6288.469
       353   04 Jun 2027 11:19:27.402   04 Jun 2027 11:19:32.255             4.853              Murmansk1           151.656
       354   04 Jun 2027 11:19:36.605   04 Jun 2027 11:19:56.308            19.703              Murmansk2           615.719
       355   04 Jun 2027 11:20:21.990   04 Jun 2027 11:20:40.303            18.313              Murmansk1           572.281
       356   04 Jun 2027 11:54:32.818   04 Jun 2027 11:55:14.866            42.048            RioGallegos          1314.000
       357   04 Jun 2027 11:55:29.548   04 Jun 2027 11:56:32.268            62.720            RioGallegos          1960.000
       358   04 Jun 2027 12:29:31.157   04 Jun 2027 12:30:12.964            41.807                Sumatra          1306.469
       359   04 Jun 2027 12:36:19.024   04 Jun 2027 12:37:28.731            69.707                Sumatra          2178.344
       360   04 Jun 2027 12:43:17.059   04 Jun 2027 12:44:45.935            88.876                Irkutsk          2777.375
       361   04 Jun 2027 12:46:08.477   04 Jun 2027 12:47:46.609            98.132                Irkutsk          3066.625
       362   04 Jun 2027 12:49:12.721   04 Jun 2027 12:49:41.417            28.696                Norilsk           896.750
       363   04 Jun 2027 13:33:26.404   04 Jun 2027 13:35:14.889           108.485            RioGallegos          3390.156
       364   04 Jun 2027 14:07:59.486   04 Jun 2027 14:10:03.352           123.866                Sumatra          3870.812
       365   04 Jun 2027 14:22:13.803   04 Jun 2027 14:23:33.898            80.095                Novosib          2502.969
       366   04 Jun 2027 14:23:53.484   04 Jun 2027 14:26:48.140           174.656                Irkutsk          5458.000
       367   04 Jun 2027 15:54:13.337   04 Jun 2027 15:58:13.370           240.033                  Delhi          7501.031
       368   04 Jun 2027 16:02:26.046   04 Jun 2027 16:05:47.177           201.131                Novosib          6285.344
       369   04 Jun 2027 16:09:56.774   04 Jun 2027 16:09:56.784             0.010                Norilsk             0.312
       370   04 Jun 2027 17:14:03.725   04 Jun 2027 17:15:29.905            86.180               CapeTown          2693.125
       371   04 Jun 2027 17:35:48.397   04 Jun 2027 17:37:02.114            73.717                 Moscow          2303.656
       372   04 Jun 2027 17:38:45.047   04 Jun 2027 17:39:19.665            34.618              Murmansk1          1081.813
       373   04 Jun 2027 17:40:09.774   04 Jun 2027 17:40:46.845            37.071              Murmansk2          1158.469
       374   04 Jun 2027 17:46:06.569   04 Jun 2027 17:46:30.499            23.930              Murmansk1           747.812
       375   04 Jun 2027 17:52:40.996   04 Jun 2027 17:53:41.116            60.120                Anadyr2          1878.750
       376   04 Jun 2027 17:54:43.467   04 Jun 2027 17:54:50.653             7.186                Anadyr1           224.563
       377   04 Jun 2027 17:55:08.170   04 Jun 2027 17:55:22.708            14.538                Anadyr1           454.313
       378   04 Jun 2027 18:47:26.594   04 Jun 2027 18:49:38.695           132.101               CapeTown          4128.156
       379   04 Jun 2027 19:17:00.214   04 Jun 2027 19:17:35.139            34.925              Murmansk2          1091.406
       380   04 Jun 2027 19:18:32.310   04 Jun 2027 19:22:15.373           223.063              Murmansk1          6970.719
       381   04 Jun 2027 19:22:25.682   04 Jun 2027 19:23:44.214            78.532              Murmansk2          2454.125
       382   04 Jun 2027 19:32:03.016   04 Jun 2027 19:32:19.104            16.088               Magadan1           502.750
       383   04 Jun 2027 19:34:41.419   04 Jun 2027 19:34:59.186            17.767               Magadan2           555.219
       384   04 Jun 2027 19:36:02.290   04 Jun 2027 19:36:58.262            55.972               Magadan2          1749.125
       385   04 Jun 2027 20:25:32.537   04 Jun 2027 20:27:10.782            98.245               CapeTown          3070.156
       386   04 Jun 2027 21:03:59.064   04 Jun 2027 21:05:41.169           102.105                Anadyr1          3190.781
       387   04 Jun 2027 21:06:10.938   04 Jun 2027 21:07:11.175            60.237                Anadyr2          1882.406
       388   04 Jun 2027 21:07:24.120   04 Jun 2027 21:08:56.638            92.518               Magadan2          2891.188
       389   04 Jun 2027 21:08:56.638   04 Jun 2027 21:09:11.597            14.959               Magadan1           467.469
       390   04 Jun 2027 21:10:44.039   04 Jun 2027 21:10:52.442             8.403               Magadan2           262.594
       391   04 Jun 2027 21:11:30.286   04 Jun 2027 21:12:01.165            30.879               Magadan2           964.969
       392   04 Jun 2027 21:18:24.873   04 Jun 2027 21:18:25.586             0.713               Magadan2            22.281
       393   04 Jun 2027 22:39:53.121   04 Jun 2027 22:44:50.973           297.852                Anadyr2          9307.875
       394   04 Jun 2027 22:45:05.690   04 Jun 2027 22:45:44.578            38.888                Norilsk          1215.250
       395   04 Jun 2027 22:46:05.884   04 Jun 2027 22:47:14.355            68.471                Norilsk          2139.719
       396   04 Jun 2027 22:47:37.891   04 Jun 2027 22:47:45.298             7.407               Magadan1           231.469
       397   04 Jun 2027 22:47:54.677   04 Jun 2027 22:48:01.152             6.475               Magadan1           202.344
       398   04 Jun 2027 22:48:24.611   04 Jun 2027 22:49:04.728            40.117                Irkutsk          1253.656
       399   04 Jun 2027 22:49:10.945   04 Jun 2027 22:49:29.930            18.985                Irkutsk           593.281
       400   04 Jun 2027 22:50:04.635   04 Jun 2027 22:50:43.457            38.822                Irkutsk          1213.188
       401   04 Jun 2027 23:34:06.177   04 Jun 2027 23:35:39.323            93.146            RioGallegos          2910.813
       402   04 Jun 2027 23:36:03.183   04 Jun 2027 23:36:14.167            10.984            RioGallegos           343.250
       403   04 Jun 2027 23:39:24.054   04 Jun 2027 23:40:09.712            45.658            RioGallegos          1426.813
       404   04 Jun 2027 23:43:01.646   04 Jun 2027 23:43:35.120            33.474            RioGallegos          1046.062
       405   05 Jun 2027 00:15:24.654   05 Jun 2027 00:17:01.327            96.673                Anadyr1          3021.031
       406   05 Jun 2027 00:17:42.080   05 Jun 2027 00:19:27.723           105.643                Norilsk          3301.344
       407   05 Jun 2027 00:19:40.203   05 Jun 2027 00:20:07.413            27.210               Magadan2           850.313
       408   05 Jun 2027 00:20:47.534   05 Jun 2027 00:21:18.827            31.293               Magadan1           977.906
       409   05 Jun 2027 00:21:46.720   05 Jun 2027 00:23:19.909            93.189                Irkutsk          2912.156
       410   05 Jun 2027 00:25:35.905   05 Jun 2027 00:26:00.800            24.895                Novosib           777.969
       411   05 Jun 2027 00:26:27.831   05 Jun 2027 00:27:06.108            38.277                Novosib          1196.156
       412   05 Jun 2027 00:35:28.272   05 Jun 2027 00:36:05.292            37.020                Sumatra          1156.875
       413   05 Jun 2027 00:38:32.758   05 Jun 2027 00:38:42.877            10.119                Sumatra           316.219
       414   05 Jun 2027 00:40:02.706   05 Jun 2027 00:41:30.970            88.264                Sumatra          2758.250
       415   05 Jun 2027 01:13:00.260   05 Jun 2027 01:13:31.081            30.821            RioGallegos           963.156
       416   05 Jun 2027 01:18:38.901   05 Jun 2027 01:19:07.499            28.598            RioGallegos           893.687
       417   05 Jun 2027 01:22:14.556   05 Jun 2027 01:22:21.845             7.289            RioGallegos           227.781
       418   05 Jun 2027 01:49:57.286   05 Jun 2027 01:50:31.194            33.908                Anadyr2          1059.625
       419   05 Jun 2027 01:50:31.194   05 Jun 2027 01:51:25.856            54.662                Anadyr1          1708.187
       420   05 Jun 2027 01:52:03.067   05 Jun 2027 01:52:28.545            25.478                Anadyr2           796.188
       421   05 Jun 2027 01:52:30.088   05 Jun 2027 01:52:39.508             9.420                Anadyr1           294.375
       422   05 Jun 2027 01:53:41.586   05 Jun 2027 01:55:01.677            80.091                Norilsk          2502.844
       423   05 Jun 2027 01:57:36.111   05 Jun 2027 01:59:23.905           107.794                Novosib          3368.563
       424   05 Jun 2027 01:59:34.586   05 Jun 2027 01:59:47.053            12.467                Novosib           389.594
       425   05 Jun 2027 02:00:24.701   05 Jun 2027 02:00:43.405            18.704                Novosib           584.500
       426   05 Jun 2027 02:00:54.749   05 Jun 2027 02:01:13.458            18.709                Novosib           584.656
       427   05 Jun 2027 02:05:09.390   05 Jun 2027 02:05:59.763            50.373                  Delhi          1574.156
       428   05 Jun 2027 02:08:40.061   05 Jun 2027 02:08:48.121             8.060                  Delhi           251.875
       429   05 Jun 2027 02:11:20.772   05 Jun 2027 02:11:50.306            29.534                  Delhi           922.938
       430   05 Jun 2027 02:14:45.306   05 Jun 2027 02:15:56.614            71.308                Sumatra          2228.375
       431   05 Jun 2027 02:46:13.796   05 Jun 2027 02:47:33.230            79.434            RioGallegos          2482.312
       432   05 Jun 2027 02:49:56.068   05 Jun 2027 02:50:32.851            36.783            RioGallegos          1149.469
       433   05 Jun 2027 02:54:32.824   05 Jun 2027 02:55:19.673            46.849            RioGallegos          1464.031
       434   05 Jun 2027 03:36:30.037   05 Jun 2027 03:36:35.802             5.765              Murmansk1           180.156
       435   05 Jun 2027 03:37:20.005   05 Jun 2027 03:37:46.093            26.088              Murmansk1           815.250
       436   05 Jun 2027 03:38:31.516   05 Jun 2027 03:39:15.898            44.382                 Moscow          1386.938
       437   05 Jun 2027 03:39:15.918   05 Jun 2027 03:40:59.474           103.556                Norilsk          3236.125
       438   05 Jun 2027 03:41:06.428   05 Jun 2027 03:41:33.207            26.779              Murmansk1           836.844
       439   05 Jun 2027 03:41:40.434   05 Jun 2027 03:42:05.739            25.305                Norilsk           790.781
       440   05 Jun 2027 03:42:35.347   05 Jun 2027 03:42:44.963             9.616                Novosib           300.500
       441   05 Jun 2027 03:45:43.898   05 Jun 2027 03:45:49.634             5.736                Novosib           179.250
       442   05 Jun 2027 05:14:48.921   05 Jun 2027 05:15:46.920            57.999                 Moscow          1812.469
       443   05 Jun 2027 05:16:25.042   05 Jun 2027 05:16:39.301            14.259              Murmansk2           445.594
       444   05 Jun 2027 05:16:55.342   05 Jun 2027 05:17:46.178            50.836                 Moscow          1588.625
       445   05 Jun 2027 05:17:51.074   05 Jun 2027 05:19:09.437            78.363              Murmansk1          2448.844
       446   05 Jun 2027 05:20:07.023   05 Jun 2027 05:20:09.855             2.832              Murmansk1            88.500
       447   05 Jun 2027 05:20:30.339   05 Jun 2027 05:20:39.874             9.535                 Moscow           297.969
       448   05 Jun 2027 05:21:51.975   05 Jun 2027 05:22:24.898            32.923                 Moscow          1028.844
       449   05 Jun 2027 05:22:44.566   05 Jun 2027 05:22:44.890             0.324                 Moscow            10.125
       450   05 Jun 2027 05:23:08.903   05 Jun 2027 05:23:18.346             9.443                 Moscow           295.094
       451   05 Jun 2027 05:35:10.351   05 Jun 2027 05:37:18.977           128.626               CapeTown          4019.562
       452   05 Jun 2027 06:38:10.044   05 Jun 2027 06:38:36.592            26.548                Anadyr2           829.625
       453   05 Jun 2027 06:38:48.404   05 Jun 2027 06:40:24.063            95.659                Anadyr1          2989.344
       454   05 Jun 2027 06:50:04.020   05 Jun 2027 06:51:10.668            66.648                Norilsk          2082.750
       455   05 Jun 2027 06:51:19.357   05 Jun 2027 06:51:43.657            24.300              Murmansk1           759.375
       456   05 Jun 2027 06:53:50.257   05 Jun 2027 06:54:13.329            23.072                 Moscow           721.000
       457   05 Jun 2027 07:12:20.502   05 Jun 2027 07:12:44.556            24.054               CapeTown           751.687
       458   05 Jun 2027 07:15:41.731   05 Jun 2027 07:17:15.931            94.200               CapeTown          2943.750
       459   05 Jun 2027 08:12:44.493   05 Jun 2027 08:14:37.807           113.314                Anadyr2          3541.063
       460   05 Jun 2027 08:14:55.368   05 Jun 2027 08:15:58.471            63.103               Magadan1          1971.969
       461   05 Jun 2027 08:16:18.596   05 Jun 2027 08:16:59.687            41.091               Magadan1          1284.094
       462   05 Jun 2027 08:17:36.736   05 Jun 2027 08:17:37.426             0.690                Norilsk            21.563
       463   05 Jun 2027 08:17:45.199   05 Jun 2027 08:19:11.922            86.723                Anadyr1          2710.094
       464   05 Jun 2027 08:26:11.738   05 Jun 2027 08:26:17.384             5.646                 Moscow           176.438
       465   05 Jun 2027 08:59:55.994   05 Jun 2027 09:00:23.095            27.101            RioGallegos           846.906
       466   05 Jun 2027 09:46:29.121   05 Jun 2027 09:48:05.548            96.427               Magadan2          3013.344
       467   05 Jun 2027 09:48:22.615   05 Jun 2027 09:50:12.778           110.163               Magadan2          3442.594
       468   05 Jun 2027 09:50:36.563   05 Jun 2027 09:53:39.325           182.762                Anadyr1          5711.313
       469   05 Jun 2027 09:54:05.049   05 Jun 2027 09:54:07.651             2.602                Norilsk            81.313
       470   05 Jun 2027 09:54:25.537   05 Jun 2027 09:54:53.562            28.025                Irkutsk           875.781
       471   05 Jun 2027 09:55:02.049   05 Jun 2027 09:55:07.100             5.051              Murmansk2           157.844
       472   05 Jun 2027 09:55:09.977   05 Jun 2027 09:55:38.733            28.756                Novosib           898.625
       473   05 Jun 2027 09:56:01.782   05 Jun 2027 09:56:25.867            24.085              Murmansk2           752.656
       474   05 Jun 2027 10:31:26.004   05 Jun 2027 10:31:50.691            24.687            RioGallegos           771.469
       475   05 Jun 2027 10:33:18.399   05 Jun 2027 10:33:39.909            21.510            RioGallegos           672.188
       476   05 Jun 2027 11:11:54.207   05 Jun 2027 11:12:48.120            53.913                Sumatra          1684.781
       477   05 Jun 2027 11:24:00.091   05 Jun 2027 11:24:03.137             3.046               Magadan2            95.187
       478   05 Jun 2027 11:24:03.137   05 Jun 2027 11:27:15.920           192.783               Magadan1          6024.469
       479   05 Jun 2027 11:27:21.415   05 Jun 2027 11:28:01.564            40.149               Magadan2          1254.656
       480   05 Jun 2027 11:28:30.579   05 Jun 2027 11:28:38.539             7.960                Novosib           248.750
       481   05 Jun 2027 11:28:44.555   05 Jun 2027 11:28:49.566             5.011                Novosib           156.594
       482   05 Jun 2027 11:28:55.942   05 Jun 2027 11:29:00.303             4.361                Norilsk           136.281
