uniorb/output/strategy_2/Drop/Drop_KinoSat_110208.txt

KinoSat_110208
-------------------------
    Access    *     Start Time (UTCG)     *     Stop Time (UTCG)  *   Duration (s)        *       Station  *  Data (Mbytes)
         1   01 Jun 2027 03:32:22.011   01 Jun 2027 03:32:38.405            16.394               Magadan1           287.000
         2   01 Jun 2027 03:32:42.347   01 Jun 2027 03:33:09.957            27.610                Novosib          1971.000
         3   01 Jun 2027 03:33:15.128   01 Jun 2027 03:33:43.057            27.929               Magadan1          2585.500
         4   01 Jun 2027 03:33:48.593   01 Jun 2027 03:34:14.339            25.746                Irkutsk          2768.000
         5   01 Jun 2027 03:34:21.621   01 Jun 2027 03:35:04.107            42.486                Irkutsk          3641.000
         6   01 Jun 2027 03:35:05.392   01 Jun 2027 03:35:11.686             6.294                Norilsk           642.500
         7   01 Jun 2027 03:35:16.017   01 Jun 2027 03:35:37.259            21.242                Norilsk          2165.500
         8   01 Jun 2027 03:35:43.744   01 Jun 2027 03:36:31.282            47.538               Magadan2          3242.500
         9   01 Jun 2027 03:36:33.256   01 Jun 2027 03:37:09.537            36.281                Irkutsk           987.000
        10   01 Jun 2027 03:37:13.512   01 Jun 2027 03:37:42.903            29.391                Norilsk          1987.500
        11   01 Jun 2027 03:37:46.269   01 Jun 2027 03:38:04.186            17.917               Magadan2          1683.000
        12   01 Jun 2027 03:38:11.610   01 Jun 2027 03:38:25.129            13.519                Novosib          1689.875
        13   01 Jun 2027 03:38:25.937   01 Jun 2027 03:39:02.324            36.387              Murmansk2          2426.125
        14   01 Jun 2027 03:39:07.148   01 Jun 2027 03:39:36.291            29.143                Norilsk          2412.000
        15   01 Jun 2027 03:39:41.163   01 Jun 2027 03:39:46.803             5.640                Irkutsk           705.000
        16   01 Jun 2027 03:39:50.379   01 Jun 2027 03:40:24.417            34.038                Novosib          1731.000
        17   01 Jun 2027 05:09:18.170   01 Jun 2027 05:10:06.426            48.256                Irkutsk          5757.000
        18   01 Jun 2027 05:10:11.540   01 Jun 2027 05:10:57.613            46.073                Irkutsk          2557.000
        19   01 Jun 2027 05:11:05.331   01 Jun 2027 05:12:04.291            58.960                Norilsk          3859.000
        20   01 Jun 2027 05:12:06.376   01 Jun 2027 05:12:31.368            24.992                Norilsk          1042.500
        21   01 Jun 2027 05:12:34.741   01 Jun 2027 05:13:16.677            41.936                Norilsk          1686.500
        22   01 Jun 2027 05:13:17.817   01 Jun 2027 05:13:29.181            11.364                 Moscow           570.000
        23   01 Jun 2027 05:13:31.799   01 Jun 2027 05:13:42.866            11.067                 Moscow          1309.000
        24   01 Jun 2027 05:13:50.645   01 Jun 2027 05:14:04.509            13.864                Norilsk          1733.000
        25   01 Jun 2027 05:14:12.617   01 Jun 2027 05:15:11.946            59.329              Murmansk1          6210.500
        26   01 Jun 2027 05:15:25.687   01 Jun 2027 05:17:15.771           110.084                Novosib          4061.000
        27   01 Jun 2027 06:47:24.686   01 Jun 2027 06:48:38.296            73.610                 Moscow          6635.000
        28   01 Jun 2027 06:48:42.291   01 Jun 2027 06:48:59.489            17.198                Norilsk          1997.500
        29   01 Jun 2027 06:49:04.622   01 Jun 2027 06:49:32.694            28.072                 Moscow          2566.500
        30   01 Jun 2027 06:49:37.709   01 Jun 2027 06:49:59.933            22.224                 Moscow          2507.500
        31   01 Jun 2027 06:50:02.158   01 Jun 2027 06:50:46.012            43.854                Norilsk          1112.500
        32   01 Jun 2027 06:50:51.180   01 Jun 2027 06:51:33.930            42.750                 Moscow          2584.000
        33   01 Jun 2027 08:21:11.992   01 Jun 2027 08:22:18.710            66.718                 Moscow          7191.000
        34   01 Jun 2027 08:22:24.748   01 Jun 2027 08:22:49.534            24.786                 Moscow          3019.000
        35   01 Jun 2027 08:22:59.309   01 Jun 2027 08:23:29.874            30.565                 Moscow          3820.625
        36   01 Jun 2027 08:23:35.318   01 Jun 2027 08:24:33.005            57.687              Murmansk1          3788.875
        37   01 Jun 2027 08:24:39.367   01 Jun 2027 08:25:29.690            50.323                 Moscow          3181.000
        38   01 Jun 2027 08:25:31.640   01 Jun 2027 08:25:47.125            15.485              Murmansk1           975.000
        39   01 Jun 2027 08:25:49.379   01 Jun 2027 08:26:08.464            19.085              Murmansk1          1127.000
        40   01 Jun 2027 08:26:09.890   01 Jun 2027 08:26:15.978             6.088                 Moscow           713.000
        41   01 Jun 2027 08:26:27.538   01 Jun 2027 08:27:49.924            82.386                Norilsk          5780.000
        42   02 Jun 2027 03:44:22.635   02 Jun 2027 03:44:46.431            23.796                Norilsk           551.000
        43   02 Jun 2027 03:44:48.721   02 Jun 2027 03:45:26.024            37.303                Novosib          1145.000
        44   02 Jun 2027 03:45:43.138   02 Jun 2027 03:46:55.398            72.260                Irkutsk          8557.000
        45   02 Jun 2027 03:46:57.092   02 Jun 2027 03:47:08.240            11.148                Novosib           847.000
        46   02 Jun 2027 03:47:09.903   02 Jun 2027 03:47:18.291             8.388               Magadan1           831.500
        47   02 Jun 2027 03:47:25.999   02 Jun 2027 03:47:59.946            33.947               Magadan1          3854.000
        48   02 Jun 2027 03:48:03.552   02 Jun 2027 03:48:22.861            19.309                Novosib          1803.000
        49   02 Jun 2027 03:48:23.959   02 Jun 2027 03:48:41.027            17.068                Norilsk           549.000
        50   02 Jun 2027 03:48:41.517   02 Jun 2027 03:49:01.792            20.275                Norilsk           245.000
        51   02 Jun 2027 03:49:04.589   02 Jun 2027 03:49:31.362            26.773                Norilsk          1398.500
        52   02 Jun 2027 03:49:35.486   02 Jun 2027 03:50:22.216            46.730              Murmansk1          2062.000
        53   02 Jun 2027 03:50:22.299   02 Jun 2027 03:51:05.798            43.499                Irkutsk            41.500
        54   02 Jun 2027 03:51:06.601   02 Jun 2027 03:51:12.630             6.029                Novosib           401.500
        55   02 Jun 2027 03:51:14.105   02 Jun 2027 03:51:26.791            12.686                Irkutsk           737.500
        56   02 Jun 2027 03:51:29.085   02 Jun 2027 03:52:03.191            34.106                Novosib          1147.000
        57   02 Jun 2027 05:21:30.804   02 Jun 2027 05:22:59.806            89.002                Novosib          7947.000
        58   02 Jun 2027 05:23:04.716   02 Jun 2027 05:23:56.105            51.389                Norilsk          2455.000
        59   02 Jun 2027 05:24:05.394   02 Jun 2027 05:25:16.025            70.631                Norilsk          4644.500
        60   02 Jun 2027 05:25:18.048   02 Jun 2027 05:26:06.904            48.856              Murmansk1          1011.500
        61   02 Jun 2027 05:26:10.429   02 Jun 2027 05:26:43.488            33.059                 Moscow          1762.500
        62   02 Jun 2027 05:26:47.557   02 Jun 2027 05:27:14.394            26.837                 Moscow          2034.500
        63   02 Jun 2027 05:27:17.534   02 Jun 2027 05:27:51.483            33.949              Murmansk2          1570.000
        64   02 Jun 2027 06:58:45.374   02 Jun 2027 07:00:32.993           107.619              Murmansk1         10430.000
        65   02 Jun 2027 07:00:36.305   02 Jun 2027 07:00:54.037            17.732                Novosib          1656.000
        66   02 Jun 2027 07:01:03.650   02 Jun 2027 07:01:42.108            38.458                Norilsk          4806.500
        67   02 Jun 2027 07:01:54.260   02 Jun 2027 07:02:30.858            36.598                Norilsk          4574.750
        68   02 Jun 2027 07:02:34.356   02 Jun 2027 07:03:10.005            35.649              Murmansk2          3250.250
        69   02 Jun 2027 07:03:11.073   02 Jun 2027 07:03:21.376            10.303                Novosib           534.000
        70   02 Jun 2027 08:33:14.867   02 Jun 2027 08:33:27.057            12.190                 Moscow          1374.500
        71   02 Jun 2027 08:33:41.652   02 Jun 2027 08:35:09.200            87.548              Murmansk2          7297.500
        72   02 Jun 2027 08:35:11.497   02 Jun 2027 08:35:40.477            28.980                 Moscow          1148.500
        73   02 Jun 2027 08:35:55.016   02 Jun 2027 08:36:59.817            64.801                 Moscow          7269.500
        74   02 Jun 2027 08:37:05.125   02 Jun 2027 08:37:53.310            48.185                 Moscow          2654.000
        75   02 Jun 2027 08:37:58.113   02 Jun 2027 08:38:40.386            42.273              Murmansk1          2401.500
        76   03 Jun 2027 03:56:45.863   03 Jun 2027 03:56:52.620             6.757                Norilsk           832.000
        77   03 Jun 2027 03:57:19.859   03 Jun 2027 03:58:41.221            81.362                Norilsk         10170.250
        78   03 Jun 2027 03:58:54.466   03 Jun 2027 04:00:16.661            82.195               Magadan1         10071.750
        79   03 Jun 2027 04:00:22.361   03 Jun 2027 04:00:33.403            11.042                Irkutsk          1380.250
        80   03 Jun 2027 04:00:34.208   03 Jun 2027 04:00:54.146            19.938               Magadan2          1872.250
        81   03 Jun 2027 04:01:00.711   03 Jun 2027 04:02:15.878            75.167                Norilsk          3282.500
        82   03 Jun 2027 04:02:22.327   03 Jun 2027 04:03:09.243            46.916                Norilsk          3224.500
        83   03 Jun 2027 04:03:10.371   03 Jun 2027 04:03:14.859             4.488                Novosib           561.000
        84   03 Jun 2027 04:03:20.385   03 Jun 2027 04:03:43.358            22.973                Norilsk          2766.000
        85   03 Jun 2027 05:34:03.838   03 Jun 2027 05:35:48.571           104.733                Norilsk         10379.500
        86   03 Jun 2027 05:35:52.285   03 Jun 2027 05:36:10.960            18.675                 Moscow          1857.000
        87   03 Jun 2027 05:36:17.610   03 Jun 2027 05:36:55.786            38.176                Novosib          3325.000
        88   03 Jun 2027 05:36:56.983   03 Jun 2027 05:37:40.725            43.742                 Moscow           598.500
        89   03 Jun 2027 05:37:43.034   03 Jun 2027 05:38:13.622            30.588                 Moscow          1154.500
        90   03 Jun 2027 05:38:26.390   03 Jun 2027 05:38:45.931            19.541                Norilsk          2442.625
        91   03 Jun 2027 05:38:46.503   03 Jun 2027 05:39:16.863            30.360                 Moscow          1705.875
        92   03 Jun 2027 05:39:17.798   03 Jun 2027 05:39:19.459             1.661              Murmansk1           207.625
        93   03 Jun 2027 05:39:19.459   03 Jun 2027 05:39:53.789            34.330              Murmansk2           259.875
        94   03 Jun 2027 07:10:54.000   03 Jun 2027 07:12:19.375            85.375                Novosib          8440.000
        95   03 Jun 2027 07:12:20.498   03 Jun 2027 07:12:48.959            28.461              Murmansk2           561.500
        96   03 Jun 2027 07:12:51.082   03 Jun 2027 07:13:17.002            25.920              Murmansk1          1061.500
        97   03 Jun 2027 07:13:17.624   03 Jun 2027 07:13:22.170             4.546                 Moscow           311.000
        98   03 Jun 2027 07:13:25.866   03 Jun 2027 07:14:27.985            62.119              Murmansk2          1848.000
        99   03 Jun 2027 07:14:35.569   03 Jun 2027 07:15:32.487            56.918                Novosib          3792.000
       100   03 Jun 2027 08:47:53.032   03 Jun 2027 08:48:43.232            50.200                 Moscow          3145.500
       101   03 Jun 2027 08:48:45.603   03 Jun 2027 08:48:57.783            12.180              Murmansk1          1185.500
       102   03 Jun 2027 08:49:07.067   03 Jun 2027 08:49:27.859            20.792                 Moscow          2599.000
       103   03 Jun 2027 08:49:45.939   03 Jun 2027 08:51:54.559           128.620              Murmansk2         11083.000
       104   04 Jun 2027 04:09:19.891   04 Jun 2027 04:11:14.079           114.188                Norilsk         13341.500
       105   04 Jun 2027 04:11:16.351   04 Jun 2027 04:11:53.507            37.156                Irkutsk          1136.000
       106   04 Jun 2027 04:11:53.687   04 Jun 2027 04:12:17.481            23.794                Novosib            90.000
       107   04 Jun 2027 04:12:32.893   04 Jun 2027 04:14:11.418            98.525                Norilsk          7706.000
       108   04 Jun 2027 04:14:12.216   04 Jun 2027 04:15:23.139            70.923                Irkutsk           399.000
       109   04 Jun 2027 04:15:30.051   04 Jun 2027 04:16:03.745            33.694                Novosib          3456.000
       110   04 Jun 2027 05:46:20.565   04 Jun 2027 05:47:28.293            67.728                Irkutsk          4091.000
       111   04 Jun 2027 05:47:34.738   04 Jun 2027 05:48:05.644            30.906              Murmansk2          3222.500
       112   04 Jun 2027 05:48:21.382   04 Jun 2027 05:49:45.550            84.168                Irkutsk          7869.000
       113   04 Jun 2027 05:49:52.200   04 Jun 2027 05:50:35.550            43.350              Murmansk2          3325.000
       114   04 Jun 2027 05:50:39.866   04 Jun 2027 05:51:18.040            38.174                Norilsk          2158.000
       115   04 Jun 2027 07:22:52.461   04 Jun 2027 07:23:40.796            48.335              Murmansk1          6041.875
       116   04 Jun 2027 07:23:40.796   04 Jun 2027 07:24:07.768            26.972              Murmansk2           997.625
       117   04 Jun 2027 07:24:15.387   04 Jun 2027 07:24:57.434            42.047                Novosib          3809.500
       118   04 Jun 2027 07:25:04.592   04 Jun 2027 07:25:53.227            48.635                Norilsk          3579.000
       119   04 Jun 2027 07:26:08.721   04 Jun 2027 07:27:31.264            82.543                Norilsk          7747.000
       120   04 Jun 2027 07:27:41.368   04 Jun 2027 07:28:48.878            67.510                 Moscow          5052.000
       121   04 Jun 2027 09:00:57.284   04 Jun 2027 09:01:09.169            11.885              Murmansk1          1205.000
       122   04 Jun 2027 09:01:15.038   04 Jun 2027 09:01:39.483            24.445              Murmansk1          2934.500
       123   05 Jun 2027 04:21:28.187   05 Jun 2027 04:21:41.199            13.012                Novosib           561.000
       124   05 Jun 2027 04:21:49.261   05 Jun 2027 04:23:04.783            75.522                Novosib          4031.000
       125   05 Jun 2027 04:23:07.378   05 Jun 2027 04:23:20.821            13.443                Irkutsk          1297.500
       126   05 Jun 2027 04:23:29.712   05 Jun 2027 04:24:23.399            53.687                Novosib          4445.500
       127   05 Jun 2027 04:24:29.472   05 Jun 2027 04:24:57.998            28.526                Norilsk          3036.500
       128   05 Jun 2027 04:24:58.891   05 Jun 2027 04:26:06.317            67.426                Norilsk           446.500
       129   05 Jun 2027 04:26:08.186   05 Jun 2027 04:26:31.742            23.556                Norilsk           934.500
       130   05 Jun 2027 04:26:38.607   05 Jun 2027 04:27:07.478            28.871              Murmansk1          3432.500
       131   05 Jun 2027 04:27:19.407   05 Jun 2027 04:28:22.779            63.372                Novosib          5964.500
       132   05 Jun 2027 05:58:51.253   05 Jun 2027 05:59:00.027             8.774              Murmansk1           474.000
       133   05 Jun 2027 05:59:00.781   05 Jun 2027 05:59:05.959             5.178              Murmansk1           377.000
       134   05 Jun 2027 05:59:08.234   05 Jun 2027 05:59:13.880             5.646                 Moscow           705.750
       135   05 Jun 2027 05:59:22.644   05 Jun 2027 06:00:22.703            60.059                Novosib          4813.750
       136   05 Jun 2027 06:00:37.420   05 Jun 2027 06:01:45.721            68.301                Novosib          7358.500
       137   05 Jun 2027 06:01:55.841   05 Jun 2027 06:02:49.378            53.537              Murmansk2          5060.000
       138   05 Jun 2027 06:02:51.254   05 Jun 2027 06:03:12.618            21.364                 Moscow           938.000
       139   05 Jun 2027 06:03:13.494   05 Jun 2027 06:03:34.523            21.029                Norilsk           438.000
       140   05 Jun 2027 07:35:06.448   05 Jun 2027 07:35:27.551            21.103                Norilsk          2615.000
       141   05 Jun 2027 07:35:29.773   05 Jun 2027 07:35:54.922            25.149              Murmansk1          1111.000
       142   05 Jun 2027 07:36:08.134   05 Jun 2027 07:37:05.449            57.315                Norilsk          6606.000
       143   05 Jun 2027 07:37:13.499   05 Jun 2027 07:38:17.401            63.902              Murmansk2          4025.000
       144   05 Jun 2027 07:38:19.441   05 Jun 2027 07:38:41.510            22.069                Norilsk          1020.000
       145   05 Jun 2027 07:38:42.211   05 Jun 2027 07:38:49.512             7.301                Norilsk           350.500
       146   05 Jun 2027 07:38:52.888   05 Jun 2027 07:38:59.722             6.834              Murmansk1           854.250
       147   05 Jun 2027 07:38:59.722   05 Jun 2027 07:39:10.405            10.683              Murmansk2           833.750
       148   05 Jun 2027 07:39:13.945   05 Jun 2027 07:39:36.343            22.398                 Moscow          1770.000
       149   06 Jun 2027 03:00:00.606   06 Jun 2027 03:00:31.087            30.481                Norilsk           303.000
       150   06 Jun 2027 03:00:34.496   06 Jun 2027 03:01:09.896            35.400               Magadan2          1704.500
       151   06 Jun 2027 03:01:15.466   06 Jun 2027 03:02:08.410            52.944                Irkutsk          2785.000
       152   06 Jun 2027 03:02:11.026   06 Jun 2027 03:02:21.743            10.717                Novosib          1308.000
       153   06 Jun 2027 03:02:32.457   06 Jun 2027 03:03:19.875            47.418                Norilsk          5357.000
       154   06 Jun 2027 03:03:19.900   06 Jun 2027 03:03:20.944             1.044              Murmansk2            12.500
       155   06 Jun 2027 03:03:22.700   06 Jun 2027 03:03:31.558             8.858              Murmansk1           878.000
       156   06 Jun 2027 03:03:33.375   06 Jun 2027 03:03:48.100            14.725                Irkutsk           908.500
       157   06 Jun 2027 03:03:54.210   06 Jun 2027 03:04:21.496            27.286              Murmansk2          1765.500
       158   06 Jun 2027 04:33:08.847   06 Jun 2027 04:33:25.902            17.055                Novosib          1511.500
       159   06 Jun 2027 04:33:42.655   06 Jun 2027 04:34:53.389            70.734                Irkutsk          8376.500
       160   06 Jun 2027 04:34:56.453   06 Jun 2027 04:35:21.315            24.862                Novosib          1532.000
       161   06 Jun 2027 04:35:55.659   06 Jun 2027 04:38:27.252           151.593                Norilsk         17172.000
       162   06 Jun 2027 04:38:38.004   06 Jun 2027 04:39:26.344            48.340              Murmansk1          5376.000
       163   06 Jun 2027 06:11:06.776   06 Jun 2027 06:11:38.661            31.885              Murmansk1           790.000
       164   06 Jun 2027 06:11:41.550   06 Jun 2027 06:12:22.213            40.663              Murmansk1          1444.500
       165   06 Jun 2027 06:12:28.097   06 Jun 2027 06:12:52.955            24.858                 Moscow          2942.000
       166   06 Jun 2027 06:12:55.797   06 Jun 2027 06:13:24.341            28.544                Novosib          1421.000
       167   06 Jun 2027 06:13:29.747   06 Jun 2027 06:14:00.011            30.264                Norilsk          2703.000
       168   06 Jun 2027 06:14:04.337   06 Jun 2027 06:14:34.893            30.556                 Moscow          2163.000
       169   06 Jun 2027 06:14:35.402   06 Jun 2027 06:14:46.006            10.604                Norilsk           254.500
       170   06 Jun 2027 06:14:47.142   06 Jun 2027 06:14:53.241             6.099              Murmansk1           568.000
       171   06 Jun 2027 06:14:54.878   06 Jun 2027 06:15:03.696             8.818                 Moscow           818.500
       172   06 Jun 2027 06:15:09.562   06 Jun 2027 06:15:52.892            43.330                Norilsk          2933.000
       173   06 Jun 2027 07:46:56.849   06 Jun 2027 07:47:23.190            26.341                 Moscow           194.500
       174   06 Jun 2027 07:47:27.211   06 Jun 2027 07:48:20.785            53.574              Murmansk2          2010.500
       175   06 Jun 2027 07:48:25.981   06 Jun 2027 07:48:53.333            27.352              Murmansk2          2598.000
       176   06 Jun 2027 07:48:55.353   06 Jun 2027 07:49:55.657            60.304                 Moscow          1010.000
       177   06 Jun 2027 07:50:02.405   06 Jun 2027 07:50:15.802            13.397                 Moscow          1674.625
       178   06 Jun 2027 07:50:16.261   06 Jun 2027 07:50:39.737            23.476              Murmansk1          1928.875
       179   06 Jun 2027 07:50:40.138   06 Jun 2027 07:51:06.484            26.346                Norilsk           200.500
       180   06 Jun 2027 07:51:10.424   06 Jun 2027 07:51:57.345            46.921              Murmansk1          1573.000
       181   06 Jun 2027 07:52:03.514   06 Jun 2027 07:52:41.173            37.659                Norilsk          3084.500
       182   07 Jun 2027 03:08:27.919   07 Jun 2027 03:09:06.544            38.625               Magadan2          1156.500
       183   07 Jun 2027 03:09:07.712   07 Jun 2027 03:09:24.900            17.188                Norilsk           584.000
       184   07 Jun 2027 03:09:33.032   07 Jun 2027 03:10:00.244            27.212                Novosib          3401.500
       185   07 Jun 2027 03:10:03.038   07 Jun 2027 03:10:22.751            19.713               Magadan1          2061.500
       186   07 Jun 2027 03:10:35.199   07 Jun 2027 03:11:32.542            57.343                Irkutsk          6224.000
       187   07 Jun 2027 03:11:38.370   07 Jun 2027 03:12:02.888            24.518               Magadan2          2914.000
       188   07 Jun 2027 03:12:08.202   07 Jun 2027 03:12:42.113            33.911               Magadan1          2657.000
       189   07 Jun 2027 03:12:45.319   07 Jun 2027 03:12:45.559             0.240                Novosib            30.000
       190   07 Jun 2027 03:12:49.856   07 Jun 2027 03:13:40.312            50.456               Magadan1          3721.500
       191   07 Jun 2027 03:13:41.026   07 Jun 2027 03:13:55.956            14.930               Magadan2           357.000
       192   07 Jun 2027 03:14:00.211   07 Jun 2027 03:14:18.063            17.852                Irkutsk          2127.500
       193   07 Jun 2027 03:14:21.094   07 Jun 2027 03:14:43.650            22.556                Norilsk          1515.500
       194   07 Jun 2027 03:14:50.410   07 Jun 2027 03:15:12.874            22.464                Norilsk          2808.000
       195   07 Jun 2027 03:15:14.462   07 Jun 2027 03:15:32.075            17.613              Murmansk2          1366.000
       196   07 Jun 2027 03:15:40.999   07 Jun 2027 03:15:54.065            13.066                Irkutsk          1633.250
       197   07 Jun 2027 03:15:56.851   07 Jun 2027 03:16:12.077            15.226                Novosib          1903.250
       198   07 Jun 2027 03:16:20.308   07 Jun 2027 03:16:51.716            31.408              Murmansk1          2318.500
       199   07 Jun 2027 04:45:17.572   07 Jun 2027 04:45:57.764            40.192                Norilsk          1170.000
       200   07 Jun 2027 04:46:12.522   07 Jun 2027 04:47:16.820            64.298                Norilsk          7379.000
       201   07 Jun 2027 04:47:18.264   07 Jun 2027 04:47:23.066             4.802                Norilsk           600.250
       202   07 Jun 2027 04:47:25.851   07 Jun 2027 04:48:26.798            60.947                Novosib          1514.250
       203   07 Jun 2027 04:48:33.544   07 Jun 2027 04:48:45.294            11.750                Novosib          1468.750
       204   07 Jun 2027 04:48:48.171   07 Jun 2027 04:49:09.215            21.044                Norilsk          2630.500
       205   07 Jun 2027 04:49:23.327   07 Jun 2027 04:50:36.013            72.686              Murmansk2          7768.250
       206   07 Jun 2027 04:50:59.969   07 Jun 2027 04:52:44.288           104.319              Murmansk2         11978.000
       207   07 Jun 2027 06:23:30.225   07 Jun 2027 06:24:34.870            64.645              Murmansk1          1404.000
       208   07 Jun 2027 06:24:39.367   07 Jun 2027 06:24:59.737            20.370                Novosib          2248.500
       209   07 Jun 2027 06:25:06.958   07 Jun 2027 06:25:45.167            38.209              Murmansk1          3610.500
       210   07 Jun 2027 06:25:52.491   07 Jun 2027 06:26:19.677            27.186                Norilsk          3398.250
       211   07 Jun 2027 06:26:21.261   07 Jun 2027 06:26:46.637            25.376                Novosib          1055.750
       212   07 Jun 2027 06:26:47.127   07 Jun 2027 06:27:01.515            14.388              Murmansk2           245.000
       213   07 Jun 2027 06:27:06.219   07 Jun 2027 06:27:10.051             3.832                Norilsk           479.000
       214   07 Jun 2027 06:27:12.486   07 Jun 2027 06:28:08.272            55.786              Murmansk1          3090.500
       215   07 Jun 2027 07:56:53.571   07 Jun 2027 07:57:23.740            30.169                 Moscow          3771.125
       216   07 Jun 2027 07:57:30.048   07 Jun 2027 07:58:17.906            47.858                Novosib          3564.375
       217   07 Jun 2027 07:58:23.828   07 Jun 2027 07:58:42.418            18.590              Murmansk1          1999.000
       218   07 Jun 2027 07:58:49.335   07 Jun 2027 07:59:46.984            57.649                Novosib          3458.500
       219   07 Jun 2027 07:59:52.811   07 Jun 2027 08:00:57.756            64.945                Novosib          2913.500
       220   07 Jun 2027 08:00:59.914   07 Jun 2027 08:01:56.058            56.144                Norilsk          1079.000
       221   07 Jun 2027 08:02:04.466   07 Jun 2027 08:02:41.278            36.812                 Moscow          4204.000
       222   07 Jun 2027 08:02:41.549   07 Jun 2027 08:03:20.618            39.069                Norilsk           135.500
       223   07 Jun 2027 08:03:33.051   07 Jun 2027 08:04:04.326            31.275                Norilsk          3909.375
       224   07 Jun 2027 08:04:21.066   07 Jun 2027 08:05:06.023            44.957                 Moscow          5619.625
       225   07 Jun 2027 08:05:08.531   07 Jun 2027 08:05:40.228            31.697              Murmansk1          3128.001
       226   08 Jun 2027 03:20:33.846   08 Jun 2027 03:20:56.662            22.816                Novosib            96.000
       227   08 Jun 2027 03:21:00.990   08 Jun 2027 03:21:36.116            35.126                Novosib          2164.000
       228   08 Jun 2027 03:21:44.213   08 Jun 2027 03:22:34.897            50.684                Novosib          4048.500
       229   08 Jun 2027 03:22:44.816   08 Jun 2027 03:23:38.336            53.520                Novosib          4959.500
       230   08 Jun 2027 03:23:40.325   08 Jun 2027 03:23:49.865             9.540               Magadan1           994.500
       231   08 Jun 2027 03:23:51.664   08 Jun 2027 03:23:59.236             7.572               Magadan2           899.500
       232   08 Jun 2027 03:24:00.515   08 Jun 2027 03:24:24.774            24.259                Novosib           639.500
       233   08 Jun 2027 03:24:25.328   08 Jun 2027 03:24:34.573             9.245               Magadan2           277.000
       234   08 Jun 2027 03:24:37.665   08 Jun 2027 03:25:29.362            51.697                Novosib          1546.000
       235   08 Jun 2027 03:25:34.850   08 Jun 2027 03:25:58.018            23.168               Magadan2          2744.000
       236   08 Jun 2027 03:25:58.019   08 Jun 2027 03:26:34.713            36.694              Murmansk2             0.500
       237   08 Jun 2027 03:26:39.240   08 Jun 2027 03:27:16.402            37.162                Novosib          2263.500
       238   08 Jun 2027 03:27:18.494   08 Jun 2027 03:27:35.635            17.141                Novosib          1046.000
       239   08 Jun 2027 03:27:49.717   08 Jun 2027 03:27:58.246             8.529                Irkutsk          1066.125
       240   08 Jun 2027 03:28:00.218   08 Jun 2027 03:29:10.929            70.711                Novosib          5974.875
       241   08 Jun 2027 04:57:48.105   08 Jun 2027 04:59:19.942            91.837                Norilsk          8190.500
       242   08 Jun 2027 04:59:27.806   08 Jun 2027 05:00:23.263            55.457                Irkutsk          3932.000
       243   08 Jun 2027 05:00:32.269   08 Jun 2027 05:01:35.539            63.270                Novosib          4503.000
       244   08 Jun 2027 05:01:38.760   08 Jun 2027 05:02:32.697            53.937              Murmansk2          1610.500
       245   08 Jun 2027 05:02:36.367   08 Jun 2027 05:02:49.898            13.531              Murmansk2          1691.375
       246   08 Jun 2027 05:02:49.898   08 Jun 2027 05:03:09.061            19.163              Murmansk1           143.625
       247   08 Jun 2027 05:03:29.919   08 Jun 2027 05:04:44.832            74.913              Murmansk2          8036.000
       248   08 Jun 2027 06:35:27.962   08 Jun 2027 06:35:49.089            21.127                Novosib           403.000
       249   08 Jun 2027 06:35:53.001   08 Jun 2027 06:36:54.265            61.264                 Moscow          1956.000
       250   08 Jun 2027 06:36:54.581   08 Jun 2027 06:37:14.251            19.670                 Moscow           158.000
       251   08 Jun 2027 06:37:18.768   08 Jun 2027 06:37:45.640            26.872                Norilsk          2258.500
       252   08 Jun 2027 06:37:48.776   08 Jun 2027 06:38:04.438            15.662                 Moscow          1568.000
       253   08 Jun 2027 06:38:13.908   08 Jun 2027 06:39:03.614            49.706                 Moscow          4735.000
       254   08 Jun 2027 06:39:03.883   08 Jun 2027 06:39:45.099            41.216              Murmansk1           134.500
       255   08 Jun 2027 08:09:21.471   08 Jun 2027 08:09:21.904             0.433                 Moscow            54.125
       256   08 Jun 2027 08:09:26.265   08 Jun 2027 08:13:05.724           219.459                 Moscow         19372.375
       257   08 Jun 2027 08:13:09.233   08 Jun 2027 08:13:22.936            13.703                Norilsk          1712.875
       258   08 Jun 2027 08:13:32.567   08 Jun 2027 08:14:15.568            43.001              Murmansk1          4857.125
       259   08 Jun 2027 08:14:16.980   08 Jun 2027 08:14:52.085            35.105                 Moscow           706.000
       260   08 Jun 2027 08:15:10.327   08 Jun 2027 08:16:43.742            93.415                 Moscow          8034.500
       261   09 Jun 2027 03:32:42.411   09 Jun 2027 03:33:36.011            53.600                Norilsk          3403.000
       262   09 Jun 2027 03:33:39.712   09 Jun 2027 03:33:58.720            19.008                Novosib          1850.500
       263   09 Jun 2027 03:33:59.701   09 Jun 2027 03:34:38.768            39.067               Magadan2           490.500
       264   09 Jun 2027 03:34:39.564   09 Jun 2027 03:34:57.123            17.559                Norilsk           398.000
       265   09 Jun 2027 03:34:59.022   09 Jun 2027 03:35:24.409            25.387                Novosib           949.500
       266   09 Jun 2027 03:35:26.515   09 Jun 2027 03:35:51.871            25.356                Norilsk          1053.000
       267   09 Jun 2027 03:35:52.738   09 Jun 2027 03:35:58.408             5.670               Magadan2           433.500
       268   09 Jun 2027 03:36:10.065   09 Jun 2027 03:37:08.720            58.655                Novosib          5828.500
       269   09 Jun 2027 03:37:18.809   09 Jun 2027 03:38:38.777            79.968                Norilsk          5044.500
       270   09 Jun 2027 03:38:41.880   09 Jun 2027 03:39:17.811            35.931              Murmansk2          1551.500
       271   09 Jun 2027 03:39:21.285   09 Jun 2027 03:39:44.367            23.082                Novosib          1737.000
       272   09 Jun 2027 03:39:44.811   09 Jun 2027 03:39:59.762            14.951                Irkutsk           222.000
       273   09 Jun 2027 03:40:04.826   09 Jun 2027 03:40:39.236            34.410                Novosib           909.000
       274   09 Jun 2027 05:09:32.225   09 Jun 2027 05:10:22.242            50.017                Irkutsk          5400.000
       275   09 Jun 2027 05:10:26.259   09 Jun 2027 05:11:12.316            46.057                Irkutsk          2008.500
       276   09 Jun 2027 05:11:21.718   09 Jun 2027 05:12:19.476            57.758                Norilsk          4701.000
       277   09 Jun 2027 05:12:21.007   09 Jun 2027 05:12:47.963            26.956                Norilsk           765.500
       278   09 Jun 2027 05:12:49.479   09 Jun 2027 05:13:31.928            42.449                Norilsk           758.000
       279   09 Jun 2027 05:13:33.255   09 Jun 2027 05:13:44.330            11.075                 Moscow           663.500
       280   09 Jun 2027 05:13:47.781   09 Jun 2027 05:14:07.653            19.872                Norilsk          1725.500
       281   09 Jun 2027 05:14:14.770   09 Jun 2027 05:14:48.523            33.753                 Moscow          3558.500
       282   09 Jun 2027 05:14:51.278   09 Jun 2027 05:15:54.315            63.037                 Moscow          1377.500
       283   09 Jun 2027 05:15:59.248   09 Jun 2027 05:16:45.551            46.303                 Moscow          2466.500
       284   09 Jun 2027 06:47:30.042   09 Jun 2027 06:48:02.330            32.288                Norilsk          1828.500
       285   09 Jun 2027 06:48:07.692   09 Jun 2027 06:48:29.185            21.493                Norilsk          2681.000
       286   09 Jun 2027 06:48:29.752   09 Jun 2027 06:48:54.603            24.851              Murmansk1           283.500
       287   09 Jun 2027 06:48:56.403   09 Jun 2027 06:49:21.580            25.177                 Moscow           900.000
       288   09 Jun 2027 06:49:21.629   09 Jun 2027 06:49:47.511            25.882                 Moscow            24.500
       289   09 Jun 2027 06:49:54.226   09 Jun 2027 06:51:08.727            74.501                 Moscow          3357.500
       290   09 Jun 2027 06:51:18.289   09 Jun 2027 06:52:05.095            46.806                Norilsk          4781.000
       291   09 Jun 2027 08:21:26.693   09 Jun 2027 08:22:37.135            70.442                 Moscow          6650.000
       292   09 Jun 2027 08:22:39.482   09 Jun 2027 08:23:03.724            24.242                 Moscow          1173.500
       293   09 Jun 2027 08:23:04.690   09 Jun 2027 08:23:27.830            23.140              Murmansk2           483.000
       294   09 Jun 2027 08:23:48.071   09 Jun 2027 08:25:11.728            83.657                 Moscow         10120.500
       295   09 Jun 2027 08:25:30.073   09 Jun 2027 08:27:15.229           105.156                Norilsk          9172.500
       296   09 Jun 2027 08:27:16.564   09 Jun 2027 08:27:29.799            13.235                Norilsk           667.500
       297   09 Jun 2027 08:27:36.759   09 Jun 2027 08:28:27.404            50.645              Murmansk2          3480.000
       298   10 Jun 2027 03:44:42.774   10 Jun 2027 03:45:57.042            74.268                Irkutsk          3290.000
       299   10 Jun 2027 03:45:59.993   10 Jun 2027 03:46:37.754            37.761               Magadan1          1475.500
       300   10 Jun 2027 03:46:40.832   10 Jun 2027 03:47:10.177            29.345                Irkutsk          1539.000
       301   10 Jun 2027 03:47:12.321   10 Jun 2027 03:47:26.361            14.040                Novosib          1072.000
       302   10 Jun 2027 03:47:33.019   10 Jun 2027 03:48:16.821            43.802               Magadan2          3329.000
       303   10 Jun 2027 03:48:18.363   10 Jun 2027 03:48:37.148            18.785                Novosib           771.000
       304   10 Jun 2027 03:48:40.744   10 Jun 2027 03:48:56.050            15.306                Norilsk          1798.000
       305   10 Jun 2027 03:48:56.104   10 Jun 2027 03:49:18.634            22.530                Norilsk            27.000
       306   10 Jun 2027 03:49:20.341   10 Jun 2027 03:49:46.449            26.108                Norilsk           853.500
       307   10 Jun 2027 03:49:53.107   10 Jun 2027 03:50:36.792            43.685              Murmansk2          3329.000
       308   10 Jun 2027 03:50:38.483   10 Jun 2027 03:50:47.368             8.885              Murmansk1           845.500
       309   10 Jun 2027 03:50:56.399   10 Jun 2027 03:51:43.577            47.178                Novosib          4515.500
       310   10 Jun 2027 03:51:53.087   10 Jun 2027 03:52:04.345            11.258                Irkutsk          1407.250
       311   10 Jun 2027 03:52:07.625   10 Jun 2027 03:52:36.900            29.275                Norilsk          3347.750
       312   10 Jun 2027 05:21:46.019   10 Jun 2027 05:23:13.811            87.792                Novosib          7946.000
       313   10 Jun 2027 05:23:15.680   10 Jun 2027 05:23:23.571             7.891                Norilsk           934.500
       314   10 Jun 2027 05:23:34.012   10 Jun 2027 05:24:20.031            46.019                Norilsk          5220.500
       315   10 Jun 2027 05:24:25.364   10 Jun 2027 05:24:59.701            34.337                 Moscow          2666.500
       316   10 Jun 2027 05:25:05.339   10 Jun 2027 05:25:32.803            27.464              Murmansk2          2819.000
       317   10 Jun 2027 05:25:42.511   10 Jun 2027 05:26:22.368            39.857              Murmansk2          4854.000
       318   10 Jun 2027 05:26:24.729   10 Jun 2027 05:27:00.787            36.058                 Moscow          1180.500
       319   10 Jun 2027 05:27:03.495   10 Jun 2027 05:27:14.783            11.288                 Moscow          1354.000
       320   10 Jun 2027 05:27:14.998   10 Jun 2027 05:27:34.548            19.550              Murmansk1           107.500
       321   10 Jun 2027 05:27:41.968   10 Jun 2027 05:28:16.368            34.400                Novosib          3710.000
       322   10 Jun 2027 06:58:59.971   10 Jun 2027 07:00:48.234           108.263              Murmansk2         10302.500
       323   10 Jun 2027 07:00:49.119   10 Jun 2027 07:01:18.500            29.381                Norilsk           442.500
       324   10 Jun 2027 07:01:19.450   10 Jun 2027 07:01:34.113            14.663              Murmansk2           475.000
       325   10 Jun 2027 07:01:41.302   10 Jun 2027 07:02:21.528            40.226                 Moscow          3594.500
       326   10 Jun 2027 07:02:25.586   10 Jun 2027 07:02:42.529            16.943                Novosib          2029.000
       327   10 Jun 2027 07:02:48.921   10 Jun 2027 07:03:24.582            35.661              Murmansk1          3196.000
       328   10 Jun 2027 07:03:27.449   10 Jun 2027 07:03:59.244            31.795                Novosib          1433.500
       329   10 Jun 2027 08:33:29.712   10 Jun 2027 08:33:30.813             1.101                 Moscow           137.625
       330   10 Jun 2027 08:33:31.391   10 Jun 2027 08:33:41.821            10.430                 Moscow           599.875
       331   10 Jun 2027 08:33:56.330   10 Jun 2027 08:35:26.209            89.879              Murmansk1          7254.500
       332   10 Jun 2027 08:35:26.771   10 Jun 2027 08:35:58.800            32.029                 Moscow           281.000
       333   10 Jun 2027 08:36:08.731   10 Jun 2027 08:37:18.345            69.614                 Moscow          4965.500
       334   10 Jun 2027 08:37:32.387   10 Jun 2027 08:38:08.981            36.594                 Moscow          4574.250
       335   10 Jun 2027 08:38:13.252   10 Jun 2027 08:38:55.595            42.343              Murmansk2          4582.250
       336   11 Jun 2027 03:57:03.011   11 Jun 2027 03:57:07.151             4.140                Norilsk           517.500
       337   11 Jun 2027 03:57:31.816   11 Jun 2027 03:59:14.927           103.111                Irkutsk         12690.500
       338   11 Jun 2027 03:59:16.875   11 Jun 2027 04:00:03.361            46.486                Irkutsk           974.000
       339   11 Jun 2027 04:00:07.665   11 Jun 2027 04:00:25.706            18.041                Novosib          2152.000
       340   11 Jun 2027 04:00:31.293   11 Jun 2027 04:01:07.062            35.769               Magadan1          2793.500
       341   11 Jun 2027 04:01:09.857   11 Jun 2027 04:01:35.064            25.207                Norilsk          1397.500
       342   11 Jun 2027 04:01:35.726   11 Jun 2027 04:01:41.569             5.843              Murmansk1           331.000
       343   11 Jun 2027 04:01:45.075   11 Jun 2027 04:02:42.551            57.476                Novosib          1753.000
       344   11 Jun 2027 04:02:51.224   11 Jun 2027 04:03:37.501            46.277              Murmansk1          4336.500
       345   11 Jun 2027 04:03:42.300   11 Jun 2027 04:04:00.273            17.973                Irkutsk          2246.625
       346   11 Jun 2027 04:04:00.536   11 Jun 2027 04:04:35.465            34.929              Murmansk2           152.875
       347   11 Jun 2027 05:34:30.758   11 Jun 2027 05:36:43.971           133.213                Novosib         16399.500
       348   11 Jun 2027 05:36:47.931   11 Jun 2027 05:37:10.705            22.774                Novosib          1980.000
       349   11 Jun 2027 05:37:14.635   11 Jun 2027 05:37:55.130            40.495                 Moscow          1965.000
       350   11 Jun 2027 05:37:56.388   11 Jun 2027 05:38:01.861             5.473                Norilsk           629.000
       351   11 Jun 2027 05:38:12.340   11 Jun 2027 05:39:06.689            54.349                Irkutsk          5239.500
       352   11 Jun 2027 05:39:08.760   11 Jun 2027 05:39:35.360            26.600                Novosib          1035.500
       353   11 Jun 2027 05:39:36.467   11 Jun 2027 05:40:08.294            31.827              Murmansk2           553.500
       354   11 Jun 2027 07:11:08.432   11 Jun 2027 07:12:34.040            85.608                Novosib          8221.500
       355   11 Jun 2027 07:12:35.727   11 Jun 2027 07:13:05.911            30.184              Murmansk1           843.500
       356   11 Jun 2027 07:13:07.311   11 Jun 2027 07:13:19.005            11.694              Murmansk2           700.000
       357   11 Jun 2027 07:13:26.412   11 Jun 2027 07:14:04.727            38.315                Norilsk          3703.500
       358   11 Jun 2027 07:14:15.085   11 Jun 2027 07:14:58.092            43.007                Norilsk          5179.000
       359   11 Jun 2027 07:15:04.480   11 Jun 2027 07:15:46.639            42.159                Novosib          3194.000
       360   11 Jun 2027 08:48:11.539   11 Jun 2027 08:48:57.600            46.061                 Moscow          4775.500
       361   11 Jun 2027 08:49:00.459   11 Jun 2027 08:49:12.431            11.972              Murmansk1          1429.500
       362   11 Jun 2027 08:49:25.568   11 Jun 2027 08:51:07.565           101.997              Murmansk1          6568.500
       363   12 Jun 2027 04:09:37.032   12 Jun 2027 04:11:28.923           111.891                Norilsk         13986.375
       364   12 Jun 2027 04:11:31.954   12 Jun 2027 04:11:42.457            10.503                Novosib          1312.875
       365   12 Jun 2027 04:11:47.558   12 Jun 2027 04:12:28.265            40.707                Norilsk          3091.750
       366   12 Jun 2027 04:12:32.273   12 Jun 2027 04:12:50.355            18.082                Novosib          2004.000
       367   12 Jun 2027 04:12:54.448   12 Jun 2027 04:13:51.443            56.995                Novosib          2046.500
       368   12 Jun 2027 04:13:52.248   12 Jun 2027 04:14:13.089            20.841              Murmansk1           402.500
       369   12 Jun 2027 04:14:15.153   12 Jun 2027 04:14:53.524            38.371              Murmansk1          1032.000
       370   12 Jun 2027 04:15:02.498   12 Jun 2027 04:15:47.408            44.910                Novosib          4487.000
       371   12 Jun 2027 04:15:48.294   12 Jun 2027 04:16:06.734            18.440              Murmansk2           443.000
       372   12 Jun 2027 05:46:34.981   12 Jun 2027 05:47:05.575            30.594                Irkutsk          2761.500
       373   12 Jun 2027 05:47:13.568   12 Jun 2027 05:47:19.641             6.073                Norilsk           759.125
       374   12 Jun 2027 05:47:22.633   12 Jun 2027 05:48:06.913            44.280                Novosib          4733.375
       375   12 Jun 2027 05:48:10.527   12 Jun 2027 05:49:05.703            55.176              Murmansk1          1807.000
       376   12 Jun 2027 05:49:06.513   12 Jun 2027 05:49:26.807            20.294              Murmansk1           405.000
       377   12 Jun 2027 05:49:28.274   12 Jun 2027 05:50:07.669            39.395                 Moscow           733.500
       378   12 Jun 2027 05:50:08.358   12 Jun 2027 05:50:19.700            11.342                Norilsk           344.500
       379   12 Jun 2027 05:50:25.617   12 Jun 2027 05:51:06.266            40.649                Irkutsk          2958.500
       380   12 Jun 2027 05:51:10.566   12 Jun 2027 05:51:38.278            27.712              Murmansk2          2150.000
       381   12 Jun 2027 07:23:06.966   12 Jun 2027 07:24:04.268            57.302              Murmansk2          6643.500
       382   12 Jun 2027 07:24:12.013   12 Jun 2027 07:25:19.444            67.431                Norilsk          3872.500
       383   12 Jun 2027 07:25:29.629   12 Jun 2027 07:26:36.925            67.296              Murmansk2          5092.500
       384   12 Jun 2027 07:26:43.587   12 Jun 2027 07:27:59.094            75.507                Novosib          3331.000
       385   12 Jun 2027 07:28:02.820   12 Jun 2027 07:28:28.979            26.159                 Moscow           169.500
       386   12 Jun 2027 09:01:13.253   12 Jun 2027 09:01:31.024            17.771              Murmansk2          1600.000
       387   12 Jun 2027 09:01:32.644   12 Jun 2027 09:01:54.667            22.023              Murmansk1           810.000
       388   13 Jun 2027 04:21:59.091   13 Jun 2027 04:23:19.183            80.092                Novosib          8514.500
       389   13 Jun 2027 04:23:22.127   13 Jun 2027 04:23:35.494            13.367                Irkutsk          1472.000
       390   13 Jun 2027 04:23:39.540   13 Jun 2027 04:23:46.950             7.410                Norilsk           926.250
       391   13 Jun 2027 04:23:49.680   13 Jun 2027 04:24:19.891            30.211                Novosib          2461.750
       392   13 Jun 2027 04:24:20.625   13 Jun 2027 04:24:44.080            23.455                Norilsk           367.000
       393   13 Jun 2027 04:24:47.738   13 Jun 2027 04:25:06.745            19.007                Norilsk          1829.000
       394   13 Jun 2027 04:25:06.887   13 Jun 2027 04:25:27.587            20.700                Novosib            71.000
       395   13 Jun 2027 04:25:35.447   13 Jun 2027 04:26:09.542            34.095              Murmansk1          3930.000
       396   13 Jun 2027 04:26:13.904   13 Jun 2027 04:26:41.862            27.958              Murmansk1          2181.000
       397   13 Jun 2027 04:26:54.309   13 Jun 2027 04:27:22.934            28.625              Murmansk2          3578.125
       398   13 Jun 2027 04:27:22.934   13 Jun 2027 04:28:21.678            58.744              Murmansk1          2645.375
       399   13 Jun 2027 05:59:05.896   13 Jun 2027 05:59:15.676             9.780              Murmansk2           435.500
       400   13 Jun 2027 05:59:18.070   13 Jun 2027 05:59:54.060            35.990              Murmansk1          1197.000
       401   13 Jun 2027 06:00:02.765   13 Jun 2027 06:01:04.132            61.367                 Moscow          4352.500
       402   13 Jun 2027 06:01:04.952   13 Jun 2027 06:01:24.641            19.689              Murmansk2           410.000
       403   13 Jun 2027 06:01:30.331   13 Jun 2027 06:01:57.019            26.688                Norilsk          2845.000
       404   13 Jun 2027 06:01:58.730   13 Jun 2027 06:02:10.405            11.675              Murmansk2           855.500
       405   13 Jun 2027 06:02:13.845   13 Jun 2027 06:02:35.926            22.081                 Moscow          1720.000
       406   13 Jun 2027 06:02:37.527   13 Jun 2027 06:03:14.848            37.321              Murmansk2           800.500
       407   13 Jun 2027 06:03:15.278   13 Jun 2027 06:03:46.364            31.086              Murmansk2           215.000
       408   13 Jun 2027 07:35:25.364   13 Jun 2027 07:36:13.709            48.345                Norilsk          4858.000
       409   13 Jun 2027 07:36:24.527   13 Jun 2027 07:37:12.866            48.339                Novosib          5409.000
       410   13 Jun 2027 07:37:13.477   13 Jun 2027 07:37:28.123            14.646              Murmansk1           305.500
       411   13 Jun 2027 07:37:45.160   13 Jun 2027 07:38:56.710            71.550                Norilsk          8518.500
       412   13 Jun 2027 07:38:57.248   13 Jun 2027 07:39:06.186             8.938                Norilsk           269.000
       413   13 Jun 2027 07:39:08.550   13 Jun 2027 07:39:25.459            16.909              Murmansk2          1182.000
       414   13 Jun 2027 07:39:28.109   13 Jun 2027 07:40:20.110            52.001              Murmansk2          1325.000
