uniorb/output/strategy_2/Drop/Drop_KinoSat_110503.txt

KinoSat_110503
-------------------------
    Access    *     Start Time (UTCG)     *     Stop Time (UTCG)  *   Duration (s)        *       Station  *  Data (Mbytes)
         1   01 Jun 2027 04:04:15.603   01 Jun 2027 04:04:47.740            32.137               Magadan1          2829.500
         2   01 Jun 2027 04:04:49.316   01 Jun 2027 04:05:18.224            28.908               Magadan1           788.000
         3   01 Jun 2027 04:06:14.357   01 Jun 2027 04:10:02.973           228.616               Magadan2         28066.500
         4   01 Jun 2027 04:10:10.353   01 Jun 2027 04:10:37.904            27.551                Novosib          3443.875
         5   01 Jun 2027 04:10:42.595   01 Jun 2027 04:11:30.003            47.408               Magadan2          2591.625
         6   01 Jun 2027 04:11:37.005   01 Jun 2027 04:12:03.810            26.805               Magadan1          3350.625
         7   01 Jun 2027 04:12:03.810   01 Jun 2027 04:12:09.803             5.993               Magadan2           150.375
         8   01 Jun 2027 04:12:19.489   01 Jun 2027 04:13:05.682            46.193               Magadan2          4843.000
         9   01 Jun 2027 04:13:07.901   01 Jun 2027 04:13:31.568            23.667               Magadan1          1109.500
        10   01 Jun 2027 04:13:34.203   01 Jun 2027 04:13:53.393            19.190              Murmansk1          1317.500
        11   01 Jun 2027 05:42:36.234   01 Jun 2027 05:43:19.332            43.098                Irkutsk          5387.250
        12   01 Jun 2027 05:43:20.757   01 Jun 2027 05:44:15.401            54.644               Magadan1          3417.250
        13   01 Jun 2027 05:44:16.270   01 Jun 2027 05:44:21.292             5.022               Magadan1           434.500
        14   01 Jun 2027 05:44:42.113   01 Jun 2027 05:46:09.922            87.809               Magadan2         10410.500
        15   01 Jun 2027 05:46:16.545   01 Jun 2027 05:46:47.817            31.272               Magadan1          3311.500
        16   01 Jun 2027 05:47:03.203   01 Jun 2027 05:48:11.564            68.361                Norilsk          7693.000
        17   01 Jun 2027 05:48:19.342   01 Jun 2027 05:49:10.108            50.766              Murmansk1          3889.000
        18   01 Jun 2027 05:49:11.975   01 Jun 2027 05:49:28.339            16.364              Murmansk1           933.500
        19   01 Jun 2027 05:49:52.216   01 Jun 2027 05:51:01.306            69.090              Murmansk2          6463.000
        20   01 Jun 2027 07:19:22.045   01 Jun 2027 07:20:22.385            60.340                Novosib          3624.000
        21   01 Jun 2027 07:20:27.338   01 Jun 2027 07:20:51.839            24.501                Norilsk          2476.500
        22   01 Jun 2027 07:21:05.978   01 Jun 2027 07:22:13.040            67.062                Norilsk          7069.500
        23   01 Jun 2027 07:22:13.162   01 Jun 2027 07:22:49.137            35.975                Novosib            61.000
        24   01 Jun 2027 07:23:04.434   01 Jun 2027 07:23:54.480            50.046                Norilsk          6255.750
        25   01 Jun 2027 07:23:57.015   01 Jun 2027 07:24:27.515            30.500                Novosib          2660.250
        26   01 Jun 2027 07:24:39.211   01 Jun 2027 07:25:29.498            50.287                Novosib          4701.000
        27   01 Jun 2027 07:25:32.641   01 Jun 2027 07:26:00.473            27.832                Novosib          1571.500
        28   01 Jun 2027 08:56:24.667   01 Jun 2027 08:56:30.151             5.484                 Moscow           685.500
        29   01 Jun 2027 08:56:30.188   01 Jun 2027 08:56:51.793            21.605                Norilsk          1061.500
        30   01 Jun 2027 08:56:53.882   01 Jun 2027 08:57:16.243            22.361                Novosib          1044.500
        31   01 Jun 2027 08:57:20.276   01 Jun 2027 08:58:07.235            46.959                 Moscow          2016.500
        32   01 Jun 2027 08:58:19.551   01 Jun 2027 08:59:41.532            81.981              Murmansk2          6158.000
        33   01 Jun 2027 08:59:53.702   01 Jun 2027 09:01:20.854            87.152              Murmansk1          6085.000
        34   01 Jun 2027 10:31:22.600   01 Jun 2027 10:31:46.272            23.672              Murmansk1          1275.000
        35   01 Jun 2027 10:31:51.106   01 Jun 2027 10:32:21.443            30.337              Murmansk2          2417.000
        36   01 Jun 2027 10:33:08.506   01 Jun 2027 10:33:39.505            30.999              Murmansk2          2528.000
        37   01 Jun 2027 10:34:00.918   01 Jun 2027 10:35:34.905            93.987              Murmansk1         10706.500
        38   01 Jun 2027 10:35:38.415   01 Jun 2027 10:36:21.974            43.559                 Moscow          1755.000
        39   01 Jun 2027 10:36:30.413   01 Jun 2027 10:36:50.304            19.891              Murmansk2           668.500
        40   02 Jun 2027 04:17:19.052   02 Jun 2027 04:17:47.212            28.160               Magadan1          2589.500
        41   02 Jun 2027 04:18:05.064   02 Jun 2027 04:19:24.581            79.517               Magadan2          8926.000
        42   02 Jun 2027 04:19:43.544   02 Jun 2027 04:21:13.210            89.666                Irkutsk          9481.500
        43   02 Jun 2027 04:21:17.702   02 Jun 2027 04:21:36.781            19.079                Anadyr1          2246.000
        44   02 Jun 2027 04:21:37.523   02 Jun 2027 04:22:15.195            37.672                Irkutsk           371.000
        45   02 Jun 2027 04:22:19.414   02 Jun 2027 04:23:45.539            86.125                Novosib          2109.500
        46   02 Jun 2027 04:23:55.130   02 Jun 2027 04:24:41.171            46.041               Magadan1          4795.500
        47   02 Jun 2027 04:24:52.335   02 Jun 2027 04:25:38.857            46.522                Norilsk          5582.000
        48   02 Jun 2027 04:25:50.379   02 Jun 2027 04:26:47.010            56.631                Norilsk          3760.500
        49   02 Jun 2027 05:54:55.391   02 Jun 2027 05:55:20.318            24.927                Norilsk          3115.875
        50   02 Jun 2027 05:55:39.300   02 Jun 2027 05:57:12.782            93.482                Irkutsk         10977.625
        51   02 Jun 2027 05:57:19.736   02 Jun 2027 05:58:01.291            41.555                Irkutsk          3477.000
        52   02 Jun 2027 05:58:03.040   02 Jun 2027 05:58:13.378            10.338                Novosib           874.500
        53   02 Jun 2027 05:58:16.969   02 Jun 2027 05:58:34.128            17.159                Irkutsk          1795.500
        54   02 Jun 2027 05:58:52.566   02 Jun 2027 05:59:45.108            52.542                Norilsk          6567.750
        55   02 Jun 2027 05:59:49.339   02 Jun 2027 06:00:35.293            45.954              Murmansk2          4766.750
        56   02 Jun 2027 06:00:40.655   02 Jun 2027 06:01:03.450            22.795                Norilsk          2681.000
        57   02 Jun 2027 06:01:06.371   02 Jun 2027 06:01:32.900            26.529                Norilsk          1460.500
        58   02 Jun 2027 07:31:43.921   02 Jun 2027 07:32:03.450            19.529                  Delhi          1007.500
        59   02 Jun 2027 07:32:12.784   02 Jun 2027 07:33:07.847            55.063                Norilsk          4667.000
        60   02 Jun 2027 07:33:09.134   02 Jun 2027 07:33:27.347            18.213                Irkutsk           643.500
        61   02 Jun 2027 07:33:27.642   02 Jun 2027 07:33:58.955            31.313                Norilsk           147.500
        62   02 Jun 2027 07:34:01.321   02 Jun 2027 07:34:17.156            15.835              Murmansk2          1183.000
        63   02 Jun 2027 07:34:19.936   02 Jun 2027 07:34:31.937            12.001                Norilsk          1390.000
        64   02 Jun 2027 07:34:35.162   02 Jun 2027 07:34:56.801            21.639              Murmansk1          1612.500
        65   02 Jun 2027 07:35:00.379   02 Jun 2027 07:35:02.133             1.754                Norilsk           219.250
        66   02 Jun 2027 07:35:07.681   02 Jun 2027 07:35:46.378            38.697                Novosib          4343.750
        67   02 Jun 2027 07:35:46.834   02 Jun 2027 07:36:17.595            30.761                Irkutsk           228.000
        68   02 Jun 2027 07:36:20.241   02 Jun 2027 07:37:10.277            50.036                Norilsk          1323.000
        69   02 Jun 2027 07:37:14.675   02 Jun 2027 07:37:34.646            19.971                 Moscow          2199.000
        70   02 Jun 2027 09:08:36.941   02 Jun 2027 09:09:21.194            44.253                Novosib          1972.000
        71   02 Jun 2027 09:09:28.058   02 Jun 2027 09:09:51.715            23.657              Murmansk2          2957.125
        72   02 Jun 2027 09:09:51.715   02 Jun 2027 09:10:21.028            29.313              Murmansk1           474.875
        73   02 Jun 2027 09:10:24.096   02 Jun 2027 09:10:48.151            24.055              Murmansk1          1534.000
        74   02 Jun 2027 09:11:00.253   02 Jun 2027 09:11:54.963            54.710                Novosib          6051.000
        75   02 Jun 2027 09:11:57.966   02 Jun 2027 09:12:21.793            23.827              Murmansk1          1501.500
        76   02 Jun 2027 09:12:23.190   02 Jun 2027 09:12:29.845             6.655                Norilsk           698.500
        77   02 Jun 2027 09:12:33.474   02 Jun 2027 09:13:07.544            34.070                Novosib          1814.500
        78   02 Jun 2027 10:46:11.342   02 Jun 2027 10:46:42.814            31.472              Murmansk1          2675.000
        79   02 Jun 2027 10:46:52.841   02 Jun 2027 10:47:36.317            43.476                 Moscow          5013.500
        80   02 Jun 2027 10:48:08.182   02 Jun 2027 10:50:30.716           142.534                 Moscow         15932.500
        81   03 Jun 2027 04:30:04.516   03 Jun 2027 04:30:20.761            16.245                Irkutsk          2030.625
        82   03 Jun 2027 04:30:24.672   03 Jun 2027 04:31:26.067            61.395               Magadan1          5466.375
        83   03 Jun 2027 04:31:52.942   03 Jun 2027 04:32:25.825            32.883                Norilsk          4110.375
        84   03 Jun 2027 04:32:36.010   03 Jun 2027 04:35:12.195           156.185                Irkutsk         14419.625
        85   03 Jun 2027 04:35:15.001   03 Jun 2027 04:35:52.639            37.638               Magadan2          1403.000
        86   03 Jun 2027 04:35:56.643   03 Jun 2027 04:36:54.226            57.583                Irkutsk          2002.000
        87   03 Jun 2027 04:36:58.539   03 Jun 2027 04:37:03.194             4.655                Novosib           581.875
        88   03 Jun 2027 04:37:08.562   03 Jun 2027 04:38:37.100            88.538                Novosib          4258.625
        89   03 Jun 2027 06:07:06.165   03 Jun 2027 06:08:07.186            61.021                Novosib          7098.000
        90   03 Jun 2027 06:08:38.188   03 Jun 2027 06:10:53.739           135.551                Irkutsk         15501.000
        91   03 Jun 2027 06:10:54.536   03 Jun 2027 06:11:26.409            31.873              Murmansk1           398.500
        92   03 Jun 2027 06:11:35.258   03 Jun 2027 06:12:01.392            26.134                Irkutsk          3266.750
        93   03 Jun 2027 06:12:01.477   03 Jun 2027 06:12:29.197            27.720                Norilsk          1200.250
        94   03 Jun 2027 06:12:48.802   03 Jun 2027 06:14:14.294            85.492                Novosib          9802.500
        95   03 Jun 2027 07:44:34.318   03 Jun 2027 07:44:40.314             5.996                Norilsk           749.500
        96   03 Jun 2027 07:44:42.921   03 Jun 2027 07:45:38.804            55.883                 Moscow          2699.500
        97   03 Jun 2027 07:45:46.774   03 Jun 2027 07:46:27.889            41.115                Irkutsk          3985.000
        98   03 Jun 2027 07:46:28.882   03 Jun 2027 07:46:44.127            15.245              Murmansk2           496.500
        99   03 Jun 2027 07:46:52.055   03 Jun 2027 07:47:36.896            44.841                Norilsk          3964.000
       100   03 Jun 2027 07:47:37.233   03 Jun 2027 07:47:51.986            14.753                Irkutsk           168.500
       101   03 Jun 2027 07:47:52.552   03 Jun 2027 07:48:32.032            39.480              Murmansk1           283.000
       102   03 Jun 2027 07:48:45.783   03 Jun 2027 07:48:55.638             9.855                Irkutsk          1231.875
       103   03 Jun 2027 07:48:57.931   03 Jun 2027 07:50:14.279            76.348                Novosib          6790.125
       104   03 Jun 2027 09:20:38.855   03 Jun 2027 09:20:51.069            12.214                 Moscow          1246.000
       105   03 Jun 2027 09:20:51.619   03 Jun 2027 09:21:17.808            26.189              Murmansk2           275.000
       106   03 Jun 2027 09:21:25.641   03 Jun 2027 09:22:20.503            54.862                Novosib          3916.500
       107   03 Jun 2027 09:22:21.854   03 Jun 2027 09:22:28.817             6.963                Novosib           675.500
       108   03 Jun 2027 09:22:33.895   03 Jun 2027 09:22:42.852             8.957                 Moscow          1119.625
       109   03 Jun 2027 09:22:48.676   03 Jun 2027 09:23:32.851            44.175              Murmansk1          4331.375
       110   03 Jun 2027 09:23:41.268   03 Jun 2027 09:24:15.632            34.364              Murmansk1          4208.500
       111   03 Jun 2027 09:24:34.473   03 Jun 2027 09:25:52.732            78.259                Norilsk          9420.500
       112   03 Jun 2027 10:59:29.552   03 Jun 2027 11:00:25.708            56.156                 Moscow          1740.500
       113   04 Jun 2027 03:07:59.713   04 Jun 2027 03:08:18.803            19.090                Irkutsk          1844.500
       114   04 Jun 2027 03:08:18.827   04 Jun 2027 03:08:23.025             4.198               Magadan2            12.000
       115   04 Jun 2027 03:08:32.032   04 Jun 2027 03:09:38.688            66.656               Magadan1          4503.500
       116   04 Jun 2027 03:09:44.037   04 Jun 2027 03:10:07.772            23.735               Magadan1          2674.500
       117   04 Jun 2027 03:10:08.311   04 Jun 2027 03:10:30.737            22.426               Magadan1           269.500
       118   04 Jun 2027 03:10:32.730   04 Jun 2027 03:10:44.077            11.347                Norilsk           996.500
       119   04 Jun 2027 03:10:45.152   04 Jun 2027 03:11:08.875            23.723                Anadyr1           537.500
       120   04 Jun 2027 03:11:18.958   04 Jun 2027 03:11:54.052            35.094                Irkutsk          4386.750
       121   04 Jun 2027 03:11:56.419   04 Jun 2027 03:12:01.300             4.881               Magadan1           610.125
       122   04 Jun 2027 03:12:01.300   04 Jun 2027 03:12:11.291             9.991               Magadan2            44.625
       123   04 Jun 2027 04:43:07.991   04 Jun 2027 04:43:52.724            44.733                Norilsk           934.000
       124   04 Jun 2027 04:43:56.471   04 Jun 2027 04:44:19.975            23.504               Magadan2          1873.500
       125   04 Jun 2027 04:44:23.889   04 Jun 2027 04:44:50.224            26.335               Magadan2          1957.000
       126   04 Jun 2027 04:44:55.926   04 Jun 2027 04:46:11.629            75.703                Irkutsk          2851.000
       127   04 Jun 2027 04:46:11.792   04 Jun 2027 04:46:25.425            13.633               Magadan2            81.500
       128   04 Jun 2027 04:46:37.126   04 Jun 2027 04:47:10.075            32.949                Norilsk          4118.625
       129   04 Jun 2027 04:47:31.787   04 Jun 2027 04:48:29.202            57.415                Norilsk          7176.875
       130   04 Jun 2027 04:48:32.071   04 Jun 2027 04:49:33.293            61.222               Magadan2          6845.500
       131   04 Jun 2027 04:49:36.650   04 Jun 2027 04:49:40.042             3.392                Norilsk           424.000
       132   04 Jun 2027 04:49:43.478   04 Jun 2027 04:50:46.714            63.236                Novosib          2682.000
       133   04 Jun 2027 06:19:38.720   04 Jun 2027 06:19:51.617            12.897                Norilsk          1612.125
       134   04 Jun 2027 06:20:26.966   04 Jun 2027 06:23:49.305           202.339                Irkutsk         21366.875
       135   04 Jun 2027 06:23:49.924   04 Jun 2027 06:24:17.835            27.911                Norilsk           309.500
       136   04 Jun 2027 06:24:19.051   04 Jun 2027 06:24:45.259            26.208              Murmansk2           608.000
       137   04 Jun 2027 06:24:46.762   04 Jun 2027 06:25:38.481            51.719                Novosib           751.500
       138   04 Jun 2027 06:25:42.081   04 Jun 2027 06:26:23.996            41.915                Norilsk          1691.000
       139   04 Jun 2027 07:56:57.670   04 Jun 2027 07:57:55.369            57.699                Novosib          5665.500
       140   04 Jun 2027 07:57:57.642   04 Jun 2027 07:58:15.781            18.139                Norilsk          1136.500
       141   04 Jun 2027 07:58:15.892   04 Jun 2027 07:58:29.034            13.142              Murmansk2            55.500
       142   04 Jun 2027 07:58:29.219   04 Jun 2027 07:58:31.309             2.090              Murmansk2            92.500
       143   04 Jun 2027 07:58:33.934   04 Jun 2027 07:59:07.005            33.071                 Moscow          1312.500
       144   04 Jun 2027 07:59:17.275   04 Jun 2027 08:00:03.827            46.552                Norilsk          5135.000
       145   04 Jun 2027 08:00:04.429   04 Jun 2027 08:01:08.652            64.223                Norilsk           301.000
       146   04 Jun 2027 08:01:18.586   04 Jun 2027 08:01:59.800            41.214                 Moscow          4967.000
       147   04 Jun 2027 09:33:08.350   04 Jun 2027 09:34:24.235            75.885              Murmansk1          5134.500
       148   04 Jun 2027 09:34:26.839   04 Jun 2027 09:34:49.440            22.601              Murmansk2          1302.000
       149   04 Jun 2027 09:34:53.122   04 Jun 2027 09:35:28.820            35.698                 Moscow          1841.000
       150   04 Jun 2027 09:35:28.841   04 Jun 2027 09:35:35.110             6.269              Murmansk2            10.500
       151   04 Jun 2027 09:35:40.610   04 Jun 2027 09:36:55.583            74.973                Novosib          2750.000
       152   04 Jun 2027 09:36:55.606   04 Jun 2027 09:37:28.376            32.770                Novosib            11.500
       153   04 Jun 2027 09:37:30.321   04 Jun 2027 09:37:38.814             8.493                Norilsk           972.500
       154   05 Jun 2027 03:19:57.230   05 Jun 2027 03:20:06.435             9.205               Magadan1          1150.625
       155   05 Jun 2027 03:20:06.435   05 Jun 2027 03:20:44.092            37.657               Magadan2          1905.375
       156   05 Jun 2027 03:20:47.617   05 Jun 2027 03:21:15.828            28.211                Anadyr2          1762.500
       157   05 Jun 2027 03:21:21.335   05 Jun 2027 03:21:54.654            33.319                Anadyr2          2753.500
       158   05 Jun 2027 03:21:56.823   05 Jun 2027 03:22:21.177            24.354                Norilsk          1084.500
       159   05 Jun 2027 03:22:31.147   05 Jun 2027 03:22:48.990            17.843               Magadan2          2230.375
       160   05 Jun 2027 03:22:48.990   05 Jun 2027 03:22:58.997            10.007               Magadan1          1250.875
       161   05 Jun 2027 03:23:02.790   05 Jun 2027 03:23:47.046            44.256               Magadan1          3400.250
       162   05 Jun 2027 04:54:55.847   05 Jun 2027 04:55:36.631            40.784               Magadan1          3543.000
       163   05 Jun 2027 04:55:37.124   05 Jun 2027 04:55:46.135             9.011               Magadan1           246.500
       164   05 Jun 2027 04:56:05.917   05 Jun 2027 04:58:14.628           128.711                Irkutsk          9891.000
       165   05 Jun 2027 04:58:14.767   05 Jun 2027 04:58:25.897            11.130               Magadan1            69.500
       166   05 Jun 2027 04:58:30.543   05 Jun 2027 04:58:37.823             7.280                Norilsk           910.000
       167   05 Jun 2027 04:58:45.959   05 Jun 2027 04:59:32.685            46.726                Norilsk          5481.000
       168   05 Jun 2027 04:59:38.158   05 Jun 2027 05:00:06.421            28.263               Magadan1          2736.500
       169   05 Jun 2027 05:00:12.363   05 Jun 2027 05:00:37.605            25.242              Murmansk2          2971.000
       170   05 Jun 2027 05:00:51.861   05 Jun 2027 05:02:38.071           106.210                Novosib          7128.000
       171   05 Jun 2027 06:31:03.963   05 Jun 2027 06:31:37.555            33.592                Novosib          1486.000
       172   05 Jun 2027 06:31:48.497   05 Jun 2027 06:32:49.452            60.955                Norilsk          5471.000
       173   05 Jun 2027 06:32:51.252   05 Jun 2027 06:33:03.648            12.396                Norilsk           900.000
       174   05 Jun 2027 06:33:13.846   05 Jun 2027 06:33:15.885             2.039                Norilsk           254.875
       175   05 Jun 2027 06:33:24.647   05 Jun 2027 06:35:05.337           100.690                Norilsk          9225.125
       176   05 Jun 2027 06:35:21.704   05 Jun 2027 06:36:32.970            71.266                Irkutsk          8183.500
       177   05 Jun 2027 06:36:36.854   05 Jun 2027 06:36:41.590             4.736                Norilsk           592.000
       178   05 Jun 2027 06:36:46.721   05 Jun 2027 06:37:48.452            61.731                Irkutsk          3915.500
       179   05 Jun 2027 08:09:06.137   05 Jun 2027 08:09:56.662            50.525                Novosib          2273.500
       180   05 Jun 2027 08:10:03.002   05 Jun 2027 08:10:29.829            26.827              Murmansk1          3170.000
       181   05 Jun 2027 08:10:30.712   05 Jun 2027 08:10:47.946            17.234              Murmansk1           441.500
       182   05 Jun 2027 08:10:49.642   05 Jun 2027 08:11:46.189            56.547                Irkutsk           848.000
       183   05 Jun 2027 08:11:54.728   05 Jun 2027 08:12:17.793            23.065                Irkutsk          2883.125
       184   05 Jun 2027 08:12:21.574   05 Jun 2027 08:12:50.997            29.423              Murmansk1          3276.875
       185   05 Jun 2027 08:12:57.973   05 Jun 2027 08:13:55.012            57.039                Novosib          3488.000
       186   05 Jun 2027 09:44:51.870   05 Jun 2027 09:45:31.264            39.394              Murmansk2          4810.500
       187   05 Jun 2027 09:45:33.094   05 Jun 2027 09:45:50.823            17.729                Novosib           915.000
       188   05 Jun 2027 09:46:03.587   05 Jun 2027 09:47:14.634            71.047                Norilsk          6382.000
       189   05 Jun 2027 09:47:16.807   05 Jun 2027 09:47:48.770            31.963              Murmansk1          1086.500
       190   05 Jun 2027 09:47:53.110   05 Jun 2027 09:48:23.187            30.077                 Moscow          2170.000
       191   05 Jun 2027 09:48:41.225   05 Jun 2027 09:49:36.779            55.554                Novosib          6944.250
       192   05 Jun 2027 09:49:40.450   05 Jun 2027 09:50:20.862            40.412                Norilsk          3910.250
       193   06 Jun 2027 03:30:27.882   06 Jun 2027 03:30:38.391            10.509               Magadan2           375.000
       194   06 Jun 2027 03:31:40.569   06 Jun 2027 03:31:56.852            16.283               Magadan2          1897.000
       195   06 Jun 2027 03:31:59.257   06 Jun 2027 03:32:18.728            19.471               Magadan2          1202.500
       196   06 Jun 2027 03:32:20.503   06 Jun 2027 03:32:49.077            28.574                Anadyr1           887.500
       197   06 Jun 2027 03:32:56.234   06 Jun 2027 03:33:46.618            50.384               Magadan1          3578.500
       198   06 Jun 2027 03:33:52.641   06 Jun 2027 03:34:47.116            54.475                Anadyr1          3011.500
       199   06 Jun 2027 03:34:49.768   06 Jun 2027 03:35:13.666            23.898               Magadan1          1326.000
       200   06 Jun 2027 03:35:23.821   06 Jun 2027 03:36:43.573            79.752                Anadyr1          5077.500
       201   06 Jun 2027 05:06:22.960   06 Jun 2027 05:06:33.767            10.807                Norilsk           178.000
       202   06 Jun 2027 05:06:37.942   06 Jun 2027 05:07:08.091            30.149               Magadan2          2087.500
       203   06 Jun 2027 05:07:32.617   06 Jun 2027 05:09:23.152           110.535                Norilsk         12263.000
       204   06 Jun 2027 05:09:48.949   06 Jun 2027 05:11:30.386           101.437                Norilsk         12679.625
       205   06 Jun 2027 05:11:41.989   06 Jun 2027 05:12:41.602            59.613                Irkutsk          6020.375
       206   06 Jun 2027 05:12:49.957   06 Jun 2027 05:13:39.818            49.861                Norilsk          4177.500
       207   06 Jun 2027 05:13:40.140   06 Jun 2027 05:13:41.765             1.625                Norilsk           161.000
       208   06 Jun 2027 05:13:51.428   06 Jun 2027 05:14:35.716            44.288                Norilsk          4831.500
       209   06 Jun 2027 06:43:45.923   06 Jun 2027 06:45:21.729            95.806                Norilsk         11891.000
       210   06 Jun 2027 06:45:29.019   06 Jun 2027 06:46:27.925            58.906                Irkutsk          3645.000
       211   06 Jun 2027 06:46:36.368   06 Jun 2027 06:47:18.636            42.268              Murmansk1          4221.500
       212   06 Jun 2027 06:47:22.132   06 Jun 2027 06:47:27.325             5.193                Norilsk           649.125
       213   06 Jun 2027 06:47:32.339   06 Jun 2027 06:48:15.698            43.359                Irkutsk          3605.875
       214   06 Jun 2027 06:48:17.997   06 Jun 2027 06:48:27.267             9.270                Novosib          1149.500
       215   06 Jun 2027 06:48:29.257   06 Jun 2027 06:49:02.203            32.946                Norilsk           995.000
       216   06 Jun 2027 06:49:25.605   06 Jun 2027 06:51:12.730           107.125              Murmansk1         11701.000
       217   06 Jun 2027 08:21:36.646   06 Jun 2027 08:22:31.081            54.435                Norilsk          6730.500
       218   06 Jun 2027 08:22:32.435   06 Jun 2027 08:22:38.238             5.803              Murmansk1           677.000
       219   06 Jun 2027 08:22:38.259   06 Jun 2027 08:22:56.257            17.998                Novosib            10.500
       220   06 Jun 2027 08:23:03.726   06 Jun 2027 08:24:17.364            73.638              Murmansk1          3734.500
       221   06 Jun 2027 08:24:26.390   06 Jun 2027 08:25:06.534            40.144              Murmansk2          4513.000
       222   06 Jun 2027 08:25:08.507   06 Jun 2027 08:25:22.865            14.358                Norilsk           986.500
       223   06 Jun 2027 09:54:51.155   06 Jun 2027 09:55:59.284            68.129                 Moscow          6466.500
       224   06 Jun 2027 09:56:23.459   06 Jun 2027 09:58:27.591           124.132              Murmansk1         12087.500
       225   06 Jun 2027 09:58:28.687   06 Jun 2027 09:58:51.574            22.887              Murmansk1           548.000
       226   06 Jun 2027 09:58:55.316   06 Jun 2027 09:59:12.183            16.867              Murmansk1          1871.000
       227   06 Jun 2027 09:59:15.343   06 Jun 2027 09:59:39.633            24.290                Norilsk          1580.000
       228   06 Jun 2027 09:59:48.533   06 Jun 2027 10:00:49.236            60.703              Murmansk2          4450.000
       229   06 Jun 2027 10:00:55.193   06 Jun 2027 10:01:00.068             4.875                Novosib           609.375
       230   06 Jun 2027 10:01:02.561   06 Jun 2027 10:01:54.067            51.506                Norilsk          3615.625
       231   06 Jun 2027 10:02:02.922   06 Jun 2027 10:02:59.754            56.832                Norilsk          4427.500
       232   07 Jun 2027 03:41:30.276   07 Jun 2027 03:42:26.494            56.218               Magadan1          5305.500
       233   07 Jun 2027 03:42:32.604   07 Jun 2027 03:42:45.857            13.253               Magadan1          1656.625
       234   07 Jun 2027 03:43:03.779   07 Jun 2027 03:43:44.272            40.493                Anadyr1          4176.375
       235   07 Jun 2027 03:43:47.111   07 Jun 2027 03:43:54.996             7.885                Irkutsk           985.625
       236   07 Jun 2027 03:43:57.899   07 Jun 2027 03:44:38.252            40.353                Anadyr1          1885.375
       237   07 Jun 2027 03:44:46.371   07 Jun 2027 03:46:26.709           100.338                Irkutsk          4059.500
       238   07 Jun 2027 03:46:27.628   07 Jun 2027 03:46:53.608            25.980               Magadan1           459.500
       239   07 Jun 2027 03:46:58.113   07 Jun 2027 03:47:03.021             4.908                Irkutsk           613.500
       240   07 Jun 2027 03:47:05.380   07 Jun 2027 03:47:46.458            41.078               Magadan2          2818.500
       241   07 Jun 2027 03:47:53.895   07 Jun 2027 03:48:43.710            49.815                Norilsk          3718.500
       242   07 Jun 2027 03:49:17.798   07 Jun 2027 03:49:23.159             5.361                Norilsk           670.125
       243   07 Jun 2027 03:49:40.506   07 Jun 2027 03:49:57.343            16.837               Magadan1           781.375
       244   07 Jun 2027 05:18:31.753   07 Jun 2027 05:18:37.999             6.246               Magadan1           702.000
       245   07 Jun 2027 05:18:45.464   07 Jun 2027 05:19:38.486            53.022               Magadan1          3732.500
       246   07 Jun 2027 05:19:41.400   07 Jun 2027 05:20:01.603            20.203                Norilsk          1457.000
       247   07 Jun 2027 05:20:17.496   07 Jun 2027 05:21:26.824            69.328                Novosib          7946.500
       248   07 Jun 2027 05:21:41.630   07 Jun 2027 05:23:12.922            91.292                Novosib          7403.000
       249   07 Jun 2027 05:23:16.378   07 Jun 2027 05:24:20.434            64.056               Magadan1          1728.000
       250   07 Jun 2027 05:24:21.591   07 Jun 2027 05:24:34.048            12.457               Magadan1           578.500
       251   07 Jun 2027 05:24:53.647   07 Jun 2027 05:27:01.172           127.525              Murmansk1          9799.500
       252   07 Jun 2027 06:55:41.839   07 Jun 2027 06:57:29.266           107.427                Irkutsk          7104.500
       253   07 Jun 2027 06:57:47.413   07 Jun 2027 06:58:57.273            69.860                Novosib          8732.500
       254   07 Jun 2027 06:59:05.687   07 Jun 2027 06:59:36.126            30.439                Norilsk          3804.875
       255   07 Jun 2027 06:59:37.410   07 Jun 2027 06:59:52.293            14.883              Murmansk2          1385.125
       256   07 Jun 2027 07:00:02.839   07 Jun 2027 07:01:16.336            73.497              Murmansk2          5273.000
       257   07 Jun 2027 07:01:21.390   07 Jun 2027 07:01:42.680            21.290                Irkutsk          2527.000
       258   07 Jun 2027 08:33:21.575   07 Jun 2027 08:33:26.845             5.270                Norilsk           460.500
       259   07 Jun 2027 08:33:35.000   07 Jun 2027 08:35:47.992           132.992                 Moscow          4077.500
       260   07 Jun 2027 08:35:50.394   07 Jun 2027 08:36:01.602            11.208                 Moscow          1201.000
       261   07 Jun 2027 08:36:04.840   07 Jun 2027 08:36:36.805            31.965                Novosib          1619.000
       262   07 Jun 2027 08:36:41.843   07 Jun 2027 08:37:29.452            47.609                 Moscow          2519.000
       263   07 Jun 2027 10:06:50.726   07 Jun 2027 10:07:13.944            23.218                 Moscow          1285.500
       264   07 Jun 2027 10:07:23.494   07 Jun 2027 10:08:04.443            40.949                 Moscow          4775.000
       265   07 Jun 2027 10:08:15.546   07 Jun 2027 10:09:28.570            73.024              Murmansk2          5551.500
       266   07 Jun 2027 10:09:34.169   07 Jun 2027 10:10:15.944            41.775                Novosib          2799.500
       267   07 Jun 2027 10:10:19.542   07 Jun 2027 10:11:00.730            41.188                 Moscow          1799.000
       268   07 Jun 2027 10:11:01.569   07 Jun 2027 10:11:43.598            42.029              Murmansk2           419.500
       269   07 Jun 2027 10:11:48.622   07 Jun 2027 10:12:12.647            24.025              Murmansk1          2512.000
       270   07 Jun 2027 10:12:25.672   07 Jun 2027 10:13:19.928            54.256                 Moscow          6512.500
       271   07 Jun 2027 10:13:26.572   07 Jun 2027 10:13:58.300            31.728                Norilsk          3322.000
       272   07 Jun 2027 10:13:59.471   07 Jun 2027 10:14:18.432            18.961                 Moscow           585.500
       273   07 Jun 2027 10:14:20.529   07 Jun 2027 10:15:14.991            54.462              Murmansk1          1048.500
       274   08 Jun 2027 03:52:57.801   08 Jun 2027 03:54:28.468            90.667               Magadan1          4516.500
       275   08 Jun 2027 03:54:29.913   08 Jun 2027 03:55:04.852            34.939                Anadyr1           722.500
       276   08 Jun 2027 03:55:08.906   08 Jun 2027 03:55:25.341            16.435                Anadyr2          2027.000
       277   08 Jun 2027 03:55:29.816   08 Jun 2027 03:56:08.989            39.173                Norilsk          2237.500
       278   08 Jun 2027 03:56:24.418   08 Jun 2027 03:57:47.724            83.306               Magadan1          7714.500
       279   08 Jun 2027 03:57:50.507   08 Jun 2027 03:58:08.079            17.572                Novosib          1391.500
       280   08 Jun 2027 03:58:16.351   08 Jun 2027 03:58:55.650            39.299               Magadan1          4136.000
       281   08 Jun 2027 03:58:58.003   08 Jun 2027 03:59:44.363            46.360               Magadan2          1176.500
       282   08 Jun 2027 03:59:47.881   08 Jun 2027 04:00:17.006            29.125               Magadan2          1759.000
       283   08 Jun 2027 04:00:18.739   08 Jun 2027 04:00:50.851            32.112               Magadan2           866.500
       284   08 Jun 2027 04:01:04.397   08 Jun 2027 04:01:14.465            10.068              Murmansk1           584.500
       285   08 Jun 2027 04:01:15.229   08 Jun 2027 04:01:20.895             5.666                Norilsk           382.000
       286   08 Jun 2027 04:01:22.793   08 Jun 2027 04:01:30.546             7.753               Magadan2           949.000
       287   08 Jun 2027 04:01:35.116   08 Jun 2027 04:01:38.072             2.956                Anadyr1           369.500
       288   08 Jun 2027 04:01:41.730   08 Jun 2027 04:02:05.159            23.429               Magadan1          2928.625
       289   08 Jun 2027 04:02:09.167   08 Jun 2027 04:02:23.124            13.957              Murmansk1           815.875
       290   08 Jun 2027 05:30:34.777   08 Jun 2027 05:31:06.199            31.422               Magadan2          1613.500
       291   08 Jun 2027 05:31:18.303   08 Jun 2027 05:32:16.284            57.981                Irkutsk          6052.000
       292   08 Jun 2027 05:32:17.844   08 Jun 2027 05:32:56.457            38.613                Irkutsk           780.000
       293   08 Jun 2027 05:32:56.835   08 Jun 2027 05:33:01.627             4.792                Norilsk           189.000
       294   08 Jun 2027 05:33:04.909   08 Jun 2027 05:33:19.729            14.820               Magadan1          1641.000
       295   08 Jun 2027 05:33:25.205   08 Jun 2027 05:33:34.200             8.995                Irkutsk          1124.375
       296   08 Jun 2027 05:33:49.218   08 Jun 2027 05:34:11.233            22.015                Norilsk          2751.875
       297   08 Jun 2027 05:34:17.427   08 Jun 2027 05:35:57.475           100.048                Novosib          9467.750
       298   08 Jun 2027 05:36:02.193   08 Jun 2027 05:37:10.547            68.354                Irkutsk          2359.000
       299   08 Jun 2027 05:37:19.799   08 Jun 2027 05:38:20.282            60.483                Norilsk          4626.000
       300   08 Jun 2027 07:07:29.388   08 Jun 2027 07:08:20.029            50.641                Novosib          4824.500
       301   08 Jun 2027 07:08:29.006   08 Jun 2027 07:09:28.552            59.546                Irkutsk          4488.500
       302   08 Jun 2027 07:09:39.725   08 Jun 2027 07:10:49.955            70.230                Novosib          5586.500
       303   08 Jun 2027 07:11:00.786   08 Jun 2027 07:11:50.426            49.640                Novosib          5415.500
       304   08 Jun 2027 07:11:51.888   08 Jun 2027 07:12:00.183             8.295              Murmansk1           731.000
       305   08 Jun 2027 07:12:05.019   08 Jun 2027 07:13:07.798            62.779              Murmansk1          2418.000
       306   08 Jun 2027 07:13:27.597   08 Jun 2027 07:13:37.965            10.368                Irkutsk          1296.000
       307   08 Jun 2027 07:13:40.816   08 Jun 2027 07:14:29.711            48.895                 Moscow          5757.500
       308   08 Jun 2027 08:45:26.403   08 Jun 2027 08:45:47.635            21.232                Novosib          2402.000
       309   08 Jun 2027 08:45:54.897   08 Jun 2027 08:47:26.880            91.983                Norilsk          3631.000
       310   08 Jun 2027 08:47:32.384   08 Jun 2027 08:48:08.095            35.711                Norilsk          2752.000
       311   08 Jun 2027 08:48:09.424   08 Jun 2027 08:48:21.864            12.440                 Moscow           664.500
       312   08 Jun 2027 08:48:23.388   08 Jun 2027 08:48:41.072            17.684              Murmansk2           762.000
       313   08 Jun 2027 08:48:47.716   08 Jun 2027 08:49:34.213            46.497                Norilsk          3322.000
       314   08 Jun 2027 10:19:25.358   08 Jun 2027 10:20:49.136            83.778                 Moscow          5637.000
       315   08 Jun 2027 10:20:53.744   08 Jun 2027 10:21:13.247            19.503                 Moscow          2304.000
       316   08 Jun 2027 10:21:25.848   08 Jun 2027 10:22:29.076            63.228              Murmansk2          6300.500
       317   08 Jun 2027 10:22:29.865   08 Jun 2027 10:22:44.113            14.248              Murmansk1           394.500
       318   08 Jun 2027 10:22:51.616   08 Jun 2027 10:23:38.200            46.584              Murmansk1          3751.500
       319   08 Jun 2027 10:23:41.141   08 Jun 2027 10:23:53.024            11.883                Norilsk          1470.500
       320   08 Jun 2027 10:23:54.196   08 Jun 2027 10:24:02.798             8.602                 Moscow           586.000
       321   08 Jun 2027 10:24:20.440   08 Jun 2027 10:25:37.959            77.519              Murmansk2          8821.000
       322   08 Jun 2027 10:25:42.061   08 Jun 2027 10:26:20.222            38.161                 Moscow          2051.000
       323   09 Jun 2027 04:05:32.956   09 Jun 2027 04:06:30.809            57.853               Magadan2           354.000
       324   09 Jun 2027 04:06:41.137   09 Jun 2027 04:07:28.716            47.579               Magadan2          5164.000
       325   09 Jun 2027 04:07:33.618   09 Jun 2027 04:08:09.131            35.513               Magadan2          2451.000
       326   09 Jun 2027 04:08:27.270   09 Jun 2027 04:09:47.574            80.304               Magadan1          9069.500
       327   09 Jun 2027 04:09:50.731   09 Jun 2027 04:10:12.828            22.097                Novosib          1578.500
       328   09 Jun 2027 04:10:13.874   09 Jun 2027 04:10:19.120             5.246               Magadan2           523.000
       329   09 Jun 2027 04:10:25.316   09 Jun 2027 04:10:54.621            29.305                Novosib          3098.000
       330   09 Jun 2027 04:10:57.466   09 Jun 2027 04:11:44.640            47.174               Magadan1          1422.500
       331   09 Jun 2027 04:11:51.796   09 Jun 2027 04:12:20.566            28.770               Magadan1          3578.000
       332   09 Jun 2027 04:12:25.086   09 Jun 2027 04:13:01.103            36.017               Magadan2          2260.000
       333   09 Jun 2027 04:13:15.201   09 Jun 2027 04:13:21.022             5.821                Anadyr1           727.625
       334   09 Jun 2027 04:13:21.247   09 Jun 2027 04:14:02.660            41.413               Magadan2          5176.625
       335   09 Jun 2027 04:14:10.705   09 Jun 2027 04:14:20.164             9.459              Murmansk1          1079.749
       336   09 Jun 2027 05:42:35.283   09 Jun 2027 05:42:52.155            16.872                Norilsk           221.000
       337   09 Jun 2027 05:42:58.395   09 Jun 2027 05:43:21.466            23.071                Norilsk          2883.875
       338   09 Jun 2027 05:43:27.147   09 Jun 2027 05:44:06.663            39.516                Irkutsk          3076.625
       339   09 Jun 2027 05:44:19.630   09 Jun 2027 05:44:45.917            26.287                Norilsk          3285.875
       340   09 Jun 2027 05:44:47.043   09 Jun 2027 05:45:55.996            68.953                Novosib          3760.625
       341   09 Jun 2027 05:46:01.799   09 Jun 2027 05:46:26.035            24.236               Magadan2          2901.500
       342   09 Jun 2027 05:46:33.076   09 Jun 2027 05:46:54.891            21.815                Norilsk          2726.875
       343   09 Jun 2027 05:46:55.185   09 Jun 2027 05:47:42.591            47.406                Novosib           940.625
       344   09 Jun 2027 05:47:53.304   09 Jun 2027 05:48:37.121            43.817                Novosib          5356.500
       345   09 Jun 2027 05:48:49.201   09 Jun 2027 05:49:22.840            33.639                Irkutsk          4204.875
       346   09 Jun 2027 05:49:28.273   09 Jun 2027 05:50:09.540            41.267              Murmansk2          4551.625
       347   09 Jun 2027 07:19:36.497   09 Jun 2027 07:20:38.397            61.900                Novosib          3442.000
       348   09 Jun 2027 07:20:43.533   09 Jun 2027 07:21:09.251            25.718                Norilsk          2568.000
       349   09 Jun 2027 07:21:20.617   09 Jun 2027 07:22:12.378            51.761                Norilsk          5683.000
       350   09 Jun 2027 07:22:17.726   09 Jun 2027 07:22:39.536            21.810              Murmansk2          2674.000
       351   09 Jun 2027 07:22:43.823   09 Jun 2027 07:22:59.823            16.000              Murmansk1          2000.000
       352   09 Jun 2027 07:22:59.823   09 Jun 2027 07:23:24.654            24.831              Murmansk2           143.500
       353   09 Jun 2027 07:23:28.546   09 Jun 2027 07:23:47.005            18.459                 Moscow          1946.000
       354   09 Jun 2027 07:23:47.797   09 Jun 2027 07:23:51.077             3.280              Murmansk1           396.000
       355   09 Jun 2027 07:23:56.149   09 Jun 2027 07:24:41.481            45.332                Novosib          2536.000
       356   09 Jun 2027 07:24:54.250   09 Jun 2027 07:25:44.022            49.772                Novosib          4967.500
       357   09 Jun 2027 07:25:52.866   09 Jun 2027 07:27:08.345            75.479                 Moscow          3461.000
       358   09 Jun 2027 08:56:39.627   09 Jun 2027 08:56:44.728             5.101                 Moscow           637.625
       359   09 Jun 2027 08:56:44.875   09 Jun 2027 08:57:08.946            24.071                Norilsk          1349.375
       360   09 Jun 2027 08:57:14.480   09 Jun 2027 08:58:43.002            88.522                Novosib          2767.000
       361   09 Jun 2027 08:58:51.712   09 Jun 2027 08:59:44.077            52.365                 Moscow          4355.000
       362   09 Jun 2027 08:59:48.715   09 Jun 2027 09:00:16.383            27.668                 Moscow          2319.000
       363   09 Jun 2027 09:00:20.111   09 Jun 2027 09:00:39.286            19.175                 Moscow          1864.000
       364   09 Jun 2027 09:00:46.977   09 Jun 2027 09:01:35.382            48.405              Murmansk1          3845.500
       365   09 Jun 2027 10:31:37.269   09 Jun 2027 10:32:02.004            24.735              Murmansk2          1002.500
       366   09 Jun 2027 10:32:06.038   09 Jun 2027 10:32:36.108            30.070              Murmansk2          2017.000
       367   09 Jun 2027 10:33:23.672   09 Jun 2027 10:33:54.697            31.025              Murmansk1          2942.500
       368   09 Jun 2027 10:34:17.374   09 Jun 2027 10:35:49.641            92.267              Murmansk1         11338.500
       369   09 Jun 2027 10:35:53.035   09 Jun 2027 10:36:36.650            43.615                 Moscow          1697.000
       370   09 Jun 2027 10:36:52.631   09 Jun 2027 10:37:08.433            15.802                Norilsk           551.000
       371   10 Jun 2027 04:17:33.777   10 Jun 2027 04:18:02.832            29.055               Magadan2          2527.000
       372   10 Jun 2027 04:18:19.890   10 Jun 2027 04:19:39.424            79.534               Magadan1          8529.000
       373   10 Jun 2027 04:19:57.421   10 Jun 2027 04:21:32.676            95.255                Irkutsk          8998.500
       374   10 Jun 2027 04:21:35.526   10 Jun 2027 04:21:41.463             5.937                Norilsk           742.125
       375   10 Jun 2027 04:21:41.676   10 Jun 2027 04:21:48.274             6.598               Magadan1           789.375
       376   10 Jun 2027 04:21:51.701   10 Jun 2027 04:22:29.836            38.135                Irkutsk          1713.500
       377   10 Jun 2027 04:22:34.012   10 Jun 2027 04:24:00.458            86.446                Novosib          2088.000
       378   10 Jun 2027 04:24:09.190   10 Jun 2027 04:24:49.252            40.062                Norilsk          4366.000
       379   10 Jun 2027 04:24:50.576   10 Jun 2027 04:25:24.554            33.978              Murmansk1           662.000
       380   10 Jun 2027 04:25:25.112   10 Jun 2027 04:25:42.612            17.500               Magadan2           279.000
       381   10 Jun 2027 04:25:46.181   10 Jun 2027 04:26:12.110            25.929                Novosib          1784.500
       382   10 Jun 2027 05:55:10.646   10 Jun 2027 05:56:20.194            69.548                Novosib          4955.000
       383   10 Jun 2027 05:56:56.112   10 Jun 2027 05:59:23.639           147.527                Irkutsk         17959.000
       384   10 Jun 2027 05:59:33.692   10 Jun 2027 06:00:05.987            32.295              Murmansk2          4036.875
       385   10 Jun 2027 06:00:05.987   10 Jun 2027 06:00:25.020            19.033              Murmansk1           989.625
       386   10 Jun 2027 06:00:28.106   10 Jun 2027 06:00:56.983            28.877                Norilsk          1543.000
       387   10 Jun 2027 06:00:58.274   10 Jun 2027 06:01:18.778            20.504                Novosib           645.500
       388   10 Jun 2027 06:01:19.238   10 Jun 2027 06:01:21.039             1.801                Norilsk           225.125
       389   10 Jun 2027 06:01:21.268   10 Jun 2027 06:01:49.530            28.262                Novosib           119.375
       390   10 Jun 2027 07:31:58.508   10 Jun 2027 07:32:18.230            19.722                  Delhi           728.000
       391   10 Jun 2027 07:32:27.680   10 Jun 2027 07:33:22.486            54.806                Norilsk          4725.000
       392   10 Jun 2027 07:33:23.180   10 Jun 2027 07:33:42.130            18.950                Irkutsk           347.000
       393   10 Jun 2027 07:33:43.265   10 Jun 2027 07:34:13.691            30.426                Norilsk           567.500
       394   10 Jun 2027 07:34:17.170   10 Jun 2027 07:34:36.803            19.633                Norilsk          1739.500
       395   10 Jun 2027 07:34:40.925   10 Jun 2027 07:35:12.230            31.305              Murmansk2          2061.000
       396   10 Jun 2027 07:35:16.854   10 Jun 2027 07:35:35.663            18.809                Norilsk          2312.000
       397   10 Jun 2027 07:35:36.428   10 Jun 2027 07:35:40.864             4.436                 Moscow           382.500
       398   10 Jun 2027 07:35:49.802   10 Jun 2027 07:36:52.969            63.167              Murmansk2          4469.000
       399   10 Jun 2027 07:37:06.601   10 Jun 2027 07:37:22.116            15.515                Irkutsk          1939.375
       400   10 Jun 2027 07:37:25.687   10 Jun 2027 07:38:17.633            51.946                Norilsk          6493.250
       401   10 Jun 2027 07:38:25.478   10 Jun 2027 07:39:01.666            36.188              Murmansk2           168.875
       402   10 Jun 2027 09:08:51.835   10 Jun 2027 09:09:36.797            44.962                Novosib          2076.500
       403   10 Jun 2027 09:09:42.617   10 Jun 2027 09:10:06.769            24.152              Murmansk1          2910.000
       404   10 Jun 2027 09:10:12.519   10 Jun 2027 09:11:26.952            74.433                Norilsk          2875.000
       405   10 Jun 2027 09:11:42.293   10 Jun 2027 09:12:50.905            68.612                Novosib          7670.500
       406   10 Jun 2027 09:13:11.703   10 Jun 2027 09:14:47.308            95.605                Norilsk         10399.000
       407   10 Jun 2027 10:46:26.169   10 Jun 2027 10:46:57.451            31.282              Murmansk1          1156.000
       408   10 Jun 2027 10:47:11.544   10 Jun 2027 10:48:22.406            70.862                 Moscow          7046.500
       409   10 Jun 2027 10:48:28.421   10 Jun 2027 10:48:38.780            10.359                 Moscow          1164.500
       410   11 Jun 2027 04:30:09.853   11 Jun 2027 04:30:36.211            26.358               Magadan1           793.500
       411   11 Jun 2027 04:30:39.573   11 Jun 2027 04:30:55.037            15.464               Magadan1          1681.000
       412   11 Jun 2027 04:31:00.361   11 Jun 2027 04:31:30.193            29.832                Norilsk          2662.000
       413   11 Jun 2027 04:31:40.954   11 Jun 2027 04:32:24.840            43.886               Magadan1          5380.500
       414   11 Jun 2027 04:32:32.842   11 Jun 2027 04:33:25.880            53.038               Magadan2          4001.000
       415   11 Jun 2027 04:33:26.426   11 Jun 2027 04:33:32.412             5.986               Magadan2           273.000
       416   11 Jun 2027 04:33:32.625   11 Jun 2027 04:33:39.924             7.299                Norilsk           106.500
       417   11 Jun 2027 04:33:41.144   11 Jun 2027 04:34:04.140            22.996                Novosib           610.000
       418   11 Jun 2027 04:34:04.146   11 Jun 2027 04:34:28.446            24.300                Norilsk             3.000
       419   11 Jun 2027 04:34:41.592   11 Jun 2027 04:36:07.512            85.920               Magadan2          6573.000
       420   11 Jun 2027 04:36:23.292   11 Jun 2027 04:37:54.280            90.988               Magadan1          7890.000
       421   11 Jun 2027 04:37:54.694   11 Jun 2027 04:38:14.345            19.651              Murmansk2           207.000
       422   11 Jun 2027 06:07:21.195   11 Jun 2027 06:08:20.250            59.055                Novosib          7220.500
       423   11 Jun 2027 06:08:53.907   11 Jun 2027 06:11:09.435           135.528                Irkutsk         16828.500
       424   11 Jun 2027 06:11:09.927   11 Jun 2027 06:11:22.161            12.234                Norilsk           246.000
       425   11 Jun 2027 06:11:24.353   11 Jun 2027 06:11:53.373            29.020                Novosib          1096.000
       426   11 Jun 2027 06:11:57.294   11 Jun 2027 06:12:10.501            13.207                Norilsk          1650.875
       427   11 Jun 2027 06:12:11.949   11 Jun 2027 06:12:43.279            31.330              Murmansk2          1033.625
       428   11 Jun 2027 06:13:03.247   11 Jun 2027 06:14:33.118            89.871                Novosib          9984.000
       429   11 Jun 2027 07:44:57.566   11 Jun 2027 07:45:50.804            53.238                Novosib          5793.000
       430   11 Jun 2027 07:45:50.919   11 Jun 2027 07:46:19.580            28.661                Novosib            57.500
       431   11 Jun 2027 07:46:19.677   11 Jun 2027 07:46:22.998             3.321              Murmansk2            48.500
       432   11 Jun 2027 07:46:23.781   11 Jun 2027 07:47:13.207            49.426                 Moscow           391.500
       433   11 Jun 2027 07:47:22.657   11 Jun 2027 07:48:07.355            44.698              Murmansk2          4725.000
       434   11 Jun 2027 07:48:10.930   11 Jun 2027 07:48:46.674            35.744              Murmansk1          1787.500
       435   11 Jun 2027 07:49:00.688   11 Jun 2027 07:49:10.085             9.397                Irkutsk          1174.625
       436   11 Jun 2027 07:49:12.368   11 Jun 2027 07:50:30.611            78.243                Novosib          6973.875
       437   11 Jun 2027 09:20:51.400   11 Jun 2027 09:21:07.152            15.752              Murmansk1           340.500
       438   11 Jun 2027 09:21:21.544   11 Jun 2027 09:23:00.216            98.672                Norilsk          7196.000
       439   11 Jun 2027 09:23:03.302   11 Jun 2027 09:23:49.320            46.018              Murmansk1          1543.000
       440   11 Jun 2027 09:23:59.135   11 Jun 2027 09:25:19.485            80.350              Murmansk2          4907.500
       441   11 Jun 2027 09:25:27.581   11 Jun 2027 09:26:01.723            34.142                Novosib          4048.000
       442   11 Jun 2027 10:59:46.804   11 Jun 2027 11:00:40.367            53.563                 Moscow          1397.000
       443   12 Jun 2027 03:08:14.524   12 Jun 2027 03:08:27.269            12.745                Irkutsk          1593.125
       444   12 Jun 2027 03:08:28.870   12 Jun 2027 03:08:39.695            10.825               Magadan2          1092.375
       445   12 Jun 2027 03:08:46.597   12 Jun 2027 03:09:14.391            27.794               Magadan1          3451.000
       446   12 Jun 2027 03:09:21.473   12 Jun 2027 03:10:16.476            55.003                Irkutsk          3541.000
       447   12 Jun 2027 03:10:22.808   12 Jun 2027 03:10:48.655            25.847               Magadan2          3166.000
       448   12 Jun 2027 03:10:58.798   12 Jun 2027 03:11:42.501            43.703                Norilsk          5071.500
       449   12 Jun 2027 03:11:42.684   12 Jun 2027 03:11:51.138             8.454               Magadan1            91.500
       450   12 Jun 2027 04:43:25.059   12 Jun 2027 04:44:27.659            62.600                Novosib          2136.500
       451   12 Jun 2027 04:44:35.506   12 Jun 2027 04:45:20.652            45.146               Magadan2          3923.500
       452   12 Jun 2027 04:45:25.343   12 Jun 2027 04:46:11.454            46.111               Magadan1          2345.500
       453   12 Jun 2027 04:46:15.813   12 Jun 2027 04:46:42.945            27.132               Magadan1          2179.500
       454   12 Jun 2027 04:46:51.799   12 Jun 2027 04:46:55.549             3.750                Norilsk           468.750
       455   12 Jun 2027 04:46:56.632   12 Jun 2027 04:47:25.987            29.355                Norilsk          3669.375
       456   12 Jun 2027 04:47:47.093   12 Jun 2027 04:49:51.507           124.414                Norilsk         11383.375
       457   12 Jun 2027 04:50:01.829   12 Jun 2027 04:51:01.444            59.615                Novosib          3045.000
       458   12 Jun 2027 06:19:54.191   12 Jun 2027 06:20:06.744            12.553                Norilsk          1569.125
       459   12 Jun 2027 06:20:41.453   12 Jun 2027 06:24:03.866           202.413                Irkutsk         21475.875
       460   12 Jun 2027 06:24:04.975   12 Jun 2027 06:24:34.179            29.204                Norilsk           554.500
       461   12 Jun 2027 06:24:34.629   12 Jun 2027 06:25:01.612            26.983              Murmansk2           225.000
       462   12 Jun 2027 06:25:03.730   12 Jun 2027 06:25:27.999            24.269                Norilsk          1059.000
       463   12 Jun 2027 06:25:36.540   12 Jun 2027 06:26:15.161            38.621              Murmansk1          4270.500
       464   12 Jun 2027 07:57:00.679   12 Jun 2027 07:57:18.345            17.666              Murmansk2           107.000
       465   12 Jun 2027 07:57:26.255   12 Jun 2027 07:58:14.556            48.301                Norilsk          3955.000
       466   12 Jun 2027 07:58:16.773   12 Jun 2027 07:58:30.979            14.206                Norilsk          1108.500
       467   12 Jun 2027 07:58:32.075   12 Jun 2027 07:58:43.934            11.859              Murmansk2           548.000
       468   12 Jun 2027 07:58:44.054   12 Jun 2027 07:58:46.726             2.672              Murmansk2            60.000
       469   12 Jun 2027 07:58:48.275   12 Jun 2027 07:59:22.822            34.547                 Moscow           774.500
       470   12 Jun 2027 07:59:32.037   12 Jun 2027 07:59:57.665            25.628                Norilsk          3203.500
       471   12 Jun 2027 08:00:06.177   12 Jun 2027 08:00:54.035            47.858                Irkutsk          5660.000
       472   12 Jun 2027 08:00:54.929   12 Jun 2027 08:01:15.206            20.277              Murmansk2           447.000
       473   12 Jun 2027 08:01:16.442   12 Jun 2027 08:01:23.909             7.467                Novosib           618.000
       474   12 Jun 2027 08:01:24.084   12 Jun 2027 08:01:39.003            14.919                Norilsk            87.500
       475   12 Jun 2027 09:33:19.525   12 Jun 2027 09:35:12.738           113.213                 Moscow          3346.500
       476   12 Jun 2027 09:35:29.739   12 Jun 2027 09:37:10.670           100.931                Novosib          8500.500
       477   12 Jun 2027 09:37:12.795   12 Jun 2027 09:37:43.644            30.849                Novosib          1062.500
       478   12 Jun 2027 09:37:44.924   12 Jun 2027 09:37:54.177             9.253                Norilsk           640.000
       479   13 Jun 2027 03:20:11.830   13 Jun 2027 03:20:29.674            17.844               Magadan2          2230.500
       480   13 Jun 2027 03:20:29.674   13 Jun 2027 03:20:31.518             1.844               Magadan1           230.500
       481   13 Jun 2027 03:20:38.033   13 Jun 2027 03:21:32.646            54.613                Anadyr1          3911.500
       482   13 Jun 2027 03:21:36.568   13 Jun 2027 03:22:09.267            32.699                Anadyr1          1961.000
