uniorb/output/strategy_2/Drop/Drop_KinoSat_112007.txt

KinoSat_112007
-------------------------
    Access    *     Start Time (UTCG)     *     Stop Time (UTCG)  *   Duration (s)        *       Station  *  Data (Mbytes)
         1   01 Jun 2027 04:15:56.668   01 Jun 2027 04:16:22.093            25.425                Irkutsk           794.531
         2   01 Jun 2027 04:16:28.153   01 Jun 2027 04:16:51.538            23.385                Norilsk           730.781
         3   01 Jun 2027 04:17:24.485   01 Jun 2027 04:17:39.918            15.433              Murmansk1           482.281
         4   01 Jun 2027 04:17:58.971   01 Jun 2027 04:18:04.840             5.869                Irkutsk           183.406
         5   01 Jun 2027 04:18:31.298   01 Jun 2027 04:18:46.545            15.247              Murmansk1           476.469
         6   01 Jun 2027 04:19:19.460   01 Jun 2027 04:19:50.768            31.308                Irkutsk           978.375
         7   01 Jun 2027 04:19:51.033   01 Jun 2027 04:20:48.343            57.310                 Moscow          1790.937
         8   01 Jun 2027 04:21:58.761   01 Jun 2027 04:22:41.414            42.653                Irkutsk          1332.906
         9   01 Jun 2027 04:24:16.006   01 Jun 2027 04:24:34.394            18.388                Novosib           574.625
        10   01 Jun 2027 04:24:51.177   01 Jun 2027 04:25:31.957            40.780                Novosib          1274.375
        11   01 Jun 2027 04:25:42.214   01 Jun 2027 04:26:02.303            20.089                  Delhi           627.781
        12   01 Jun 2027 05:54:10.985   01 Jun 2027 05:55:33.385            82.400                Novosib          2575.000
        13   01 Jun 2027 05:56:05.441   01 Jun 2027 05:56:27.973            22.532                Novosib           704.125
        14   01 Jun 2027 05:56:49.776   01 Jun 2027 05:57:20.233            30.457                Norilsk           951.781
        15   01 Jun 2027 05:57:36.402   01 Jun 2027 05:58:14.480            38.078                 Moscow          1189.938
        16   01 Jun 2027 05:58:50.997   01 Jun 2027 05:59:57.933            66.936              Murmansk1          2091.750
        17   01 Jun 2027 06:00:42.363   01 Jun 2027 06:02:42.545           120.182                 Moscow          3755.688
        18   01 Jun 2027 06:02:46.125   01 Jun 2027 06:03:40.053            53.928                 Moscow          1685.250
        19   01 Jun 2027 06:15:29.639   01 Jun 2027 06:24:52.501           562.862               CapeTown         17589.437
        20   01 Jun 2027 07:19:37.044   01 Jun 2027 07:20:45.691            68.647                Anadyr1          2145.219
        21   01 Jun 2027 07:31:02.566   01 Jun 2027 07:31:38.252            35.686                Norilsk          1115.188
        22   01 Jun 2027 07:32:00.126   01 Jun 2027 07:32:11.264            11.138              Murmansk1           348.063
        23   01 Jun 2027 07:32:19.958   01 Jun 2027 07:32:54.724            34.766                 Moscow          1086.438
        24   01 Jun 2027 07:33:09.772   01 Jun 2027 07:34:41.235            91.463                 Moscow          2858.219
        25   01 Jun 2027 07:34:44.784   01 Jun 2027 07:35:30.114            45.330              Murmansk2          1416.562
        26   01 Jun 2027 07:36:11.742   01 Jun 2027 07:36:22.877            11.135                 Moscow           347.969
        27   01 Jun 2027 07:37:37.299   01 Jun 2027 07:37:38.041             0.742                 Moscow            23.188
        28   01 Jun 2027 07:51:47.485   01 Jun 2027 08:01:46.814           599.329               CapeTown         18729.031
        29   01 Jun 2027 08:54:49.795   01 Jun 2027 08:57:37.037           167.242                Anadyr1          5226.312
        30   01 Jun 2027 08:58:34.625   01 Jun 2027 08:59:17.875            43.250                Anadyr2          1351.563
        31   01 Jun 2027 10:27:18.956   01 Jun 2027 10:35:58.211           519.255                Anadyr1         16226.719
        32   01 Jun 2027 12:02:42.610   01 Jun 2027 12:11:10.160           507.550               Magadan2         15860.937
        33   01 Jun 2027 14:27:24.606   01 Jun 2027 14:32:20.640           296.034            RioGallegos          9251.063
        34   01 Jun 2027 14:59:55.178   01 Jun 2027 15:06:53.760           418.582                Sumatra         13080.687
        35   01 Jun 2027 15:15:47.277   01 Jun 2027 15:21:31.015           343.738                Irkutsk         10741.812
        36   01 Jun 2027 16:46:00.875   01 Jun 2027 16:50:32.786           271.911                  Delhi          8497.219
        37   01 Jun 2027 16:54:17.047   01 Jun 2027 16:58:41.565           264.518                Novosib          8266.188
        38   01 Jun 2027 20:09:43.281   01 Jun 2027 20:10:00.100            16.819              Murmansk1           525.594
        39   01 Jun 2027 20:10:03.471   01 Jun 2027 20:10:26.040            22.569                 Moscow           705.281
        40   01 Jun 2027 20:12:29.087   01 Jun 2027 20:14:28.341           119.254              Murmansk2          3726.687
        41   01 Jun 2027 20:16:00.233   01 Jun 2027 20:16:24.542            24.309              Murmansk1           759.656
        42   01 Jun 2027 21:17:31.511   01 Jun 2027 21:24:08.260           396.749               CapeTown         12398.406
        43   02 Jun 2027 03:06:37.602   02 Jun 2027 03:12:08.520           330.918                Sumatra         10341.187
        44   02 Jun 2027 03:42:35.342   02 Jun 2027 03:42:46.028            10.686            RioGallegos           333.937
        45   02 Jun 2027 04:26:26.780   02 Jun 2027 04:26:33.567             6.787                Irkutsk           212.094
        46   02 Jun 2027 04:31:36.160   02 Jun 2027 04:32:29.389            53.229              Murmansk2          1663.406
        47   02 Jun 2027 04:32:38.645   02 Jun 2027 04:32:40.419             1.774              Murmansk2            55.438
        48   02 Jun 2027 04:32:42.025   02 Jun 2027 04:33:35.476            53.451                Irkutsk          1670.344
        49   02 Jun 2027 04:35:01.206   02 Jun 2027 04:35:02.377             1.171                  Delhi            36.594
        50   02 Jun 2027 04:36:09.514   02 Jun 2027 04:36:36.373            26.859                Novosib           839.344
        51   02 Jun 2027 04:37:29.763   02 Jun 2027 04:38:35.768            66.005                  Delhi          2062.656
        52   02 Jun 2027 06:07:43.907   02 Jun 2027 06:07:50.108             6.201                Norilsk           193.781
        53   02 Jun 2027 06:07:50.399   02 Jun 2027 06:09:12.636            82.237                Novosib          2569.906
        54   02 Jun 2027 06:09:24.602   02 Jun 2027 06:09:38.504            13.902              Murmansk1           434.437
        55   02 Jun 2027 06:09:38.504   02 Jun 2027 06:10:03.703            25.199              Murmansk2           787.469
        56   02 Jun 2027 06:10:20.005   02 Jun 2027 06:12:20.812           120.807                 Moscow          3775.219
        57   02 Jun 2027 06:12:57.957   02 Jun 2027 06:13:56.798            58.841                 Moscow          1838.781
        58   02 Jun 2027 06:14:56.753   02 Jun 2027 06:15:51.277            54.524                 Moscow          1703.875
        59   02 Jun 2027 06:29:45.671   02 Jun 2027 06:30:55.070            69.399               CapeTown          2168.719
        60   02 Jun 2027 07:31:55.145   02 Jun 2027 07:31:56.022             0.877               Magadan2            27.406
        61   02 Jun 2027 07:32:30.395   02 Jun 2027 07:32:56.095            25.700               Magadan1           803.125
        62   02 Jun 2027 07:34:07.015   02 Jun 2027 07:35:02.514            55.499               Magadan1          1734.344
        63   02 Jun 2027 07:43:00.338   02 Jun 2027 07:43:45.221            44.883                Norilsk          1402.594
        64   02 Jun 2027 07:43:51.333   02 Jun 2027 07:46:49.343           178.010                 Moscow          5562.812
        65   02 Jun 2027 07:47:14.202   02 Jun 2027 07:47:28.993            14.791                 Moscow           462.219
        66   02 Jun 2027 07:47:53.165   02 Jun 2027 07:48:59.105            65.940                 Moscow          2060.625
        67   02 Jun 2027 07:50:36.224   02 Jun 2027 07:51:07.125            30.901                 Moscow           965.656
        68   02 Jun 2027 08:04:20.243   02 Jun 2027 08:14:27.747           607.504               CapeTown         18984.500
        69   02 Jun 2027 09:05:11.241   02 Jun 2027 09:10:07.384           296.143                Anadyr1          9254.469
        70   02 Jun 2027 10:40:01.938   02 Jun 2027 10:47:49.399           467.461                Anadyr1         14608.156
        71   02 Jun 2027 12:15:32.315   02 Jun 2027 12:22:53.074           440.759               Magadan2         13773.719
        72   02 Jun 2027 14:38:19.200   02 Jun 2027 14:45:38.224           439.024            RioGallegos         13719.500
        73   02 Jun 2027 15:13:43.738   02 Jun 2027 15:16:59.281           195.543                Sumatra          6110.719
        74   02 Jun 2027 15:29:36.678   02 Jun 2027 15:32:16.146           159.468                Irkutsk          4983.375
        75   02 Jun 2027 17:10:47.336   02 Jun 2027 17:11:03.783            16.447                Norilsk           513.969
        76   02 Jun 2027 20:21:35.235   02 Jun 2027 20:22:55.726            80.491              Murmansk1          2515.344
        77   02 Jun 2027 20:23:30.413   02 Jun 2027 20:24:20.705            50.292              Murmansk2          1571.625
        78   02 Jun 2027 20:24:24.726   02 Jun 2027 20:27:13.300           168.574              Murmansk2          5267.938
        79   02 Jun 2027 20:27:46.808   02 Jun 2027 20:30:14.768           147.960              Murmansk1          4623.750
        80   02 Jun 2027 21:30:39.423   02 Jun 2027 21:34:36.217           236.794               CapeTown          7399.813
        81   02 Jun 2027 23:43:58.041   02 Jun 2027 23:45:35.872            97.831                Anadyr2          3057.219
        82   02 Jun 2027 23:45:48.593   02 Jun 2027 23:46:19.111            30.518                Anadyr1           953.687
        83   02 Jun 2027 23:46:29.690   02 Jun 2027 23:49:29.962           180.272               Magadan1          5633.500
        84   02 Jun 2027 23:51:40.712   02 Jun 2027 23:52:08.143            27.431               Magadan2           857.219
        85   02 Jun 2027 23:52:56.317   02 Jun 2027 23:53:59.282            62.965                Irkutsk          1967.656
        86   02 Jun 2027 23:56:40.803   02 Jun 2027 23:57:56.980            76.177                Irkutsk          2380.531
        87   03 Jun 2027 00:08:21.240   03 Jun 2027 00:09:08.489            47.249                Sumatra          1476.531
        88   03 Jun 2027 00:10:50.430   03 Jun 2027 00:11:48.960            58.530                Sumatra          1829.062
        89   03 Jun 2027 00:38:04.343   03 Jun 2027 00:39:12.663            68.320            RioGallegos          2135.000
        90   03 Jun 2027 00:49:07.520   03 Jun 2027 00:49:22.837            15.317            RioGallegos           478.656
        91   03 Jun 2027 01:19:25.264   03 Jun 2027 01:20:17.013            51.749                Anadyr1          1617.156
        92   03 Jun 2027 01:20:54.935   03 Jun 2027 01:20:58.289             3.354                Anadyr2           104.813
        93   03 Jun 2027 01:20:58.289   03 Jun 2027 01:21:24.066            25.777                Anadyr1           805.531
        94   03 Jun 2027 01:21:47.386   03 Jun 2027 01:23:50.562           123.176                Norilsk          3849.250
        95   03 Jun 2027 01:24:11.464   03 Jun 2027 01:24:58.000            46.536               Magadan1          1454.250
        96   03 Jun 2027 01:25:48.348   03 Jun 2027 01:27:31.092           102.744                Irkutsk          3210.750
        97   03 Jun 2027 01:29:06.035   03 Jun 2027 01:29:50.007            43.972                Novosib          1374.125
        98   03 Jun 2027 01:39:30.939   03 Jun 2027 01:42:04.055           153.116                Sumatra          4784.875
        99   03 Jun 2027 01:42:40.599   03 Jun 2027 01:43:43.224            62.625                Sumatra          1957.031
       100   03 Jun 2027 02:19:43.899   03 Jun 2027 02:20:16.249            32.350            RioGallegos          1010.937
       101   03 Jun 2027 02:56:53.297   03 Jun 2027 02:56:58.285             4.988                Anadyr1           155.875
       102   03 Jun 2027 02:57:19.511   03 Jun 2027 02:57:48.023            28.512                Anadyr1           891.000
       103   03 Jun 2027 02:58:07.098   03 Jun 2027 02:59:23.003            75.905                Norilsk          2372.031
       104   03 Jun 2027 02:59:36.489   03 Jun 2027 03:00:04.264            27.775               Magadan2           867.969
       105   03 Jun 2027 03:02:58.425   03 Jun 2027 03:03:23.236            24.811               Magadan2           775.344
       106   03 Jun 2027 03:03:23.236   03 Jun 2027 03:03:58.853            35.617               Magadan1          1113.031
       107   03 Jun 2027 03:04:12.312   03 Jun 2027 03:04:48.165            35.853                Norilsk          1120.406
       108   03 Jun 2027 03:05:07.086   03 Jun 2027 03:05:31.429            24.343                Irkutsk           760.719
       109   03 Jun 2027 03:05:31.780   03 Jun 2027 03:05:33.492             1.712                Novosib            53.500
       110   03 Jun 2027 03:05:37.213   03 Jun 2027 03:06:31.326            54.113                Norilsk          1691.031
       111   03 Jun 2027 03:06:46.507   03 Jun 2027 03:07:34.279            47.772                Norilsk          1492.875
       112   03 Jun 2027 03:07:38.975   03 Jun 2027 03:07:53.687            14.712                Irkutsk           459.750
       113   03 Jun 2027 03:08:09.562   03 Jun 2027 03:08:19.872            10.310                Norilsk           322.187
       114   03 Jun 2027 03:08:41.354   03 Jun 2027 03:09:25.208            43.854                Norilsk          1370.437
       115   03 Jun 2027 03:09:33.361   03 Jun 2027 03:09:59.725            26.364                Irkutsk           823.875
       116   03 Jun 2027 03:10:05.589   03 Jun 2027 03:10:16.165            10.576                Norilsk           330.500
       117   03 Jun 2027 03:15:38.448   03 Jun 2027 03:16:04.296            25.848                  Delhi           807.750
       118   03 Jun 2027 03:50:29.847   03 Jun 2027 03:55:08.129           278.282            RioGallegos          8696.312
       119   03 Jun 2027 04:38:42.258   03 Jun 2027 04:39:29.774            47.516                Irkutsk          1484.875
       120   03 Jun 2027 04:41:43.944   03 Jun 2027 04:41:59.509            15.565              Murmansk1           486.406
       121   03 Jun 2027 04:42:01.228   03 Jun 2027 04:42:09.656             8.428                Irkutsk           263.375
       122   03 Jun 2027 04:42:20.713   03 Jun 2027 04:43:39.765            79.052                Irkutsk          2470.375
       123   03 Jun 2027 04:43:44.014   03 Jun 2027 04:44:34.477            50.463              Murmansk2          1576.969
       124   03 Jun 2027 04:44:36.594   03 Jun 2027 04:44:41.494             4.900              Murmansk1           153.125
       125   03 Jun 2027 04:45:07.091   03 Jun 2027 04:45:15.397             8.306                Irkutsk           259.563
       126   03 Jun 2027 04:45:17.625   03 Jun 2027 04:45:25.423             7.798              Murmansk2           243.688
       127   03 Jun 2027 04:45:50.506   03 Jun 2027 04:46:05.089            14.583                Norilsk           455.719
       128   03 Jun 2027 04:46:21.106   03 Jun 2027 04:51:33.792           312.686                  Delhi          9771.438
       129   03 Jun 2027 06:16:54.501   03 Jun 2027 06:18:37.669           103.168                Novosib          3224.000
       130   03 Jun 2027 06:19:43.094   03 Jun 2027 06:20:09.859            26.765              Murmansk2           836.406
       131   03 Jun 2027 06:20:26.577   03 Jun 2027 06:20:46.520            19.943              Murmansk1           623.219
       132   03 Jun 2027 06:20:46.520   03 Jun 2027 06:21:29.794            43.274              Murmansk2          1352.312
       133   03 Jun 2027 06:21:55.291   03 Jun 2027 06:22:55.710            60.419              Murmansk1          1888.094
       134   03 Jun 2027 06:22:57.120   03 Jun 2027 06:23:17.038            19.918                 Moscow           622.438
       135   03 Jun 2027 06:23:22.940   03 Jun 2027 06:24:25.370            62.430              Murmansk2          1950.937
       136   03 Jun 2027 06:24:44.417   03 Jun 2027 06:24:59.148            14.731                 Moscow           460.344
       137   03 Jun 2027 06:39:07.301   03 Jun 2027 06:42:12.575           185.274               CapeTown          5789.812
       138   03 Jun 2027 07:42:24.505   03 Jun 2027 07:42:33.970             9.465                Anadyr2           295.781
       139   03 Jun 2027 07:42:35.674   03 Jun 2027 07:42:55.255            19.581               Magadan2           611.906
       140   03 Jun 2027 07:42:56.328   03 Jun 2027 07:43:31.173            34.845                Anadyr2          1088.906
       141   03 Jun 2027 07:43:44.864   03 Jun 2027 07:44:27.113            42.249               Magadan2          1320.281
       142   03 Jun 2027 07:44:45.658   03 Jun 2027 07:45:21.125            35.467                Anadyr2          1108.344
       143   03 Jun 2027 07:52:15.626   03 Jun 2027 07:52:22.380             6.754                 Moscow           211.062
       144   03 Jun 2027 07:54:13.935   03 Jun 2027 07:54:59.404            45.469              Murmansk1          1420.906
       145   03 Jun 2027 07:55:12.978   03 Jun 2027 07:55:17.668             4.690                 Moscow           146.563
       146   03 Jun 2027 07:58:52.159   03 Jun 2027 07:59:21.535            29.376                 Moscow           918.000
       147   03 Jun 2027 08:01:57.106   03 Jun 2027 08:02:00.398             3.292                 Moscow           102.875
       148   03 Jun 2027 08:02:34.159   03 Jun 2027 08:03:01.332            27.173                 Moscow           849.156
       149   03 Jun 2027 08:17:03.718   03 Jun 2027 08:25:41.563           517.845               CapeTown         16182.656
       150   03 Jun 2027 08:25:55.985   03 Jun 2027 08:26:06.127            10.142               CapeTown           316.938
       151   03 Jun 2027 09:16:29.196   03 Jun 2027 09:17:36.719            67.523                Anadyr1          2110.094
       152   03 Jun 2027 09:17:36.719   03 Jun 2027 09:18:48.400            71.681                Anadyr2          2240.031
       153   03 Jun 2027 09:19:21.005   03 Jun 2027 09:20:58.469            97.464               Magadan1          3045.750
       154   03 Jun 2027 09:21:47.921   03 Jun 2027 09:22:28.742            40.821                Anadyr1          1275.656
       155   03 Jun 2027 09:22:28.742   03 Jun 2027 09:22:36.798             8.056                Anadyr2           251.750
       156   03 Jun 2027 09:22:53.879   03 Jun 2027 09:23:35.558            41.679               Magadan1          1302.469
       157   03 Jun 2027 10:03:16.742   03 Jun 2027 10:03:47.148            30.406            RioGallegos           950.188
       158   03 Jun 2027 10:48:03.995   03 Jun 2027 10:48:21.614            17.619               Magadan1           550.594
       159   03 Jun 2027 10:50:32.831   03 Jun 2027 10:51:41.628            68.797               Magadan1          2149.906
       160   03 Jun 2027 10:52:23.637   03 Jun 2027 10:52:45.604            21.967                Irkutsk           686.469
       161   03 Jun 2027 10:52:51.282   03 Jun 2027 10:59:36.736           405.454                Anadyr2         12670.437
       162   03 Jun 2027 12:23:18.030   03 Jun 2027 12:24:35.791            77.761                Irkutsk          2430.031
       163   03 Jun 2027 12:28:11.176   03 Jun 2027 12:28:29.438            18.262                Norilsk           570.688
       164   03 Jun 2027 12:28:33.139   03 Jun 2027 12:34:27.748           354.609               Magadan2         11081.531
       165   03 Jun 2027 13:47:30.581   03 Jun 2027 13:48:40.684            70.103                Sumatra          2190.719
       166   03 Jun 2027 13:59:54.943   03 Jun 2027 14:00:23.944            29.001                Irkutsk           906.281
       167   03 Jun 2027 14:02:04.325   03 Jun 2027 14:05:39.068           214.743                Irkutsk          6710.719
       168   03 Jun 2027 14:51:31.823   03 Jun 2027 14:56:56.647           324.824            RioGallegos         10150.750
       169   03 Jun 2027 15:42:29.329   03 Jun 2027 15:43:02.334            33.005                Novosib          1031.406
       170   03 Jun 2027 15:46:07.168   03 Jun 2027 15:46:14.298             7.130                Novosib           222.813
       171   03 Jun 2027 15:46:47.296   03 Jun 2027 15:47:07.390            20.094                Norilsk           627.937
       172   03 Jun 2027 15:47:22.235   03 Jun 2027 15:47:45.334            23.099                Novosib           721.844
       173   03 Jun 2027 17:15:32.102   03 Jun 2027 17:17:12.899           100.797                 Moscow          3149.906
       174   03 Jun 2027 17:19:08.795   03 Jun 2027 17:20:12.936            64.141              Murmansk1          2004.406
       175   03 Jun 2027 17:21:52.138   03 Jun 2027 17:25:42.584           230.446                Norilsk          7201.438
       176   03 Jun 2027 17:27:11.398   03 Jun 2027 17:28:00.479            49.081                Norilsk          1533.781
       177   03 Jun 2027 18:51:41.513   03 Jun 2027 18:52:57.392            75.879                 Moscow          2371.219
       178   03 Jun 2027 18:54:45.558   03 Jun 2027 18:55:54.219            68.661              Murmansk2          2145.656
       179   03 Jun 2027 18:56:51.180   03 Jun 2027 18:57:09.215            18.035                 Moscow           563.594
       180   03 Jun 2027 18:58:47.075   03 Jun 2027 18:59:18.688            31.613              Murmansk1           987.906
       181   03 Jun 2027 19:04:38.476   03 Jun 2027 19:04:47.591             9.115              Murmansk1           284.844
       182   03 Jun 2027 19:11:24.275   03 Jun 2027 19:11:36.430            12.155                Anadyr2           379.844
       183   03 Jun 2027 20:03:40.733   03 Jun 2027 20:06:33.716           172.983               CapeTown          5405.719
       184   03 Jun 2027 20:11:38.161   03 Jun 2027 20:12:04.403            26.242               CapeTown           820.063
       185   03 Jun 2027 20:34:13.780   03 Jun 2027 20:40:03.791           350.011              Murmansk1         10937.844
       186   03 Jun 2027 20:40:23.963   03 Jun 2027 20:42:11.792           107.829              Murmansk2          3369.656
       187   03 Jun 2027 22:20:06.915   03 Jun 2027 22:22:03.108           116.193                Anadyr2          3631.031
       188   03 Jun 2027 22:22:26.104   03 Jun 2027 22:24:56.148           150.044               Magadan2          4688.875
       189   03 Jun 2027 22:25:13.437   03 Jun 2027 22:25:40.166            26.729               Magadan2           835.281
       190   03 Jun 2027 22:26:15.270   03 Jun 2027 22:26:22.034             6.764               Magadan2           211.375
       191   03 Jun 2027 22:27:36.566   03 Jun 2027 22:27:53.567            17.001               Magadan2           531.281
       192   03 Jun 2027 22:30:41.189   03 Jun 2027 22:31:01.798            20.609               Magadan1           644.031
       193   03 Jun 2027 23:16:58.933   03 Jun 2027 23:19:05.448           126.515            RioGallegos          3953.594
       194   03 Jun 2027 23:55:58.220   03 Jun 2027 23:58:07.216           128.996                Anadyr1          4031.125
       195   03 Jun 2027 23:58:20.004   04 Jun 2027 00:00:28.142           128.138               Magadan2          4004.313
       196   04 Jun 2027 00:00:39.457   04 Jun 2027 00:01:25.068            45.611               Magadan1          1425.344
       197   04 Jun 2027 00:03:09.279   04 Jun 2027 00:03:34.248            24.969               Magadan1           780.281
       198   04 Jun 2027 00:04:17.610   04 Jun 2027 00:05:00.012            42.402                Irkutsk          1325.062
       199   04 Jun 2027 00:06:37.450   04 Jun 2027 00:06:56.806            19.356                Irkutsk           604.875
       200   04 Jun 2027 00:08:37.013   04 Jun 2027 00:09:50.940            73.927                Irkutsk          2310.219
       201   04 Jun 2027 00:18:40.906   04 Jun 2027 00:20:28.903           107.997                Sumatra          3374.906
       202   04 Jun 2027 00:49:59.694   04 Jun 2027 00:50:32.511            32.817            RioGallegos          1025.531
       203   04 Jun 2027 00:52:28.609   04 Jun 2027 00:52:41.368            12.759            RioGallegos           398.719
       204   04 Jun 2027 00:54:53.875   04 Jun 2027 00:54:58.463             4.588            RioGallegos           143.375
       205   04 Jun 2027 00:56:54.716   04 Jun 2027 00:57:25.060            30.344            RioGallegos           948.250
       206   04 Jun 2027 01:01:22.344   04 Jun 2027 01:01:26.526             4.182            RioGallegos           130.688
       207   04 Jun 2027 01:01:46.904   04 Jun 2027 01:02:16.514            29.610            RioGallegos           925.312
       208   04 Jun 2027 01:31:19.697   04 Jun 2027 01:31:21.088             1.391                Anadyr2            43.469
       209   04 Jun 2027 01:31:36.206   04 Jun 2027 01:32:09.856            33.650                Anadyr1          1051.563
       210   04 Jun 2027 01:32:50.157   04 Jun 2027 01:33:24.285            34.128                Anadyr2          1066.500
       211   04 Jun 2027 01:33:49.303   04 Jun 2027 01:35:23.054            93.751                Norilsk          2929.719
       212   04 Jun 2027 01:35:37.171   04 Jun 2027 01:35:52.920            15.749                Norilsk           492.156
       213   04 Jun 2027 01:36:10.984   04 Jun 2027 01:37:35.396            84.412               Magadan2          2637.875
       214   04 Jun 2027 01:37:46.875   04 Jun 2027 01:39:09.158            82.283                Irkutsk          2571.344
       215   04 Jun 2027 01:41:18.989   04 Jun 2027 01:41:42.089            23.100                Irkutsk           721.875
       216   04 Jun 2027 01:44:56.184   04 Jun 2027 01:45:32.360            36.176                Irkutsk          1130.500
       217   04 Jun 2027 01:49:51.518   04 Jun 2027 01:50:47.597            56.079                  Delhi          1752.469
       218   04 Jun 2027 01:52:47.418   04 Jun 2027 01:54:39.355           111.937                Sumatra          3498.031
       219   04 Jun 2027 01:57:59.579   04 Jun 2027 02:00:04.405           124.826                Sumatra          3900.812
       220   04 Jun 2027 03:15:00.640   04 Jun 2027 03:15:58.504            57.864               Magadan1          1808.250
       221   04 Jun 2027 03:15:58.504   04 Jun 2027 03:16:00.065             1.561               Magadan2            48.781
       222   04 Jun 2027 03:16:42.064   04 Jun 2027 03:17:07.915            25.851                Irkutsk           807.844
       223   04 Jun 2027 03:18:40.717   04 Jun 2027 03:19:16.852            36.135                Norilsk          1129.219
       224   04 Jun 2027 03:19:23.601   04 Jun 2027 03:20:26.626            63.025                Novosib          1969.531
       225   04 Jun 2027 03:20:48.520   04 Jun 2027 03:20:52.130             3.610                Novosib           112.812
       226   04 Jun 2027 03:21:01.324   04 Jun 2027 03:28:55.944           474.620                  Delhi         14831.875
       227   04 Jun 2027 03:31:17.225   04 Jun 2027 03:33:46.177           148.952                  Delhi          4654.750
       228   04 Jun 2027 04:02:45.195   04 Jun 2027 04:07:39.576           294.381            RioGallegos          9199.406
       229   04 Jun 2027 04:51:01.749   04 Jun 2027 04:51:20.870            19.121                Irkutsk           597.531
       230   04 Jun 2027 04:53:26.708   04 Jun 2027 04:53:46.025            19.317              Murmansk2           603.656
       231   04 Jun 2027 04:54:04.371   04 Jun 2027 04:55:13.251            68.880              Murmansk2          2152.500
       232   04 Jun 2027 04:55:21.827   04 Jun 2027 04:55:27.296             5.469                 Moscow           170.906
       233   04 Jun 2027 04:55:31.516   04 Jun 2027 04:56:29.097            57.581              Murmansk1          1799.406
       234   04 Jun 2027 04:56:33.385   04 Jun 2027 04:56:51.742            18.357              Murmansk1           573.656
       235   04 Jun 2027 04:56:51.742   04 Jun 2027 04:57:17.374            25.632              Murmansk2           801.000
       236   04 Jun 2027 04:57:22.362   04 Jun 2027 04:57:52.646            30.284                Novosib           946.375
       237   04 Jun 2027 04:58:22.244   04 Jun 2027 05:06:49.120           506.876                  Delhi         15839.875
       238   04 Jun 2027 06:30:40.034   04 Jun 2027 06:30:48.091             8.057                Norilsk           251.781
       239   04 Jun 2027 06:30:57.137   04 Jun 2027 06:31:07.714            10.577              Murmansk2           330.531
       240   04 Jun 2027 06:31:13.762   04 Jun 2027 06:31:38.470            24.708              Murmansk2           772.125
       241   04 Jun 2027 06:31:45.102   04 Jun 2027 06:32:10.150            25.048              Murmansk2           782.750
       242   04 Jun 2027 06:32:10.811   04 Jun 2027 06:32:59.682            48.871                 Moscow          1527.219
       243   04 Jun 2027 06:33:01.796   04 Jun 2027 06:33:23.181            21.385                Novosib           668.281
       244   04 Jun 2027 06:33:28.860   04 Jun 2027 06:34:22.074            53.214                 Moscow          1662.937
       245   04 Jun 2027 06:34:51.996   04 Jun 2027 06:35:00.592             8.596                 Moscow           268.625
       246   04 Jun 2027 06:35:06.481   04 Jun 2027 06:36:28.114            81.633              Murmansk1          2551.031
       247   04 Jun 2027 06:51:03.832   04 Jun 2027 06:52:05.293            61.461               CapeTown          1920.656
       248   04 Jun 2027 06:58:05.398   04 Jun 2027 06:59:46.736           101.338               CapeTown          3166.813
       249   04 Jun 2027 07:54:19.382   04 Jun 2027 07:55:03.233            43.851                Anadyr2          1370.344
       250   04 Jun 2027 07:55:11.713   04 Jun 2027 07:56:10.189            58.476                Anadyr1          1827.375
       251   04 Jun 2027 07:58:53.316   04 Jun 2027 08:00:09.043            75.727                Anadyr1          2366.469
       252   04 Jun 2027 08:30:03.191   04 Jun 2027 08:37:22.685           439.494               CapeTown         13734.188
       253   04 Jun 2027 09:30:35.134   04 Jun 2027 09:30:35.947             0.813               Magadan2            25.406
       254   04 Jun 2027 09:30:35.947   04 Jun 2027 09:30:40.467             4.520               Magadan1           141.250
       255   04 Jun 2027 09:30:46.548   04 Jun 2027 09:32:29.851           103.303                Anadyr2          3228.219
       256   04 Jun 2027 09:32:36.793   04 Jun 2027 09:34:29.357           112.564               Magadan1          3517.625
       257   04 Jun 2027 09:34:59.967   04 Jun 2027 09:36:12.550            72.583                Anadyr2          2268.219
       258   04 Jun 2027 09:43:44.254   04 Jun 2027 09:44:36.609            52.355                 Moscow          1636.094
       259   04 Jun 2027 11:03:24.706   04 Jun 2027 11:05:22.129           117.423               Magadan1          3669.469
       260   04 Jun 2027 11:05:43.260   04 Jun 2027 11:05:46.143             2.883                Norilsk            90.094
       261   04 Jun 2027 11:05:49.639   04 Jun 2027 11:11:17.591           327.952                Anadyr1         10248.500
       262   04 Jun 2027 11:11:38.076   04 Jun 2027 11:12:12.216            34.140              Murmansk1          1066.875
       263   04 Jun 2027 11:12:45.178   04 Jun 2027 11:12:55.020             9.842              Murmansk2           307.562
       264   04 Jun 2027 11:47:05.175   04 Jun 2027 11:48:06.399            61.224            RioGallegos          1913.250
       265   04 Jun 2027 11:52:36.929   04 Jun 2027 11:53:16.588            39.659            RioGallegos          1239.344
       266   04 Jun 2027 12:24:08.521   04 Jun 2027 12:26:03.972           115.451                Sumatra          3607.844
       267   04 Jun 2027 12:35:13.258   04 Jun 2027 12:36:35.355            82.097                Irkutsk          2565.531
       268   04 Jun 2027 12:37:28.210   04 Jun 2027 12:37:54.543            26.333                Irkutsk           822.906
       269   04 Jun 2027 12:40:08.468   04 Jun 2027 12:40:42.547            34.079                Norilsk          1064.969
       270   04 Jun 2027 12:41:55.361   04 Jun 2027 12:45:43.993           228.632               Magadan1          7144.750
       271   04 Jun 2027 13:57:38.614   04 Jun 2027 14:00:36.580           177.966                Sumatra          5561.437
       272   04 Jun 2027 14:12:19.354   04 Jun 2027 14:13:20.926            61.572                Irkutsk          1924.125
       273   04 Jun 2027 14:14:01.379   04 Jun 2027 14:17:26.716           205.337                Irkutsk          6416.781
       274   04 Jun 2027 15:05:43.886   04 Jun 2027 15:07:18.915            95.029            RioGallegos          2969.656
       275   04 Jun 2027 15:42:11.660   04 Jun 2027 15:43:14.014            62.354                  Delhi          1948.563
       276   04 Jun 2027 15:50:17.521   04 Jun 2027 15:51:42.108            84.587                Novosib          2643.344
       277   04 Jun 2027 15:54:49.245   04 Jun 2027 15:55:48.924            59.679                Novosib          1864.969
       278   04 Jun 2027 15:57:16.234   04 Jun 2027 15:57:35.431            19.197                Novosib           599.906
       279   04 Jun 2027 15:59:17.623   04 Jun 2027 15:59:46.020            28.397                Norilsk           887.406
       280   04 Jun 2027 17:26:10.086   04 Jun 2027 17:27:30.199            80.113                 Moscow          2503.531
       281   04 Jun 2027 17:28:07.107   04 Jun 2027 17:29:28.127            81.020                 Moscow          2531.875
       282   04 Jun 2027 17:31:10.939   04 Jun 2027 17:31:56.075            45.136              Murmansk1          1410.500
       283   04 Jun 2027 17:34:40.073   04 Jun 2027 17:40:29.197           349.124                Norilsk         10910.125
       284   04 Jun 2027 19:04:14.219   04 Jun 2027 19:06:21.887           127.668                 Moscow          3989.625
       285   04 Jun 2027 19:07:17.354   04 Jun 2027 19:07:22.675             5.321              Murmansk2           166.281
       286   04 Jun 2027 19:09:25.351   04 Jun 2027 19:10:45.252            79.901              Murmansk1          2496.906
       287   04 Jun 2027 20:15:50.273   04 Jun 2027 20:18:20.861           150.588               CapeTown          4705.875
       288   04 Jun 2027 20:23:59.872   04 Jun 2027 20:25:32.537            92.665               CapeTown          2895.781
       289   04 Jun 2027 20:46:56.218   04 Jun 2027 20:54:07.037           430.819              Murmansk2         13463.094
       290   04 Jun 2027 22:32:08.746   04 Jun 2027 22:32:30.431            21.685                Anadyr1           677.656
       291   04 Jun 2027 22:32:45.801   04 Jun 2027 22:33:13.120            27.319                Anadyr1           853.719
       292   04 Jun 2027 22:33:38.823   04 Jun 2027 22:34:03.267            24.444                Anadyr1           763.875
       293   04 Jun 2027 22:34:26.099   04 Jun 2027 22:35:38.027            71.928               Magadan2          2247.750
       294   04 Jun 2027 22:35:46.070   04 Jun 2027 22:35:54.466             8.396               Magadan2           262.375
       295   04 Jun 2027 22:36:10.650   04 Jun 2027 22:36:43.282            32.632               Magadan2          1019.750
       296   04 Jun 2027 22:37:17.670   04 Jun 2027 22:37:42.248            24.578               Magadan1           768.062
       297   04 Jun 2027 22:37:51.833   04 Jun 2027 22:38:12.107            20.274               Magadan1           633.562
       298   04 Jun 2027 22:40:08.549   04 Jun 2027 22:40:12.841             4.292               Magadan2           134.125
       299   04 Jun 2027 22:42:09.608   04 Jun 2027 22:42:31.817            22.209               Magadan2           694.031
       300   04 Jun 2027 22:43:38.339   04 Jun 2027 22:43:53.514            15.175               Magadan1           474.219
       301   04 Jun 2027 23:28:01.031   04 Jun 2027 23:30:23.196           142.165            RioGallegos          4442.656
       302   04 Jun 2027 23:30:28.306   04 Jun 2027 23:30:46.696            18.390            RioGallegos           574.687
       303   05 Jun 2027 00:07:57.954   05 Jun 2027 00:09:26.122            88.168                Anadyr2          2755.250
       304   05 Jun 2027 00:09:32.737   05 Jun 2027 00:10:12.702            39.965                Anadyr1          1248.906
       305   05 Jun 2027 00:10:22.817   05 Jun 2027 00:13:16.623           173.806               Magadan2          5431.438
       306   05 Jun 2027 00:14:53.417   05 Jun 2027 00:15:52.842            59.425                Irkutsk          1857.031
       307   05 Jun 2027 00:17:00.432   05 Jun 2027 00:17:31.543            31.111                Irkutsk           972.219
       308   05 Jun 2027 00:19:30.508   05 Jun 2027 00:19:34.539             4.031                Irkutsk           125.969
       309   05 Jun 2027 00:20:30.127   05 Jun 2027 00:21:46.720            76.593                Irkutsk          2393.531
       310   05 Jun 2027 00:29:42.043   05 Jun 2027 00:31:33.819           111.776                Sumatra          3493.000
       311   05 Jun 2027 01:03:53.117   05 Jun 2027 01:04:18.159            25.042            RioGallegos           782.562
       312   05 Jun 2027 01:06:26.331   05 Jun 2027 01:06:51.716            25.385            RioGallegos           793.281
       313   05 Jun 2027 01:10:05.286   05 Jun 2027 01:10:21.153            15.867            RioGallegos           495.844
       314   05 Jun 2027 01:12:51.115   05 Jun 2027 01:13:00.260             9.145            RioGallegos           285.781
       315   05 Jun 2027 01:14:11.866   05 Jun 2027 01:14:30.154            18.288            RioGallegos           571.500
       316   05 Jun 2027 01:43:12.996   05 Jun 2027 01:43:31.321            18.325                Anadyr1           572.656
       317   05 Jun 2027 01:43:42.972   05 Jun 2027 01:44:04.321            21.349                Anadyr2           667.156
       318   05 Jun 2027 01:44:43.600   05 Jun 2027 01:45:24.119            40.519                Anadyr1          1266.219
       319   05 Jun 2027 01:45:49.478   05 Jun 2027 01:46:05.929            16.451                Anadyr2           514.094
       320   05 Jun 2027 01:46:30.841   05 Jun 2027 01:48:04.640            93.799               Magadan1          2931.219
       321   05 Jun 2027 01:49:46.526   05 Jun 2027 01:52:32.012           165.486                Irkutsk          5171.438
       322   05 Jun 2027 01:56:52.239   05 Jun 2027 01:57:20.151            27.912                Irkutsk           872.250
       323   05 Jun 2027 01:58:38.342   05 Jun 2027 01:58:56.437            18.095                Irkutsk           565.469
       324   05 Jun 2027 02:01:18.735   05 Jun 2027 02:01:51.264            32.529                  Delhi          1016.531
       325   05 Jun 2027 02:03:44.156   05 Jun 2027 02:04:04.408            20.252                Sumatra           632.875
       326   05 Jun 2027 02:06:32.318   05 Jun 2027 02:09:34.764           182.446                Sumatra          5701.437
       327   05 Jun 2027 02:48:44.995   05 Jun 2027 02:49:56.068            71.073            RioGallegos          2221.031
       328   05 Jun 2027 03:26:49.519   05 Jun 2027 03:27:02.667            13.148               Magadan1           410.875
       329   05 Jun 2027 03:29:42.508   05 Jun 2027 03:29:55.345            12.837                Irkutsk           401.156
       330   05 Jun 2027 03:30:33.269   05 Jun 2027 03:30:37.070             3.801                Norilsk           118.781
       331   05 Jun 2027 03:30:41.981   05 Jun 2027 03:30:44.041             2.060                Novosib            64.375
       332   05 Jun 2027 03:30:53.059   05 Jun 2027 03:31:54.461            61.402                Irkutsk          1918.812
       333   05 Jun 2027 03:32:09.031   05 Jun 2027 03:32:34.646            25.615                Norilsk           800.469
       334   05 Jun 2027 03:32:51.088   05 Jun 2027 03:33:30.841            39.753                Novosib          1242.281
       335   05 Jun 2027 03:33:38.684   05 Jun 2027 03:44:57.789           679.105                  Delhi         21222.031
       336   05 Jun 2027 04:15:04.332   05 Jun 2027 04:21:40.485           396.153            RioGallegos         12379.781
       337   05 Jun 2027 05:03:28.357   05 Jun 2027 05:05:21.384           113.027                Irkutsk          3532.094
       338   05 Jun 2027 05:06:27.316   05 Jun 2027 05:06:45.706            18.390                Irkutsk           574.687
       339   05 Jun 2027 05:06:59.689   05 Jun 2027 05:07:55.176            55.487                 Moscow          1733.969
       340   05 Jun 2027 05:08:02.743   05 Jun 2027 05:08:09.698             6.955                Irkutsk           217.344
       341   05 Jun 2027 05:08:09.722   05 Jun 2027 05:08:29.941            20.219                 Moscow           631.844
       342   05 Jun 2027 05:09:00.192   05 Jun 2027 05:09:10.080             9.888              Murmansk1           309.000
       343   05 Jun 2027 05:09:12.556   05 Jun 2027 05:09:15.755             3.199                 Moscow            99.969
       344   05 Jun 2027 05:09:21.798   05 Jun 2027 05:09:33.643            11.845              Murmansk2           370.156
       345   05 Jun 2027 05:09:36.403   05 Jun 2027 05:10:24.358            47.955              Murmansk2          1498.594
       346   05 Jun 2027 05:11:06.860   05 Jun 2027 05:17:45.561           398.701                  Delhi         12459.406
       347   05 Jun 2027 06:42:44.724   05 Jun 2027 06:43:46.997            62.273              Murmansk2          1946.031
       348   05 Jun 2027 06:43:53.969   05 Jun 2027 06:44:27.991            34.022                 Moscow          1063.187
       349   05 Jun 2027 06:44:39.372   05 Jun 2027 06:44:58.646            19.274                Norilsk           602.312
       350   05 Jun 2027 06:45:05.776   05 Jun 2027 06:46:18.799            73.023                 Moscow          2281.969
       351   05 Jun 2027 06:46:31.726   05 Jun 2027 06:46:41.498             9.772                 Moscow           305.375
       352   05 Jun 2027 06:46:51.302   05 Jun 2027 06:47:02.085            10.783              Murmansk2           336.969
       353   05 Jun 2027 06:47:02.085   05 Jun 2027 06:47:08.442             6.357              Murmansk1           198.656
       354   05 Jun 2027 06:47:34.904   05 Jun 2027 06:48:21.670            46.766              Murmansk2          1461.437
       355   05 Jun 2027 06:48:21.670   05 Jun 2027 06:48:45.272            23.602              Murmansk1           737.563
       356   05 Jun 2027 07:03:05.422   05 Jun 2027 07:03:52.156            46.734               CapeTown          1460.438
       357   05 Jun 2027 07:06:18.134   05 Jun 2027 07:07:24.864            66.730               CapeTown          2085.313
       358   05 Jun 2027 08:06:12.248   05 Jun 2027 08:07:47.103            94.855                Anadyr1          2964.219
       359   05 Jun 2027 08:07:54.499   05 Jun 2027 08:08:26.013            31.514                Anadyr1           984.813
       360   05 Jun 2027 08:08:26.013   05 Jun 2027 08:08:43.212            17.199                Anadyr2           537.469
       361   05 Jun 2027 08:10:54.024   05 Jun 2027 08:12:16.081            82.057                Anadyr2          2564.281
       362   05 Jun 2027 08:43:35.381   05 Jun 2027 08:48:08.976           273.595               CapeTown          8549.844
       363   05 Jun 2027 09:42:37.804   05 Jun 2027 09:48:31.476           353.672                Anadyr1         11052.250
       364   05 Jun 2027 11:17:52.515   05 Jun 2027 11:22:42.225           289.710               Magadan1          9053.438
       365   05 Jun 2027 11:23:05.461   05 Jun 2027 11:23:39.452            33.991              Murmansk2          1062.219
       366   05 Jun 2027 11:23:47.759   05 Jun 2027 11:23:59.678            11.919              Murmansk1           372.469
       367   05 Jun 2027 11:23:59.678   05 Jun 2027 11:24:12.245            12.567              Murmansk2           392.719
       368   05 Jun 2027 11:24:45.599   05 Jun 2027 11:25:00.540            14.941              Murmansk2           466.906
       369   05 Jun 2027 11:27:00.314   05 Jun 2027 11:27:00.554             0.240              Murmansk2             7.500
       370   05 Jun 2027 11:58:56.512   05 Jun 2027 12:00:12.500            75.988            RioGallegos          2374.625
       371   05 Jun 2027 12:35:19.913   05 Jun 2027 12:35:41.513            21.600                Sumatra           675.000
       372   05 Jun 2027 12:38:43.732   05 Jun 2027 12:39:59.163            75.431                Sumatra          2357.219
       373   05 Jun 2027 12:47:11.655   05 Jun 2027 12:50:17.477           185.822                Irkutsk          5806.937
       374   05 Jun 2027 12:52:07.013   05 Jun 2027 12:52:29.186            22.173                Norilsk           692.906
       375   05 Jun 2027 12:59:10.318   05 Jun 2027 12:59:21.864            11.546                Norilsk           360.812
       376   05 Jun 2027 13:07:08.873   05 Jun 2027 13:07:47.881            39.008              Murmansk1          1219.000
       377   05 Jun 2027 13:35:31.055   05 Jun 2027 13:36:02.770            31.715            RioGallegos           991.094
       378   05 Jun 2027 13:37:30.398   05 Jun 2027 13:40:36.322           185.924            RioGallegos          5810.125
       379   05 Jun 2027 14:09:51.315   05 Jun 2027 14:10:42.364            51.049                Sumatra          1595.281
       380   05 Jun 2027 14:24:49.008   05 Jun 2027 14:26:37.798           108.790                Irkutsk          3399.687
       381   05 Jun 2027 14:28:58.354   05 Jun 2027 14:29:39.307            40.953                Norilsk          1279.781
       382   05 Jun 2027 14:31:22.987   05 Jun 2027 14:33:41.055           138.068                Irkutsk          4314.625
       383   05 Jun 2027 15:54:35.298   05 Jun 2027 15:56:27.757           112.459                  Delhi          3514.344
       384   05 Jun 2027 15:59:17.431   05 Jun 2027 16:00:13.266            55.835                  Delhi          1744.844
       385   05 Jun 2027 16:02:51.448   05 Jun 2027 16:05:16.126           144.678                Novosib          4521.188
       386   05 Jun 2027 16:06:40.501   05 Jun 2027 16:08:05.769            85.268                Norilsk          2664.625
       387   05 Jun 2027 16:08:37.353   05 Jun 2027 16:08:43.611             6.258                Novosib           195.563
       388   05 Jun 2027 17:38:15.597   05 Jun 2027 17:39:27.101            71.504                 Moscow          2234.500
       389   05 Jun 2027 17:39:42.718   05 Jun 2027 17:41:29.117           106.399                 Moscow          3324.969
       390   05 Jun 2027 17:47:34.318   05 Jun 2027 17:52:18.131           283.813                Norilsk          8869.156
       391   05 Jun 2027 19:16:53.095   05 Jun 2027 19:23:07.993           374.898                 Moscow         11715.562
       392   05 Jun 2027 20:28:03.211   05 Jun 2027 20:28:09.691             6.480               CapeTown           202.500
       393   05 Jun 2027 20:29:46.568   05 Jun 2027 20:31:55.380           128.812               CapeTown          4025.375
       394   05 Jun 2027 20:36:16.411   05 Jun 2027 20:37:50.473            94.062               CapeTown          2939.437
       395   05 Jun 2027 20:59:43.397   05 Jun 2027 21:05:59.643           376.246              Murmansk2         11757.687
       396   05 Jun 2027 22:44:10.468   05 Jun 2027 22:45:26.337            75.869                Anadyr1          2370.906
       397   05 Jun 2027 22:45:39.359   05 Jun 2027 22:46:03.000            23.641                Anadyr1           738.781
       398   05 Jun 2027 22:46:26.659   05 Jun 2027 22:48:28.346           121.687               Magadan2          3802.719
       399   05 Jun 2027 22:49:36.536   05 Jun 2027 22:50:10.555            34.019               Magadan2          1063.094
       400   05 Jun 2027 22:50:19.680   05 Jun 2027 22:50:59.852            40.172               Magadan1          1255.375
       401   05 Jun 2027 22:55:21.912   05 Jun 2027 22:55:31.727             9.815               Magadan1           306.719
       402   05 Jun 2027 23:39:27.847   05 Jun 2027 23:42:32.945           185.098            RioGallegos          5784.312
       403   05 Jun 2027 23:44:43.311   05 Jun 2027 23:45:28.338            45.027            RioGallegos          1407.094
       404   06 Jun 2027 00:19:57.173   06 Jun 2027 00:21:19.645            82.472                Anadyr2          2577.250
       405   06 Jun 2027 00:22:01.439   06 Jun 2027 00:23:39.033            97.594                Norilsk          3049.812
       406   06 Jun 2027 00:24:59.513   06 Jun 2027 00:25:54.954            55.441               Magadan2          1732.531
       407   06 Jun 2027 00:25:54.954   06 Jun 2027 00:26:05.017            10.063               Magadan1           314.469
       408   06 Jun 2027 00:26:35.367   06 Jun 2027 00:26:56.983            21.616               Magadan1           675.500
       409   06 Jun 2027 00:27:52.033   06 Jun 2027 00:30:06.282           134.249                Irkutsk          4195.281
       410   06 Jun 2027 00:33:35.621   06 Jun 2027 00:33:43.996             8.375                Irkutsk           261.719
       411   06 Jun 2027 00:34:54.021   06 Jun 2027 00:35:12.280            18.259                Irkutsk           570.594
       412   06 Jun 2027 00:41:01.216   06 Jun 2027 00:41:46.087            44.871                Sumatra          1402.219
       413   06 Jun 2027 00:42:05.150   06 Jun 2027 00:43:53.851           108.701                Sumatra          3396.906
       414   06 Jun 2027 01:17:38.887   06 Jun 2027 01:17:47.038             8.151            RioGallegos           254.719
       415   06 Jun 2027 01:17:54.884   06 Jun 2027 01:18:19.368            24.484            RioGallegos           765.125
       416   06 Jun 2027 01:21:40.929   06 Jun 2027 01:21:47.670             6.741            RioGallegos           210.656
       417   06 Jun 2027 01:23:28.859   06 Jun 2027 01:23:55.355            26.496            RioGallegos           828.000
       418   06 Jun 2027 01:55:05.075   06 Jun 2027 01:55:26.661            21.586                Anadyr2           674.562
       419   06 Jun 2027 01:55:33.352   06 Jun 2027 01:56:00.473            27.121                Anadyr2           847.531
       420   06 Jun 2027 01:56:34.585   06 Jun 2027 01:56:56.610            22.025                Anadyr2           688.281
       421   06 Jun 2027 01:57:23.470   06 Jun 2027 01:57:33.495            10.025                Anadyr2           313.281
       422   06 Jun 2027 01:57:53.701   06 Jun 2027 01:59:30.625            96.924                Norilsk          3028.875
       423   06 Jun 2027 01:59:54.255   06 Jun 2027 01:59:57.506             3.251                Norilsk           101.594
       424   06 Jun 2027 02:01:04.247   06 Jun 2027 02:01:26.838            22.591               Magadan1           705.969
       425   06 Jun 2027 02:01:47.188   06 Jun 2027 02:04:48.783           181.595                Irkutsk          5674.844
       426   06 Jun 2027 02:13:40.965   06 Jun 2027 02:14:17.018            36.053                  Delhi          1126.656
       427   06 Jun 2027 02:16:00.215   06 Jun 2027 02:17:36.731            96.516                Sumatra          3016.125
       428   06 Jun 2027 02:21:00.074   06 Jun 2027 02:21:13.319            13.245                Sumatra           413.906
       429   06 Jun 2027 02:50:00.372   06 Jun 2027 02:51:02.171            61.799            RioGallegos          1931.219
       430   06 Jun 2027 02:52:18.634   06 Jun 2027 02:53:02.539            43.905            RioGallegos          1372.031
       431   06 Jun 2027 02:57:25.512   06 Jun 2027 02:57:55.543            30.031            RioGallegos           938.469
       432   06 Jun 2027 03:39:04.473   06 Jun 2027 03:39:14.070             9.597               Magadan1           299.906
       433   06 Jun 2027 03:41:35.932   06 Jun 2027 03:41:51.758            15.826              Murmansk1           494.563
       434   06 Jun 2027 03:42:04.666   06 Jun 2027 03:42:18.505            13.839                Irkutsk           432.469
       435   06 Jun 2027 03:42:20.323   06 Jun 2027 03:44:35.522           135.199                Irkutsk          4224.969
       436   06 Jun 2027 03:45:02.414   06 Jun 2027 03:49:14.718           252.304                  Delhi          7884.500
       437   06 Jun 2027 03:51:38.728   06 Jun 2027 03:54:23.498           164.770                  Delhi          5149.063
       438   06 Jun 2027 04:27:29.853   06 Jun 2027 04:32:45.410           315.557            RioGallegos          9861.156
       439   06 Jun 2027 05:17:50.147   06 Jun 2027 05:18:13.209            23.062              Murmansk1           720.688
       440   06 Jun 2027 05:18:15.330   06 Jun 2027 05:19:03.821            48.491                 Moscow          1515.344
       441   06 Jun 2027 05:19:20.655   06 Jun 2027 05:20:15.143            54.488                 Moscow          1702.750
       442   06 Jun 2027 05:20:27.251   06 Jun 2027 05:21:03.173            35.922                 Moscow          1122.563
       443   06 Jun 2027 05:21:03.531   06 Jun 2027 05:21:06.913             3.382              Murmansk2           105.687
       444   06 Jun 2027 05:21:09.257   06 Jun 2027 05:21:37.857            28.600              Murmansk1           893.750
       445   06 Jun 2027 05:22:30.321   06 Jun 2027 05:22:38.352             8.031              Murmansk2           250.969
       446   06 Jun 2027 05:23:16.475   06 Jun 2027 05:23:21.344             4.869              Murmansk2           152.156
       447   06 Jun 2027 05:24:00.772   06 Jun 2027 05:24:37.678            36.906                Novosib          1153.312
       448   06 Jun 2027 05:25:15.693   06 Jun 2027 05:28:05.517           169.824                  Delhi          5307.000
       449   06 Jun 2027 06:55:16.898   06 Jun 2027 06:55:32.684            15.786                 Moscow           493.312
       450   06 Jun 2027 06:55:48.748   06 Jun 2027 06:56:11.533            22.785              Murmansk1           712.031
       451   06 Jun 2027 06:56:26.523   06 Jun 2027 06:56:39.942            13.419                Norilsk           419.344
       452   06 Jun 2027 06:56:41.232   06 Jun 2027 06:58:08.256            87.024                 Moscow          2719.500
       453   06 Jun 2027 07:00:14.157   06 Jun 2027 07:00:40.614            26.457              Murmansk2           826.781
       454   06 Jun 2027 07:03:03.985   06 Jun 2027 07:03:05.586             1.601                 Moscow            50.031
       455   06 Jun 2027 07:15:12.211   06 Jun 2027 07:17:57.178           164.967               CapeTown          5155.219
       456   06 Jun 2027 08:18:02.287   06 Jun 2027 08:19:05.871            63.584                Anadyr1          1987.000
       457   06 Jun 2027 08:19:23.530   06 Jun 2027 08:19:24.699             1.169               Magadan2            36.531
       458   06 Jun 2027 08:20:17.466   06 Jun 2027 08:20:44.423            26.957                Anadyr1           842.406
       459   06 Jun 2027 08:21:15.238   06 Jun 2027 08:21:21.944             6.706                Norilsk           209.562
       460   06 Jun 2027 08:21:25.667   06 Jun 2027 08:21:55.245            29.578               Magadan1           924.312
       461   06 Jun 2027 08:22:54.338   06 Jun 2027 08:24:10.170            75.832                Anadyr2          2369.750
       462   06 Jun 2027 09:49:59.278   06 Jun 2027 09:50:39.919            40.641               Magadan2          1270.031
       463   06 Jun 2027 09:51:48.815   06 Jun 2027 09:54:07.588           138.773                Anadyr2          4336.656
       464   06 Jun 2027 09:54:39.438   06 Jun 2027 09:56:02.861            83.423                Anadyr2          2606.969
       465   06 Jun 2027 09:56:02.861   06 Jun 2027 09:59:55.770           232.909                Anadyr1          7278.406
       466   06 Jun 2027 11:28:42.436   06 Jun 2027 11:30:36.166           113.730               Magadan1          3554.063
       467   06 Jun 2027 11:31:26.362   06 Jun 2027 11:31:39.693            13.331                Norilsk           416.594
       468   06 Jun 2027 11:32:00.763   06 Jun 2027 11:33:11.301            70.538                Norilsk          2204.313
       469   06 Jun 2027 11:33:18.034   06 Jun 2027 11:33:31.189            13.155                Norilsk           411.094
       470   06 Jun 2027 11:33:55.212   06 Jun 2027 11:35:03.022            67.810                Norilsk          2119.063
       471   06 Jun 2027 11:35:11.893   06 Jun 2027 11:35:19.743             7.850                Norilsk           245.313
       472   06 Jun 2027 11:35:30.468   06 Jun 2027 11:36:05.229            34.761                Norilsk          1086.281
       473   06 Jun 2027 12:10:51.086   06 Jun 2027 12:12:11.996            80.910            RioGallegos          2528.437
       474   06 Jun 2027 12:18:14.785   06 Jun 2027 12:18:52.968            38.183            RioGallegos          1193.219
       475   06 Jun 2027 12:46:45.369   06 Jun 2027 12:47:43.146            57.777                Sumatra          1805.531
       476   06 Jun 2027 12:59:13.285   06 Jun 2027 13:03:23.843           250.558                Irkutsk          7829.938
       477   06 Jun 2027 13:47:55.696   06 Jun 2027 13:49:02.114            66.418            RioGallegos          2075.562
       478   06 Jun 2027 13:53:00.370   06 Jun 2027 13:53:17.126            16.756            RioGallegos           523.625
       479   06 Jun 2027 13:55:47.680   06 Jun 2027 13:57:53.207           125.527            RioGallegos          3922.719
       480   06 Jun 2027 14:22:11.024   06 Jun 2027 14:24:09.908           118.884                Sumatra          3715.125
       481   06 Jun 2027 14:26:37.857   06 Jun 2027 14:27:40.679            62.822                Sumatra          1963.188
       482   06 Jun 2027 14:37:24.840   06 Jun 2027 14:43:29.946           365.106                Irkutsk         11409.563
