uniorb/output/strategy_2/Drop/Drop_KinoSat_111006.txt

KinoSat_111006
-------------------------
    Access    *     Start Time (UTCG)     *     Stop Time (UTCG)  *   Duration (s)        *       Station  *  Data (Mbytes)
         1   01 Jun 2027 03:18:54.211   01 Jun 2027 03:20:14.012            79.801                Anadyr1          2493.781
         2   01 Jun 2027 03:20:14.012   01 Jun 2027 03:20:39.871            25.859                Anadyr2           808.094
         3   01 Jun 2027 03:20:51.089   01 Jun 2027 03:20:59.677             8.588               Magadan2           268.375
         4   01 Jun 2027 03:20:59.677   01 Jun 2027 03:21:24.768            25.091               Magadan1           784.094
         5   01 Jun 2027 03:21:24.768   01 Jun 2027 03:21:28.767             3.999               Magadan2           124.969
         6   01 Jun 2027 03:21:47.344   01 Jun 2027 03:22:57.553            70.209                Anadyr1          2194.031
         7   01 Jun 2027 03:23:07.097   01 Jun 2027 03:23:39.214            32.117               Magadan2          1003.656
         8   01 Jun 2027 04:55:09.159   01 Jun 2027 04:58:33.462           204.303                Anadyr2          6384.469
         9   01 Jun 2027 04:58:39.443   01 Jun 2027 04:59:03.558            24.115               Magadan2           753.594
        10   01 Jun 2027 04:59:03.558   01 Jun 2027 04:59:30.560            27.002               Magadan1           843.813
        11   01 Jun 2027 06:28:58.284   01 Jun 2027 06:29:54.081            55.797                Irkutsk          1743.656
        12   01 Jun 2027 06:30:41.400   01 Jun 2027 06:32:07.888            86.488                Anadyr1          2702.750
        13   01 Jun 2027 06:32:11.366   01 Jun 2027 06:33:32.907            81.541               Magadan2          2548.156
        14   01 Jun 2027 06:33:42.349   01 Jun 2027 06:35:37.414           115.065                Anadyr1          3595.781
        15   01 Jun 2027 08:07:20.660   01 Jun 2027 08:07:27.630             6.970               Magadan1           217.812
        16   01 Jun 2027 08:07:55.694   01 Jun 2027 08:10:38.801           163.107               Magadan2          5097.094
        17   01 Jun 2027 08:10:40.463   01 Jun 2027 08:10:57.601            17.138              Murmansk2           535.562
        18   01 Jun 2027 08:11:15.303   01 Jun 2027 08:12:16.008            60.705                Norilsk          1897.031
        19   01 Jun 2027 08:12:25.578   01 Jun 2027 08:12:42.589            17.011              Murmansk1           531.594
        20   01 Jun 2027 08:12:42.589   01 Jun 2027 08:15:01.402           138.813              Murmansk2          4337.906
        21   01 Jun 2027 08:15:01.402   01 Jun 2027 08:16:05.492            64.090              Murmansk1          2002.812
        22   01 Jun 2027 08:16:22.947   01 Jun 2027 08:16:42.705            19.758              Murmansk1           617.437
        23   01 Jun 2027 08:16:49.018   01 Jun 2027 08:17:52.988            63.970              Murmansk1          1999.062
        24   01 Jun 2027 08:47:43.009   01 Jun 2027 08:48:24.258            41.249            RioGallegos          1289.031
        25   01 Jun 2027 08:48:25.751   01 Jun 2027 08:49:27.807            62.056            RioGallegos          1939.250
        26   01 Jun 2027 09:21:25.390   01 Jun 2027 09:22:32.888            67.498                Sumatra          2109.313
        27   01 Jun 2027 09:31:52.424   01 Jun 2027 09:32:22.771            30.347                  Delhi           948.344
        28   01 Jun 2027 09:43:14.419   01 Jun 2027 09:44:51.587            97.168                Novosib          3036.500
        29   01 Jun 2027 09:45:03.162   01 Jun 2027 09:45:17.851            14.689                Irkutsk           459.031
        30   01 Jun 2027 09:45:28.258   01 Jun 2027 09:46:18.538            50.280              Murmansk2          1571.250
        31   01 Jun 2027 09:46:18.538   01 Jun 2027 09:47:09.437            50.899              Murmansk1          1590.594
        32   01 Jun 2027 09:47:15.430   01 Jun 2027 09:47:48.894            33.464              Murmansk2          1045.750
        33   01 Jun 2027 09:47:48.894   01 Jun 2027 09:48:34.931            46.037              Murmansk1          1438.656
        34   01 Jun 2027 09:48:58.682   01 Jun 2027 09:49:21.882            23.200                 Moscow           725.000
        35   01 Jun 2027 11:05:40.630   01 Jun 2027 11:05:59.153            18.523                  Delhi           578.844
        36   01 Jun 2027 11:20:43.384   01 Jun 2027 11:20:56.820            13.436              Murmansk1           419.875
        37   01 Jun 2027 11:21:01.352   01 Jun 2027 11:21:42.168            40.816                Norilsk          1275.500
        38   01 Jun 2027 11:21:44.460   01 Jun 2027 11:22:14.525            30.065              Murmansk1           939.531
        39   01 Jun 2027 11:22:23.627   01 Jun 2027 11:24:50.486           146.859                Novosib          4589.344
        40   01 Jun 2027 11:24:53.196   01 Jun 2027 11:25:31.432            38.236                Norilsk          1194.875
        41   01 Jun 2027 11:26:41.253   01 Jun 2027 11:26:41.650             0.397              Murmansk2            12.406
        42   01 Jun 2027 12:50:01.938   01 Jun 2027 12:54:03.751           241.813                 Moscow          7556.656
        43   01 Jun 2027 12:54:12.062   01 Jun 2027 12:57:06.040           173.978              Murmansk2          5436.812
        44   01 Jun 2027 12:57:32.146   01 Jun 2027 12:57:35.207             3.061              Murmansk2            95.656
        45   01 Jun 2027 12:58:19.860   01 Jun 2027 12:58:36.601            16.741                Norilsk           523.156
        46   01 Jun 2027 12:59:02.138   01 Jun 2027 12:59:49.616            47.478                Norilsk          1483.688
        47   01 Jun 2027 13:01:06.516   01 Jun 2027 13:01:32.029            25.513                Norilsk           797.281
        48   01 Jun 2027 14:04:47.337   01 Jun 2027 14:06:12.046            84.709               CapeTown          2647.156
        49   01 Jun 2027 14:07:09.970   01 Jun 2027 14:07:53.919            43.949               CapeTown          1373.406
        50   01 Jun 2027 14:09:20.734   01 Jun 2027 14:10:06.365            45.631               CapeTown          1425.969
        51   01 Jun 2027 14:10:52.454   01 Jun 2027 14:11:37.126            44.672               CapeTown          1396.000
        52   01 Jun 2027 14:30:26.102   01 Jun 2027 14:31:28.781            62.679              Murmansk1          1958.719
        53   01 Jun 2027 14:31:58.755   01 Jun 2027 14:33:27.475            88.720              Murmansk2          2772.500
        54   01 Jun 2027 14:44:34.906   01 Jun 2027 14:47:30.513           175.607                Anadyr2          5487.719
        55   01 Jun 2027 15:39:29.133   01 Jun 2027 15:41:08.961            99.828               CapeTown          3119.625
        56   01 Jun 2027 16:09:39.247   01 Jun 2027 16:10:11.033            31.786              Murmansk2           993.312
        57   01 Jun 2027 16:12:16.275   01 Jun 2027 16:13:19.367            63.092              Murmansk1          1971.625
        58   01 Jun 2027 16:20:04.994   01 Jun 2027 16:22:02.746           117.752                Anadyr2          3679.750
        59   01 Jun 2027 16:22:15.928   01 Jun 2027 16:22:43.173            27.245                Anadyr1           851.406
        60   01 Jun 2027 16:23:38.065   01 Jun 2027 16:27:25.465           227.400               Magadan2          7106.250
        61   01 Jun 2027 17:55:59.304   01 Jun 2027 17:59:53.787           234.483                Anadyr1          7327.594
        62   01 Jun 2027 18:00:02.678   01 Jun 2027 18:00:33.547            30.869               Magadan2           964.656
        63   01 Jun 2027 18:02:13.554   01 Jun 2027 18:03:30.001            76.447               Magadan2          2388.969
        64   01 Jun 2027 19:31:50.856   01 Jun 2027 19:33:45.388           114.532                Anadyr1          3579.125
        65   01 Jun 2027 19:33:48.700   01 Jun 2027 19:35:24.310            95.610                Anadyr2          2987.812
        66   01 Jun 2027 19:35:36.483   01 Jun 2027 19:37:54.230           137.747                Norilsk          4304.594
        67   01 Jun 2027 19:39:36.746   01 Jun 2027 19:42:31.840           175.094                Irkutsk          5471.688
        68   01 Jun 2027 19:44:38.354   01 Jun 2027 19:45:00.912            22.558                Irkutsk           704.938
        69   01 Jun 2027 19:55:50.999   01 Jun 2027 19:56:56.163            65.164                Sumatra          2036.375
        70   01 Jun 2027 19:57:13.462   01 Jun 2027 19:59:51.216           157.754                Sumatra          4929.812
        71   01 Jun 2027 21:09:10.089   01 Jun 2027 21:09:28.548            18.459                Anadyr1           576.844
        72   01 Jun 2027 21:09:43.844   01 Jun 2027 21:12:26.937           163.093                Norilsk          5096.656
        73   01 Jun 2027 21:14:43.559   01 Jun 2027 21:16:18.890            95.331                Novosib          2979.094
        74   01 Jun 2027 21:18:32.975   01 Jun 2027 21:19:34.620            61.645                Novosib          1926.406
        75   01 Jun 2027 21:27:25.367   01 Jun 2027 21:28:00.461            35.094                Sumatra          1096.687
        76   01 Jun 2027 21:29:02.601   01 Jun 2027 21:30:09.724            67.123                Sumatra          2097.594
        77   01 Jun 2027 22:41:37.674   01 Jun 2027 22:42:15.867            38.193                Anadyr2          1193.531
        78   01 Jun 2027 22:42:54.476   01 Jun 2027 22:43:36.379            41.903                Anadyr2          1309.469
        79   01 Jun 2027 22:45:43.098   01 Jun 2027 22:46:34.962            51.864                Norilsk          1620.750
        80   01 Jun 2027 22:46:59.910   01 Jun 2027 22:47:37.018            37.108               Magadan2          1159.625
        81   01 Jun 2027 22:49:19.769   01 Jun 2027 22:52:21.520           181.751              Murmansk1          5679.719
        82   01 Jun 2027 22:56:59.597   01 Jun 2027 22:58:35.564            95.967                  Delhi          2998.969
        83   02 Jun 2027 00:14:58.973   02 Jun 2027 00:15:14.518            15.545                Anadyr2           485.781
        84   02 Jun 2027 00:15:25.350   02 Jun 2027 00:16:19.668            54.318                Anadyr1          1697.438
        85   02 Jun 2027 00:16:55.078   02 Jun 2027 00:17:29.304            34.226                Anadyr1          1069.562
        86   02 Jun 2027 00:21:08.193   02 Jun 2027 00:22:25.223            77.030               Magadan1          2407.187
        87   02 Jun 2027 00:22:29.944   02 Jun 2027 00:22:42.321            12.377               Magadan2           386.781
        88   02 Jun 2027 00:23:03.403   02 Jun 2027 00:23:30.650            27.247               Magadan2           851.469
        89   02 Jun 2027 00:23:56.869   02 Jun 2027 00:27:13.447           196.578              Murmansk2          6143.062
        90   02 Jun 2027 00:27:50.075   02 Jun 2027 00:28:49.041            58.966              Murmansk2          1842.687
        91   02 Jun 2027 00:28:49.125   02 Jun 2027 00:28:55.516             6.391                 Moscow           199.719
        92   02 Jun 2027 00:29:47.971   02 Jun 2027 00:29:48.967             0.996                 Moscow            31.125
        93   02 Jun 2027 00:31:26.818   02 Jun 2027 00:32:39.017            72.199                 Moscow          2256.219
        94   02 Jun 2027 00:55:20.240   02 Jun 2027 00:56:55.182            94.942               CapeTown          2966.938
        95   02 Jun 2027 01:01:07.127   02 Jun 2027 01:01:38.001            30.874               CapeTown           964.813
        96   02 Jun 2027 01:48:37.531   02 Jun 2027 01:48:55.966            18.435                Anadyr1           576.094
        97   02 Jun 2027 01:50:00.040   02 Jun 2027 01:50:23.437            23.397                Anadyr2           731.156
        98   02 Jun 2027 01:51:14.170   02 Jun 2027 01:51:37.922            23.752                Anadyr1           742.250
        99   02 Jun 2027 01:52:58.364   02 Jun 2027 01:54:37.232            98.868               Magadan1          3089.625
       100   02 Jun 2027 01:57:04.092   02 Jun 2027 01:57:11.146             7.054               Magadan1           220.438
       101   02 Jun 2027 01:57:21.475   02 Jun 2027 01:57:29.169             7.694                Norilsk           240.437
       102   02 Jun 2027 01:59:43.591   02 Jun 2027 01:59:54.217            10.626                Norilsk           332.062
       103   02 Jun 2027 02:00:07.107   02 Jun 2027 02:01:39.255            92.148              Murmansk2          2879.625
       104   02 Jun 2027 02:02:06.755   02 Jun 2027 02:03:04.410            57.655                Novosib          1801.719
       105   02 Jun 2027 02:03:04.448   02 Jun 2027 02:04:41.365            96.917                 Moscow          3028.656
       106   02 Jun 2027 02:27:00.330   02 Jun 2027 02:27:23.778            23.448               CapeTown           732.750
       107   02 Jun 2027 02:30:30.056   02 Jun 2027 02:30:59.673            29.617               CapeTown           925.531
       108   02 Jun 2027 02:35:30.083   02 Jun 2027 02:35:47.189            17.106               CapeTown           534.563
       109   02 Jun 2027 02:36:26.977   02 Jun 2027 02:36:32.148             5.171               CapeTown           161.594
       110   02 Jun 2027 02:36:53.963   02 Jun 2027 02:37:44.573            50.610               CapeTown          1581.563
       111   02 Jun 2027 03:30:42.111   02 Jun 2027 03:31:33.310            51.199               Magadan2          1599.969
       112   02 Jun 2027 03:32:10.949   02 Jun 2027 03:32:29.836            18.887               Magadan1           590.219
       113   02 Jun 2027 03:32:41.332   02 Jun 2027 03:32:49.476             8.144                Anadyr2           254.500
       114   02 Jun 2027 03:33:39.289   02 Jun 2027 03:34:03.316            24.027               Magadan2           750.844
       115   02 Jun 2027 03:35:06.281   02 Jun 2027 03:35:17.927            11.646               Magadan2           363.937
       116   02 Jun 2027 03:35:21.302   02 Jun 2027 03:36:10.296            48.994                Anadyr2          1531.063
       117   02 Jun 2027 05:06:17.787   02 Jun 2027 05:06:29.076            11.289               Magadan2           352.781
       118   02 Jun 2027 05:06:37.077   02 Jun 2027 05:07:38.395            61.318               Magadan1          1916.187
       119   02 Jun 2027 05:07:38.395   02 Jun 2027 05:08:05.258            26.863               Magadan2           839.469
       120   02 Jun 2027 05:08:17.158   02 Jun 2027 05:08:52.417            35.259               Magadan1          1101.844
       121   02 Jun 2027 05:08:55.281   02 Jun 2027 05:12:25.554           210.273                Anadyr2          6571.031
       122   02 Jun 2027 06:40:59.404   02 Jun 2027 06:41:05.826             6.422                Anadyr1           200.687
       123   02 Jun 2027 06:41:18.214   02 Jun 2027 06:41:56.612            38.398               Magadan1          1199.938
       124   02 Jun 2027 06:42:02.068   02 Jun 2027 06:42:03.982             1.914                Irkutsk            59.812
       125   02 Jun 2027 06:42:12.384   02 Jun 2027 06:42:26.145            13.761               Magadan2           430.031
       126   02 Jun 2027 06:42:27.990   02 Jun 2027 06:44:28.341           120.351               Magadan2          3760.969
       127   02 Jun 2027 06:44:51.434   02 Jun 2027 06:47:22.577           151.143                Anadyr2          4723.219
       128   02 Jun 2027 06:47:29.495   02 Jun 2027 06:48:10.726            41.231                Novosib          1288.469
       129   02 Jun 2027 06:51:05.980   02 Jun 2027 06:51:25.899            19.919                Norilsk           622.469
       130   02 Jun 2027 07:23:08.220   02 Jun 2027 07:24:03.608            55.388            RioGallegos          1730.875
       131   02 Jun 2027 08:01:00.708   02 Jun 2027 08:02:39.403            98.695                Sumatra          3084.219
       132   02 Jun 2027 08:18:15.725   02 Jun 2027 08:18:35.997            20.272               Magadan1           633.500
       133   02 Jun 2027 08:18:35.997   02 Jun 2027 08:20:19.741           103.744               Magadan2          3242.000
       134   02 Jun 2027 08:20:28.624   02 Jun 2027 08:21:16.985            48.361               Magadan2          1511.281
       135   02 Jun 2027 08:21:16.985   02 Jun 2027 08:21:46.891            29.906               Magadan1           934.562
       136   02 Jun 2027 08:21:51.539   02 Jun 2027 08:22:09.506            17.967               Magadan1           561.469
       137   02 Jun 2027 08:22:19.246   02 Jun 2027 08:22:46.137            26.891                Irkutsk           840.344
       138   02 Jun 2027 08:22:48.936   02 Jun 2027 08:23:54.667            65.731                Novosib          2054.094
       139   02 Jun 2027 08:24:10.028   02 Jun 2027 08:24:19.106             9.078              Murmansk2           283.687
       140   02 Jun 2027 08:26:17.628   02 Jun 2027 08:27:05.856            48.228                Norilsk          1507.125
       141   02 Jun 2027 08:58:52.526   02 Jun 2027 08:59:12.236            19.710            RioGallegos           615.937
       142   02 Jun 2027 09:02:34.681   02 Jun 2027 09:03:01.060            26.379            RioGallegos           824.344
       143   02 Jun 2027 09:35:21.803   02 Jun 2027 09:35:57.822            36.019                Sumatra          1125.594
       144   02 Jun 2027 09:40:01.206   02 Jun 2027 09:41:11.884            70.678                Sumatra          2208.688
       145   02 Jun 2027 09:43:58.312   02 Jun 2027 09:44:22.697            24.385                  Delhi           762.031
       146   02 Jun 2027 09:53:41.884   02 Jun 2027 09:53:45.777             3.893                Norilsk           121.656
       147   02 Jun 2027 09:53:58.038   02 Jun 2027 09:54:29.578            31.540                Norilsk           985.625
       148   02 Jun 2027 09:54:36.676   02 Jun 2027 09:55:49.554            72.878                Irkutsk          2277.438
       149   02 Jun 2027 09:55:54.670   02 Jun 2027 09:56:09.533            14.863                Norilsk           464.469
       150   02 Jun 2027 09:56:15.642   02 Jun 2027 09:56:44.897            29.255              Murmansk1           914.219
       151   02 Jun 2027 09:56:58.848   02 Jun 2027 09:57:03.614             4.766                Norilsk           148.938
       152   02 Jun 2027 09:57:07.306   02 Jun 2027 09:58:20.223            72.917              Murmansk1          2278.656
       153   02 Jun 2027 09:58:28.582   02 Jun 2027 09:59:07.178            38.596                Norilsk          1206.125
       154   02 Jun 2027 09:59:12.146   02 Jun 2027 09:59:46.823            34.677                 Moscow          1083.656
       155   02 Jun 2027 09:59:49.797   02 Jun 2027 10:00:19.919            30.122                 Moscow           941.313
       156   02 Jun 2027 10:00:41.936   02 Jun 2027 10:00:51.305             9.369              Murmansk2           292.781
       157   02 Jun 2027 10:01:05.942   02 Jun 2027 10:01:35.144            29.202                 Moscow           912.562
       158   02 Jun 2027 10:39:47.104   02 Jun 2027 10:40:27.508            40.404            RioGallegos          1262.625
       159   02 Jun 2027 11:17:51.637   02 Jun 2027 11:18:56.310            64.673                  Delhi          2021.031
       160   02 Jun 2027 11:20:40.420   02 Jun 2027 11:21:25.431            45.011                  Delhi          1406.594
       161   02 Jun 2027 11:31:16.815   02 Jun 2027 11:31:59.240            42.425              Murmansk2          1325.781
       162   02 Jun 2027 11:32:06.889   02 Jun 2027 11:33:14.575            67.686                Novosib          2115.188
       163   02 Jun 2027 11:33:17.229   02 Jun 2027 11:33:58.005            40.776                 Moscow          1274.250
       164   02 Jun 2027 11:34:14.840   02 Jun 2027 11:34:55.911            41.071              Murmansk2          1283.469
       165   02 Jun 2027 11:35:03.701   02 Jun 2027 11:35:12.248             8.547                Norilsk           267.094
       166   02 Jun 2027 11:35:21.602   02 Jun 2027 11:35:56.967            35.365                Norilsk          1105.156
       167   02 Jun 2027 11:40:57.857   02 Jun 2027 11:41:45.047            47.190              Murmansk1          1474.688
       168   02 Jun 2027 13:02:01.780   02 Jun 2027 13:05:20.738           198.958                 Moscow          6217.437
       169   02 Jun 2027 13:05:30.316   02 Jun 2027 13:08:49.821           199.505              Murmansk1          6234.531
       170   02 Jun 2027 14:16:24.006   02 Jun 2027 14:18:59.314           155.308               CapeTown          4853.375
       171   02 Jun 2027 14:19:44.487   02 Jun 2027 14:21:13.453            88.966               CapeTown          2780.187
       172   02 Jun 2027 14:42:43.920   02 Jun 2027 14:44:45.046           121.126              Murmansk2          3785.188
       173   02 Jun 2027 14:56:29.654   02 Jun 2027 14:59:06.464           156.810                Anadyr1          4900.312
       174   02 Jun 2027 15:51:35.522   02 Jun 2027 15:51:59.134            23.612               CapeTown           737.875
       175   02 Jun 2027 16:00:21.622   02 Jun 2027 16:01:17.228            55.606               CapeTown          1737.687
       176   02 Jun 2027 16:22:18.304   02 Jun 2027 16:24:07.359           109.055              Murmansk1          3407.969
       177   02 Jun 2027 16:24:50.887   02 Jun 2027 16:25:22.750            31.863              Murmansk2           995.719
       178   02 Jun 2027 16:32:05.652   02 Jun 2027 16:32:53.581            47.929                Anadyr1          1497.781
       179   02 Jun 2027 16:33:08.961   02 Jun 2027 16:34:01.609            52.648                Anadyr2          1645.250
       180   02 Jun 2027 16:34:44.496   02 Jun 2027 16:35:13.589            29.093                Anadyr1           909.156
       181   02 Jun 2027 16:35:20.362   02 Jun 2027 16:37:05.531           105.169               Magadan1          3286.531
       182   02 Jun 2027 16:37:23.179   02 Jun 2027 16:39:19.850           116.671               Magadan2          3645.969
       183   02 Jun 2027 18:08:00.699   02 Jun 2027 18:11:11.967           191.268                Anadyr1          5977.125
       184   02 Jun 2027 18:11:45.165   02 Jun 2027 18:12:27.887            42.722               Magadan2          1335.063
       185   02 Jun 2027 18:13:09.346   02 Jun 2027 18:15:12.041           122.695               Magadan1          3834.219
       186   02 Jun 2027 19:04:46.490   02 Jun 2027 19:07:00.207           133.717            RioGallegos          4178.656
       187   02 Jun 2027 19:43:50.467   02 Jun 2027 19:44:05.217            14.750                Anadyr2           460.937
       188   02 Jun 2027 19:45:01.749   02 Jun 2027 19:45:46.384            44.635                Anadyr1          1394.844
       189   02 Jun 2027 19:46:02.900   02 Jun 2027 19:49:53.005           230.105                Norilsk          7190.781
       190   02 Jun 2027 19:51:30.639   02 Jun 2027 19:54:19.430           168.791                Irkutsk          5274.719
       191   02 Jun 2027 19:56:13.405   02 Jun 2027 19:57:00.110            46.705                Irkutsk          1459.531
       192   02 Jun 2027 20:06:23.255   02 Jun 2027 20:08:25.143           121.888                Sumatra          3809.000
       193   02 Jun 2027 20:09:48.783   02 Jun 2027 20:11:41.258           112.475                Sumatra          3514.844
       194   02 Jun 2027 21:25:41.169   02 Jun 2027 21:27:17.475            96.306                Irkutsk          3009.562
       195   02 Jun 2027 21:27:19.611   02 Jun 2027 21:28:12.213            52.602                Novosib          1643.812
       196   02 Jun 2027 21:30:09.897   02 Jun 2027 21:30:56.162            46.265                Novosib          1445.781
       197   02 Jun 2027 21:37:19.402   02 Jun 2027 21:39:28.280           128.878                  Delhi          4027.437
       198   02 Jun 2027 22:57:45.039   02 Jun 2027 22:57:49.221             4.182                Norilsk           130.687
       199   02 Jun 2027 22:58:19.223   02 Jun 2027 22:59:11.407            52.184               Magadan1          1630.750
       200   02 Jun 2027 23:00:52.410   02 Jun 2027 23:04:19.203           206.793              Murmansk1          6462.281
       201   02 Jun 2027 23:08:54.998   02 Jun 2027 23:09:21.973            26.975                  Delhi           842.969
       202   02 Jun 2027 23:12:29.563   02 Jun 2027 23:12:54.971            25.408                  Delhi           794.000
       203   02 Jun 2027 23:15:57.084   02 Jun 2027 23:16:57.868            60.784                  Delhi          1899.500
       204   03 Jun 2027 00:26:40.438   03 Jun 2027 00:26:56.818            16.380                Anadyr2           511.875
       205   03 Jun 2027 00:27:14.008   03 Jun 2027 00:27:26.900            12.892                Anadyr1           402.875
       206   03 Jun 2027 00:27:40.628   03 Jun 2027 00:28:17.193            36.565                Anadyr2          1142.656
       207   03 Jun 2027 00:28:17.193   03 Jun 2027 00:28:29.984            12.791                Anadyr1           399.719
       208   03 Jun 2027 00:28:56.393   03 Jun 2027 00:29:14.339            17.946                Anadyr1           560.813
       209   03 Jun 2027 00:29:28.520   03 Jun 2027 00:29:36.087             7.567                Anadyr1           236.469
       210   03 Jun 2027 00:29:42.324   03 Jun 2027 00:29:49.026             6.702                Anadyr2           209.438
       211   03 Jun 2027 00:32:45.623   03 Jun 2027 00:34:35.781           110.158               Magadan1          3442.437
       212   03 Jun 2027 00:34:41.385   03 Jun 2027 00:34:53.109            11.724               Magadan1           366.375
       213   03 Jun 2027 00:35:56.647   03 Jun 2027 00:39:53.958           237.311              Murmansk1          7415.969
       214   03 Jun 2027 00:41:22.808   03 Jun 2027 00:41:48.804            25.996                 Moscow           812.375
       215   03 Jun 2027 00:45:19.188   03 Jun 2027 00:45:39.935            20.747                 Moscow           648.344
       216   03 Jun 2027 01:06:15.770   03 Jun 2027 01:08:22.312           126.542               CapeTown          3954.437
       217   03 Jun 2027 01:14:10.194   03 Jun 2027 01:14:15.378             5.184               CapeTown           162.000
       218   03 Jun 2027 02:00:26.643   03 Jun 2027 02:00:40.937            14.294                Anadyr2           446.687
       219   03 Jun 2027 02:01:19.821   03 Jun 2027 02:01:34.412            14.591                Anadyr1           455.969
       220   03 Jun 2027 02:02:14.004   03 Jun 2027 02:03:01.320            47.316                Anadyr1          1478.625
       221   03 Jun 2027 02:04:27.499   03 Jun 2027 02:05:45.777            78.278               Magadan1          2446.188
       222   03 Jun 2027 02:07:03.954   03 Jun 2027 02:08:12.146            68.192               Magadan2          2131.000
       223   03 Jun 2027 02:11:50.997   03 Jun 2027 02:12:22.729            31.732              Murmansk2           991.625
       224   03 Jun 2027 02:13:06.221   03 Jun 2027 02:13:33.660            27.439              Murmansk2           857.469
       225   03 Jun 2027 02:13:33.660   03 Jun 2027 02:14:31.502            57.842              Murmansk1          1807.563
       226   03 Jun 2027 02:20:04.959   03 Jun 2027 02:20:48.375            43.416                 Moscow          1356.750
       227   03 Jun 2027 02:38:57.489   03 Jun 2027 02:38:58.804             1.315               CapeTown            41.094
       228   03 Jun 2027 02:39:11.154   03 Jun 2027 02:40:07.306            56.152               CapeTown          1754.750
       229   03 Jun 2027 02:48:54.059   03 Jun 2027 02:49:28.972            34.913               CapeTown          1091.031
       230   03 Jun 2027 03:43:32.563   03 Jun 2027 03:43:41.735             9.172               Magadan2           286.625
       231   03 Jun 2027 03:44:30.692   03 Jun 2027 03:48:37.292           246.600                Anadyr1          7706.250
       232   03 Jun 2027 05:20:21.428   03 Jun 2027 05:20:25.404             3.976                Anadyr2           124.250
       233   03 Jun 2027 05:20:25.404   03 Jun 2027 05:21:21.581            56.177                Anadyr1          1755.531
       234   03 Jun 2027 05:22:12.521   03 Jun 2027 05:22:20.322             7.801               Magadan2           243.781
       235   03 Jun 2027 05:22:36.246   03 Jun 2027 05:22:58.930            22.684                Anadyr2           708.875
       236   03 Jun 2027 05:23:08.699   03 Jun 2027 05:23:12.506             3.807               Magadan2           118.969
       237   03 Jun 2027 05:23:12.844   03 Jun 2027 05:23:35.449            22.605                Anadyr2           706.406
       238   03 Jun 2027 05:23:59.061   03 Jun 2027 05:24:24.411            25.350                Anadyr2           792.188
       239   03 Jun 2027 06:52:42.031   03 Jun 2027 06:53:30.005            47.974               Magadan2          1499.187
       240   03 Jun 2027 06:53:45.401   03 Jun 2027 06:53:53.927             8.526               Magadan2           266.437
       241   03 Jun 2027 06:53:55.723   03 Jun 2027 06:54:08.462            12.739                Irkutsk           398.094
       242   03 Jun 2027 06:54:22.292   03 Jun 2027 06:54:58.862            36.570                Novosib          1142.813
       243   03 Jun 2027 06:55:03.162   03 Jun 2027 06:55:34.802            31.640                Anadyr2           988.750
       244   03 Jun 2027 06:55:34.802   03 Jun 2027 06:55:53.189            18.387                Anadyr1           574.594
       245   03 Jun 2027 06:56:10.323   03 Jun 2027 06:57:08.754            58.431               Magadan1          1825.969
       246   03 Jun 2027 06:57:21.946   03 Jun 2027 06:58:24.962            63.016                Irkutsk          1969.250
       247   03 Jun 2027 06:58:26.845   03 Jun 2027 06:58:57.699            30.854               Magadan2           964.187
       248   03 Jun 2027 06:59:05.247   03 Jun 2027 06:59:30.129            24.882              Murmansk1           777.562
       249   03 Jun 2027 06:59:36.583   03 Jun 2027 07:00:29.990            53.407                Novosib          1668.969
       250   03 Jun 2027 07:03:23.234   03 Jun 2027 07:03:27.768             4.534              Murmansk1           141.688
       251   03 Jun 2027 07:03:44.425   03 Jun 2027 07:03:50.144             5.719              Murmansk2           178.719
       252   03 Jun 2027 07:04:46.242   03 Jun 2027 07:04:58.479            12.237              Murmansk2           382.406
       253   03 Jun 2027 07:06:57.308   03 Jun 2027 07:07:11.735            14.427              Murmansk1           450.844
       254   03 Jun 2027 07:34:56.769   03 Jun 2027 07:35:28.486            31.717            RioGallegos           991.156
       255   03 Jun 2027 07:40:24.434   03 Jun 2027 07:40:29.111             4.677            RioGallegos           146.156
       256   03 Jun 2027 07:40:39.311   03 Jun 2027 07:41:02.914            23.603            RioGallegos           737.594
       257   03 Jun 2027 08:11:53.249   03 Jun 2027 08:12:15.183            21.934                Sumatra           685.438
       258   03 Jun 2027 08:15:15.266   03 Jun 2027 08:16:02.310            47.044                Sumatra          1470.125
       259   03 Jun 2027 08:30:18.024   03 Jun 2027 08:30:38.826            20.802               Magadan2           650.063
       260   03 Jun 2027 08:30:47.392   03 Jun 2027 08:30:55.193             7.801                Norilsk           243.781
       261   03 Jun 2027 08:31:00.179   03 Jun 2027 08:31:13.922            13.743               Magadan2           429.469
       262   03 Jun 2027 08:31:37.155   03 Jun 2027 08:31:59.399            22.244                Irkutsk           695.125
       263   03 Jun 2027 08:32:02.980   03 Jun 2027 08:32:17.132            14.152                Irkutsk           442.250
       264   03 Jun 2027 08:32:22.126   03 Jun 2027 08:32:47.159            25.033                Novosib           782.281
       265   03 Jun 2027 08:32:47.793   03 Jun 2027 08:33:14.233            26.440               Magadan2           826.250
       266   03 Jun 2027 08:33:17.653   03 Jun 2027 08:33:33.789            16.136              Murmansk1           504.250
       267   03 Jun 2027 08:33:33.789   03 Jun 2027 08:34:21.752            47.963              Murmansk2          1498.844
       268   03 Jun 2027 08:34:26.654   03 Jun 2027 08:35:10.748            44.094              Murmansk2          1377.937
       269   03 Jun 2027 08:35:13.690   03 Jun 2027 08:35:52.162            38.472                Irkutsk          1202.250
       270   03 Jun 2027 08:37:56.986   03 Jun 2027 08:38:53.278            56.292              Murmansk1          1759.125
       271   03 Jun 2027 09:11:08.456   03 Jun 2027 09:11:41.256            32.800            RioGallegos          1025.000
       272   03 Jun 2027 09:45:33.783   03 Jun 2027 09:46:20.714            46.931                Sumatra          1466.594
       273   03 Jun 2027 09:50:09.327   03 Jun 2027 09:50:21.532            12.205                Sumatra           381.406
       274   03 Jun 2027 09:54:45.099   03 Jun 2027 09:54:57.719            12.620                  Delhi           394.375
       275   03 Jun 2027 09:55:24.775   03 Jun 2027 09:56:20.254            55.479                  Delhi          1733.719
       276   03 Jun 2027 10:06:39.027   03 Jun 2027 10:06:55.428            16.401                Irkutsk           512.531
       277   03 Jun 2027 10:07:16.519   03 Jun 2027 10:07:25.284             8.765                Norilsk           273.906
       278   03 Jun 2027 10:07:46.138   03 Jun 2027 10:08:00.116            13.978                Irkutsk           436.812
       279   03 Jun 2027 10:08:04.841   03 Jun 2027 10:08:41.393            36.552                Norilsk          1142.250
       280   03 Jun 2027 10:08:50.658   03 Jun 2027 10:08:57.057             6.399                Norilsk           199.969
       281   03 Jun 2027 10:08:59.110   03 Jun 2027 10:09:42.336            43.226                Irkutsk          1350.813
       282   03 Jun 2027 10:09:45.584   03 Jun 2027 10:10:08.285            22.701                Novosib           709.406
       283   03 Jun 2027 10:10:11.858   03 Jun 2027 10:11:04.916            53.058                 Moscow          1658.063
       284   03 Jun 2027 10:11:17.351   03 Jun 2027 10:11:31.692            14.341                Norilsk           448.156
       285   03 Jun 2027 10:11:35.663   03 Jun 2027 10:11:41.450             5.787                Novosib           180.844
       286   03 Jun 2027 10:11:47.211   03 Jun 2027 10:12:18.470            31.259                 Moscow           976.844
       287   03 Jun 2027 10:13:12.447   03 Jun 2027 10:13:34.658            22.211                 Moscow           694.094
       288   03 Jun 2027 11:30:08.895   03 Jun 2027 11:32:26.139           137.244                  Delhi          4288.875
       289   03 Jun 2027 11:42:48.905   03 Jun 2027 11:43:06.085            17.180                Novosib           536.875
       290   03 Jun 2027 11:43:12.985   03 Jun 2027 11:43:26.867            13.882                Novosib           433.812
       291   03 Jun 2027 11:43:39.518   03 Jun 2027 11:44:02.564            23.046                Novosib           720.188
       292   03 Jun 2027 11:44:05.696   03 Jun 2027 11:45:20.974            75.278                 Moscow          2352.438
       293   03 Jun 2027 11:45:24.069   03 Jun 2027 11:45:33.054             8.985                Norilsk           280.781
       294   03 Jun 2027 11:45:33.107   03 Jun 2027 11:45:58.081            24.974              Murmansk2           780.438
       295   03 Jun 2027 11:46:14.690   03 Jun 2027 11:46:54.657            39.967              Murmansk1          1248.969
       296   03 Jun 2027 11:46:56.083   03 Jun 2027 11:47:09.912            13.829                 Moscow           432.156
       297   03 Jun 2027 11:47:15.009   03 Jun 2027 11:47:27.097            12.088              Murmansk1           377.750
       298   03 Jun 2027 11:47:27.097   03 Jun 2027 11:47:35.154             8.057              Murmansk2           251.781
       299   03 Jun 2027 11:47:47.722   03 Jun 2027 11:48:11.709            23.987              Murmansk2           749.594
       300   03 Jun 2027 11:48:54.628   03 Jun 2027 11:48:55.788             1.160              Murmansk1            36.250
       301   03 Jun 2027 13:14:04.517   03 Jun 2027 13:18:22.653           258.136                 Moscow          8066.750
       302   03 Jun 2027 13:18:54.920   03 Jun 2027 13:21:41.861           166.941              Murmansk2          5216.906
       303   03 Jun 2027 13:22:48.215   03 Jun 2027 13:23:05.465            17.250                Norilsk           539.063
       304   03 Jun 2027 13:24:05.654   03 Jun 2027 13:24:40.823            35.169                Norilsk          1099.031
       305   03 Jun 2027 14:28:07.024   03 Jun 2027 14:31:38.565           211.541               CapeTown          6610.656
       306   03 Jun 2027 14:38:35.661   03 Jun 2027 14:39:47.735            72.074               CapeTown          2252.313
       307   03 Jun 2027 14:55:03.876   03 Jun 2027 14:55:32.197            28.321              Murmansk2           885.031
       308   03 Jun 2027 14:56:49.097   03 Jun 2027 14:57:11.890            22.793              Murmansk1           712.281
       309   03 Jun 2027 14:59:01.177   03 Jun 2027 15:00:13.479            72.302              Murmansk1          2259.437
       310   03 Jun 2027 15:08:25.865   03 Jun 2027 15:10:51.017           145.152                Anadyr1          4536.000
       311   03 Jun 2027 15:13:53.859   03 Jun 2027 15:14:01.485             7.626                Anadyr2           238.313
       312   03 Jun 2027 15:14:09.483   03 Jun 2027 15:14:16.917             7.434                Anadyr2           232.313
       313   03 Jun 2027 15:18:27.516   03 Jun 2027 15:18:48.252            20.736                Anadyr1           648.000
       314   03 Jun 2027 16:14:08.419   03 Jun 2027 16:14:23.123            14.704               CapeTown           459.500
       315   03 Jun 2027 16:35:01.484   03 Jun 2027 16:38:16.004           194.520              Murmansk2          6078.750
       316   03 Jun 2027 16:44:06.558   03 Jun 2027 16:45:39.464            92.906                Anadyr2          2903.313
       317   03 Jun 2027 16:45:54.725   03 Jun 2027 16:46:45.748            51.023                Anadyr2          1594.469
       318   03 Jun 2027 16:47:07.562   03 Jun 2027 16:49:50.312           162.750               Magadan2          5085.937
       319   03 Jun 2027 18:20:02.013   03 Jun 2027 18:23:06.722           184.709                Anadyr1          5772.156
       320   03 Jun 2027 18:23:28.242   03 Jun 2027 18:23:42.238            13.996                Anadyr1           437.375
       321   03 Jun 2027 18:23:54.550   03 Jun 2027 18:24:04.642            10.092               Magadan2           315.375
       322   03 Jun 2027 18:24:04.642   03 Jun 2027 18:25:13.043            68.401               Magadan1          2137.531
       323   03 Jun 2027 18:25:21.511   03 Jun 2027 18:25:38.245            16.734               Magadan2           522.938
       324   03 Jun 2027 18:26:00.089   03 Jun 2027 18:27:57.401           117.312               Magadan2          3666.000
       325   03 Jun 2027 19:15:52.566   03 Jun 2027 19:18:42.283           169.717            RioGallegos          5303.656
       326   03 Jun 2027 19:57:59.758   03 Jun 2027 20:00:29.846           150.088                Norilsk          4690.250
       327   03 Jun 2027 20:02:46.870   03 Jun 2027 20:06:10.091           203.221                Irkutsk          6350.656
       328   03 Jun 2027 20:09:20.554   03 Jun 2027 20:09:56.137            35.583                Irkutsk          1111.969
       329   03 Jun 2027 20:17:28.399   03 Jun 2027 20:17:57.793            29.394                Sumatra           918.562
       330   03 Jun 2027 20:19:01.754   03 Jun 2027 20:20:02.924            61.170                Sumatra          1911.562
       331   03 Jun 2027 20:21:11.186   03 Jun 2027 20:22:13.618            62.432                Sumatra          1951.000
       332   03 Jun 2027 20:24:52.540   03 Jun 2027 20:25:09.515            16.975                Sumatra           530.469
       333   03 Jun 2027 21:33:46.838   03 Jun 2027 21:34:17.245            30.407                Norilsk           950.219
       334   03 Jun 2027 21:35:29.989   03 Jun 2027 21:35:58.654            28.665               Magadan2           895.781
       335   03 Jun 2027 21:37:40.448   03 Jun 2027 21:39:09.447            88.999                Irkutsk          2781.219
       336   03 Jun 2027 21:39:26.114   03 Jun 2027 21:40:48.502            82.388                Novosib          2574.625
       337   03 Jun 2027 21:47:44.515   03 Jun 2027 21:49:56.209           131.694                  Delhi          4115.438
       338   03 Jun 2027 23:06:36.247   03 Jun 2027 23:07:13.849            37.602                Anadyr1          1175.063
       339   03 Jun 2027 23:09:21.587   03 Jun 2027 23:10:18.888            57.301                Anadyr1          1790.656
       340   03 Jun 2027 23:10:25.538   03 Jun 2027 23:11:20.938            55.400                Norilsk          1731.250
       341   03 Jun 2027 23:11:44.789   03 Jun 2027 23:11:53.090             8.301               Magadan1           259.406
       342   03 Jun 2027 23:12:37.413   03 Jun 2027 23:16:14.327           216.914              Murmansk1          6778.563
       343   03 Jun 2027 23:22:59.400   03 Jun 2027 23:23:50.295            50.895                  Delhi          1590.469
       344   04 Jun 2027 00:08:31.950   04 Jun 2027 00:09:00.489            28.539            RioGallegos           891.844
       345   04 Jun 2027 00:38:22.401   04 Jun 2027 00:38:39.623            17.222                Anadyr1           538.188
       346   04 Jun 2027 00:39:04.070   04 Jun 2027 00:39:24.512            20.442                Anadyr2           638.813
       347   04 Jun 2027 00:40:12.722   04 Jun 2027 00:41:00.582            47.860                Anadyr2          1495.625
       348   04 Jun 2027 00:41:09.701   04 Jun 2027 00:41:33.035            23.334                Anadyr2           729.187
       349   04 Jun 2027 00:43:32.948   04 Jun 2027 00:44:10.767            37.819                Anadyr2          1181.844
       350   04 Jun 2027 00:44:19.471   04 Jun 2027 00:45:37.146            77.675               Magadan1          2427.344
       351   04 Jun 2027 00:46:26.498   04 Jun 2027 00:46:29.154             2.656               Magadan2            83.000
       352   04 Jun 2027 00:46:41.487   04 Jun 2027 00:48:03.712            82.225               Magadan1          2569.531
       353   04 Jun 2027 00:48:36.141   04 Jun 2027 00:50:36.530           120.389              Murmansk2          3762.156
       354   04 Jun 2027 00:52:38.885   04 Jun 2027 00:52:54.908            16.023                 Moscow           500.719
       355   04 Jun 2027 00:55:38.973   04 Jun 2027 00:56:22.456            43.483                 Moscow          1358.844
       356   04 Jun 2027 01:17:26.959   04 Jun 2027 01:18:59.350            92.391               CapeTown          2887.219
       357   04 Jun 2027 01:21:11.413   04 Jun 2027 01:21:47.936            36.523               CapeTown          1141.344
       358   04 Jun 2027 02:12:17.188   04 Jun 2027 02:12:22.238             5.050                Anadyr1           157.812
       359   04 Jun 2027 02:13:19.114   04 Jun 2027 02:14:15.627            56.513                Anadyr2          1766.031
       360   04 Jun 2027 02:15:57.608   04 Jun 2027 02:17:15.040            77.432               Magadan2          2419.750
       361   04 Jun 2027 02:17:47.813   04 Jun 2027 02:18:34.496            46.683               Magadan1          1458.844
       362   04 Jun 2027 02:23:52.765   04 Jun 2027 02:25:33.007           100.242              Murmansk1          3132.562
       363   04 Jun 2027 02:26:29.243   04 Jun 2027 02:26:52.680            23.437                Novosib           732.406
       364   04 Jun 2027 02:27:05.457   04 Jun 2027 02:27:12.346             6.889                 Moscow           215.281
       365   04 Jun 2027 02:30:24.323   04 Jun 2027 02:31:06.169            41.846                 Moscow          1307.687
       366   04 Jun 2027 02:37:15.113   04 Jun 2027 02:37:24.839             9.726                 Moscow           303.938
       367   04 Jun 2027 02:39:18.609   04 Jun 2027 02:39:37.272            18.663                 Moscow           583.219
       368   04 Jun 2027 02:51:50.651   04 Jun 2027 02:53:21.701            91.050               CapeTown          2845.312
       369   04 Jun 2027 03:55:01.401   04 Jun 2027 03:55:06.799             5.398                Anadyr2           168.687
       370   04 Jun 2027 03:55:17.338   04 Jun 2027 03:55:34.142            16.804                Anadyr1           525.125
       371   04 Jun 2027 03:56:27.128   04 Jun 2027 03:58:08.279           101.151               Magadan1          3160.969
       372   04 Jun 2027 03:58:08.279   04 Jun 2027 03:58:49.607            41.328               Magadan2          1291.500
       373   04 Jun 2027 03:59:03.248   04 Jun 2027 04:00:38.520            95.272                Anadyr2          2977.250
       374   04 Jun 2027 05:32:05.581   04 Jun 2027 05:32:21.386            15.805               Magadan1           493.906
       375   04 Jun 2027 05:32:26.707   04 Jun 2027 05:33:26.024            59.317               Magadan1          1853.656
       376   04 Jun 2027 05:34:15.314   04 Jun 2027 05:34:22.702             7.388               Magadan1           230.875
       377   04 Jun 2027 05:34:37.414   04 Jun 2027 05:35:50.129            72.715                Anadyr2          2272.344
       378   04 Jun 2027 07:04:45.124   04 Jun 2027 07:05:31.914            46.790               Magadan2          1462.187
       379   04 Jun 2027 07:05:36.361   04 Jun 2027 07:05:49.842            13.481               Magadan2           421.281
       380   04 Jun 2027 07:05:49.842   04 Jun 2027 07:05:59.194             9.352               Magadan1           292.250
       381   04 Jun 2027 07:06:05.366   04 Jun 2027 07:06:29.968            24.602               Magadan1           768.813
       382   04 Jun 2027 07:06:34.664   04 Jun 2027 07:07:01.350            26.686               Magadan1           833.937
       383   04 Jun 2027 07:07:04.386   04 Jun 2027 07:07:21.784            17.398                Novosib           543.688
       384   04 Jun 2027 07:07:24.467   04 Jun 2027 07:08:53.534            89.067                Anadyr2          2783.344
       385   04 Jun 2027 07:09:04.940   04 Jun 2027 07:09:21.443            16.503               Magadan1           515.719
       386   04 Jun 2027 07:10:02.688   04 Jun 2027 07:10:17.289            14.601                Anadyr1           456.281
       387   04 Jun 2027 07:10:30.118   04 Jun 2027 07:10:41.548            11.430               Magadan2           357.187
       388   04 Jun 2027 07:10:42.746   04 Jun 2027 07:10:53.443            10.697                Novosib           334.281
       389   04 Jun 2027 07:10:58.986   04 Jun 2027 07:11:25.647            26.661              Murmansk1           833.156
       390   04 Jun 2027 07:11:28.977   04 Jun 2027 07:11:41.661            12.684                Irkutsk           396.375
       391   04 Jun 2027 07:11:42.947   04 Jun 2027 07:12:25.163            42.216                Novosib          1319.250
       392   04 Jun 2027 07:13:54.461   04 Jun 2027 07:14:13.910            19.449              Murmansk1           607.781
       393   04 Jun 2027 07:15:42.025   04 Jun 2027 07:15:52.018             9.993              Murmansk2           312.281
       394   04 Jun 2027 07:46:48.488   04 Jun 2027 07:47:22.321            33.833            RioGallegos          1057.281
       395   04 Jun 2027 07:48:22.009   04 Jun 2027 07:48:29.718             7.709            RioGallegos           240.906
       396   04 Jun 2027 07:52:48.371   04 Jun 2027 07:52:55.226             6.855            RioGallegos           214.219
       397   04 Jun 2027 07:53:23.354   04 Jun 2027 07:53:40.049            16.695            RioGallegos           521.719
       398   04 Jun 2027 08:23:07.458   04 Jun 2027 08:24:26.275            78.817                Sumatra          2463.031
       399   04 Jun 2027 08:28:22.964   04 Jun 2027 08:29:37.112            74.148                Sumatra          2317.125
       400   04 Jun 2027 08:42:35.070   04 Jun 2027 08:42:42.737             7.667                Novosib           239.594
       401   04 Jun 2027 08:43:12.189   04 Jun 2027 08:43:24.569            12.380                Irkutsk           386.875
       402   04 Jun 2027 08:43:33.090   04 Jun 2027 08:43:47.526            14.436                Norilsk           451.125
       403   04 Jun 2027 08:43:57.232   04 Jun 2027 08:44:02.738             5.506                Irkutsk           172.063
       404   04 Jun 2027 08:44:40.728   04 Jun 2027 08:45:11.184            30.456                Irkutsk           951.750
       405   04 Jun 2027 08:45:13.708   04 Jun 2027 08:45:47.228            33.520                Norilsk          1047.500
       406   04 Jun 2027 08:45:47.861   04 Jun 2027 08:46:46.992            59.131                Novosib          1847.844
       407   04 Jun 2027 08:46:53.748   04 Jun 2027 08:47:25.879            32.131                Irkutsk          1004.094
       408   04 Jun 2027 08:47:28.998   04 Jun 2027 08:47:58.494            29.496                Irkutsk           921.750
       409   04 Jun 2027 08:48:20.779   04 Jun 2027 08:48:56.121            35.342                Novosib          1104.437
       410   04 Jun 2027 09:23:55.070   04 Jun 2027 09:24:27.452            32.382            RioGallegos          1011.938
       411   04 Jun 2027 09:27:42.030   04 Jun 2027 09:28:24.328            42.298            RioGallegos          1321.812
       412   04 Jun 2027 09:57:46.963   04 Jun 2027 09:59:28.159           101.196                Sumatra          3162.375
       413   04 Jun 2027 10:18:42.442   04 Jun 2027 10:18:44.640             2.198                Irkutsk            68.688
       414   04 Jun 2027 10:19:10.212   04 Jun 2027 10:19:26.566            16.354              Murmansk1           511.063
       415   04 Jun 2027 10:19:34.234   04 Jun 2027 10:20:00.546            26.312              Murmansk1           822.250
       416   04 Jun 2027 10:20:11.288   04 Jun 2027 10:20:52.419            41.131                Irkutsk          1285.344
       417   04 Jun 2027 10:20:56.629   04 Jun 2027 10:21:07.048            10.419                Norilsk           325.594
       418   04 Jun 2027 10:21:16.127   04 Jun 2027 10:21:36.226            20.099                Norilsk           628.094
       419   04 Jun 2027 10:21:50.450   04 Jun 2027 10:21:59.905             9.455                Norilsk           295.469
       420   04 Jun 2027 10:22:00.947   04 Jun 2027 10:22:21.578            20.631              Murmansk1           644.719
       421   04 Jun 2027 10:22:36.721   04 Jun 2027 10:23:30.437            53.716              Murmansk2          1678.625
       422   04 Jun 2027 11:42:33.347   04 Jun 2027 11:46:17.090           223.743                  Delhi          6991.969
       423   04 Jun 2027 11:55:00.159   04 Jun 2027 11:55:16.371            16.212                Norilsk           506.625
       424   04 Jun 2027 11:55:25.856   04 Jun 2027 11:56:12.997            47.141              Murmansk2          1473.156
       425   04 Jun 2027 11:56:23.778   04 Jun 2027 11:56:40.223            16.445                 Moscow           513.906
       426   04 Jun 2027 11:56:50.504   04 Jun 2027 11:57:41.155            50.651                 Moscow          1582.844
       427   04 Jun 2027 11:57:45.097   04 Jun 2027 11:58:13.729            28.632                Novosib           894.750
       428   04 Jun 2027 11:58:13.935   04 Jun 2027 11:58:29.208            15.273              Murmansk2           477.281
       429   04 Jun 2027 11:58:41.622   04 Jun 2027 11:59:55.525            73.903                 Moscow          2309.469
       430   04 Jun 2027 12:01:54.561   04 Jun 2027 12:02:32.847            38.286                 Moscow          1196.438
       431   04 Jun 2027 12:03:39.916   04 Jun 2027 12:04:37.216            57.300                Norilsk          1790.625
       432   04 Jun 2027 12:06:06.176   04 Jun 2027 12:06:32.669            26.493              Murmansk2           827.906
       433   04 Jun 2027 13:26:10.249   04 Jun 2027 13:29:36.755           206.506                 Moscow          6453.312
       434   04 Jun 2027 13:29:41.815   04 Jun 2027 13:31:38.538           116.723              Murmansk1          3647.594
       435   04 Jun 2027 13:31:51.418   04 Jun 2027 13:32:30.244            38.826              Murmansk2          1213.313
       436   04 Jun 2027 13:35:33.650   04 Jun 2027 13:35:48.594            14.944              Murmansk1           467.000
       437   04 Jun 2027 13:36:16.902   04 Jun 2027 13:36:46.910            30.008              Murmansk1           937.750
       438   04 Jun 2027 13:38:49.686   04 Jun 2027 13:39:12.508            22.822                Norilsk           713.188
       439   04 Jun 2027 13:42:23.807   04 Jun 2027 13:42:29.143             5.336              Murmansk1           166.750
       440   04 Jun 2027 13:46:20.783   04 Jun 2027 13:47:08.464            47.681                Anadyr1          1490.031
       441   04 Jun 2027 13:47:59.045   04 Jun 2027 13:49:35.012            95.967                Anadyr2          2998.969
       442   04 Jun 2027 14:42:17.576   04 Jun 2027 14:43:26.011            68.435               CapeTown          2138.594
       443   04 Jun 2027 14:50:42.399   04 Jun 2027 14:51:01.846            19.447               CapeTown           607.719
       444   04 Jun 2027 15:07:26.070   04 Jun 2027 15:08:06.839            40.769              Murmansk2          1274.031
       445   04 Jun 2027 15:08:50.050   04 Jun 2027 15:10:08.871            78.821              Murmansk2          2463.156
       446   04 Jun 2027 15:14:48.113   04 Jun 2027 15:16:29.058           100.945              Murmansk2          3154.531
       447   04 Jun 2027 15:20:23.205   04 Jun 2027 15:20:47.829            24.624                Anadyr1           769.500
       448   04 Jun 2027 15:21:13.091   04 Jun 2027 15:21:23.124            10.033                Anadyr1           313.531
       449   04 Jun 2027 15:21:29.961   04 Jun 2027 15:21:48.121            18.160                Anadyr1           567.500
       450   04 Jun 2027 15:23:47.729   04 Jun 2027 15:24:15.624            27.895                Anadyr2           871.719
       451   04 Jun 2027 15:26:02.534   04 Jun 2027 15:26:22.450            19.916                Anadyr1           622.375
       452   04 Jun 2027 15:30:57.499   04 Jun 2027 15:31:04.574             7.075                Anadyr2           221.094
       453   04 Jun 2027 15:31:07.651   04 Jun 2027 15:31:19.420            11.769                Anadyr2           367.781
       454   04 Jun 2027 16:25:45.210   04 Jun 2027 16:26:01.723            16.513               CapeTown           516.031
       455   04 Jun 2027 16:26:19.375   04 Jun 2027 16:26:58.326            38.951               CapeTown          1217.219
       456   04 Jun 2027 16:47:49.834   04 Jun 2027 16:49:34.411           104.577              Murmansk1          3268.031
       457   04 Jun 2027 16:50:46.995   04 Jun 2027 16:51:13.405            26.410              Murmansk1           825.312
       458   04 Jun 2027 16:53:41.634   04 Jun 2027 16:53:45.416             3.782              Murmansk2           118.187
       459   04 Jun 2027 16:56:07.661   04 Jun 2027 16:57:48.796           101.135                Anadyr2          3160.469
       460   04 Jun 2027 16:58:58.060   04 Jun 2027 17:01:33.110           155.050               Magadan2          4845.313
       461   04 Jun 2027 17:07:36.225   04 Jun 2027 17:07:50.155            13.930               Magadan1           435.313
       462   04 Jun 2027 18:32:03.217   04 Jun 2027 18:35:50.609           227.392                Anadyr2          7106.000
       463   04 Jun 2027 18:35:56.146   04 Jun 2027 18:37:16.498            80.352               Magadan1          2511.000
       464   04 Jun 2027 18:39:48.138   04 Jun 2027 18:40:21.226            33.088               Magadan1          1034.000
       465   04 Jun 2027 18:43:19.378   04 Jun 2027 18:43:28.905             9.527               Magadan2           297.719
       466   04 Jun 2027 18:44:57.339   04 Jun 2027 18:45:31.606            34.267               Magadan1          1070.844
       467   04 Jun 2027 19:27:20.413   04 Jun 2027 19:30:28.936           188.523            RioGallegos          5891.344
       468   04 Jun 2027 19:32:46.587   04 Jun 2027 19:33:22.888            36.301            RioGallegos          1134.406
       469   04 Jun 2027 19:34:07.904   04 Jun 2027 19:34:13.850             5.946            RioGallegos           185.812
       470   04 Jun 2027 20:07:48.266   04 Jun 2027 20:08:17.328            29.062                Anadyr2           908.188
       471   04 Jun 2027 20:09:57.905   04 Jun 2027 20:11:42.126           104.221                Norilsk          3256.906
       472   04 Jun 2027 20:12:32.425   04 Jun 2027 20:13:15.374            42.949                Norilsk          1342.156
       473   04 Jun 2027 20:14:31.788   04 Jun 2027 20:17:12.871           161.083                Irkutsk          5033.844
       474   04 Jun 2027 20:23:52.388   04 Jun 2027 20:23:57.000             4.612                Irkutsk           144.125
       475   04 Jun 2027 20:28:49.672   04 Jun 2027 20:31:47.857           178.185                Sumatra          5568.281
       476   04 Jun 2027 21:46:58.236   04 Jun 2027 21:47:35.057            36.821               Magadan1          1150.656
       477   04 Jun 2027 21:48:17.828   04 Jun 2027 21:48:24.452             6.624                Norilsk           207.000
       478   04 Jun 2027 21:48:32.351   04 Jun 2027 21:49:39.974            67.623                Norilsk          2113.219
       479   04 Jun 2027 21:49:40.702   04 Jun 2027 21:50:30.047            49.345                Irkutsk          1542.031
       480   04 Jun 2027 21:51:10.558   04 Jun 2027 21:51:33.379            22.821                Novosib           713.156
       481   04 Jun 2027 21:53:44.015   04 Jun 2027 21:54:05.538            21.523                Novosib           672.594
       482   04 Jun 2027 21:56:13.879   04 Jun 2027 21:56:52.514            38.635                Novosib          1207.344
