uniorb/output/strategy_2/Drop/Drop_KinoSat_110609.txt

KinoSat_110609
-------------------------
    Access    *     Start Time (UTCG)     *     Stop Time (UTCG)  *   Duration (s)        *       Station  *  Data (Mbytes)
         1   01 Jun 2027 03:03:34.709   01 Jun 2027 03:04:17.469            42.760               Magadan1          1336.250
         2   01 Jun 2027 03:04:24.210   01 Jun 2027 03:05:15.437            51.227                Anadyr1          1600.844
         3   01 Jun 2027 03:05:37.230   01 Jun 2027 03:06:38.440            61.210               Magadan1          1912.813
         4   01 Jun 2027 03:06:54.669   01 Jun 2027 03:07:19.043            24.374                Anadyr1           761.687
         5   01 Jun 2027 03:07:19.043   01 Jun 2027 03:09:19.636           120.593                Anadyr2          3768.531
         6   01 Jun 2027 03:09:22.146   01 Jun 2027 03:09:54.099            31.953               Magadan2           998.531
         7   01 Jun 2027 04:41:27.324   01 Jun 2027 04:43:09.770           102.446                Anadyr1          3201.437
         8   01 Jun 2027 04:43:14.747   01 Jun 2027 04:43:42.966            28.219                Norilsk           881.844
         9   01 Jun 2027 04:43:56.336   01 Jun 2027 04:44:09.502            13.166                Irkutsk           411.437
        10   01 Jun 2027 04:44:11.647   01 Jun 2027 04:46:59.583           167.936                Anadyr1          5248.000
        11   01 Jun 2027 04:46:59.583   01 Jun 2027 04:47:06.286             6.703                Anadyr2           209.469
        12   01 Jun 2027 04:47:27.123   01 Jun 2027 04:47:46.184            19.061               Magadan1           595.656
        13   01 Jun 2027 04:50:58.151   01 Jun 2027 04:51:29.991            31.840              Murmansk2           995.000
        14   01 Jun 2027 04:53:55.423   01 Jun 2027 04:53:58.935             3.512              Murmansk1           109.750
        15   01 Jun 2027 05:22:54.240   01 Jun 2027 05:26:50.943           236.703            RioGallegos          7396.969
        16   01 Jun 2027 06:00:32.594   01 Jun 2027 06:07:37.940           425.346                Sumatra         13292.062
        17   01 Jun 2027 06:17:52.109   01 Jun 2027 06:18:23.186            31.077                Novosib           971.156
        18   01 Jun 2027 06:20:21.430   01 Jun 2027 06:20:23.892             2.462                Norilsk            76.938
        19   01 Jun 2027 06:20:29.536   01 Jun 2027 06:21:11.236            41.700                Irkutsk          1303.125
        20   01 Jun 2027 06:21:15.295   01 Jun 2027 06:21:51.031            35.736              Murmansk2          1116.750
        21   01 Jun 2027 06:22:25.451   01 Jun 2027 06:23:45.819            80.368              Murmansk1          2511.500
        22   01 Jun 2027 06:24:17.861   01 Jun 2027 06:25:02.997            45.136                Novosib          1410.500
        23   01 Jun 2027 06:25:24.808   01 Jun 2027 06:25:44.937            20.129                Norilsk           629.031
        24   01 Jun 2027 06:26:33.046   01 Jun 2027 06:27:01.060            28.014                Norilsk           875.438
        25   01 Jun 2027 06:27:47.240   01 Jun 2027 06:28:15.290            28.050              Murmansk2           876.562
        26   01 Jun 2027 06:29:12.255   01 Jun 2027 06:29:42.744            30.489              Murmansk2           952.781
        27   01 Jun 2027 06:58:44.462   01 Jun 2027 07:03:41.607           297.145            RioGallegos          9285.781
        28   01 Jun 2027 07:33:16.538   01 Jun 2027 07:35:24.886           128.348                Sumatra          4010.875
        29   01 Jun 2027 07:38:28.863   01 Jun 2027 07:38:40.345            11.482                Sumatra           358.812
        30   01 Jun 2027 07:42:56.365   01 Jun 2027 07:49:57.097           420.732                  Delhi         13147.875
        31   01 Jun 2027 07:55:55.622   01 Jun 2027 07:55:55.681             0.059              Murmansk1             1.844
        32   01 Jun 2027 07:55:59.877   01 Jun 2027 07:56:22.469            22.592                Novosib           706.000
        33   01 Jun 2027 07:56:30.832   01 Jun 2027 07:57:38.438            67.606              Murmansk1          2112.688
        34   01 Jun 2027 07:57:42.788   01 Jun 2027 07:58:22.954            40.166                Norilsk          1255.187
        35   01 Jun 2027 07:58:28.765   01 Jun 2027 07:59:37.498            68.733                Novosib          2147.906
        36   01 Jun 2027 07:59:40.334   01 Jun 2027 08:01:20.359           100.025                 Moscow          3125.781
        37   01 Jun 2027 09:17:43.575   01 Jun 2027 09:18:55.317            71.742                  Delhi          2241.937
        38   01 Jun 2027 09:22:15.693   01 Jun 2027 09:22:44.950            29.257                  Delhi           914.281
        39   01 Jun 2027 09:31:58.992   01 Jun 2027 09:32:33.824            34.832                 Moscow          1088.500
        40   01 Jun 2027 09:33:11.918   01 Jun 2027 09:34:06.607            54.689                 Moscow          1709.031
        41   01 Jun 2027 09:34:16.421   01 Jun 2027 09:34:45.420            28.999                Norilsk           906.219
        42   01 Jun 2027 09:34:46.138   01 Jun 2027 09:35:26.124            39.986                 Moscow          1249.563
        43   01 Jun 2027 09:35:57.397   01 Jun 2027 09:36:42.672            45.275              Murmansk2          1414.844
        44   01 Jun 2027 09:37:31.763   01 Jun 2027 09:37:37.395             5.632                Norilsk           176.000
        45   01 Jun 2027 11:07:33.928   01 Jun 2027 11:07:52.339            18.411              Murmansk2           575.344
        46   01 Jun 2027 11:08:01.379   01 Jun 2027 11:09:46.007           104.628              Murmansk1          3269.625
        47   01 Jun 2027 11:09:58.668   01 Jun 2027 11:10:15.756            17.088                Norilsk           534.000
        48   01 Jun 2027 11:10:26.664   01 Jun 2027 11:12:54.490           147.826                 Moscow          4619.562
        49   01 Jun 2027 12:16:09.020   01 Jun 2027 12:22:34.269           385.249               CapeTown         12039.031
        50   01 Jun 2027 12:42:36.975   01 Jun 2027 12:42:37.005             0.030              Murmansk1             0.938
        51   01 Jun 2027 12:42:46.432   01 Jun 2027 12:44:25.846            99.414              Murmansk2          3106.687
        52   01 Jun 2027 12:56:18.040   01 Jun 2027 13:01:53.548           335.508                Anadyr1         10484.625
        53   01 Jun 2027 13:03:34.778   01 Jun 2027 13:05:49.559           134.781                Anadyr2          4211.906
        54   01 Jun 2027 14:31:54.759   01 Jun 2027 14:34:33.573           158.814                Anadyr1          4962.937
        55   01 Jun 2027 14:35:06.760   01 Jun 2027 14:41:18.490           371.730               Magadan1         11616.563
        56   01 Jun 2027 14:41:18.646   01 Jun 2027 14:43:43.263           144.617               Magadan2          4519.281
        57   01 Jun 2027 16:10:09.622   01 Jun 2027 16:12:19.174           129.552               Magadan1          4048.500
        58   01 Jun 2027 16:12:19.174   01 Jun 2027 16:12:43.009            23.835               Magadan2           744.844
        59   01 Jun 2027 16:13:00.860   01 Jun 2027 16:14:07.702            66.842               Magadan1          2088.813
        60   01 Jun 2027 17:04:21.825   01 Jun 2027 17:09:11.914           290.089            RioGallegos          9065.281
        61   01 Jun 2027 17:45:51.726   01 Jun 2027 17:47:22.589            90.863                Norilsk          2839.469
        62   01 Jun 2027 17:50:51.905   01 Jun 2027 17:57:42.357           410.452                Irkutsk         12826.625
        63   01 Jun 2027 18:05:58.723   01 Jun 2027 18:14:08.708           489.985                Sumatra         15312.031
        64   01 Jun 2027 19:29:12.807   01 Jun 2027 19:32:43.414           210.607                Novosib          6581.469
        65   01 Jun 2027 19:36:40.841   01 Jun 2027 19:41:08.321           267.480                  Delhi          8358.750
        66   01 Jun 2027 21:00:38.807   01 Jun 2027 21:05:32.472           293.665              Murmansk2          9177.031
        67   01 Jun 2027 22:35:45.867   01 Jun 2027 22:37:42.000           116.133              Murmansk1          3629.156
        68   01 Jun 2027 22:38:23.969   01 Jun 2027 22:42:04.896           220.927              Murmansk1          6903.969
        69   01 Jun 2027 22:42:56.397   01 Jun 2027 22:43:41.279            44.882                 Moscow          1402.562
        70   01 Jun 2027 22:45:49.382   01 Jun 2027 22:47:46.016           116.634                 Moscow          3644.813
        71   01 Jun 2027 23:05:52.895   01 Jun 2027 23:14:16.503           503.608               CapeTown         15737.750
        72   02 Jun 2027 03:18:06.177   02 Jun 2027 03:18:40.664            34.487               Magadan1          1077.719
        73   02 Jun 2027 03:18:44.378   02 Jun 2027 03:18:50.972             6.594                Anadyr2           206.063
        74   02 Jun 2027 03:18:51.566   02 Jun 2027 03:18:53.707             2.141               Magadan1            66.906
        75   02 Jun 2027 03:18:59.795   02 Jun 2027 03:19:38.284            38.489               Magadan1          1202.781
        76   02 Jun 2027 03:19:50.697   02 Jun 2027 03:19:54.813             4.116                Anadyr2           128.625
        77   02 Jun 2027 03:20:01.355   02 Jun 2027 03:22:15.129           133.774                Anadyr2          4180.438
        78   02 Jun 2027 03:22:15.129   02 Jun 2027 03:22:35.880            20.751                Anadyr1           648.469
        79   02 Jun 2027 03:22:50.996   02 Jun 2027 03:22:53.600             2.604                Anadyr2            81.375
        80   02 Jun 2027 03:23:00.239   02 Jun 2027 03:23:19.058            18.819               Magadan2           588.094
        81   02 Jun 2027 03:23:19.058   02 Jun 2027 03:24:00.478            41.420               Magadan1          1294.375
        82   02 Jun 2027 04:53:36.753   02 Jun 2027 04:54:13.839            37.086                Irkutsk          1158.938
        83   02 Jun 2027 04:54:27.326   02 Jun 2027 04:54:38.546            11.220                Irkutsk           350.625
        84   02 Jun 2027 04:55:11.070   02 Jun 2027 04:57:34.882           143.812                Anadyr1          4494.125
        85   02 Jun 2027 04:57:40.391   02 Jun 2027 04:58:40.536            60.145                Anadyr2          1879.531
        86   02 Jun 2027 04:58:40.802   02 Jun 2027 04:58:44.129             3.327               Magadan1           103.969
        87   02 Jun 2027 04:58:51.237   02 Jun 2027 04:59:22.677            31.440               Magadan1           982.500
        88   02 Jun 2027 04:59:22.677   02 Jun 2027 04:59:39.976            17.299               Magadan2           540.594
        89   02 Jun 2027 05:34:43.435   02 Jun 2027 05:37:31.090           167.655            RioGallegos          5239.219
        90   02 Jun 2027 05:38:19.482   02 Jun 2027 05:38:43.413            23.931            RioGallegos           747.844
        91   02 Jun 2027 06:11:31.104   02 Jun 2027 06:20:30.485           539.381                Sumatra         16855.656
        92   02 Jun 2027 06:32:03.609   02 Jun 2027 06:33:59.452           115.843                Novosib          3620.094
        93   02 Jun 2027 06:34:26.668   02 Jun 2027 06:34:51.353            24.685              Murmansk2           771.406
        94   02 Jun 2027 06:35:04.549   02 Jun 2027 06:35:09.734             5.185                Norilsk           162.031
        95   02 Jun 2027 06:35:31.609   02 Jun 2027 06:35:32.288             0.679                Norilsk            21.219
        96   02 Jun 2027 06:35:35.695   02 Jun 2027 06:35:56.562            20.867              Murmansk2           652.094
        97   02 Jun 2027 06:36:17.296   02 Jun 2027 06:38:05.390           108.094              Murmansk1          3377.937
        98   02 Jun 2027 06:38:15.530   02 Jun 2027 06:38:25.346             9.816              Murmansk1           306.750
        99   02 Jun 2027 06:38:50.989   02 Jun 2027 06:38:54.045             3.056              Murmansk2            95.500
       100   02 Jun 2027 06:39:36.173   02 Jun 2027 06:41:08.808            92.635              Murmansk2          2894.844
       101   02 Jun 2027 07:11:01.198   02 Jun 2027 07:11:29.191            27.993            RioGallegos           874.781
       102   02 Jun 2027 07:13:45.160   02 Jun 2027 07:14:46.613            61.453            RioGallegos          1920.406
       103   02 Jun 2027 07:45:24.715   02 Jun 2027 07:47:00.424            95.709                Sumatra          2990.906
       104   02 Jun 2027 07:48:59.693   02 Jun 2027 07:50:35.415            95.722                Sumatra          2991.313
       105   02 Jun 2027 07:54:28.513   02 Jun 2027 08:00:50.205           381.692                  Delhi         11927.875
       106   02 Jun 2027 08:08:02.598   02 Jun 2027 08:09:45.383           102.785                 Moscow          3212.031
       107   02 Jun 2027 08:09:58.006   02 Jun 2027 08:10:38.355            40.349                Novosib          1260.906
       108   02 Jun 2027 08:10:41.654   02 Jun 2027 08:10:56.254            14.600                 Moscow           456.250
       109   02 Jun 2027 08:11:06.322   02 Jun 2027 08:11:24.134            17.812                Norilsk           556.625
       110   02 Jun 2027 08:11:25.422   02 Jun 2027 08:12:13.673            48.251                Novosib          1507.844
       111   02 Jun 2027 08:12:20.036   02 Jun 2027 08:12:33.740            13.704              Murmansk1           428.250
       112   02 Jun 2027 08:12:33.740   02 Jun 2027 08:12:48.086            14.346              Murmansk2           448.313
       113   02 Jun 2027 08:15:43.435   02 Jun 2027 08:16:04.311            20.876                Norilsk           652.375
       114   02 Jun 2027 08:16:33.117   02 Jun 2027 08:16:35.632             2.515              Murmansk1            78.594
       115   02 Jun 2027 09:30:02.160   02 Jun 2027 09:33:43.751           221.591                  Delhi          6924.719
       116   02 Jun 2027 09:42:55.647   02 Jun 2027 09:43:03.958             8.311                Norilsk           259.719
       117   02 Jun 2027 09:43:12.530   02 Jun 2027 09:43:28.789            16.259              Murmansk1           508.094
       118   02 Jun 2027 09:43:28.789   02 Jun 2027 09:43:36.629             7.840              Murmansk2           245.000
       119   02 Jun 2027 09:43:39.030   02 Jun 2027 09:44:29.027            49.997                 Moscow          1562.406
       120   02 Jun 2027 09:44:36.205   02 Jun 2027 09:44:53.955            17.750                 Moscow           554.687
       121   02 Jun 2027 09:45:00.498   02 Jun 2027 09:45:01.804             1.306                Novosib            40.812
       122   02 Jun 2027 09:45:36.957   02 Jun 2027 09:46:58.636            81.679                 Moscow          2552.469
       123   02 Jun 2027 09:47:06.150   02 Jun 2027 09:49:04.967           118.817                 Moscow          3713.031
       124   02 Jun 2027 11:19:50.972   02 Jun 2027 11:20:02.811            11.839              Murmansk1           369.969
       125   02 Jun 2027 11:20:02.811   02 Jun 2027 11:20:05.529             2.718              Murmansk2            84.937
       126   02 Jun 2027 11:20:06.289   02 Jun 2027 11:20:54.214            47.925                 Moscow          1497.656
       127   02 Jun 2027 11:21:20.505   02 Jun 2027 11:21:27.994             7.489                 Moscow           234.031
       128   02 Jun 2027 11:21:44.760   02 Jun 2027 11:22:14.661            29.901              Murmansk2           934.406
       129   02 Jun 2027 11:24:09.021   02 Jun 2027 11:24:13.024             4.003              Murmansk2           125.094
       130   02 Jun 2027 11:25:57.844   02 Jun 2027 11:26:14.489            16.645              Murmansk1           520.156
       131   02 Jun 2027 12:27:53.048   02 Jun 2027 12:31:49.338           236.290               CapeTown          7384.062
       132   02 Jun 2027 12:54:57.316   02 Jun 2027 12:56:37.715           100.399              Murmansk2          3137.469
       133   02 Jun 2027 12:57:19.350   02 Jun 2027 12:57:44.153            24.803              Murmansk2           775.094
       134   02 Jun 2027 12:59:14.050   02 Jun 2027 12:59:30.873            16.823              Murmansk1           525.719
       135   02 Jun 2027 13:04:09.369   02 Jun 2027 13:04:21.593            12.224              Murmansk2           382.000
       136   02 Jun 2027 13:08:14.383   02 Jun 2027 13:10:11.128           116.745                Anadyr2          3648.281
       137   02 Jun 2027 13:10:27.995   02 Jun 2027 13:14:31.617           243.622                Anadyr1          7613.188
       138   02 Jun 2027 13:16:35.719   02 Jun 2027 13:16:49.565            13.846                Anadyr1           432.688
       139   02 Jun 2027 14:43:55.605   02 Jun 2027 14:46:17.709           142.104                Anadyr1          4440.750
       140   02 Jun 2027 14:46:54.601   02 Jun 2027 14:56:21.683           567.082               Magadan1         17721.313
       141   02 Jun 2027 16:23:01.223   02 Jun 2027 16:24:39.400            98.177               Magadan2          3068.031
       142   02 Jun 2027 17:15:34.205   02 Jun 2027 17:22:29.762           415.557            RioGallegos         12986.156
       143   02 Jun 2027 17:59:38.349   02 Jun 2027 17:59:57.129            18.780                Norilsk           586.875
       144   02 Jun 2027 18:02:32.558   02 Jun 2027 18:10:21.842           469.284                Irkutsk         14665.125
       145   02 Jun 2027 18:17:08.011   02 Jun 2027 18:25:14.575           486.564                Sumatra         15205.125
       146   02 Jun 2027 19:47:20.951   02 Jun 2027 19:54:41.497           440.546                  Delhi         13767.062
       147   02 Jun 2027 21:12:24.906   02 Jun 2027 21:12:25.272             0.366              Murmansk1            11.438
       148   02 Jun 2027 21:13:29.981   02 Jun 2027 21:18:27.052           297.071              Murmansk2          9283.469
       149   02 Jun 2027 22:51:19.507   02 Jun 2027 22:51:37.929            18.422              Murmansk2           575.688
       150   02 Jun 2027 23:17:06.656   02 Jun 2027 23:18:19.017            72.361               CapeTown          2261.281
       151   02 Jun 2027 23:19:05.805   02 Jun 2027 23:19:53.185            47.380               CapeTown          1480.625
       152   02 Jun 2027 23:20:10.112   02 Jun 2027 23:24:37.904           267.792               CapeTown          8368.500
       153   03 Jun 2027 01:48:22.086   03 Jun 2027 01:49:03.705            41.619               Magadan1          1300.594
       154   03 Jun 2027 01:49:37.558   03 Jun 2027 01:49:54.018            16.460               Magadan1           514.375
       155   03 Jun 2027 01:50:27.653   03 Jun 2027 01:51:14.723            47.070               Magadan2          1470.937
       156   03 Jun 2027 01:59:38.092   03 Jun 2027 02:01:11.094            93.002              Murmansk2          2906.313
       157   03 Jun 2027 02:02:32.234   03 Jun 2027 02:02:51.475            19.241              Murmansk1           601.281
       158   03 Jun 2027 02:03:05.755   03 Jun 2027 02:03:58.789            53.034                 Moscow          1657.312
       159   03 Jun 2027 02:10:42.560   03 Jun 2027 02:11:43.093            60.533                 Moscow          1891.656
       160   03 Jun 2027 02:32:24.979   03 Jun 2027 02:33:18.722            53.743               CapeTown          1679.469
       161   03 Jun 2027 03:30:23.819   03 Jun 2027 03:30:43.150            19.331               Magadan1           604.094
       162   03 Jun 2027 03:30:51.580   03 Jun 2027 03:30:55.851             4.271               Magadan1           133.469
       163   03 Jun 2027 03:31:10.752   03 Jun 2027 03:32:16.866            66.114               Magadan1          2066.062
       164   03 Jun 2027 03:32:16.866   03 Jun 2027 03:32:42.694            25.828               Magadan2           807.125
       165   03 Jun 2027 03:33:11.812   03 Jun 2027 03:33:54.690            42.878               Magadan2          1339.937
       166   03 Jun 2027 03:33:54.690   03 Jun 2027 03:33:55.984             1.294               Magadan1            40.438
       167   03 Jun 2027 03:33:59.629   03 Jun 2027 03:34:35.008            35.379                Anadyr1          1105.594
       168   03 Jun 2027 03:34:35.008   03 Jun 2027 03:34:44.390             9.382                Anadyr2           293.188
       169   03 Jun 2027 03:34:49.690   03 Jun 2027 03:34:55.766             6.076               Magadan2           189.875
       170   03 Jun 2027 03:35:07.178   03 Jun 2027 03:35:32.027            24.849                Anadyr1           776.531
       171   03 Jun 2027 03:35:32.027   03 Jun 2027 03:35:42.087            10.060                Anadyr2           314.375
       172   03 Jun 2027 04:18:21.025   03 Jun 2027 04:19:09.619            48.594            RioGallegos          1518.563
       173   03 Jun 2027 04:19:31.429   03 Jun 2027 04:19:48.001            16.572            RioGallegos           517.875
       174   03 Jun 2027 05:06:14.158   03 Jun 2027 05:06:32.583            18.425                Irkutsk           575.781
       175   03 Jun 2027 05:06:33.268   03 Jun 2027 05:07:12.206            38.938                Novosib          1216.812
       176   03 Jun 2027 05:07:29.352   03 Jun 2027 05:08:46.733            77.381               Magadan2          2418.156
       177   03 Jun 2027 05:08:46.733   03 Jun 2027 05:08:54.756             8.023               Magadan1           250.719
       178   03 Jun 2027 05:09:02.787   03 Jun 2027 05:10:36.584            93.797               Magadan2          2931.156
       179   03 Jun 2027 05:10:36.584   03 Jun 2027 05:10:43.170             6.586               Magadan1           205.812
       180   03 Jun 2027 05:10:46.961   03 Jun 2027 05:11:12.555            25.594               Magadan1           799.812
       181   03 Jun 2027 05:11:20.547   03 Jun 2027 05:11:38.063            17.516               Magadan1           547.375
       182   03 Jun 2027 05:46:35.790   03 Jun 2027 05:49:22.189           166.399            RioGallegos          5199.969
       183   03 Jun 2027 05:49:43.505   03 Jun 2027 05:50:28.319            44.814            RioGallegos          1400.438
       184   03 Jun 2027 05:50:53.580   03 Jun 2027 05:51:06.481            12.901            RioGallegos           403.156
       185   03 Jun 2027 05:51:44.672   03 Jun 2027 05:52:06.176            21.504            RioGallegos           672.000
       186   03 Jun 2027 06:22:48.458   03 Jun 2027 06:23:50.079            61.621                Sumatra          1925.656
       187   03 Jun 2027 06:24:32.815   03 Jun 2027 06:30:20.039           347.224                Sumatra         10850.750
       188   03 Jun 2027 06:41:55.261   03 Jun 2027 06:42:55.724            60.463                Novosib          1889.469
       189   03 Jun 2027 06:43:27.979   03 Jun 2027 06:44:29.053            61.074                Irkutsk          1908.562
       190   03 Jun 2027 06:44:36.628   03 Jun 2027 06:44:42.846             6.218                Norilsk           194.312
       191   03 Jun 2027 06:44:43.261   03 Jun 2027 06:45:25.075            41.814                Novosib          1306.688
       192   03 Jun 2027 06:45:30.192   03 Jun 2027 06:46:21.712            51.520                Novosib          1610.000
       193   03 Jun 2027 06:46:27.652   03 Jun 2027 06:46:56.126            28.474              Murmansk1           889.813
       194   03 Jun 2027 06:47:23.161   03 Jun 2027 06:48:30.442            67.281              Murmansk1          2102.531
       195   03 Jun 2027 06:54:12.210   03 Jun 2027 06:54:14.339             2.129              Murmansk1            66.531
       196   03 Jun 2027 07:23:22.357   03 Jun 2027 07:24:05.286            42.929            RioGallegos          1341.531
       197   03 Jun 2027 07:25:37.057   03 Jun 2027 07:26:21.649            44.592            RioGallegos          1393.500
       198   03 Jun 2027 07:57:39.151   03 Jun 2027 07:58:43.469            64.318                Sumatra          2009.938
       199   03 Jun 2027 08:00:02.634   03 Jun 2027 08:01:18.605            75.971                Sumatra          2374.094
       200   03 Jun 2027 08:06:07.415   03 Jun 2027 08:08:28.278           140.863                  Delhi          4401.969
       201   03 Jun 2027 08:09:58.622   03 Jun 2027 08:10:55.712            57.090                  Delhi          1784.062
       202   03 Jun 2027 08:18:56.249   03 Jun 2027 08:19:51.705            55.456              Murmansk1          1733.000
       203   03 Jun 2027 08:19:58.281   03 Jun 2027 08:20:52.729            54.448              Murmansk2          1701.500
       204   03 Jun 2027 08:20:56.455   03 Jun 2027 08:21:51.063            54.608                Irkutsk          1706.500
       205   03 Jun 2027 08:22:04.338   03 Jun 2027 08:22:09.542             5.204                Novosib           162.625
       206   03 Jun 2027 08:22:18.400   03 Jun 2027 08:22:20.944             2.544                Norilsk            79.500
       207   03 Jun 2027 08:22:21.735   03 Jun 2027 08:22:46.275            24.540                Irkutsk           766.875
       208   03 Jun 2027 08:22:46.467   03 Jun 2027 08:24:06.626            80.159                 Moscow          2504.969
       209   03 Jun 2027 09:42:28.194   03 Jun 2027 09:45:33.466           185.272                  Delhi          5789.750
       210   03 Jun 2027 09:54:59.796   03 Jun 2027 09:55:18.608            18.812              Murmansk1           587.875
       211   03 Jun 2027 09:55:26.557   03 Jun 2027 09:55:56.410            29.853              Murmansk2           932.906
       212   03 Jun 2027 09:55:59.285   03 Jun 2027 09:56:32.959            33.674                Novosib          1052.312
       213   03 Jun 2027 09:56:36.593   03 Jun 2027 09:56:45.076             8.483                Novosib           265.094
       214   03 Jun 2027 09:56:46.464   03 Jun 2027 09:57:47.384            60.920              Murmansk1          1903.750
       215   03 Jun 2027 09:57:54.035   03 Jun 2027 09:58:13.003            18.968              Murmansk1           592.750
       216   03 Jun 2027 09:58:39.560   03 Jun 2027 09:59:08.965            29.405              Murmansk2           918.906
       217   03 Jun 2027 09:59:08.965   03 Jun 2027 09:59:37.770            28.805              Murmansk1           900.156
       218   03 Jun 2027 09:59:39.505   03 Jun 2027 10:00:08.009            28.504                 Moscow           890.750
       219   03 Jun 2027 11:33:03.356   03 Jun 2027 11:33:25.073            21.717                 Moscow           678.656
       220   03 Jun 2027 11:33:41.875   03 Jun 2027 11:33:48.069             6.194              Murmansk2           193.562
       221   03 Jun 2027 11:35:20.099   03 Jun 2027 11:35:22.313             2.214              Murmansk1            69.188
       222   03 Jun 2027 11:36:00.680   03 Jun 2027 11:36:05.101             4.421              Murmansk2           138.156
       223   03 Jun 2027 11:37:04.542   03 Jun 2027 11:37:08.747             4.205                 Moscow           131.406
       224   03 Jun 2027 11:46:00.747   03 Jun 2027 11:49:41.312           220.565                Anadyr1          6892.656
       225   03 Jun 2027 12:41:29.857   03 Jun 2027 12:43:15.072           105.215               CapeTown          3287.969
       226   03 Jun 2027 13:07:19.920   03 Jun 2027 13:07:56.703            36.783              Murmansk2          1149.469
       227   03 Jun 2027 13:09:19.897   03 Jun 2027 13:09:48.260            28.363              Murmansk1           886.344
       228   03 Jun 2027 13:11:18.607   03 Jun 2027 13:11:30.772            12.165              Murmansk2           380.156
       229   03 Jun 2027 13:11:43.420   03 Jun 2027 13:11:51.819             8.399              Murmansk2           262.469
       230   03 Jun 2027 13:13:57.252   03 Jun 2027 13:14:37.052            39.800              Murmansk2          1243.750
       231   03 Jun 2027 13:20:11.804   03 Jun 2027 13:22:20.257           128.453                Anadyr2          4014.156
       232   03 Jun 2027 13:22:29.574   03 Jun 2027 13:25:40.363           190.789                Anadyr2          5962.156
       233   03 Jun 2027 14:47:50.446   03 Jun 2027 14:49:03.680            73.234              Murmansk2          2288.563
       234   03 Jun 2027 14:55:56.639   03 Jun 2027 14:57:07.661            71.022                Anadyr2          2219.438
       235   03 Jun 2027 14:58:27.625   03 Jun 2027 14:58:54.064            26.439                Anadyr1           826.219
       236   03 Jun 2027 14:58:56.133   03 Jun 2027 15:04:49.298           353.165               Magadan1         11036.406
       237   03 Jun 2027 15:05:28.798   03 Jun 2027 15:08:57.695           208.897               Magadan1          6528.031
       238   03 Jun 2027 16:34:09.307   03 Jun 2027 16:34:41.804            32.497               Magadan1          1015.531
       239   03 Jun 2027 17:27:04.435   03 Jun 2027 17:34:06.432           421.997            RioGallegos         13187.406
       240   03 Jun 2027 18:10:38.778   03 Jun 2027 18:12:25.611           106.833                Norilsk          3338.531
       241   03 Jun 2027 18:14:18.229   03 Jun 2027 18:16:02.548           104.319                Irkutsk          3259.969
       242   03 Jun 2027 18:17:33.007   03 Jun 2027 18:20:20.431           167.424                Irkutsk          5232.000
       243   03 Jun 2027 18:29:26.610   03 Jun 2027 18:31:53.525           146.915                Sumatra          4591.094
       244   03 Jun 2027 18:32:32.085   03 Jun 2027 18:35:40.500           188.415                Sumatra          5887.969
       245   03 Jun 2027 19:51:07.672   03 Jun 2027 19:52:02.607            54.935                Novosib          1716.719
       246   03 Jun 2027 19:58:33.913   03 Jun 2027 20:06:49.236           495.323                  Delhi         15478.844
       247   03 Jun 2027 21:24:15.936   03 Jun 2027 21:31:14.621           418.685              Murmansk2         13083.906
       248   03 Jun 2027 23:05:37.832   03 Jun 2027 23:07:00.518            82.686                 Moscow          2583.937
       249   03 Jun 2027 23:28:30.017   03 Jun 2027 23:29:13.973            43.956               CapeTown          1373.625
       250   03 Jun 2027 23:29:27.456   03 Jun 2027 23:31:22.965           115.509               CapeTown          3609.656
       251   03 Jun 2027 23:33:18.664   03 Jun 2027 23:35:31.332           132.668               CapeTown          4145.875
       252   04 Jun 2027 01:02:57.750   04 Jun 2027 01:03:17.789            20.039               CapeTown           626.219
       253   04 Jun 2027 01:05:39.402   04 Jun 2027 01:05:56.392            16.990               CapeTown           530.938
       254   04 Jun 2027 01:06:48.289   04 Jun 2027 01:08:07.276            78.987               CapeTown          2468.344
       255   04 Jun 2027 02:00:07.353   04 Jun 2027 02:01:36.255            88.902               Magadan2          2778.188
       256   04 Jun 2027 02:02:30.246   04 Jun 2027 02:02:57.011            26.765               Magadan2           836.406
       257   04 Jun 2027 02:07:54.331   04 Jun 2027 02:07:58.036             3.705                Norilsk           115.781
       258   04 Jun 2027 02:08:00.368   04 Jun 2027 02:08:28.023            27.655                Norilsk           864.219
       259   04 Jun 2027 02:11:38.710   04 Jun 2027 02:12:19.515            40.805              Murmansk1          1275.156
       260   04 Jun 2027 02:12:52.787   04 Jun 2027 02:13:12.882            20.095              Murmansk2           627.969
       261   04 Jun 2027 02:13:22.987   04 Jun 2027 02:13:36.568            13.581              Murmansk2           424.406
       262   04 Jun 2027 02:15:11.268   04 Jun 2027 02:16:20.167            68.899                 Moscow          2153.094
       263   04 Jun 2027 02:18:57.683   04 Jun 2027 02:19:10.707            13.024                 Moscow           407.000
       264   04 Jun 2027 02:21:28.467   04 Jun 2027 02:21:56.810            28.343                 Moscow           885.719
       265   04 Jun 2027 02:25:35.510   04 Jun 2027 02:25:35.560             0.050                 Moscow             1.563
       266   04 Jun 2027 03:41:27.551   04 Jun 2027 03:41:38.718            11.167                Anadyr1           348.969
       267   04 Jun 2027 03:42:22.062   04 Jun 2027 03:42:27.717             5.655                Anadyr1           176.719
       268   04 Jun 2027 03:42:38.878   04 Jun 2027 03:44:00.438            81.560                Anadyr1          2548.750
       269   04 Jun 2027 03:44:00.438   04 Jun 2027 03:45:21.436            80.998                Anadyr2          2531.188
       270   04 Jun 2027 03:45:53.799   04 Jun 2027 03:46:05.918            12.119               Magadan1           378.719
       271   04 Jun 2027 03:46:59.410   04 Jun 2027 03:48:07.158            67.748                Anadyr2          2117.125
       272   04 Jun 2027 05:19:04.832   04 Jun 2027 05:19:55.693            50.861                Irkutsk          1589.406
       273   04 Jun 2027 05:20:51.204   04 Jun 2027 05:21:32.744            41.540                Irkutsk          1298.125
       274   04 Jun 2027 05:22:14.866   04 Jun 2027 05:22:49.950            35.084               Magadan2          1096.375
       275   04 Jun 2027 05:23:08.473   04 Jun 2027 05:23:31.779            23.306               Magadan2           728.313
       276   04 Jun 2027 05:24:06.127   04 Jun 2027 05:24:27.312            21.185                Norilsk           662.031
       277   04 Jun 2027 05:28:44.056   04 Jun 2027 05:28:56.045            11.989                Norilsk           374.656
       278   04 Jun 2027 05:29:16.790   04 Jun 2027 05:30:03.533            46.743              Murmansk2          1460.719
       279   04 Jun 2027 05:31:04.988   04 Jun 2027 05:31:34.063            29.075              Murmansk2           908.594
       280   04 Jun 2027 05:58:31.315   04 Jun 2027 06:01:46.177           194.862            RioGallegos          6089.438
       281   04 Jun 2027 06:02:33.456   04 Jun 2027 06:03:24.019            50.563            RioGallegos          1580.094
       282   04 Jun 2027 06:04:07.506   04 Jun 2027 06:04:35.674            28.168            RioGallegos           880.250
       283   04 Jun 2027 06:04:41.588   04 Jun 2027 06:04:58.591            17.003            RioGallegos           531.344
       284   04 Jun 2027 06:06:08.824   04 Jun 2027 06:08:04.592           115.768            RioGallegos          3617.750
       285   04 Jun 2027 06:34:17.643   04 Jun 2027 06:35:42.534            84.891                Sumatra          2652.844
       286   04 Jun 2027 06:37:50.671   04 Jun 2027 06:41:09.136           198.465                Sumatra          6202.031
       287   04 Jun 2027 06:54:36.832   04 Jun 2027 06:54:40.561             3.729                Irkutsk           116.531
       288   04 Jun 2027 06:54:48.657   04 Jun 2027 06:55:30.660            42.003                Irkutsk          1312.594
       289   04 Jun 2027 06:55:39.320   04 Jun 2027 06:55:45.063             5.743                Novosib           179.469
       290   04 Jun 2027 06:56:00.489   04 Jun 2027 06:56:09.489             9.000                Novosib           281.250
       291   04 Jun 2027 06:56:11.723   04 Jun 2027 06:56:35.233            23.510                Irkutsk           734.687
       292   04 Jun 2027 06:56:37.053   04 Jun 2027 06:56:51.940            14.887                Norilsk           465.219
       293   04 Jun 2027 06:57:35.538   04 Jun 2027 06:57:58.230            22.692              Murmansk2           709.125
       294   04 Jun 2027 06:57:58.230   04 Jun 2027 06:58:28.369            30.139              Murmansk1           941.844
       295   04 Jun 2027 06:58:30.241   04 Jun 2027 06:59:10.402            40.161              Murmansk1          1255.031
       296   04 Jun 2027 06:59:10.402   04 Jun 2027 06:59:54.598            44.196              Murmansk2          1381.125
       297   04 Jun 2027 07:38:31.114   04 Jun 2027 07:38:48.054            16.940            RioGallegos           529.375
       298   04 Jun 2027 08:10:00.911   04 Jun 2027 08:11:43.037           102.126                Sumatra          3191.438
       299   04 Jun 2027 08:13:30.672   04 Jun 2027 08:13:43.933            13.261                Sumatra           414.406
       300   04 Jun 2027 08:17:52.316   04 Jun 2027 08:20:39.229           166.913                  Delhi          5216.031
       301   04 Jun 2027 08:31:39.355   04 Jun 2027 08:32:06.045            26.690                Irkutsk           834.062
       302   04 Jun 2027 08:32:13.413   04 Jun 2027 08:32:41.808            28.395                Norilsk           887.344
       303   04 Jun 2027 08:32:42.094   04 Jun 2027 08:33:04.532            22.438              Murmansk1           701.188
       304   04 Jun 2027 08:33:04.532   04 Jun 2027 08:33:18.713            14.181              Murmansk2           443.156
       305   04 Jun 2027 08:33:21.783   04 Jun 2027 08:34:05.965            44.182                Irkutsk          1380.687
       306   04 Jun 2027 08:34:15.270   04 Jun 2027 08:34:21.930             6.660                Norilsk           208.125
       307   04 Jun 2027 08:34:24.358   04 Jun 2027 08:34:25.684             1.326                Irkutsk            41.437
       308   04 Jun 2027 08:34:33.465   04 Jun 2027 08:35:00.079            26.614              Murmansk1           831.687
       309   04 Jun 2027 08:35:05.975   04 Jun 2027 08:35:35.367            29.392                Norilsk           918.500
       310   04 Jun 2027 08:36:08.542   04 Jun 2027 08:36:45.543            37.001              Murmansk2          1156.281
       311   04 Jun 2027 08:38:06.249   04 Jun 2027 08:38:21.344            15.095                 Moscow           471.719
       312   04 Jun 2027 09:55:03.509   04 Jun 2027 09:57:05.542           122.033                  Delhi          3813.531
       313   04 Jun 2027 09:58:49.494   04 Jun 2027 09:59:16.391            26.897                  Delhi           840.531
       314   04 Jun 2027 10:07:56.221   04 Jun 2027 10:08:26.585            30.364                 Moscow           948.875
       315   04 Jun 2027 10:08:47.213   04 Jun 2027 10:09:41.570            54.357              Murmansk2          1698.656
       316   04 Jun 2027 10:09:58.771   04 Jun 2027 10:10:00.139             1.368              Murmansk1            42.750
       317   04 Jun 2027 10:10:01.232   04 Jun 2027 10:10:31.786            30.554              Murmansk1           954.812
       318   04 Jun 2027 10:11:00.593   04 Jun 2027 10:11:55.806            55.213                 Moscow          1725.406
       319   04 Jun 2027 11:57:27.111   04 Jun 2027 12:02:55.030           327.919                Anadyr1         10247.469
       320   04 Jun 2027 13:19:44.893   04 Jun 2027 13:20:38.930            54.037              Murmansk2          1688.656
       321   04 Jun 2027 13:21:47.412   04 Jun 2027 13:22:06.540            19.128              Murmansk2           597.750
       322   04 Jun 2027 13:23:06.070   04 Jun 2027 13:23:20.108            14.038              Murmansk2           438.687
       323   04 Jun 2027 13:23:30.460   04 Jun 2027 13:24:20.066            49.606              Murmansk2          1550.188
       324   04 Jun 2027 13:32:10.077   04 Jun 2027 13:33:45.964            95.887                Anadyr2          2996.469
       325   04 Jun 2027 13:34:23.571   04 Jun 2027 13:36:28.841           125.270                Anadyr1          3914.687
       326   04 Jun 2027 13:38:00.525   04 Jun 2027 13:38:41.769            41.244                Anadyr1          1288.875
       327   04 Jun 2027 13:39:06.464   04 Jun 2027 13:39:21.889            15.425                Anadyr1           482.031
       328   04 Jun 2027 15:00:48.389   04 Jun 2027 15:02:42.579           114.190              Murmansk2          3568.437
       329   04 Jun 2027 15:07:57.803   04 Jun 2027 15:10:17.801           139.998                Anadyr1          4374.937
       330   04 Jun 2027 15:10:38.681   04 Jun 2027 15:14:12.774           214.093               Magadan2          6690.406
       331   04 Jun 2027 15:14:12.774   04 Jun 2027 15:16:36.369           143.595               Magadan1          4487.344
       332   04 Jun 2027 15:18:53.562   04 Jun 2027 15:21:27.278           153.716               Magadan1          4803.625
       333   04 Jun 2027 16:46:09.878   04 Jun 2027 16:48:25.431           135.553               Magadan2          4236.031
       334   04 Jun 2027 17:38:43.504   04 Jun 2027 17:39:49.231            65.727            RioGallegos          2053.969
       335   04 Jun 2027 17:39:59.183   04 Jun 2027 17:45:07.556           308.373            RioGallegos          9636.656
       336   04 Jun 2027 18:21:46.045   04 Jun 2027 18:25:08.234           202.189                Norilsk          6318.406
       337   04 Jun 2027 18:26:07.454   04 Jun 2027 18:27:13.392            65.938                Irkutsk          2060.562
       338   04 Jun 2027 18:40:05.630   04 Jun 2027 18:43:49.224           223.594                Sumatra          6987.313
       339   04 Jun 2027 18:44:36.478   04 Jun 2027 18:45:20.267            43.789                Sumatra          1368.406
       340   04 Jun 2027 18:45:48.385   04 Jun 2027 18:46:43.289            54.904                Sumatra          1715.750
       341   04 Jun 2027 20:01:48.844   04 Jun 2027 20:03:11.820            82.976                Novosib          2593.000
       342   04 Jun 2027 20:04:07.900   04 Jun 2027 20:05:30.286            82.386                Novosib          2574.562
       343   04 Jun 2027 20:10:14.816   04 Jun 2027 20:11:22.867            68.051                  Delhi          2126.594
       344   04 Jun 2027 20:12:38.119   04 Jun 2027 20:17:02.036           263.917                  Delhi          8247.406
       345   04 Jun 2027 21:36:09.920   04 Jun 2027 21:41:49.479           339.559              Murmansk1         10611.219
       346   04 Jun 2027 21:42:08.961   04 Jun 2027 21:43:57.173           108.212              Murmansk2          3381.625
       347   04 Jun 2027 21:44:33.577   04 Jun 2027 21:45:34.575            60.998                 Moscow          1906.188
       348   04 Jun 2027 23:17:23.805   04 Jun 2027 23:18:18.294            54.489                 Moscow          1702.781
       349   04 Jun 2027 23:21:43.128   04 Jun 2027 23:22:01.624            18.496                 Moscow           578.000
       350   04 Jun 2027 23:40:00.919   04 Jun 2027 23:43:27.348           206.429               CapeTown          6450.906
       351   04 Jun 2027 23:45:34.299   04 Jun 2027 23:46:12.828            38.529               CapeTown          1204.031
       352   05 Jun 2027 00:49:11.359   05 Jun 2027 00:50:19.183            67.824              Murmansk2          2119.500
       353   05 Jun 2027 00:56:40.589   05 Jun 2027 00:57:21.026            40.437              Murmansk1          1263.656
       354   05 Jun 2027 01:15:11.635   05 Jun 2027 01:16:11.570            59.935               CapeTown          1872.969
       355   05 Jun 2027 01:23:21.025   05 Jun 2027 01:23:51.079            30.054               CapeTown           939.187
       356   05 Jun 2027 02:11:52.779   05 Jun 2027 02:12:50.107            57.328                Anadyr2          1791.500
       357   05 Jun 2027 02:12:52.340   05 Jun 2027 02:14:29.844            97.504               Magadan2          3047.000
       358   05 Jun 2027 02:20:13.987   05 Jun 2027 02:20:59.361            45.374               Magadan2          1417.938
       359   05 Jun 2027 02:23:39.064   05 Jun 2027 02:24:48.402            69.338              Murmansk1          2166.812
       360   05 Jun 2027 02:27:17.383   05 Jun 2027 02:28:46.018            88.635                 Moscow          2769.844
       361   05 Jun 2027 02:35:42.027   05 Jun 2027 02:36:39.197            57.170                 Moscow          1786.563
       362   05 Jun 2027 03:54:34.813   05 Jun 2027 03:54:43.815             9.002               Magadan2           281.312
       363   05 Jun 2027 03:55:19.547   05 Jun 2027 03:55:49.541            29.994                Anadyr1           937.313
       364   05 Jun 2027 03:55:59.129   05 Jun 2027 03:57:58.696           119.567                Anadyr2          3736.469
       365   05 Jun 2027 03:58:42.768   05 Jun 2027 03:58:52.787            10.019               Magadan2           313.094
       366   05 Jun 2027 03:59:05.889   05 Jun 2027 04:00:05.879            59.990               Magadan2          1874.687
       367   05 Jun 2027 04:42:18.657   05 Jun 2027 04:42:54.594            35.937            RioGallegos          1123.031
       368   05 Jun 2027 04:43:34.205   05 Jun 2027 04:44:03.498            29.293            RioGallegos           915.406
       369   05 Jun 2027 05:26:05.394   05 Jun 2027 05:27:19.256            73.862                Irkutsk          2308.188
       370   05 Jun 2027 05:31:10.023   05 Jun 2027 05:33:16.636           126.613                Irkutsk          3956.656
       371   05 Jun 2027 05:34:22.384   05 Jun 2027 05:35:23.437            61.053               Magadan2          1907.906
       372   05 Jun 2027 05:36:35.696   05 Jun 2027 05:36:46.221            10.525              Murmansk1           328.906
       373   05 Jun 2027 05:39:54.617   05 Jun 2027 05:39:55.238             0.621                Norilsk            19.406
       374   05 Jun 2027 05:40:02.353   05 Jun 2027 05:40:11.864             9.511                Norilsk           297.219
       375   05 Jun 2027 05:40:36.794   05 Jun 2027 05:40:55.598            18.804                Norilsk           587.625
       376   05 Jun 2027 05:41:04.067   05 Jun 2027 05:41:41.512            37.445              Murmansk2          1170.156
       377   05 Jun 2027 06:10:30.067   05 Jun 2027 06:14:42.437           252.370            RioGallegos          7886.562
       378   05 Jun 2027 06:15:38.153   05 Jun 2027 06:15:58.853            20.700            RioGallegos           646.875
       379   05 Jun 2027 06:20:01.509   05 Jun 2027 06:20:43.079            41.570            RioGallegos          1299.062
       380   05 Jun 2027 06:21:10.686   05 Jun 2027 06:21:49.013            38.327            RioGallegos          1197.719
       381   05 Jun 2027 06:22:50.271   05 Jun 2027 06:23:23.291            33.020            RioGallegos          1031.875
       382   05 Jun 2027 06:45:55.558   05 Jun 2027 06:47:31.112            95.554                Sumatra          2986.062
       383   05 Jun 2027 06:49:49.168   05 Jun 2027 06:51:51.213           122.045                Sumatra          3813.906
       384   05 Jun 2027 06:52:14.397   05 Jun 2027 06:52:21.560             7.163                Sumatra           223.844
       385   05 Jun 2027 06:59:05.901   05 Jun 2027 07:03:16.748           250.847                  Delhi          7838.969
       386   05 Jun 2027 07:06:52.155   05 Jun 2027 07:07:37.012            44.857                Novosib          1401.781
       387   05 Jun 2027 07:07:49.253   05 Jun 2027 07:08:41.652            52.399                Irkutsk          1637.469
       388   05 Jun 2027 07:08:42.482   05 Jun 2027 07:09:36.745            54.263              Murmansk2          1695.719
       389   05 Jun 2027 07:09:46.816   05 Jun 2027 07:10:57.536            70.720              Murmansk2          2210.000
       390   05 Jun 2027 07:11:44.133   05 Jun 2027 07:12:03.975            19.842              Murmansk1           620.063
       391   05 Jun 2027 07:12:03.975   05 Jun 2027 07:12:04.122             0.147              Murmansk2             4.594
       392   05 Jun 2027 07:12:33.648   05 Jun 2027 07:12:56.525            22.877              Murmansk1           714.906
       393   05 Jun 2027 07:17:39.249   05 Jun 2027 07:17:47.043             7.794              Murmansk2           243.563
       394   05 Jun 2027 07:18:18.160   05 Jun 2027 07:19:16.553            58.393              Murmansk2          1824.781
       395   05 Jun 2027 07:48:20.302   05 Jun 2027 07:49:03.947            43.645            RioGallegos          1363.906
       396   05 Jun 2027 08:23:15.342   05 Jun 2027 08:24:00.259            44.917                Sumatra          1403.656
       397   05 Jun 2027 08:29:42.775   05 Jun 2027 08:32:20.014           157.239                  Delhi          4913.719
       398   05 Jun 2027 08:43:23.395   05 Jun 2027 08:43:34.262            10.867                Novosib           339.594
       399   05 Jun 2027 08:43:42.257   05 Jun 2027 08:43:49.048             6.791                Novosib           212.219
       400   05 Jun 2027 08:44:13.907   05 Jun 2027 08:44:30.822            16.915              Murmansk1           528.594
       401   05 Jun 2027 08:44:32.951   05 Jun 2027 08:45:02.868            29.917              Murmansk1           934.906
       402   05 Jun 2027 08:45:05.284   05 Jun 2027 08:45:32.698            27.414                Norilsk           856.687
       403   05 Jun 2027 08:45:41.441   05 Jun 2027 08:46:05.649            24.208                Irkutsk           756.500
       404   05 Jun 2027 08:46:12.702   05 Jun 2027 08:46:14.977             2.275                Norilsk            71.094
       405   05 Jun 2027 08:46:17.122   05 Jun 2027 08:46:20.131             3.009                Novosib            94.031
       406   05 Jun 2027 08:46:24.328   05 Jun 2027 08:47:04.725            40.397                Norilsk          1262.406
       407   05 Jun 2027 08:47:15.110   05 Jun 2027 08:47:44.611            29.501              Murmansk2           921.906
       408   05 Jun 2027 08:47:56.385   05 Jun 2027 08:48:18.187            21.802              Murmansk2           681.312
       409   05 Jun 2027 08:50:06.827   05 Jun 2027 08:50:13.395             6.568                 Moscow           205.250
       410   05 Jun 2027 10:07:51.641   05 Jun 2027 10:11:04.879           193.238                  Delhi          6038.688
       411   05 Jun 2027 10:19:08.977   05 Jun 2027 10:19:58.988            50.011              Murmansk2          1562.844
       412   05 Jun 2027 10:20:00.254   05 Jun 2027 10:20:09.554             9.300              Murmansk1           290.625
       413   05 Jun 2027 10:20:09.947   05 Jun 2027 10:20:57.850            47.903                 Moscow          1496.969
       414   05 Jun 2027 10:21:05.139   05 Jun 2027 10:21:43.811            38.672                 Moscow          1208.500
       415   05 Jun 2027 10:21:49.972   05 Jun 2027 10:21:59.649             9.677              Murmansk2           302.406
       416   05 Jun 2027 10:22:12.045   05 Jun 2027 10:22:24.775            12.730              Murmansk2           397.812
       417   05 Jun 2027 10:22:26.998   05 Jun 2027 10:22:28.043             1.045                 Moscow            32.656
       418   05 Jun 2027 10:22:57.499   05 Jun 2027 10:23:43.310            45.811              Murmansk2          1431.594
       419   05 Jun 2027 10:23:47.011   05 Jun 2027 10:24:01.870            14.859                Norilsk           464.344
       420   05 Jun 2027 10:24:17.719   05 Jun 2027 10:24:25.530             7.811                Norilsk           244.094
       421   05 Jun 2027 10:24:32.444   05 Jun 2027 10:24:44.772            12.328              Murmansk2           385.250
       422   05 Jun 2027 10:25:00.242   05 Jun 2027 10:25:07.295             7.053              Murmansk2           220.406
       423   05 Jun 2027 10:27:34.350   05 Jun 2027 10:27:34.438             0.088              Murmansk2             2.750
       424   05 Jun 2027 10:29:31.867   05 Jun 2027 10:29:34.295             2.428              Murmansk2            75.875
       425   05 Jun 2027 11:31:11.827   05 Jun 2027 11:35:49.283           277.456               CapeTown          8670.500
       426   05 Jun 2027 12:09:07.342   05 Jun 2027 12:15:52.361           405.019                Anadyr1         12656.844
       427   05 Jun 2027 13:44:09.030   05 Jun 2027 13:44:43.820            34.790                Anadyr1          1087.188
       428   05 Jun 2027 13:44:43.820   05 Jun 2027 13:46:05.586            81.766                Anadyr2          2555.187
       429   05 Jun 2027 13:48:01.843   05 Jun 2027 13:48:29.245            27.402                Anadyr2           856.313
       430   05 Jun 2027 13:52:19.352   05 Jun 2027 13:52:47.449            28.097                Anadyr2           878.031
       431   05 Jun 2027 13:53:43.130   05 Jun 2027 13:54:48.688            65.558                Anadyr2          2048.687
       432   05 Jun 2027 15:14:03.546   05 Jun 2027 15:15:01.331            57.785              Murmansk2          1805.781
       433   05 Jun 2027 15:19:59.072   05 Jun 2027 15:21:07.782            68.710                Anadyr1          2147.187
       434   05 Jun 2027 15:22:14.926   05 Jun 2027 15:23:19.584            64.658                Anadyr1          2020.562
       435   05 Jun 2027 15:23:58.174   05 Jun 2027 15:26:14.243           136.069               Magadan1          4252.156
       436   05 Jun 2027 15:26:14.243   05 Jun 2027 15:29:25.889           191.646               Magadan2          5988.937
       437   05 Jun 2027 15:31:11.702   05 Jun 2027 15:31:54.894            43.192               Magadan1          1349.750
       438   05 Jun 2027 16:58:10.836   05 Jun 2027 16:59:24.858            74.022               Magadan1          2313.187
       439   05 Jun 2027 16:59:38.910   05 Jun 2027 17:00:15.177            36.267               Magadan2          1133.344
       440   05 Jun 2027 17:01:30.464   05 Jun 2027 17:01:55.597            25.133               Magadan1           785.406
       441   05 Jun 2027 17:03:54.883   05 Jun 2027 17:05:45.021           110.138               Magadan1          3441.813
       442   05 Jun 2027 17:50:28.081   05 Jun 2027 17:52:10.399           102.318            RioGallegos          3197.437
       443   05 Jun 2027 17:53:40.536   05 Jun 2027 17:56:33.637           173.101            RioGallegos          5409.406
       444   05 Jun 2027 18:33:45.852   05 Jun 2027 18:37:45.669           239.817                Norilsk          7494.281
       445   05 Jun 2027 18:39:05.085   05 Jun 2027 18:40:14.728            69.643                Irkutsk          2176.344
       446   05 Jun 2027 18:40:22.116   05 Jun 2027 18:44:27.277           245.161                Novosib          7661.281
       447   05 Jun 2027 18:51:47.251   05 Jun 2027 18:53:22.439            95.188                Sumatra          2974.625
       448   05 Jun 2027 18:55:41.616   05 Jun 2027 18:57:02.615            80.999                Sumatra          2531.219
       449   05 Jun 2027 20:21:38.123   05 Jun 2027 20:25:20.663           222.540                  Delhi          6954.375
       450   05 Jun 2027 20:26:19.348   05 Jun 2027 20:28:07.868           108.520                  Delhi          3391.250
       451   05 Jun 2027 21:48:05.865   05 Jun 2027 21:53:39.262           333.397              Murmansk2         10418.656
       452   05 Jun 2027 21:54:24.898   05 Jun 2027 21:56:35.690           130.792              Murmansk1          4087.250
       453   05 Jun 2027 21:58:06.994   05 Jun 2027 21:59:06.415            59.421                 Moscow          1856.906
       454   05 Jun 2027 23:27:12.287   05 Jun 2027 23:28:12.798            60.511                 Moscow          1890.969
       455   05 Jun 2027 23:31:24.408   05 Jun 2027 23:31:56.341            31.933                 Moscow           997.906
       456   05 Jun 2027 23:33:51.789   05 Jun 2027 23:34:12.849            21.060                 Moscow           658.125
       457   05 Jun 2027 23:34:41.807   05 Jun 2027 23:35:20.463            38.656                 Moscow          1208.000
       458   05 Jun 2027 23:51:38.212   05 Jun 2027 23:53:24.167           105.955               CapeTown          3311.094
       459   05 Jun 2027 23:54:29.536   05 Jun 2027 23:55:22.008            52.472               CapeTown          1639.750
       460   05 Jun 2027 23:56:18.734   05 Jun 2027 23:56:28.028             9.294               CapeTown           290.438
       461   06 Jun 2027 00:57:46.759   06 Jun 2027 00:58:10.060            23.301               Magadan1           728.156
       462   06 Jun 2027 00:59:46.799   06 Jun 2027 01:00:51.937            65.138              Murmansk1          2035.562
       463   06 Jun 2027 01:02:15.030   06 Jun 2027 01:02:23.310             8.280              Murmansk2           258.750
       464   06 Jun 2027 01:03:00.460   06 Jun 2027 01:03:49.074            48.614                 Moscow          1519.187
       465   06 Jun 2027 01:07:32.496   06 Jun 2027 01:07:37.271             4.775                 Moscow           149.219
       466   06 Jun 2027 01:08:15.427   06 Jun 2027 01:08:41.023            25.596              Murmansk2           799.875
       467   06 Jun 2027 01:15:13.404   06 Jun 2027 01:15:32.626            19.222                 Moscow           600.688
       468   06 Jun 2027 01:27:31.723   06 Jun 2027 01:28:03.384            31.661               CapeTown           989.406
       469   06 Jun 2027 01:29:11.952   06 Jun 2027 01:29:40.085            28.133               CapeTown           879.156
       470   06 Jun 2027 01:35:18.724   06 Jun 2027 01:36:28.702            69.978               CapeTown          2186.813
       471   06 Jun 2027 02:23:44.068   06 Jun 2027 02:25:58.005           133.937               Magadan1          4185.531
       472   06 Jun 2027 02:28:33.852   06 Jun 2027 02:29:00.635            26.783               Magadan1           836.969
       473   06 Jun 2027 02:32:06.782   06 Jun 2027 02:32:26.753            19.971                Norilsk           624.094
       474   06 Jun 2027 02:35:33.080   06 Jun 2027 02:36:10.792            37.712               Magadan1          1178.500
       475   06 Jun 2027 02:36:21.827   06 Jun 2027 02:37:14.225            52.398              Murmansk2          1637.438
       476   06 Jun 2027 02:39:24.192   06 Jun 2027 02:40:12.189            47.997                 Moscow          1499.906
       477   06 Jun 2027 02:42:05.302   06 Jun 2027 02:42:23.722            18.420                 Moscow           575.625
       478   06 Jun 2027 02:44:50.108   06 Jun 2027 02:45:35.163            45.055                 Moscow          1407.969
       479   06 Jun 2027 03:17:42.528   06 Jun 2027 03:19:00.971            78.443            RioGallegos          2451.344
       480   06 Jun 2027 03:20:14.326   06 Jun 2027 03:21:15.253            60.927            RioGallegos          1903.969
       481   06 Jun 2027 04:06:45.996   06 Jun 2027 04:07:51.260            65.264               Magadan1          2039.500
       482   06 Jun 2027 04:08:48.730   06 Jun 2027 04:08:55.702             6.972               Magadan1           217.875
