uniorb/output/strategy_2/Drop/Drop_KinoSat_110405.txt

KinoSat_110405
-------------------------
    Access    *     Start Time (UTCG)     *     Stop Time (UTCG)  *   Duration (s)        *       Station  *  Data (Mbytes)
         1   01 Jun 2027 03:49:23.518   01 Jun 2027 03:51:05.923           102.405                Irkutsk          5167.000
         2   01 Jun 2027 03:51:22.759   01 Jun 2027 03:52:19.985            57.226                Irkutsk          6482.000
         3   01 Jun 2027 03:52:22.944   01 Jun 2027 03:52:52.524            29.580               Magadan1          1479.500
         4   01 Jun 2027 03:52:56.562   01 Jun 2027 03:53:12.813            16.251               Magadan2          2019.000
         5   01 Jun 2027 03:53:35.042   01 Jun 2027 03:55:05.690            90.648               Magadan2         11114.500
         6   01 Jun 2027 03:55:06.656   01 Jun 2027 03:55:38.383            31.727               Magadan2           483.000
         7   01 Jun 2027 03:55:41.456   01 Jun 2027 03:57:12.724            91.268                Anadyr1          1536.500
         8   01 Jun 2027 03:57:22.045   01 Jun 2027 03:57:52.722            30.677               Magadan1          3834.625
         9   01 Jun 2027 03:57:52.722   01 Jun 2027 03:57:54.720             1.998               Magadan2           249.750
        10   01 Jun 2027 03:58:07.571   01 Jun 2027 03:58:58.603            51.032               Magadan2          5507.625
        11   01 Jun 2027 03:59:00.151   01 Jun 2027 03:59:23.223            23.072              Murmansk1           115.500
        12   01 Jun 2027 05:28:20.914   01 Jun 2027 05:29:15.250            54.336                Norilsk          6117.500
        13   01 Jun 2027 05:29:42.425   01 Jun 2027 05:31:36.093           113.668                Novosib         13587.500
        14   01 Jun 2027 05:31:38.758   01 Jun 2027 05:31:59.774            21.016                Novosib          1332.500
        15   01 Jun 2027 05:32:12.359   01 Jun 2027 05:33:11.846            59.487              Murmansk1          6292.500
        16   01 Jun 2027 05:33:12.766   01 Jun 2027 05:34:19.890            67.124                Irkutsk           460.000
        17   01 Jun 2027 05:34:25.355   01 Jun 2027 05:35:07.403            42.048                Irkutsk          2732.500
        18   01 Jun 2027 07:05:34.167   01 Jun 2027 07:06:12.544            38.377                Irkutsk          1792.500
        19   01 Jun 2027 07:06:13.428   01 Jun 2027 07:06:44.926            31.498                Novosib           442.000
        20   01 Jun 2027 07:07:02.863   01 Jun 2027 07:08:17.815            74.952                Norilsk          8968.500
        21   01 Jun 2027 07:08:18.787   01 Jun 2027 07:08:27.017             8.230              Murmansk2           486.000
        22   01 Jun 2027 07:08:33.550   01 Jun 2027 07:09:29.268            55.718              Murmansk2          3266.500
        23   01 Jun 2027 07:09:39.530   01 Jun 2027 07:10:13.551            34.021              Murmansk1          3908.500
        24   01 Jun 2027 07:10:22.778   01 Jun 2027 07:10:48.629            25.851                Norilsk           843.000
        25   01 Jun 2027 08:42:03.155   01 Jun 2027 08:43:15.997            72.842                Novosib          4554.500
        26   01 Jun 2027 08:43:25.088   01 Jun 2027 08:44:07.733            42.645                Norilsk          4545.500
        27   01 Jun 2027 08:44:12.365   01 Jun 2027 08:44:47.271            34.906                 Moscow          2316.000
        28   01 Jun 2027 08:44:53.295   01 Jun 2027 08:46:09.581            76.286                Novosib          3012.000
        29   01 Jun 2027 08:46:12.759   01 Jun 2027 08:47:01.080            48.321                Novosib          1589.000
        30   01 Jun 2027 10:20:40.846   01 Jun 2027 10:22:50.172           129.326              Murmansk1         15168.000
        31   02 Jun 2027 04:04:25.328   02 Jun 2027 04:04:40.333            15.005               Magadan2           835.500
        32   02 Jun 2027 04:04:45.048   02 Jun 2027 04:05:41.562            56.514                Novosib          2357.500
        33   02 Jun 2027 04:05:48.878   02 Jun 2027 04:06:20.832            31.954                Novosib          3658.000
        34   02 Jun 2027 04:06:22.672   02 Jun 2027 04:06:28.621             5.949                Norilsk           743.625
        35   02 Jun 2027 04:06:38.230   02 Jun 2027 04:07:25.471            47.241               Magadan1          4980.875
        36   02 Jun 2027 04:07:43.003   02 Jun 2027 04:08:58.011            75.008                Irkutsk          8766.000
        37   02 Jun 2027 04:09:01.684   02 Jun 2027 04:09:34.756            33.072               Magadan1          1836.500
        38   02 Jun 2027 04:09:37.812   02 Jun 2027 04:10:46.777            68.965                Irkutsk          1528.000
        39   02 Jun 2027 04:10:47.764   02 Jun 2027 04:11:26.626            38.862              Murmansk1           493.500
        40   02 Jun 2027 05:40:53.543   02 Jun 2027 05:41:28.244            34.701                Novosib          4337.625
        41   02 Jun 2027 05:41:38.105   02 Jun 2027 05:42:36.390            58.285                Irkutsk          6262.375
        42   02 Jun 2027 05:42:43.432   02 Jun 2027 05:43:36.641            53.209                Novosib          3521.000
        43   02 Jun 2027 05:43:37.855   02 Jun 2027 05:43:42.207             4.352                Irkutsk           544.000
        44   02 Jun 2027 05:43:43.725   02 Jun 2027 05:43:53.403             9.678                Novosib           822.001
        45   02 Jun 2027 05:43:53.981   02 Jun 2027 05:44:09.427            15.446                Norilsk           289.000
        46   02 Jun 2027 05:44:11.646   02 Jun 2027 05:45:15.075            63.429                Novosib          1109.500
        47   02 Jun 2027 05:45:29.566   02 Jun 2027 05:46:29.018            59.452                Norilsk          7245.500
        48   02 Jun 2027 05:46:29.169   02 Jun 2027 05:46:56.062            26.893              Murmansk1            75.500
        49   02 Jun 2027 05:46:56.375   02 Jun 2027 05:47:58.852            62.477                Novosib           156.500
        50   02 Jun 2027 07:18:05.904   02 Jun 2027 07:18:53.711            47.807              Murmansk2           393.000
        51   02 Jun 2027 07:19:00.916   02 Jun 2027 07:19:21.834            20.918              Murmansk2          2614.750
        52   02 Jun 2027 07:19:21.834   02 Jun 2027 07:19:55.072            33.238              Murmansk1           987.750
        53   02 Jun 2027 07:19:58.506   02 Jun 2027 07:20:36.461            37.955                 Moscow          1717.000
        54   02 Jun 2027 07:20:39.119   02 Jun 2027 07:21:12.972            33.853                Irkutsk          1329.000
        55   02 Jun 2027 07:21:20.868   02 Jun 2027 07:22:12.211            51.343                Norilsk          3948.000
        56   02 Jun 2027 07:22:17.934   02 Jun 2027 07:23:26.989            69.055              Murmansk1          2861.500
        57   02 Jun 2027 08:54:17.270   02 Jun 2027 08:54:31.953            14.683              Murmansk1           807.500
        58   02 Jun 2027 08:54:47.320   02 Jun 2027 08:56:20.073            92.753                 Moscow          7683.500
        59   02 Jun 2027 08:56:20.174   02 Jun 2027 08:57:04.915            44.741                 Moscow            50.500
        60   02 Jun 2027 08:57:15.164   02 Jun 2027 08:58:05.307            50.143                Novosib          5124.500
        61   02 Jun 2027 08:58:09.334   02 Jun 2027 08:58:57.716            48.382              Murmansk1          2013.500
        62   03 Jun 2027 04:16:28.300   03 Jun 2027 04:16:51.795            23.495                Norilsk          1638.500
        63   03 Jun 2027 04:16:56.011   03 Jun 2027 04:17:29.007            32.996               Magadan1          2108.000
        64   03 Jun 2027 04:17:40.089   03 Jun 2027 04:18:29.819            49.730                Norilsk          5541.000
        65   03 Jun 2027 04:18:33.389   03 Jun 2027 04:19:08.700            35.311                Novosib          1785.000
        66   03 Jun 2027 04:19:08.749   03 Jun 2027 04:19:18.381             9.632                Novosib            24.500
        67   03 Jun 2027 04:19:30.147   03 Jun 2027 04:20:45.025            74.878                Novosib          5883.000
        68   03 Jun 2027 04:21:03.877   03 Jun 2027 04:22:40.660            96.783               Magadan1          9426.000
        69   03 Jun 2027 04:23:00.610   03 Jun 2027 04:24:10.757            70.147                Norilsk          8768.375
        70   03 Jun 2027 04:24:13.851   03 Jun 2027 04:24:28.117            14.266              Murmansk2          1206.625
        71   03 Jun 2027 05:52:28.662   03 Jun 2027 05:53:20.763            52.101                Novosib          3978.500
        72   03 Jun 2027 05:53:38.804   03 Jun 2027 05:54:00.544            21.740                Norilsk          2717.500
        73   03 Jun 2027 05:54:05.840   03 Jun 2027 05:54:43.515            37.675                Novosib          4709.375
        74   03 Jun 2027 05:54:51.316   03 Jun 2027 05:55:58.537            67.221                Novosib          8142.125
        75   03 Jun 2027 05:56:00.658   03 Jun 2027 05:56:16.988            16.330                Norilsk          1060.500
        76   03 Jun 2027 05:56:19.707   03 Jun 2027 05:56:38.607            18.900              Murmansk2          1359.500
        77   03 Jun 2027 05:56:48.708   03 Jun 2027 05:57:19.223            30.515                Irkutsk          3814.375
        78   03 Jun 2027 05:57:23.008   03 Jun 2027 05:57:32.094             9.086                Novosib          1135.750
        79   03 Jun 2027 05:57:36.966   03 Jun 2027 05:58:12.652            35.686              Murmansk2          4428.875
        80   03 Jun 2027 05:58:24.217   03 Jun 2027 05:59:11.433            47.216                Norilsk          5782.500
        81   03 Jun 2027 07:30:31.208   03 Jun 2027 07:31:19.806            48.598                Norilsk          5994.000
        82   03 Jun 2027 07:31:26.475   03 Jun 2027 07:32:43.369            76.894                Irkutsk          3334.500
        83   03 Jun 2027 07:32:48.083   03 Jun 2027 07:33:34.719            46.636                Irkutsk          2357.000
        84   03 Jun 2027 07:33:35.231   03 Jun 2027 07:33:57.529            22.298              Murmansk1           256.000
        85   03 Jun 2027 07:34:02.086   03 Jun 2027 07:34:37.333            35.247                Norilsk          2278.500
        86   03 Jun 2027 07:34:48.993   03 Jun 2027 07:35:16.353            27.360                 Moscow          3313.500
        87   03 Jun 2027 09:06:11.488   03 Jun 2027 09:06:36.324            24.836                Novosib           333.500
        88   03 Jun 2027 09:06:50.818   03 Jun 2027 09:08:52.870           122.052                Novosib          7247.000
        89   03 Jun 2027 09:08:53.546   03 Jun 2027 09:09:26.820            33.274              Murmansk1           338.000
        90   03 Jun 2027 09:09:33.024   03 Jun 2027 09:09:59.312            26.288                 Moscow          3102.000
        91   03 Jun 2027 09:10:00.864   03 Jun 2027 09:10:25.997            25.133                Norilsk           776.000
        92   03 Jun 2027 09:10:36.316   03 Jun 2027 09:10:59.139            22.823                Novosib          2852.875
        93   03 Jun 2027 09:11:02.348   03 Jun 2027 09:11:09.226             6.878                 Moscow           859.750
        94   03 Jun 2027 09:11:11.203   03 Jun 2027 09:11:51.404            40.201              Murmansk2          1859.375
        95   04 Jun 2027 04:27:41.958   04 Jun 2027 04:28:18.941            36.983                Norilsk           723.000
        96   04 Jun 2027 04:28:27.717   04 Jun 2027 04:29:21.338            53.621                Norilsk          4388.000
        97   04 Jun 2027 04:29:21.351   04 Jun 2027 04:29:51.678            30.327               Magadan2             6.500
        98   04 Jun 2027 04:29:52.474   04 Jun 2027 04:30:07.208            14.734               Magadan1           398.000
        99   04 Jun 2027 04:30:12.323   04 Jun 2027 04:30:18.005             5.682                Irkutsk           710.250
       100   04 Jun 2027 04:30:21.533   04 Jun 2027 04:31:24.449            62.916                Irkutsk          3611.250
       101   04 Jun 2027 04:31:34.078   04 Jun 2027 04:33:09.546            95.468                Norilsk          4814.500
       102   04 Jun 2027 04:33:11.799   04 Jun 2027 04:33:37.722            25.923                Norilsk          1126.500
       103   04 Jun 2027 04:33:45.931   04 Jun 2027 04:34:24.246            38.315              Murmansk1          4104.500
       104   04 Jun 2027 04:34:34.117   04 Jun 2027 04:35:47.060            72.943              Murmansk1          4935.500
       105   04 Jun 2027 06:04:34.925   04 Jun 2027 06:04:59.436            24.511                Norilsk          2298.000
       106   04 Jun 2027 06:05:01.010   04 Jun 2027 06:05:51.117            50.107                Irkutsk           787.000
       107   04 Jun 2027 06:06:02.722   04 Jun 2027 06:07:00.175            57.453                Novosib          5802.500
       108   04 Jun 2027 06:07:13.932   04 Jun 2027 06:08:15.844            61.912                Norilsk          6878.500
       109   04 Jun 2027 06:08:16.075   04 Jun 2027 06:08:20.560             4.485                Norilsk           115.500
       110   04 Jun 2027 06:08:23.949   04 Jun 2027 06:08:40.839            16.890              Murmansk2          1694.500
       111   04 Jun 2027 06:08:41.245   04 Jun 2027 06:09:43.634            62.389                Irkutsk           203.000
       112   04 Jun 2027 06:09:45.711   04 Jun 2027 06:10:20.039            34.328                Norilsk          1038.500
       113   04 Jun 2027 06:10:21.392   04 Jun 2027 06:11:20.244            58.852                Novosib           676.500
       114   04 Jun 2027 07:42:51.008   04 Jun 2027 07:44:12.377            81.369                Norilsk          4606.500
       115   04 Jun 2027 07:44:15.101   04 Jun 2027 07:44:46.402            31.301                Norilsk          1362.000
       116   04 Jun 2027 07:44:46.865   04 Jun 2027 07:45:10.054            23.189                Irkutsk           231.500
       117   04 Jun 2027 07:45:10.507   04 Jun 2027 07:45:24.255            13.748                 Moscow           226.500
       118   04 Jun 2027 07:45:28.090   04 Jun 2027 07:45:51.078            22.988              Murmansk2          1917.500
       119   04 Jun 2027 07:45:52.479   04 Jun 2027 07:46:05.499            13.020                Norilsk           700.500
       120   04 Jun 2027 07:46:11.933   04 Jun 2027 07:47:09.535            57.602              Murmansk1          3217.000
       121   04 Jun 2027 09:16:23.556   04 Jun 2027 09:18:00.958            97.402                 Moscow         11951.000
       122   04 Jun 2027 09:18:03.889   04 Jun 2027 09:18:59.715            55.826                Novosib          1465.500
       123   04 Jun 2027 09:19:07.769   04 Jun 2027 09:19:55.793            48.024                 Moscow          4027.000
       124   04 Jun 2027 09:19:58.844   04 Jun 2027 09:20:21.743            22.899              Murmansk2          1525.500
       125   04 Jun 2027 09:20:35.661   04 Jun 2027 09:22:01.602            85.941              Murmansk1          6959.000
       126   04 Jun 2027 09:22:03.962   04 Jun 2027 09:22:17.283            13.321                Novosib          1180.000
       127   04 Jun 2027 09:22:32.930   04 Jun 2027 09:23:00.659            27.729                Norilsk          2638.500
       128   04 Jun 2027 09:23:02.715   04 Jun 2027 09:23:16.212            13.497                 Moscow          1028.000
       129   04 Jun 2027 09:23:32.488   04 Jun 2027 09:25:26.278           113.790                Norilsk          8138.000
       130   05 Jun 2027 03:02:55.417   05 Jun 2027 03:03:35.951            40.534                Anadyr1          3070.000
       131   05 Jun 2027 03:03:42.046   05 Jun 2027 03:04:24.757            42.711               Magadan1          3047.500
       132   05 Jun 2027 03:04:43.811   05 Jun 2027 03:05:22.603            38.792                Anadyr2          1857.000
       133   05 Jun 2027 03:05:26.821   05 Jun 2027 03:05:47.536            20.715                Anadyr2          2109.000
       134   05 Jun 2027 03:05:55.117   05 Jun 2027 03:06:38.609            43.492                Irkutsk          3790.500
       135   05 Jun 2027 03:06:46.349   05 Jun 2027 03:07:24.443            38.094               Magadan1          3870.000
       136   05 Jun 2027 03:07:26.799   05 Jun 2027 03:07:42.371            15.572                Anadyr2          1178.000
       137   05 Jun 2027 03:07:50.284   05 Jun 2027 03:08:06.141            15.857               Magadan2          1982.125
       138   05 Jun 2027 03:08:06.302   05 Jun 2027 03:09:27.784            81.482                Anadyr1          2054.875
       139   05 Jun 2027 03:09:29.617   05 Jun 2027 03:10:01.401            31.784               Magadan1           916.500
       140   05 Jun 2027 04:39:51.761   05 Jun 2027 04:40:34.885            43.124                Novosib          1717.000
       141   05 Jun 2027 04:40:39.364   05 Jun 2027 04:41:28.559            49.195                Irkutsk          2239.500
       142   05 Jun 2027 04:41:36.691   05 Jun 2027 04:42:28.284            51.593               Magadan1          4066.000
       143   05 Jun 2027 04:42:28.571   05 Jun 2027 04:42:31.163             2.592                Irkutsk           143.500
       144   05 Jun 2027 04:42:32.310   05 Jun 2027 04:42:53.831            21.521                Novosib           573.500
       145   05 Jun 2027 04:42:58.960   05 Jun 2027 04:43:22.593            23.633                Norilsk          2564.500
       146   05 Jun 2027 04:43:23.738   05 Jun 2027 04:43:34.215            10.477                Norilsk           572.500
       147   05 Jun 2027 04:43:36.791   05 Jun 2027 04:43:53.799            17.008                Novosib          1288.000
       148   05 Jun 2027 04:43:57.615   05 Jun 2027 04:44:14.464            16.849                Norilsk          1908.000
       149   05 Jun 2027 04:44:16.761   05 Jun 2027 04:46:52.583           155.822                Irkutsk          1148.500
       150   05 Jun 2027 04:46:59.915   05 Jun 2027 04:47:13.214            13.299                Irkutsk          1662.375
       151   05 Jun 2027 04:47:43.074   05 Jun 2027 04:48:14.143            31.069                Novosib          2003.625
       152   05 Jun 2027 06:16:47.098   05 Jun 2027 06:17:28.543            41.445                Irkutsk           382.000
       153   05 Jun 2027 06:17:34.207   05 Jun 2027 06:17:59.199            24.992                Novosib          2832.000
       154   05 Jun 2027 06:18:04.167   05 Jun 2027 06:18:26.489            22.322                Norilsk          2484.000
       155   05 Jun 2027 06:18:33.524   05 Jun 2027 06:19:10.270            36.746                Novosib          3517.500
       156   05 Jun 2027 06:19:14.477   05 Jun 2027 06:20:04.952            50.475                Norilsk          2103.500
       157   05 Jun 2027 06:20:07.284   05 Jun 2027 06:20:30.197            22.913                Novosib          1166.000
       158   05 Jun 2027 06:20:30.995   05 Jun 2027 06:20:36.840             5.845                Irkutsk           399.000
       159   05 Jun 2027 06:20:37.814   05 Jun 2027 06:21:10.942            33.128                Novosib           487.000
       160   05 Jun 2027 06:21:11.216   05 Jun 2027 06:21:58.466            47.250              Murmansk2           137.000
       161   05 Jun 2027 06:22:05.798   05 Jun 2027 06:22:40.123            34.325                 Moscow          3666.000
       162   05 Jun 2027 06:22:48.542   05 Jun 2027 06:23:01.559            13.017                Irkutsk           173.000
       163   05 Jun 2027 07:54:43.369   05 Jun 2027 07:55:24.110            40.741              Murmansk1           438.500
       164   05 Jun 2027 07:55:35.934   05 Jun 2027 07:56:22.086            46.152                Irkutsk          5769.000
       165   05 Jun 2027 07:56:24.924   05 Jun 2027 07:57:10.142            45.218                 Moscow          1562.000
       166   05 Jun 2027 07:57:15.120   05 Jun 2027 07:58:03.257            48.137                 Moscow          2489.000
       167   05 Jun 2027 07:58:07.583   05 Jun 2027 07:58:35.900            28.317                Novosib          2163.000
       168   05 Jun 2027 07:58:40.049   05 Jun 2027 07:58:59.665            19.616                 Moscow          2074.500
       169   05 Jun 2027 09:28:21.516   05 Jun 2027 09:29:43.541            82.025                 Moscow          9550.500
       170   05 Jun 2027 09:29:53.156   05 Jun 2027 09:31:02.492            69.336              Murmansk1          4807.500
       171   05 Jun 2027 09:31:02.565   05 Jun 2027 09:31:58.426            55.861                Novosib            36.500
       172   05 Jun 2027 09:32:00.710   05 Jun 2027 09:32:10.690             9.980              Murmansk2          1142.000
       173   05 Jun 2027 09:32:13.730   05 Jun 2027 09:32:48.969            35.239                Novosib          1520.000
       174   05 Jun 2027 09:32:49.895   05 Jun 2027 09:33:19.274            29.379                 Moscow           463.000
       175   05 Jun 2027 09:33:24.125   05 Jun 2027 09:33:44.327            20.202                Norilsk          2425.500
       176   05 Jun 2027 09:33:57.709   05 Jun 2027 09:34:54.096            56.387                Norilsk          6691.000
       177   05 Jun 2027 09:35:00.217   05 Jun 2027 09:35:33.700            33.483                 Moscow          3060.500
       178   05 Jun 2027 09:35:34.520   05 Jun 2027 09:36:03.531            29.011                Norilsk           410.000
       179   06 Jun 2027 03:14:16.956   06 Jun 2027 03:14:35.583            18.627               Magadan1          2224.500
       180   06 Jun 2027 03:14:43.343   06 Jun 2027 03:16:20.728            97.385                Irkutsk          3880.000
       181   06 Jun 2027 03:16:24.381   06 Jun 2027 03:16:40.585            16.204                Anadyr2          1826.500
       182   06 Jun 2027 03:16:44.827   06 Jun 2027 03:17:03.369            18.542               Magadan2          2121.000
       183   06 Jun 2027 03:17:03.467   06 Jun 2027 03:17:10.024             6.557               Magadan2            49.000
       184   06 Jun 2027 03:17:13.130   06 Jun 2027 03:18:13.501            60.371               Magadan2          1553.000
       185   06 Jun 2027 03:18:14.737   06 Jun 2027 03:18:52.907            38.170                Anadyr1           618.000
       186   06 Jun 2027 03:18:58.252   06 Jun 2027 03:19:23.175            24.923                Anadyr2          2672.500
       187   06 Jun 2027 03:19:23.759   06 Jun 2027 03:19:39.420            15.661                Anadyr2           292.000
       188   06 Jun 2027 03:19:45.575   06 Jun 2027 03:20:49.935            64.360               Magadan1          3077.500
       189   06 Jun 2027 03:20:51.384   06 Jun 2027 03:20:59.567             8.183               Magadan2           724.500
       190   06 Jun 2027 03:20:59.866   06 Jun 2027 03:21:36.155            36.289                Irkutsk           149.500
       191   06 Jun 2027 03:21:51.236   06 Jun 2027 03:22:00.920             9.684                Norilsk          1210.500
       192   06 Jun 2027 03:22:15.975   06 Jun 2027 03:23:23.599            67.624                Norilsk          6330.000
       193   06 Jun 2027 04:51:56.729   06 Jun 2027 04:52:18.595            21.866                Norilsk          2733.250
       194   06 Jun 2027 04:52:21.129   06 Jun 2027 04:52:37.362            16.233               Magadan2          1805.250
       195   06 Jun 2027 04:52:43.139   06 Jun 2027 04:53:40.441            57.302                Irkutsk          2888.500
       196   06 Jun 2027 04:53:48.999   06 Jun 2027 04:54:21.200            32.201                Irkutsk          4025.125
       197   06 Jun 2027 04:54:28.290   06 Jun 2027 04:55:11.063            42.773                Norilsk          3798.875
       198   06 Jun 2027 04:55:12.132   06 Jun 2027 04:55:32.165            20.033                Norilsk           534.500
       199   06 Jun 2027 04:55:40.926   06 Jun 2027 04:56:24.254            43.328                Norilsk          4380.500
       200   06 Jun 2027 04:56:25.795   06 Jun 2027 04:56:50.703            24.908                Novosib           770.500
       201   06 Jun 2027 04:56:51.918   06 Jun 2027 04:57:04.641            12.723               Magadan2           607.500
       202   06 Jun 2027 04:57:09.129   06 Jun 2027 04:57:57.739            48.610               Magadan2          2244.000
       203   06 Jun 2027 04:58:02.944   06 Jun 2027 04:58:33.530            30.586              Murmansk1          2602.500
       204   06 Jun 2027 04:58:38.258   06 Jun 2027 04:59:54.594            76.336              Murmansk2          2364.000
       205   06 Jun 2027 06:28:36.345   06 Jun 2027 06:29:04.616            28.271                Norilsk            23.500
       206   06 Jun 2027 06:29:13.380   06 Jun 2027 06:30:40.103            86.723                Irkutsk          4382.000
       207   06 Jun 2027 06:30:43.279   06 Jun 2027 06:30:59.034            15.755                Novosib          1588.000
       208   06 Jun 2027 06:31:00.288   06 Jun 2027 06:31:15.278            14.990                Norilsk           627.000
       209   06 Jun 2027 06:31:22.076   06 Jun 2027 06:32:03.472            41.396                Novosib          3399.000
       210   06 Jun 2027 06:32:05.445   06 Jun 2027 06:32:20.126            14.681                 Moscow           986.500
       211   06 Jun 2027 06:32:21.377   06 Jun 2027 06:32:28.023             6.646                Norilsk           625.500
       212   06 Jun 2027 06:32:28.887   06 Jun 2027 06:32:35.542             6.655                Irkutsk           432.000
       213   06 Jun 2027 06:32:37.715   06 Jun 2027 06:33:07.851            30.136                 Moscow          1086.500
       214   06 Jun 2027 06:33:16.394   06 Jun 2027 06:34:09.254            52.860                 Moscow          4271.500
       215   06 Jun 2027 06:34:10.142   06 Jun 2027 06:34:16.329             6.187              Murmansk2           444.000
       216   06 Jun 2027 06:34:20.180   06 Jun 2027 06:34:43.391            23.211                Norilsk          1925.500
       217   06 Jun 2027 06:34:58.631   06 Jun 2027 06:35:43.224            44.593              Murmansk2          3136.500
       218   06 Jun 2027 08:06:43.752   06 Jun 2027 08:07:05.626            21.874                 Moscow          1186.000
       219   06 Jun 2027 08:07:12.867   06 Jun 2027 08:08:07.488            54.621                Norilsk          3620.500
       220   06 Jun 2027 08:08:08.019   06 Jun 2027 08:08:11.047             3.028                Novosib           265.500
       221   06 Jun 2027 08:08:11.800   06 Jun 2027 08:08:57.862            46.062                 Moscow           376.500
       222   06 Jun 2027 08:09:03.749   06 Jun 2027 08:09:49.382            45.633                Novosib          2943.500
       223   06 Jun 2027 08:09:50.758   06 Jun 2027 08:10:28.796            38.038                Norilsk           688.000
       224   06 Jun 2027 08:10:30.312   06 Jun 2027 08:10:45.446            15.134                Norilsk           758.000
       225   06 Jun 2027 08:10:45.840   06 Jun 2027 08:11:33.283            47.443                Novosib           197.000
       226   06 Jun 2027 09:40:43.129   06 Jun 2027 09:41:52.398            69.269                 Moscow          6789.500
       227   06 Jun 2027 09:42:00.839   06 Jun 2027 09:42:45.603            44.764                 Moscow          4220.500
       228   06 Jun 2027 09:42:52.387   06 Jun 2027 09:43:20.646            28.259              Murmansk1          3392.000
       229   06 Jun 2027 09:43:36.665   06 Jun 2027 09:44:53.283            76.618              Murmansk2          8009.500
       230   06 Jun 2027 09:45:03.581   06 Jun 2027 09:46:20.233            76.652                 Moscow          5149.000
       231   06 Jun 2027 09:46:22.445   06 Jun 2027 09:46:31.477             9.032                Norilsk          1106.000
       232   06 Jun 2027 09:46:33.228   06 Jun 2027 09:46:55.892            22.664              Murmansk2           875.500
       233   06 Jun 2027 09:46:59.883   06 Jun 2027 09:47:55.127            55.244                 Moscow          1995.500
       234   07 Jun 2027 03:25:46.104   07 Jun 2027 03:26:14.113            28.009               Magadan1           450.500
       235   07 Jun 2027 03:26:19.973   07 Jun 2027 03:27:09.785            49.812                Irkutsk          2930.000
       236   07 Jun 2027 03:27:22.532   07 Jun 2027 03:28:29.220            66.688               Magadan2          6373.500
       237   07 Jun 2027 03:28:32.697   07 Jun 2027 03:29:33.782            61.085                Anadyr2          1738.500
       238   07 Jun 2027 03:29:34.088   07 Jun 2027 03:30:07.672            33.584               Magadan1           153.000
       239   07 Jun 2027 03:30:11.206   07 Jun 2027 03:30:27.810            16.604                Irkutsk          1767.000
       240   07 Jun 2027 03:30:31.164   07 Jun 2027 03:30:51.069            19.905               Magadan1          1677.000
       241   07 Jun 2027 03:30:51.762   07 Jun 2027 03:30:58.887             7.125               Magadan1           346.500
       242   07 Jun 2027 03:31:01.112   07 Jun 2027 03:31:21.835            20.723                Anadyr2          1112.500
       243   07 Jun 2027 03:31:24.497   07 Jun 2027 03:31:36.900            12.403                Anadyr1          1331.000
       244   07 Jun 2027 03:31:44.152   07 Jun 2027 03:32:31.335            47.183                Novosib          3626.000
       245   07 Jun 2027 03:32:40.204   07 Jun 2027 03:33:48.756            68.552                Norilsk          4434.500
       246   07 Jun 2027 03:33:50.379   07 Jun 2027 03:34:06.895            16.516                Novosib           811.500
       247   07 Jun 2027 03:34:19.653   07 Jun 2027 03:34:25.046             5.393                Anadyr1           325.000
       248   07 Jun 2027 03:34:26.076   07 Jun 2027 03:34:42.335            16.259              Murmansk1           515.000
       249   07 Jun 2027 03:34:44.845   07 Jun 2027 03:34:57.367            12.522               Magadan2          1255.000
       250   07 Jun 2027 03:35:04.150   07 Jun 2027 03:35:21.153            17.003               Magadan1          2125.375
       251   07 Jun 2027 03:35:24.761   07 Jun 2027 03:36:01.156            36.395                Norilsk          1266.125
       252   07 Jun 2027 05:04:06.080   07 Jun 2027 05:05:15.483            69.403                Irkutsk          7580.000
       253   07 Jun 2027 05:05:17.494   07 Jun 2027 05:05:51.751            34.257               Magadan1          1005.500
       254   07 Jun 2027 05:06:11.466   07 Jun 2027 05:07:36.954            85.488               Magadan1          9857.500
       255   07 Jun 2027 05:07:39.904   07 Jun 2027 05:07:55.199            15.295                Novosib          1475.000
       256   07 Jun 2027 05:07:55.238   07 Jun 2027 05:08:33.801            38.563                Novosib            19.500
       257   07 Jun 2027 05:08:34.772   07 Jun 2027 05:09:22.526            47.754                Novosib           485.500
       258   07 Jun 2027 05:09:22.551   07 Jun 2027 05:09:24.080             1.529                Novosib            12.500
       259   07 Jun 2027 05:09:39.000   07 Jun 2027 05:10:17.975            38.975              Murmansk1          4871.875
       260   07 Jun 2027 05:10:17.975   07 Jun 2027 05:10:40.288            22.313              Murmansk2          2588.125
       261   07 Jun 2027 05:10:40.329   07 Jun 2027 05:10:53.892            13.563              Murmansk2            20.500
       262   07 Jun 2027 05:10:58.001   07 Jun 2027 05:11:29.112            31.111                Novosib          2054.500
       263   07 Jun 2027 06:40:49.000   07 Jun 2027 06:41:17.579            28.579                Irkutsk          1796.500
       264   07 Jun 2027 06:41:24.917   07 Jun 2027 06:41:56.464            31.547                Norilsk          3669.000
       265   07 Jun 2027 06:42:01.337   07 Jun 2027 06:43:03.094            61.757                Novosib          2436.500
       266   07 Jun 2027 06:43:04.186   07 Jun 2027 06:43:23.980            19.794                Irkutsk           546.000
       267   07 Jun 2027 06:43:35.362   07 Jun 2027 06:44:36.639            61.277                Irkutsk          5691.000
       268   07 Jun 2027 06:44:37.431   07 Jun 2027 06:45:08.461            31.030                Irkutsk           396.000
       269   07 Jun 2027 06:45:15.592   07 Jun 2027 06:46:16.636            61.044                Irkutsk          3565.500
       270   07 Jun 2027 06:46:29.330   07 Jun 2027 06:47:33.539            64.209                Novosib          6347.000
       271   07 Jun 2027 08:17:59.501   07 Jun 2027 08:18:36.741            37.240                Norilsk          2672.000
       272   07 Jun 2027 08:18:36.925   07 Jun 2027 08:19:06.959            30.034              Murmansk2            92.000
       273   07 Jun 2027 08:19:14.763   07 Jun 2027 08:20:05.801            51.038                Norilsk          3902.000
       274   07 Jun 2027 08:20:08.087   07 Jun 2027 08:20:43.251            35.164                Novosib          1143.000
       275   07 Jun 2027 08:20:43.550   07 Jun 2027 08:21:05.746            22.196                Novosib           149.500
       276   07 Jun 2027 08:21:13.999   07 Jun 2027 08:21:50.883            36.884              Murmansk2          4126.500
       277   07 Jun 2027 08:21:51.394   07 Jun 2027 08:22:26.597            35.203                Norilsk           255.500
       278   07 Jun 2027 08:22:48.952   07 Jun 2027 08:23:38.671            49.719              Murmansk2          6214.875
       279   07 Jun 2027 08:23:38.671   07 Jun 2027 08:24:17.002            38.331              Murmansk1          4598.625
       280   07 Jun 2027 09:52:54.618   07 Jun 2027 09:53:39.806            45.188              Murmansk2          5048.000
       281   07 Jun 2027 09:53:42.433   07 Jun 2027 09:54:12.241            29.808              Murmansk2           710.500
       282   07 Jun 2027 09:54:38.529   07 Jun 2027 09:56:22.475           103.946                 Moscow          1219.500
       283   07 Jun 2027 09:56:53.067   07 Jun 2027 09:57:28.838            35.771                 Moscow          4471.375
       284   07 Jun 2027 09:57:30.794   07 Jun 2027 09:59:31.329           120.535                Norilsk         11802.626
       285   08 Jun 2027 03:39:03.520   08 Jun 2027 03:40:09.780            66.260               Magadan2          8282.500
       286   08 Jun 2027 03:40:09.780   08 Jun 2027 03:40:37.710            27.930               Magadan1           644.000
       287   08 Jun 2027 03:41:08.426   08 Jun 2027 03:43:27.861           139.435               Magadan1         15358.000
       288   08 Jun 2027 03:43:34.495   08 Jun 2027 03:44:45.645            71.150                Novosib          3317.000
       289   08 Jun 2027 03:44:52.493   08 Jun 2027 03:45:35.743            43.250               Magadan2          3424.000
       290   08 Jun 2027 03:45:41.421   08 Jun 2027 03:46:13.282            31.861               Magadan2          2839.000
       291   08 Jun 2027 03:46:27.292   08 Jun 2027 03:46:58.969            31.677                Irkutsk          3959.625
       292   08 Jun 2027 03:47:01.923   08 Jun 2027 03:47:17.790            15.867               Magadan1          1983.375
       293   08 Jun 2027 03:47:19.283   08 Jun 2027 03:47:50.259            30.976                Norilsk          3234.500
       294   08 Jun 2027 05:16:20.705   08 Jun 2027 05:16:43.184            22.479                Norilsk          1875.000
       295   08 Jun 2027 05:17:00.702   08 Jun 2027 05:17:24.044            23.342                Novosib          2917.750
       296   08 Jun 2027 05:17:26.487   08 Jun 2027 05:18:42.391            75.904                Irkutsk          7062.750
       297   08 Jun 2027 05:18:44.385   08 Jun 2027 05:19:08.577            24.192                Irkutsk           997.000
       298   08 Jun 2027 05:19:09.479   08 Jun 2027 05:19:17.889             8.410               Magadan1           451.000
       299   08 Jun 2027 05:19:23.461   08 Jun 2027 05:19:54.198            30.737                Norilsk          2786.000
       300   08 Jun 2027 05:19:54.891   08 Jun 2027 05:19:59.948             5.057                Novosib           346.500
       301   08 Jun 2027 05:20:00.010   08 Jun 2027 05:20:41.610            41.600                Norilsk            31.000
       302   08 Jun 2027 05:20:43.336   08 Jun 2027 05:21:33.715            50.379              Murmansk1           863.000
       303   08 Jun 2027 05:21:44.338   08 Jun 2027 05:22:26.833            42.495              Murmansk2          5311.500
       304   08 Jun 2027 05:22:28.794   08 Jun 2027 05:22:42.350            13.556              Murmansk2           980.500
       305   08 Jun 2027 05:22:47.683   08 Jun 2027 05:23:21.039            33.356                Irkutsk          2666.500
       306   08 Jun 2027 06:53:17.593   08 Jun 2027 06:53:51.642            34.049                Norilsk          2246.500
       307   08 Jun 2027 06:54:24.243   08 Jun 2027 06:56:44.931           140.688                Norilsk         16300.500
       308   08 Jun 2027 06:56:49.464   08 Jun 2027 06:57:45.844            56.380              Murmansk1          2266.500
       309   08 Jun 2027 06:57:47.866   08 Jun 2027 06:58:24.560            36.694                Novosib            61.000
       310   08 Jun 2027 06:58:25.655   08 Jun 2027 06:58:41.737            16.082                Irkutsk           547.500
       311   08 Jun 2027 06:58:50.266   08 Jun 2027 06:59:42.850            52.584                Norilsk          4264.500
       312   08 Jun 2027 08:30:12.183   08 Jun 2027 08:30:34.273            22.090                Norilsk          2570.500
       313   08 Jun 2027 08:30:35.516   08 Jun 2027 08:30:52.234            16.718              Murmansk2           621.500
       314   08 Jun 2027 08:30:59.509   08 Jun 2027 08:31:41.935            42.426              Murmansk1          3637.500
       315   08 Jun 2027 08:31:42.455   08 Jun 2027 08:32:00.821            18.366                Novosib           260.000
       316   08 Jun 2027 08:32:04.583   08 Jun 2027 08:32:20.846            16.263                Norilsk          1881.000
       317   08 Jun 2027 08:32:23.920   08 Jun 2027 08:32:38.088            14.168                 Moscow          1537.000
       318   08 Jun 2027 08:32:41.773   08 Jun 2027 08:33:03.931            22.158              Murmansk1          1842.500
       319   08 Jun 2027 08:33:04.424   08 Jun 2027 08:33:07.190             2.766                Novosib           246.500
       320   08 Jun 2027 08:33:07.484   08 Jun 2027 08:34:21.118            73.634                Novosib           147.000
       321   08 Jun 2027 08:34:21.206   08 Jun 2027 08:34:50.071            28.865                Novosib            44.000
       322   08 Jun 2027 10:08:03.495   08 Jun 2027 10:09:45.965           102.470                 Moscow         12808.750
       323   08 Jun 2027 10:09:49.375   08 Jun 2027 10:11:25.595            96.220                 Moscow         10332.250
       324   09 Jun 2027 03:49:27.372   09 Jun 2027 03:49:42.435            15.063               Magadan1           703.000
       325   09 Jun 2027 03:51:36.675   09 Jun 2027 03:52:33.969            57.294                Irkutsk          6151.000
       326   09 Jun 2027 03:52:37.679   09 Jun 2027 03:53:09.244            31.565               Magadan2          1855.000
       327   09 Jun 2027 03:53:11.792   09 Jun 2027 03:54:07.807            56.015                Irkutsk          1274.000
       328   09 Jun 2027 03:54:08.186   09 Jun 2027 03:54:22.164            13.978                Irkutsk           189.500
       329   09 Jun 2027 03:54:27.219   09 Jun 2027 03:54:51.487            24.268               Magadan1          2527.500
       330   09 Jun 2027 03:54:56.538   09 Jun 2027 03:55:21.912            25.374               Magadan1          2525.500
       331   09 Jun 2027 03:55:22.121   09 Jun 2027 03:55:28.718             6.597                Novosib           104.500
       332   09 Jun 2027 03:55:31.909   09 Jun 2027 03:55:59.115            27.206                Novosib          1595.500
       333   09 Jun 2027 03:56:02.346   09 Jun 2027 03:56:22.961            20.615                Norilsk          1615.500
       334   09 Jun 2027 03:56:26.662   09 Jun 2027 03:56:48.575            21.913                Norilsk          1850.500
       335   09 Jun 2027 03:56:50.668   09 Jun 2027 03:56:54.560             3.892               Magadan2           486.500
       336   09 Jun 2027 03:56:54.560   09 Jun 2027 03:57:07.223            12.663               Magadan1           560.000
       337   09 Jun 2027 03:57:14.377   09 Jun 2027 03:58:08.209            53.832               Magadan2          3577.000
       338   09 Jun 2027 03:58:08.782   09 Jun 2027 03:58:22.250            13.468               Magadan1           286.500
       339   09 Jun 2027 03:58:25.657   09 Jun 2027 03:58:38.156            12.499                Novosib          1562.375
       340   09 Jun 2027 03:58:41.194   09 Jun 2027 03:58:58.014            16.820                Novosib          1660.125
       341   09 Jun 2027 03:59:01.264   09 Jun 2027 03:59:13.176            11.912               Magadan1          1489.000
       342   09 Jun 2027 03:59:14.629   09 Jun 2027 03:59:40.047            25.418              Murmansk2           286.000
       343   09 Jun 2027 05:28:35.460   09 Jun 2027 05:29:32.516            57.056                Norilsk          6132.000
       344   09 Jun 2027 05:29:56.222   09 Jun 2027 05:31:26.712            90.490                Novosib         11311.250
       345   09 Jun 2027 05:31:28.711   09 Jun 2027 05:31:49.605            20.894                Norilsk          1541.250
       346   09 Jun 2027 05:31:53.714   09 Jun 2027 05:31:55.885             2.171                Novosib           271.375
       347   09 Jun 2027 05:32:02.405   09 Jun 2027 05:33:25.100            82.695                Novosib          5043.125
       348   09 Jun 2027 05:33:26.449   09 Jun 2027 05:33:27.222             0.773                Irkutsk            96.625
       349   09 Jun 2027 05:33:27.284   09 Jun 2027 05:33:36.129             8.845              Murmansk1           608.875
       350   09 Jun 2027 05:33:54.749   09 Jun 2027 05:35:22.645            87.896                Norilsk          9310.000
       351   09 Jun 2027 07:05:57.075   09 Jun 2027 07:06:29.280            32.205                 Moscow          4025.625
       352   09 Jun 2027 07:06:31.707   09 Jun 2027 07:06:53.969            22.262              Murmansk1          2342.375
       353   09 Jun 2027 07:06:59.385   09 Jun 2027 07:07:44.348            44.963                Novosib          2708.000
       354   09 Jun 2027 07:07:49.718   09 Jun 2027 07:08:13.627            23.909              Murmansk1          2685.000
       355   09 Jun 2027 07:08:14.818   09 Jun 2027 07:08:21.358             6.540              Murmansk2           595.500
       356   09 Jun 2027 07:08:22.045   09 Jun 2027 07:08:41.627            19.582              Murmansk1           343.500
       357   09 Jun 2027 07:08:43.963   09 Jun 2027 07:09:08.188            24.225                 Moscow          1168.000
       358   09 Jun 2027 07:09:16.640   09 Jun 2027 07:10:07.530            50.890                Norilsk          4226.000
       359   09 Jun 2027 07:10:09.152   09 Jun 2027 07:10:39.365            30.213                Norilsk           811.000
       360   09 Jun 2027 08:42:18.158   09 Jun 2027 08:43:14.463            56.305                 Moscow          4509.500
       361   09 Jun 2027 08:43:18.497   09 Jun 2027 08:44:03.472            44.975                Norilsk          2017.000
       362   09 Jun 2027 08:44:03.791   09 Jun 2027 08:44:22.600            18.809                Norilsk           159.500
       363   09 Jun 2027 08:44:30.927   09 Jun 2027 08:45:02.793            31.866                 Moscow          3983.250
       364   09 Jun 2027 08:45:08.020   09 Jun 2027 08:46:12.179            64.159                Novosib          2793.750
       365   09 Jun 2027 08:46:20.930   09 Jun 2027 08:46:58.043            37.113                Norilsk          4375.500
       366   09 Jun 2027 08:46:59.509   09 Jun 2027 08:47:37.988            38.479                 Moscow           733.000
       367   09 Jun 2027 10:20:55.503   09 Jun 2027 10:23:04.823           129.320              Murmansk1         14159.500
       368   10 Jun 2027 04:04:40.099   10 Jun 2027 04:04:43.013             2.914               Magadan1           364.250
       369   10 Jun 2027 04:04:43.013   10 Jun 2027 04:04:54.950            11.937               Magadan2           488.750
       370   10 Jun 2027 04:04:59.812   10 Jun 2027 04:05:58.521            58.709                Novosib          2431.000
       371   10 Jun 2027 04:06:03.459   10 Jun 2027 04:06:39.025            35.566                Novosib          2469.000
       372   10 Jun 2027 04:06:46.425   10 Jun 2027 04:06:56.984            10.559                Norilsk          1319.875
       373   10 Jun 2027 04:06:59.410   10 Jun 2027 04:07:40.944            41.534               Magadan2          3593.125
       374   10 Jun 2027 04:07:57.860   10 Jun 2027 04:09:12.421            74.561                Irkutsk          8458.000
       375   10 Jun 2027 04:09:16.740   10 Jun 2027 04:09:51.244            34.504               Magadan1          2159.500
       376   10 Jun 2027 04:09:52.010   10 Jun 2027 04:11:01.642            69.632                Irkutsk           383.000
       377   10 Jun 2027 04:11:01.730   10 Jun 2027 04:11:06.994             5.264               Magadan2            44.000
       378   10 Jun 2027 04:11:23.164   10 Jun 2027 04:12:18.054            54.890                Novosib          4320.500
       379   10 Jun 2027 05:41:06.855   10 Jun 2027 05:41:46.706            39.851                Novosib          4945.000
       380   10 Jun 2027 05:41:52.504   10 Jun 2027 05:42:16.212            23.708                Irkutsk          2899.000
       381   10 Jun 2027 05:42:26.577   10 Jun 2027 05:42:27.770             1.193                Norilsk           149.125
       382   10 Jun 2027 05:42:28.831   10 Jun 2027 05:43:28.337            59.506                Norilsk          5563.875
       383   10 Jun 2027 05:43:44.356   10 Jun 2027 05:44:48.736            64.380                Norilsk          8009.500
       384   10 Jun 2027 05:44:53.168   10 Jun 2027 05:45:21.255            28.087                Norilsk          2216.000
       385   10 Jun 2027 05:45:21.710   10 Jun 2027 05:45:45.150            23.440                Norilsk           227.500
       386   10 Jun 2027 05:45:50.614   10 Jun 2027 05:46:29.855            39.241                Irkutsk          2732.000
       387   10 Jun 2027 05:46:36.049   10 Jun 2027 05:47:10.571            34.522              Murmansk1          3097.000
       388   10 Jun 2027 05:47:24.363   10 Jun 2027 05:47:49.605            25.242                Norilsk          1499.500
       389   10 Jun 2027 07:18:20.407   10 Jun 2027 07:18:23.831             3.424              Murmansk2           287.000
       390   10 Jun 2027 07:18:24.087   10 Jun 2027 07:18:26.402             2.315                Irkutsk           128.000
       391   10 Jun 2027 07:18:33.649   10 Jun 2027 07:18:41.289             7.640                Norilsk           955.000
       392   10 Jun 2027 07:18:44.017   10 Jun 2027 07:19:20.433            36.416                Norilsk          4032.500
       393   10 Jun 2027 07:19:20.495   10 Jun 2027 07:19:44.017            23.522                Norilsk            31.000
       394   10 Jun 2027 07:19:53.052   10 Jun 2027 07:20:51.267            58.215                 Moscow          4517.500
       395   10 Jun 2027 07:20:54.227   10 Jun 2027 07:21:27.543            33.316                Irkutsk          1480.000
       396   10 Jun 2027 07:21:35.861   10 Jun 2027 07:22:28.831            52.970                Norilsk          4159.000
       397   10 Jun 2027 07:22:33.636   10 Jun 2027 07:23:41.677            68.041              Murmansk1          2402.500
       398   10 Jun 2027 08:54:31.100   10 Jun 2027 08:54:46.848            15.748              Murmansk2           470.500
       399   10 Jun 2027 08:55:02.713   10 Jun 2027 08:56:35.431            92.718                 Moscow          7932.500
       400   10 Jun 2027 08:56:38.494   10 Jun 2027 08:57:08.051            29.557                Norilsk          1531.500
       401   10 Jun 2027 08:57:08.176   10 Jun 2027 08:57:21.942            13.766                Novosib            62.500
       402   10 Jun 2027 08:57:30.924   10 Jun 2027 08:59:02.898            91.974                 Moscow          4491.000
       403   10 Jun 2027 08:59:06.846   10 Jun 2027 08:59:24.144            17.298                 Moscow          1752.000
       404   11 Jun 2027 04:16:45.044   11 Jun 2027 04:17:04.651            19.607               Magadan1          2450.875
       405   11 Jun 2027 04:17:04.651   11 Jun 2027 04:17:12.776             8.125               Magadan2           343.625
       406   11 Jun 2027 04:17:16.184   11 Jun 2027 04:17:43.917            27.733               Magadan1          1704.000
       407   11 Jun 2027 04:18:01.577   11 Jun 2027 04:19:08.784            67.207                Irkutsk          8400.875
       408   11 Jun 2027 04:19:18.890   11 Jun 2027 04:20:39.178            80.288               Magadan1          5482.125
       409   11 Jun 2027 04:20:41.791   11 Jun 2027 04:20:59.610            17.819               Magadan2          1306.500
       410   11 Jun 2027 04:21:04.047   11 Jun 2027 04:21:39.867            35.820                Novosib          2218.500
       411   11 Jun 2027 04:21:42.354   11 Jun 2027 04:22:09.767            27.413                Novosib          1243.500
       412   11 Jun 2027 04:22:29.812   11 Jun 2027 04:22:54.128            24.316                Norilsk          3039.500
       413   11 Jun 2027 04:22:56.202   11 Jun 2027 04:22:58.785             2.583               Magadan1           322.875
       414   11 Jun 2027 04:23:16.054   11 Jun 2027 04:23:18.886             2.832                Irkutsk           354.000
       415   11 Jun 2027 04:23:30.164   11 Jun 2027 04:24:00.629            30.465                Norilsk          3808.125
       416   11 Jun 2027 04:24:14.088   11 Jun 2027 04:24:26.561            12.473                Novosib          1559.125
       417   11 Jun 2027 04:24:28.806   11 Jun 2027 04:26:11.443           102.637                Norilsk         12041.875
       418   11 Jun 2027 05:52:43.348   11 Jun 2027 05:53:36.174            52.826                Novosib          3938.500
       419   11 Jun 2027 05:53:55.133   11 Jun 2027 05:55:28.303            93.170                Norilsk          9479.500
       420   11 Jun 2027 05:55:31.798   11 Jun 2027 05:56:12.503            40.705                Irkutsk          1747.500
       421   11 Jun 2027 05:56:13.215   11 Jun 2027 05:56:32.425            19.210                Novosib           356.000
       422   11 Jun 2027 05:56:34.488   11 Jun 2027 05:56:56.505            22.017              Murmansk1          1031.500
       423   11 Jun 2027 05:57:03.236   11 Jun 2027 05:57:37.258            34.022                Irkutsk          3365.500
       424   11 Jun 2027 05:57:37.994   11 Jun 2027 05:57:46.306             8.312                Novosib           368.000
       425   11 Jun 2027 05:57:51.704   11 Jun 2027 05:58:14.413            22.709              Murmansk2          2699.000
       426   11 Jun 2027 05:58:16.323   11 Jun 2027 05:58:40.450            24.127                Irkutsk           955.000
       427   11 Jun 2027 05:58:47.900   11 Jun 2027 05:59:47.636            59.736              Murmansk2          3725.000
       428   11 Jun 2027 07:30:40.389   11 Jun 2027 07:31:50.651            70.262                 Moscow          3381.000
       429   11 Jun 2027 07:31:58.899   11 Jun 2027 07:32:37.748            38.849              Murmansk1          4124.000
       430   11 Jun 2027 07:32:49.921   11 Jun 2027 07:33:47.738            57.817                Norilsk          6086.500
       431   11 Jun 2027 07:33:49.542   11 Jun 2027 07:33:54.045             4.503                Irkutsk           562.875
       432   11 Jun 2027 07:33:57.134   11 Jun 2027 07:34:18.744            21.610                Norilsk          1883.625
       433   11 Jun 2027 07:34:22.157   11 Jun 2027 07:34:36.988            14.831              Murmansk2          1706.500
       434   11 Jun 2027 07:34:39.477   11 Jun 2027 07:35:32.595            53.118              Murmansk1          1244.500
       435   11 Jun 2027 09:06:26.794   11 Jun 2027 09:06:49.827            23.033                Novosib           802.000
       436   11 Jun 2027 09:06:51.139   11 Jun 2027 09:07:05.851            14.712                Novosib           656.000
       437   11 Jun 2027 09:07:08.602   11 Jun 2027 09:07:21.963            13.361                Norilsk          1375.500
       438   11 Jun 2027 09:07:24.677   11 Jun 2027 09:07:37.235            12.558                 Moscow          1357.000
       439   11 Jun 2027 09:07:37.335   11 Jun 2027 09:07:52.445            15.110              Murmansk1            50.000
       440   11 Jun 2027 09:08:03.361   11 Jun 2027 09:09:03.010            59.649                Norilsk          5458.000
       441   11 Jun 2027 09:09:07.569   11 Jun 2027 09:09:42.455            34.886                Novosib          2279.500
       442   11 Jun 2027 09:09:47.697   11 Jun 2027 09:10:14.168            26.471                 Moscow          2621.000
       443   11 Jun 2027 09:10:17.378   11 Jun 2027 09:10:35.466            18.088                Norilsk          1605.000
       444   11 Jun 2027 09:10:39.657   11 Jun 2027 09:11:04.749            25.092              Murmansk1          1762.500
       445   11 Jun 2027 09:11:05.221   11 Jun 2027 09:11:25.138            19.917                Norilsk           236.000
       446   11 Jun 2027 09:11:27.236   11 Jun 2027 09:11:41.227            13.991              Murmansk2          1049.000
       447   12 Jun 2027 04:27:56.517   12 Jun 2027 04:28:34.884            38.367                Norilsk           661.500
       448   12 Jun 2027 04:28:44.808   12 Jun 2027 04:29:35.840            51.032                Norilsk          4962.000
       449   12 Jun 2027 04:29:36.469   12 Jun 2027 04:30:06.600            30.131               Magadan1           314.500
       450   12 Jun 2027 04:30:08.831   12 Jun 2027 04:30:22.022            13.191               Magadan2          1115.500
       451   12 Jun 2027 04:30:28.813   12 Jun 2027 04:30:41.754            12.941                Novosib          1617.625
       452   12 Jun 2027 04:30:46.265   12 Jun 2027 04:31:36.255            49.990                Novosib          4033.375
       453   12 Jun 2027 04:31:38.561   12 Jun 2027 04:31:50.491            11.930                Novosib          1153.000
       454   12 Jun 2027 04:31:59.684   12 Jun 2027 04:32:59.995            60.311               Magadan1          4596.500
       455   12 Jun 2027 04:33:02.432   12 Jun 2027 04:33:20.921            18.489               Magadan2          1218.500
       456   12 Jun 2027 04:33:22.025   12 Jun 2027 04:34:32.169            70.144                Irkutsk           552.000
       457   12 Jun 2027 04:34:32.345   12 Jun 2027 04:34:38.744             6.399              Murmansk1            88.000
       458   12 Jun 2027 04:34:44.335   12 Jun 2027 04:35:04.547            20.212                Norilsk          2526.500
       459   12 Jun 2027 04:35:08.273   12 Jun 2027 04:35:25.517            17.244              Murmansk2          2131.999
       460   12 Jun 2027 04:35:30.863   12 Jun 2027 04:35:41.624            10.761                Norilsk          1340.000
       461   12 Jun 2027 06:04:56.683   12 Jun 2027 06:06:05.730            69.047                Irkutsk          5897.000
       462   12 Jun 2027 06:06:06.556   12 Jun 2027 06:06:24.541            17.985                Norilsk           413.000
       463   12 Jun 2027 06:06:27.805   12 Jun 2027 06:06:52.012            24.207                Novosib          1632.000
       464   12 Jun 2027 06:06:54.599   12 Jun 2027 06:07:37.575            42.976                Irkutsk          1293.500
       465   12 Jun 2027 06:07:43.666   12 Jun 2027 06:08:02.047            18.381                Novosib          2297.625
       466   12 Jun 2027 06:08:04.612   12 Jun 2027 06:08:23.793            19.181                Norilsk          2030.375
       467   12 Jun 2027 06:08:24.785   12 Jun 2027 06:08:30.024             5.239                Irkutsk           496.000
       468   12 Jun 2027 06:08:30.689   12 Jun 2027 06:08:35.450             4.761                Norilsk           332.500
       469   12 Jun 2027 06:08:38.539   12 Jun 2027 06:08:55.811            17.272                Irkutsk          1544.500
       470   12 Jun 2027 06:08:58.728   12 Jun 2027 06:09:15.992            17.264              Murmansk1          1458.500
       471   12 Jun 2027 06:09:27.710   12 Jun 2027 06:10:35.154            67.444                Norilsk          5859.000
       472   12 Jun 2027 06:10:43.883   12 Jun 2027 06:11:23.766            39.883                 Moscow          4364.500
       473   12 Jun 2027 07:43:06.037   12 Jun 2027 07:44:28.240            82.203                Norilsk          4934.000
       474   12 Jun 2027 07:44:29.958   12 Jun 2027 07:45:01.165            31.207                Norilsk           859.000
       475   12 Jun 2027 07:45:01.936   12 Jun 2027 07:45:24.242            22.306                Irkutsk           385.500
       476   12 Jun 2027 07:45:25.282   12 Jun 2027 07:45:39.270            13.988                 Moscow           520.000
       477   12 Jun 2027 07:45:44.690   12 Jun 2027 07:46:10.172            25.482              Murmansk1          2710.000
       478   12 Jun 2027 07:46:16.732   12 Jun 2027 07:47:18.529            61.797                Novosib          3280.000
       479   12 Jun 2027 09:16:38.359   12 Jun 2027 09:18:15.717            97.358                 Moscow         12101.500
       480   12 Jun 2027 09:18:18.813   12 Jun 2027 09:19:14.687            55.874                Novosib          1548.000
       481   12 Jun 2027 09:19:22.219   12 Jun 2027 09:20:16.085            53.866                 Moscow          3766.000
       482   12 Jun 2027 09:20:24.057   12 Jun 2027 09:21:07.772            43.715              Murmansk1          3986.000
