uniorb/output/strategy_2/Drop/Drop_KinoSat_111701.txt

KinoSat_111701
-------------------------
    Access    *     Start Time (UTCG)     *     Stop Time (UTCG)  *   Duration (s)        *       Station  *  Data (Mbytes)
         1   01 Jun 2027 03:52:19.985   01 Jun 2027 03:52:59.689            39.704                Irkutsk          1240.750
         2   01 Jun 2027 03:53:25.628   01 Jun 2027 03:53:42.087            16.459              Murmansk1           514.344
         3   01 Jun 2027 03:53:51.932   01 Jun 2027 03:55:29.333            97.401                Norilsk          3043.781
         4   01 Jun 2027 03:55:44.067   01 Jun 2027 03:56:33.612            49.545                Novosib          1548.281
         5   01 Jun 2027 03:56:42.660   01 Jun 2027 03:58:09.974            87.314                Novosib          2728.562
         6   01 Jun 2027 05:27:35.054   01 Jun 2027 05:28:00.388            25.334                Novosib           791.687
         7   01 Jun 2027 05:29:15.250   01 Jun 2027 05:30:01.433            46.183                Norilsk          1443.219
         8   01 Jun 2027 05:30:32.210   01 Jun 2027 05:30:37.301             5.091              Murmansk2           159.094
         9   01 Jun 2027 05:30:37.301   01 Jun 2027 05:32:12.359            95.058              Murmansk1          2970.563
        10   01 Jun 2027 05:32:21.253   01 Jun 2027 05:32:25.045             3.792              Murmansk2           118.500
        11   01 Jun 2027 05:33:11.846   01 Jun 2027 05:33:52.519            40.673              Murmansk1          1271.031
        12   01 Jun 2027 06:52:00.776   01 Jun 2027 06:54:38.629           157.853                Anadyr2          4932.906
        13   01 Jun 2027 06:54:38.629   01 Jun 2027 06:56:27.167           108.538                Anadyr1          3391.813
        14   01 Jun 2027 06:57:07.751   01 Jun 2027 06:57:26.055            18.304               Magadan1           572.000
        15   01 Jun 2027 08:29:54.116   01 Jun 2027 08:31:06.339            72.223                Anadyr1          2256.969
        16   01 Jun 2027 08:31:47.183   01 Jun 2027 08:33:35.773           108.590                Anadyr2          3393.438
        17   01 Jun 2027 10:02:54.588   01 Jun 2027 10:07:55.267           300.679               Magadan1          9396.219
        18   01 Jun 2027 10:08:19.964   01 Jun 2027 10:09:03.741            43.777               Magadan1          1368.031
        19   01 Jun 2027 11:40:16.911   01 Jun 2027 11:42:36.073           139.162                Irkutsk          4348.812
        20   01 Jun 2027 11:42:55.916   01 Jun 2027 11:45:10.649           134.733                Irkutsk          4210.406
        21   01 Jun 2027 12:20:42.352   01 Jun 2027 12:20:47.716             5.364            RioGallegos           167.625
        22   01 Jun 2027 12:22:24.497   01 Jun 2027 12:22:46.589            22.092            RioGallegos           690.375
        23   01 Jun 2027 12:24:59.329   01 Jun 2027 12:25:34.384            35.055            RioGallegos          1095.469
        24   01 Jun 2027 12:55:00.821   01 Jun 2027 12:56:43.179           102.358                Sumatra          3198.688
        25   01 Jun 2027 12:57:28.085   01 Jun 2027 12:59:41.937           133.852                Sumatra          4182.875
        26   01 Jun 2027 13:10:03.144   01 Jun 2027 13:11:19.220            76.076                Irkutsk          2377.375
        27   01 Jun 2027 13:13:20.966   01 Jun 2027 13:14:04.516            43.550                Irkutsk          1360.937
        28   01 Jun 2027 13:14:28.406   01 Jun 2027 13:15:05.835            37.429                Norilsk          1169.656
        29   01 Jun 2027 13:16:07.712   01 Jun 2027 13:16:31.296            23.584                Norilsk           737.000
        30   01 Jun 2027 14:39:47.964   01 Jun 2027 14:41:45.799           117.835                  Delhi          3682.344
        31   01 Jun 2027 14:44:01.396   01 Jun 2027 14:45:12.106            70.710                  Delhi          2209.687
        32   01 Jun 2027 14:48:06.812   01 Jun 2027 14:53:02.751           295.939                Novosib          9248.094
        33   01 Jun 2027 14:56:13.455   01 Jun 2027 14:57:01.497            48.042                Norilsk          1501.313
        34   01 Jun 2027 16:23:22.818   01 Jun 2027 16:26:50.859           208.041                 Moscow          6501.281
        35   01 Jun 2027 16:26:54.293   01 Jun 2027 16:27:36.275            41.982              Murmansk2          1311.937
        36   01 Jun 2027 16:28:38.963   01 Jun 2027 16:29:41.512            62.549              Murmansk1          1954.656
        37   01 Jun 2027 16:32:57.015   01 Jun 2027 16:37:17.110           260.095                Norilsk          8127.969
        38   01 Jun 2027 17:43:44.668   01 Jun 2027 17:44:15.690            31.022               CapeTown           969.437
        39   01 Jun 2027 17:47:26.618   01 Jun 2027 17:48:19.689            53.071               CapeTown          1658.469
        40   01 Jun 2027 18:02:09.985   01 Jun 2027 18:06:57.965           287.980                 Moscow          8999.375
        41   01 Jun 2027 18:14:33.240   01 Jun 2027 18:15:06.966            33.726              Murmansk1          1053.938
        42   01 Jun 2027 18:27:06.780   01 Jun 2027 18:28:12.429            65.649                Anadyr1          2051.531
        43   01 Jun 2027 19:13:12.054   01 Jun 2027 19:14:39.358            87.304               CapeTown          2728.250
        44   01 Jun 2027 19:17:52.229   01 Jun 2027 19:18:41.945            49.716               CapeTown          1553.625
        45   01 Jun 2027 19:21:21.372   01 Jun 2027 19:23:00.151            98.779               CapeTown          3086.844
        46   01 Jun 2027 19:45:03.022   01 Jun 2027 19:51:00.798           357.776              Murmansk1         11180.500
        47   01 Jun 2027 21:29:15.920   01 Jun 2027 21:33:00.820           224.900                Anadyr2          7028.125
        48   01 Jun 2027 21:33:11.059   01 Jun 2027 21:35:03.477           112.418                Anadyr1          3513.063
        49   01 Jun 2027 21:35:09.075   01 Jun 2027 21:37:35.433           146.358               Magadan1          4573.688
        50   01 Jun 2027 21:38:37.184   01 Jun 2027 21:39:06.914            29.730               Magadan1           929.063
        51   01 Jun 2027 21:39:32.570   01 Jun 2027 21:39:54.231            21.661               Magadan2           676.906
        52   01 Jun 2027 21:40:35.275   01 Jun 2027 21:40:51.649            16.374               Magadan2           511.687
        53   01 Jun 2027 21:41:45.037   01 Jun 2027 21:42:09.149            24.112               Magadan1           753.500
        54   01 Jun 2027 21:42:27.271   01 Jun 2027 21:42:53.926            26.655               Magadan2           832.969
        55   01 Jun 2027 21:43:40.519   01 Jun 2027 21:44:23.534            43.015               Magadan2          1344.219
        56   01 Jun 2027 22:26:31.188   01 Jun 2027 22:27:29.342            58.154            RioGallegos          1817.312
        57   01 Jun 2027 22:28:28.396   01 Jun 2027 22:29:33.214            64.818            RioGallegos          2025.562
        58   01 Jun 2027 22:31:57.092   01 Jun 2027 22:32:14.295            17.203            RioGallegos           537.594
        59   01 Jun 2027 23:05:01.589   01 Jun 2027 23:08:38.404           216.815                Anadyr2          6775.469
        60   01 Jun 2027 23:08:44.738   01 Jun 2027 23:09:04.998            20.260                Norilsk           633.125
        61   01 Jun 2027 23:09:12.167   01 Jun 2027 23:09:53.403            41.236               Magadan1          1288.625
        62   01 Jun 2027 23:11:02.190   01 Jun 2027 23:11:44.371            42.181               Magadan1          1318.156
        63   01 Jun 2027 23:12:38.878   01 Jun 2027 23:13:47.345            68.467                Irkutsk          2139.594
        64   01 Jun 2027 23:16:28.842   01 Jun 2027 23:16:57.326            28.484               Magadan1           890.125
        65   01 Jun 2027 23:17:42.690   01 Jun 2027 23:18:34.851            52.161                Irkutsk          1630.031
        66   01 Jun 2027 23:20:24.705   01 Jun 2027 23:21:21.923            57.218                Irkutsk          1788.063
        67   01 Jun 2027 23:31:26.284   01 Jun 2027 23:32:16.631            50.347                Sumatra          1573.344
        68   01 Jun 2027 23:34:53.843   01 Jun 2027 23:35:26.276            32.433                Sumatra          1013.531
        69   01 Jun 2027 23:36:14.506   01 Jun 2027 23:36:45.220            30.714                Sumatra           959.812
        70   02 Jun 2027 00:06:37.809   02 Jun 2027 00:07:18.386            40.577            RioGallegos          1268.031
        71   02 Jun 2027 00:07:35.503   02 Jun 2027 00:08:34.204            58.701            RioGallegos          1834.406
        72   02 Jun 2027 00:40:07.263   02 Jun 2027 00:41:17.257            69.994                Anadyr2          2187.312
        73   02 Jun 2027 00:42:21.078   02 Jun 2027 00:42:44.605            23.527                Anadyr2           735.219
        74   02 Jun 2027 00:42:59.877   02 Jun 2027 00:43:57.123            57.246                Norilsk          1788.937
        75   02 Jun 2027 00:44:00.814   02 Jun 2027 00:44:15.818            15.004               Magadan2           468.875
        76   02 Jun 2027 00:44:20.117   02 Jun 2027 00:44:43.831            23.714                Norilsk           741.063
        77   02 Jun 2027 00:45:14.035   02 Jun 2027 00:45:19.608             5.573               Magadan2           174.156
        78   02 Jun 2027 00:46:00.218   02 Jun 2027 00:46:05.101             4.883               Magadan2           152.594
        79   02 Jun 2027 00:46:23.440   02 Jun 2027 00:46:50.884            27.444               Magadan1           857.625
        80   02 Jun 2027 00:47:07.238   02 Jun 2027 00:47:20.842            13.604                Irkutsk           425.125
        81   02 Jun 2027 00:47:47.566   02 Jun 2027 00:48:44.827            57.261                Irkutsk          1789.406
        82   02 Jun 2027 00:50:58.990   02 Jun 2027 00:51:31.284            32.294                Irkutsk          1009.188
        83   02 Jun 2027 00:53:09.231   02 Jun 2027 00:53:21.665            12.434                Novosib           388.563
        84   02 Jun 2027 00:53:22.870   02 Jun 2027 00:55:02.581            99.711                Novosib          3115.969
        85   02 Jun 2027 01:01:06.690   02 Jun 2027 01:01:51.975            45.285                  Delhi          1415.156
        86   02 Jun 2027 01:03:22.200   02 Jun 2027 01:03:49.985            27.785                  Delhi           868.281
        87   02 Jun 2027 01:09:30.808   02 Jun 2027 01:11:04.542            93.734                Sumatra          2929.187
        88   02 Jun 2027 01:43:32.388   02 Jun 2027 01:43:56.675            24.287            RioGallegos           758.969
        89   02 Jun 2027 01:45:47.402   02 Jun 2027 01:45:54.303             6.901            RioGallegos           215.656
        90   02 Jun 2027 01:46:01.605   02 Jun 2027 01:46:24.467            22.862            RioGallegos           714.438
        91   02 Jun 2027 02:14:23.450   02 Jun 2027 02:14:59.618            36.168                Anadyr2          1130.250
        92   02 Jun 2027 02:16:22.934   02 Jun 2027 02:16:50.016            27.082                Anadyr2           846.313
        93   02 Jun 2027 02:18:19.875   02 Jun 2027 02:19:14.916            55.041                Anadyr2          1720.031
        94   02 Jun 2027 02:20:29.415   02 Jun 2027 02:20:50.539            21.124               Magadan1           660.125
        95   02 Jun 2027 02:21:35.693   02 Jun 2027 02:22:46.062            70.369              Murmansk1          2199.031
        96   02 Jun 2027 02:24:49.241   02 Jun 2027 02:25:01.798            12.557                Irkutsk           392.406
        97   02 Jun 2027 02:25:57.244   02 Jun 2027 02:26:19.096            21.852              Murmansk1           682.875
        98   02 Jun 2027 02:27:27.395   02 Jun 2027 02:28:21.206            53.811              Murmansk1          1681.594
        99   02 Jun 2027 02:30:35.532   02 Jun 2027 02:31:22.481            46.949                Novosib          1467.156
       100   02 Jun 2027 02:34:57.574   02 Jun 2027 02:35:40.509            42.935                Novosib          1341.719
       101   02 Jun 2027 02:38:29.690   02 Jun 2027 02:39:06.813            37.123                  Delhi          1160.094
       102   02 Jun 2027 02:39:46.517   02 Jun 2027 02:41:11.254            84.737                  Delhi          2648.031
       103   02 Jun 2027 03:12:41.525   02 Jun 2027 03:14:34.363           112.838            RioGallegos          3526.187
       104   02 Jun 2027 03:15:24.187   02 Jun 2027 03:17:03.824            99.637            RioGallegos          3113.656
       105   02 Jun 2027 04:02:35.918   02 Jun 2027 04:03:16.731            40.813                Irkutsk          1275.406
       106   02 Jun 2027 04:06:20.832   02 Jun 2027 04:07:23.979            63.147                Novosib          1973.344
       107   02 Jun 2027 04:07:26.600   02 Jun 2027 04:08:31.751            65.151              Murmansk1          2035.969
       108   02 Jun 2027 04:09:03.971   02 Jun 2027 04:09:32.547            28.576                 Moscow           893.000
       109   02 Jun 2027 04:09:58.574   02 Jun 2027 04:12:15.733           137.159                 Moscow          4286.219
       110   02 Jun 2027 04:12:17.701   02 Jun 2027 04:12:27.718            10.017                  Delhi           313.031
       111   02 Jun 2027 04:35:29.524   02 Jun 2027 04:36:04.165            34.641               CapeTown          1082.531
       112   02 Jun 2027 05:31:51.585   02 Jun 2027 05:32:00.601             9.016                Anadyr2           281.750
       113   02 Jun 2027 05:41:55.990   02 Jun 2027 05:42:26.240            30.250              Murmansk1           945.312
       114   02 Jun 2027 05:42:42.447   02 Jun 2027 05:45:59.275           196.828              Murmansk1          6150.875
       115   02 Jun 2027 07:04:38.404   02 Jun 2027 07:09:29.111           290.707               Magadan2          9084.594
       116   02 Jun 2027 08:40:56.204   02 Jun 2027 08:44:42.729           226.525                Anadyr2          7078.906
       117   02 Jun 2027 10:14:53.003   02 Jun 2027 10:15:34.559            41.556               Magadan2          1298.625
       118   02 Jun 2027 10:16:15.162   02 Jun 2027 10:16:44.994            29.832                Norilsk           932.250
       119   02 Jun 2027 10:16:56.651   02 Jun 2027 10:17:05.065             8.414                Irkutsk           262.938
       120   02 Jun 2027 10:17:20.298   02 Jun 2027 10:17:48.455            28.157                Novosib           879.906
       121   02 Jun 2027 10:17:52.402   02 Jun 2027 10:18:22.909            30.507                Irkutsk           953.344
       122   02 Jun 2027 10:18:27.486   02 Jun 2027 10:18:41.155            13.669                Norilsk           427.156
       123   02 Jun 2027 10:18:53.712   02 Jun 2027 10:20:06.200            72.488                Norilsk          2265.250
       124   02 Jun 2027 10:20:18.664   02 Jun 2027 10:20:29.284            10.620              Murmansk2           331.875
       125   02 Jun 2027 10:20:30.817   02 Jun 2027 10:20:50.014            19.197              Murmansk1           599.906
       126   02 Jun 2027 10:21:16.349   02 Jun 2027 10:22:17.262            60.913              Murmansk2          1903.531
       127   02 Jun 2027 10:55:55.371   02 Jun 2027 10:56:41.008            45.637            RioGallegos          1426.156
       128   02 Jun 2027 10:57:01.815   02 Jun 2027 10:57:51.730            49.915            RioGallegos          1559.844
       129   02 Jun 2027 11:31:43.585   02 Jun 2027 11:31:51.297             7.712                Sumatra           241.000
       130   02 Jun 2027 11:32:36.182   02 Jun 2027 11:33:02.308            26.126                Sumatra           816.437
       131   02 Jun 2027 11:51:15.430   02 Jun 2027 11:52:15.460            60.030                Norilsk          1875.937
       132   02 Jun 2027 11:52:16.545   02 Jun 2027 11:52:52.345            35.800                Novosib          1118.750
       133   02 Jun 2027 11:53:00.087   02 Jun 2027 11:54:15.882            75.795                Norilsk          2368.594
       134   02 Jun 2027 11:54:21.333   02 Jun 2027 11:54:31.046             9.713                Norilsk           303.531
       135   02 Jun 2027 11:54:31.723   02 Jun 2027 11:54:42.493            10.770                Novosib           336.562
       136   02 Jun 2027 11:54:45.185   02 Jun 2027 11:54:52.362             7.177              Murmansk1           224.281
       137   02 Jun 2027 11:54:52.362   02 Jun 2027 11:55:16.151            23.789              Murmansk2           743.406
       138   02 Jun 2027 11:55:26.485   02 Jun 2027 11:56:06.558            40.073                Norilsk          1252.281
       139   02 Jun 2027 11:56:08.642   02 Jun 2027 11:56:39.906            31.264                Novosib           977.000
       140   02 Jun 2027 11:56:54.956   02 Jun 2027 11:56:57.845             2.889                Norilsk            90.281
       141   02 Jun 2027 11:57:08.285   02 Jun 2027 11:58:11.334            63.049                Novosib          1970.281
       142   02 Jun 2027 12:01:51.395   02 Jun 2027 12:02:03.399            12.004                Norilsk           375.125
       143   02 Jun 2027 12:02:57.023   02 Jun 2027 12:03:25.926            28.903              Murmansk1           903.219
       144   02 Jun 2027 12:03:41.730   02 Jun 2027 12:03:54.166            12.436              Murmansk1           388.625
       145   02 Jun 2027 12:04:21.042   02 Jun 2027 12:04:45.275            24.233              Murmansk2           757.281
       146   02 Jun 2027 12:33:08.215   02 Jun 2027 12:33:12.497             4.282            RioGallegos           133.813
       147   02 Jun 2027 12:36:59.032   02 Jun 2027 12:37:55.201            56.169            RioGallegos          1755.281
       148   02 Jun 2027 12:39:24.914   02 Jun 2027 12:40:39.829            74.915            RioGallegos          2341.094
       149   02 Jun 2027 12:43:37.948   02 Jun 2027 12:44:07.238            29.290            RioGallegos           915.312
       150   02 Jun 2027 13:07:22.341   02 Jun 2027 13:08:39.315            76.974                Sumatra          2405.438
       151   02 Jun 2027 13:15:26.052   02 Jun 2027 13:17:16.159           110.107                Sumatra          3440.844
       152   02 Jun 2027 13:22:40.668   02 Jun 2027 13:22:44.680             4.012                Irkutsk           125.375
       153   02 Jun 2027 13:25:03.866   02 Jun 2027 13:25:27.190            23.324                Novosib           728.875
       154   02 Jun 2027 13:25:40.495   02 Jun 2027 13:25:54.768            14.273                Irkutsk           446.031
       155   02 Jun 2027 13:26:27.622   02 Jun 2027 13:27:33.669            66.047                Irkutsk          2063.969
       156   02 Jun 2027 13:39:26.857   02 Jun 2027 13:40:00.443            33.586              Murmansk1          1049.563
       157   02 Jun 2027 14:52:22.606   02 Jun 2027 14:55:27.066           184.460                  Delhi          5764.375
       158   02 Jun 2027 15:00:49.015   02 Jun 2027 15:05:34.664           285.649                Novosib          8926.531
       159   02 Jun 2027 16:35:32.211   02 Jun 2027 16:38:34.282           182.071                 Moscow          5689.719
       160   02 Jun 2027 16:40:40.983   02 Jun 2027 16:41:41.132            60.149              Murmansk1          1879.656
       161   02 Jun 2027 16:45:54.808   02 Jun 2027 16:47:31.614            96.806              Murmansk1          3025.188
       162   02 Jun 2027 16:48:01.094   02 Jun 2027 16:48:51.313            50.219                Norilsk          1569.344
       163   02 Jun 2027 16:58:29.468   02 Jun 2027 16:58:35.816             6.348                Anadyr1           198.375
       164   02 Jun 2027 16:59:46.165   02 Jun 2027 16:59:52.881             6.716                Anadyr2           209.875
       165   02 Jun 2027 17:48:57.803   02 Jun 2027 17:49:51.568            53.765               CapeTown          1680.156
       166   02 Jun 2027 17:51:59.534   02 Jun 2027 17:52:34.836            35.302               CapeTown          1103.187
       167   02 Jun 2027 17:56:26.010   02 Jun 2027 17:57:08.266            42.256               CapeTown          1320.500
       168   02 Jun 2027 18:01:15.147   02 Jun 2027 18:01:32.408            17.261               CapeTown           539.406
       169   02 Jun 2027 18:14:59.017   02 Jun 2027 18:16:10.289            71.272                 Moscow          2227.250
       170   02 Jun 2027 18:17:04.353   02 Jun 2027 18:18:04.520            60.167              Murmansk2          1880.219
       171   02 Jun 2027 18:19:31.185   02 Jun 2027 18:19:34.517             3.332                 Moscow           104.125
       172   02 Jun 2027 18:20:01.705   02 Jun 2027 18:21:07.139            65.434              Murmansk2          2044.812
       173   02 Jun 2027 18:23:05.375   02 Jun 2027 18:23:26.177            20.802              Murmansk1           650.063
       174   02 Jun 2027 18:25:41.291   02 Jun 2027 18:27:27.795           106.504              Murmansk2          3328.250
       175   02 Jun 2027 19:25:29.987   02 Jun 2027 19:26:10.622            40.635               CapeTown          1269.844
       176   02 Jun 2027 19:26:36.198   02 Jun 2027 19:26:43.523             7.325               CapeTown           228.906
       177   02 Jun 2027 19:29:21.489   02 Jun 2027 19:29:48.661            27.172               CapeTown           849.125
       178   02 Jun 2027 19:32:21.229   02 Jun 2027 19:33:04.944            43.715               CapeTown          1366.094
       179   02 Jun 2027 19:57:58.912   02 Jun 2027 20:02:47.045           288.133              Murmansk1          9004.156
       180   02 Jun 2027 20:09:49.112   02 Jun 2027 20:10:16.829            27.717               Magadan2           866.156
       181   02 Jun 2027 20:13:35.773   02 Jun 2027 20:13:55.771            19.998               Magadan1           624.937
       182   02 Jun 2027 20:14:43.957   02 Jun 2027 20:15:02.994            19.037               Magadan2           594.906
       183   02 Jun 2027 20:16:21.202   02 Jun 2027 20:16:33.984            12.782               Magadan1           399.437
       184   02 Jun 2027 21:41:17.314   02 Jun 2027 21:45:01.618           224.304                Anadyr1          7009.500
       185   02 Jun 2027 21:45:02.839   02 Jun 2027 21:47:53.316           170.477               Magadan2          5327.406
       186   02 Jun 2027 21:48:00.283   02 Jun 2027 21:48:05.403             5.120               Magadan1           160.000
       187   02 Jun 2027 21:48:05.403   02 Jun 2027 21:48:08.921             3.518               Magadan2           109.937
       188   02 Jun 2027 21:49:25.515   02 Jun 2027 21:49:58.485            32.970               Magadan1          1030.313
       189   02 Jun 2027 21:50:37.720   02 Jun 2027 21:50:48.431            10.711               Magadan1           334.719
       190   02 Jun 2027 21:54:22.548   02 Jun 2027 21:55:10.600            48.052               Magadan2          1501.625
       191   02 Jun 2027 22:36:06.562   02 Jun 2027 22:37:56.844           110.282            RioGallegos          3446.313
       192   02 Jun 2027 22:38:28.659   02 Jun 2027 22:39:19.090            50.431            RioGallegos          1575.969
       193   02 Jun 2027 22:41:30.413   02 Jun 2027 22:41:45.595            15.182            RioGallegos           474.437
       194   02 Jun 2027 23:16:59.923   02 Jun 2027 23:17:59.076            59.153                Anadyr2          1848.531
       195   02 Jun 2027 23:18:01.836   02 Jun 2027 23:18:17.524            15.688                Anadyr1           490.250
       196   02 Jun 2027 23:18:38.261   02 Jun 2027 23:18:50.624            12.363                Anadyr2           386.344
       197   02 Jun 2027 23:19:07.097   02 Jun 2027 23:20:45.285            98.188                Norilsk          3068.375
       198   02 Jun 2027 23:20:49.437   02 Jun 2027 23:21:06.879            17.442               Magadan2           545.062
       199   02 Jun 2027 23:21:13.079   02 Jun 2027 23:21:58.943            45.864               Magadan1          1433.250
       200   02 Jun 2027 23:22:22.812   02 Jun 2027 23:22:30.472             7.660               Magadan1           239.375
       201   02 Jun 2027 23:23:30.443   02 Jun 2027 23:24:34.874            64.431                Irkutsk          2013.469
       202   02 Jun 2027 23:29:01.716   02 Jun 2027 23:29:17.883            16.167                Irkutsk           505.219
       203   02 Jun 2027 23:31:39.656   02 Jun 2027 23:32:58.353            78.697                Irkutsk          2459.281
       204   02 Jun 2027 23:37:52.089   02 Jun 2027 23:38:43.221            51.132                Sumatra          1597.875
       205   02 Jun 2027 23:47:59.369   02 Jun 2027 23:48:32.401            33.032                Sumatra          1032.250
       206   03 Jun 2027 00:15:28.349   03 Jun 2027 00:16:05.352            37.003            RioGallegos          1156.344
       207   03 Jun 2027 00:20:10.248   03 Jun 2027 00:20:14.686             4.438            RioGallegos           138.687
       208   03 Jun 2027 00:20:18.003   03 Jun 2027 00:20:34.777            16.774            RioGallegos           524.187
       209   03 Jun 2027 00:51:57.627   03 Jun 2027 00:53:18.532            80.905                Anadyr2          2528.281
       210   03 Jun 2027 00:54:15.133   03 Jun 2027 00:54:32.409            17.276                Anadyr1           539.875
       211   03 Jun 2027 00:54:41.429   03 Jun 2027 00:54:49.075             7.646                Anadyr2           238.937
       212   03 Jun 2027 00:55:02.137   03 Jun 2027 00:56:45.873           103.736                Norilsk          3241.750
       213   03 Jun 2027 00:56:58.315   03 Jun 2027 00:57:16.720            18.405               Magadan1           575.156
       214   03 Jun 2027 00:58:54.405   03 Jun 2027 01:00:56.371           121.966                Irkutsk          3811.438
       215   03 Jun 2027 01:00:56.804   03 Jun 2027 01:01:04.800             7.996                Novosib           249.875
       216   03 Jun 2027 01:02:25.642   03 Jun 2027 01:02:41.072            15.430                Irkutsk           482.188
       217   03 Jun 2027 01:04:11.592   03 Jun 2027 01:04:52.467            40.875                Novosib          1277.344
       218   03 Jun 2027 01:08:12.696   03 Jun 2027 01:10:23.516           130.820                  Delhi          4088.125
       219   03 Jun 2027 01:23:22.407   03 Jun 2027 01:23:38.585            16.178                Sumatra           505.562
       220   03 Jun 2027 01:51:32.902   03 Jun 2027 01:51:47.263            14.361            RioGallegos           448.781
       221   03 Jun 2027 01:52:53.341   03 Jun 2027 01:53:41.917            48.576            RioGallegos          1518.000
       222   03 Jun 2027 02:25:41.428   03 Jun 2027 02:26:16.261            34.833                Anadyr1          1088.531
       223   03 Jun 2027 02:27:41.519   03 Jun 2027 02:27:57.754            16.235                Anadyr1           507.344
       224   03 Jun 2027 02:28:44.937   03 Jun 2027 02:28:50.004             5.067                Anadyr2           158.344
       225   03 Jun 2027 02:31:02.815   03 Jun 2027 02:32:56.705           113.890                Norilsk          3559.063
       226   03 Jun 2027 02:33:30.369   03 Jun 2027 02:33:42.693            12.324              Murmansk2           385.125
       227   03 Jun 2027 02:34:12.600   03 Jun 2027 02:35:02.956            50.356              Murmansk1          1573.625
       228   03 Jun 2027 02:35:19.169   03 Jun 2027 02:36:15.418            56.249                Irkutsk          1757.781
       229   03 Jun 2027 02:39:33.938   03 Jun 2027 02:39:50.691            16.753                Irkutsk           523.531
       230   03 Jun 2027 02:41:57.294   03 Jun 2027 02:42:17.692            20.398                Irkutsk           637.437
       231   03 Jun 2027 02:43:44.766   03 Jun 2027 02:45:00.198            75.432                Irkutsk          2357.250
       232   03 Jun 2027 02:51:54.731   03 Jun 2027 02:52:16.334            21.603                  Delhi           675.094
       233   03 Jun 2027 03:25:27.096   03 Jun 2027 03:25:40.599            13.503            RioGallegos           421.969
       234   03 Jun 2027 03:26:41.292   03 Jun 2027 03:28:17.908            96.616            RioGallegos          3019.250
       235   03 Jun 2027 04:16:41.920   03 Jun 2027 04:16:52.648            10.728              Murmansk2           335.250
       236   03 Jun 2027 04:17:04.095   03 Jun 2027 04:17:57.270            53.175              Murmansk2          1661.719
       237   03 Jun 2027 04:18:25.966   03 Jun 2027 04:18:51.438            25.472              Murmansk2           796.000
       238   03 Jun 2027 04:18:51.438   03 Jun 2027 04:20:27.548            96.110              Murmansk1          3003.437
       239   03 Jun 2027 04:44:07.372   03 Jun 2027 04:44:38.047            30.675               CapeTown           958.594
       240   03 Jun 2027 04:47:08.061   03 Jun 2027 04:47:41.422            33.361               CapeTown          1042.531
       241   03 Jun 2027 05:42:06.385   03 Jun 2027 05:43:19.168            72.783               Magadan2          2274.469
       242   03 Jun 2027 05:53:28.927   03 Jun 2027 05:54:08.212            39.285                 Moscow          1227.656
       243   03 Jun 2027 05:54:14.599   03 Jun 2027 05:54:44.489            29.890              Murmansk1           934.063
       244   03 Jun 2027 05:54:44.489   03 Jun 2027 05:55:07.334            22.845              Murmansk2           713.906
       245   03 Jun 2027 05:55:57.281   03 Jun 2027 05:56:19.707            22.426              Murmansk2           700.812
       246   03 Jun 2027 05:56:38.607   03 Jun 2027 05:56:55.945            17.338              Murmansk1           541.813
       247   03 Jun 2027 05:56:55.945   03 Jun 2027 05:57:36.966            41.021              Murmansk2          1281.906
       248   03 Jun 2027 05:58:52.375   03 Jun 2027 05:59:52.929            60.554                 Moscow          1892.312
       249   03 Jun 2027 06:22:49.123   03 Jun 2027 06:22:51.643             2.520               CapeTown            78.750
       250   03 Jun 2027 07:15:16.332   03 Jun 2027 07:17:23.732           127.400               Magadan1          3981.250
       251   03 Jun 2027 07:17:31.642   03 Jun 2027 07:17:53.129            21.487                Anadyr2           671.469
       252   03 Jun 2027 07:18:06.141   03 Jun 2027 07:19:43.514            97.373                Anadyr2          3042.906
       253   03 Jun 2027 08:50:07.094   03 Jun 2027 08:51:28.239            81.145                Anadyr2          2535.781
       254   03 Jun 2027 08:52:29.452   03 Jun 2027 08:52:45.001            15.549               Magadan2           485.906
       255   03 Jun 2027 08:52:45.001   03 Jun 2027 08:52:50.860             5.859               Magadan1           183.094
       256   03 Jun 2027 08:52:51.614   03 Jun 2027 08:53:10.357            18.743                Anadyr2           585.719
       257   03 Jun 2027 08:53:43.504   03 Jun 2027 08:54:22.534            39.030               Magadan1          1219.688
       258   03 Jun 2027 08:54:29.330   03 Jun 2027 08:54:32.327             2.997                Norilsk            93.656
       259   03 Jun 2027 08:54:42.034   03 Jun 2027 08:56:23.312           101.278                Anadyr1          3164.937
       260   03 Jun 2027 08:56:51.157   03 Jun 2027 08:57:29.712            38.555                Anadyr2          1204.844
       261   03 Jun 2027 10:22:59.820   03 Jun 2027 10:23:15.813            15.993               Magadan2           499.781
       262   03 Jun 2027 10:25:40.824   03 Jun 2027 10:26:40.886            60.062               Magadan2          1876.938
       263   03 Jun 2027 10:27:22.739   03 Jun 2027 10:27:47.759            25.020                Irkutsk           781.875
       264   03 Jun 2027 10:27:59.689   03 Jun 2027 10:28:31.124            31.435               Magadan1           982.344
       265   03 Jun 2027 10:29:04.717   03 Jun 2027 10:30:09.991            65.274                Irkutsk          2039.813
       266   03 Jun 2027 10:30:15.930   03 Jun 2027 10:30:25.318             9.388                Irkutsk           293.375
       267   03 Jun 2027 10:30:43.405   03 Jun 2027 10:30:51.510             8.105                Norilsk           253.281
       268   03 Jun 2027 10:31:25.266   03 Jun 2027 10:32:50.752            85.486               Magadan1          2671.438
       269   03 Jun 2027 10:33:01.138   03 Jun 2027 10:33:06.720             5.582                Irkutsk           174.437
       270   03 Jun 2027 10:33:08.482   03 Jun 2027 10:33:18.406             9.924              Murmansk2           310.125
       271   03 Jun 2027 10:34:13.980   03 Jun 2027 10:34:18.167             4.187              Murmansk1           130.844
       272   03 Jun 2027 10:35:07.709   03 Jun 2027 10:35:30.965            23.256              Murmansk2           726.750
       273   03 Jun 2027 11:07:53.996   03 Jun 2027 11:08:50.056            56.060            RioGallegos          1751.875
       274   03 Jun 2027 11:18:32.056   03 Jun 2027 11:18:48.875            16.819            RioGallegos           525.594
       275   03 Jun 2027 11:43:20.930   03 Jun 2027 11:43:51.472            30.542                Sumatra           954.438
       276   03 Jun 2027 11:45:28.483   03 Jun 2027 11:45:40.341            11.858                Sumatra           370.562
       277   03 Jun 2027 11:49:42.228   03 Jun 2027 11:49:45.175             2.947                Sumatra            92.094
       278   03 Jun 2027 11:59:40.993   03 Jun 2027 12:00:06.096            25.103                  Delhi           784.469
       279   03 Jun 2027 12:03:15.984   03 Jun 2027 12:03:44.012            28.028                Irkutsk           875.875
       280   03 Jun 2027 12:05:53.612   03 Jun 2027 12:06:06.484            12.872                Irkutsk           402.250
       281   03 Jun 2027 12:07:28.577   03 Jun 2027 12:08:07.922            39.345                Norilsk          1229.531
       282   03 Jun 2027 12:10:24.592   03 Jun 2027 12:10:39.781            15.189              Murmansk2           474.656
       283   03 Jun 2027 12:12:10.696   03 Jun 2027 12:12:16.556             5.860              Murmansk2           183.125
       284   03 Jun 2027 12:13:10.324   03 Jun 2027 12:13:18.614             8.290              Murmansk2           259.063
       285   03 Jun 2027 12:13:46.048   03 Jun 2027 12:13:53.153             7.105                Norilsk           222.031
       286   03 Jun 2027 12:14:55.137   03 Jun 2027 12:15:16.917            21.780              Murmansk1           680.625
       287   03 Jun 2027 12:46:06.604   03 Jun 2027 12:46:30.833            24.229            RioGallegos           757.156
       288   03 Jun 2027 12:48:57.538   03 Jun 2027 12:49:36.655            39.117            RioGallegos          1222.406
       289   03 Jun 2027 12:50:42.022   03 Jun 2027 12:51:06.170            24.148            RioGallegos           754.625
       290   03 Jun 2027 12:54:42.612   03 Jun 2027 12:55:43.751            61.139            RioGallegos          1910.594
       291   03 Jun 2027 13:20:41.151   03 Jun 2027 13:22:32.129           110.978                Sumatra          3468.063
       292   03 Jun 2027 13:33:57.539   03 Jun 2027 13:34:57.040            59.501                  Delhi          1859.406
       293   03 Jun 2027 13:37:04.422   03 Jun 2027 13:37:14.212             9.790                Irkutsk           305.937
       294   03 Jun 2027 13:40:05.537   03 Jun 2027 13:40:35.986            30.449                Norilsk           951.531
       295   03 Jun 2027 13:40:42.277   03 Jun 2027 13:42:00.256            77.979                Irkutsk          2436.844
       296   03 Jun 2027 13:49:36.815   03 Jun 2027 13:50:12.082            35.267                Norilsk          1102.094
       297   03 Jun 2027 15:05:09.634   03 Jun 2027 15:07:55.247           165.613                  Delhi          5175.406
       298   03 Jun 2027 15:12:38.035   03 Jun 2027 15:13:11.477            33.442                 Moscow          1045.062
       299   03 Jun 2027 15:13:40.214   03 Jun 2027 15:18:04.722           264.508                Novosib          8265.875
       300   03 Jun 2027 16:29:23.124   03 Jun 2027 16:30:11.347            48.223               CapeTown          1506.969
       301   03 Jun 2027 16:48:06.282   03 Jun 2027 16:48:37.585            31.303                 Moscow           978.219
       302   03 Jun 2027 16:51:13.505   03 Jun 2027 16:52:05.907            52.402              Murmansk1          1637.562
       303   03 Jun 2027 16:53:40.038   03 Jun 2027 16:54:09.180            29.142              Murmansk2           910.687
       304   03 Jun 2027 16:57:19.133   03 Jun 2027 16:57:56.744            37.611              Murmansk2          1175.344
       305   03 Jun 2027 17:01:41.438   03 Jun 2027 17:01:44.073             2.635              Murmansk1            82.344
       306   03 Jun 2027 17:03:12.948   03 Jun 2027 17:03:46.017            33.069              Murmansk2          1033.406
       307   03 Jun 2027 17:06:28.233   03 Jun 2027 17:07:20.238            52.005                Anadyr1          1625.156
       308   03 Jun 2027 17:08:22.668   03 Jun 2027 17:08:50.863            28.195                Anadyr1           881.094
       309   03 Jun 2027 17:10:11.614   03 Jun 2027 17:10:37.172            25.558                Anadyr2           798.687
       310   03 Jun 2027 17:12:23.955   03 Jun 2027 17:12:31.936             7.981                Anadyr1           249.406
       311   03 Jun 2027 17:12:31.936   03 Jun 2027 17:12:52.859            20.923                Anadyr2           653.844
       312   03 Jun 2027 18:01:04.205   03 Jun 2027 18:01:42.755            38.550               CapeTown          1204.687
       313   03 Jun 2027 18:07:07.573   03 Jun 2027 18:07:38.216            30.643               CapeTown           957.594
       314   03 Jun 2027 18:11:06.413   03 Jun 2027 18:12:51.238           104.825               CapeTown          3275.781
       315   03 Jun 2027 18:28:00.345   03 Jun 2027 18:31:25.696           205.351                 Moscow          6417.219
       316   03 Jun 2027 18:51:11.997   03 Jun 2027 18:51:31.098            19.101                Anadyr1           596.906
       317   03 Jun 2027 19:37:53.508   03 Jun 2027 19:38:50.543            57.035               CapeTown          1782.344
       318   03 Jun 2027 19:39:47.211   03 Jun 2027 19:41:21.694            94.483               CapeTown          2952.594
       319   03 Jun 2027 20:11:07.917   03 Jun 2027 20:14:22.247           194.330              Murmansk1          6072.812
       320   03 Jun 2027 20:19:56.365   03 Jun 2027 20:21:20.557            84.192               Magadan1          2631.000
       321   03 Jun 2027 20:22:31.358   03 Jun 2027 20:23:18.041            46.683               Magadan1          1458.844
       322   03 Jun 2027 20:28:23.494   03 Jun 2027 20:28:48.883            25.389               Magadan1           793.406
       323   03 Jun 2027 21:53:18.499   03 Jun 2027 21:57:09.254           230.755                Anadyr1          7211.094
       324   03 Jun 2027 21:57:36.425   03 Jun 2027 21:58:54.336            77.911               Magadan2          2434.719
       325   03 Jun 2027 21:58:54.336   03 Jun 2027 22:00:54.490           120.154               Magadan1          3754.812
       326   03 Jun 2027 22:05:38.007   03 Jun 2027 22:05:51.637            13.630               Magadan2           425.937
       327   03 Jun 2027 22:06:02.367   03 Jun 2027 22:06:03.507             1.140               Magadan1            35.625
       328   03 Jun 2027 22:06:28.512   03 Jun 2027 22:07:12.033            43.521               Magadan1          1360.031
       329   03 Jun 2027 22:47:51.336   03 Jun 2027 22:49:53.800           122.464            RioGallegos          3827.000
       330   03 Jun 2027 22:54:00.618   03 Jun 2027 22:54:08.134             7.516            RioGallegos           234.875
       331   03 Jun 2027 22:56:23.418   03 Jun 2027 22:56:27.411             3.993            RioGallegos           124.781
       332   03 Jun 2027 23:28:57.559   03 Jun 2027 23:31:06.379           128.820                Anadyr1          4025.625
       333   03 Jun 2027 23:31:07.463   03 Jun 2027 23:32:47.300            99.837                Norilsk          3119.906
       334   03 Jun 2027 23:32:50.216   03 Jun 2027 23:32:55.715             5.499               Magadan1           171.844
       335   03 Jun 2027 23:33:03.558   03 Jun 2027 23:33:25.655            22.097               Magadan2           690.531
       336   03 Jun 2027 23:33:59.699   03 Jun 2027 23:34:17.486            17.787               Magadan1           555.844
       337   03 Jun 2027 23:34:17.486   03 Jun 2027 23:34:47.704            30.218               Magadan2           944.313
       338   03 Jun 2027 23:35:22.648   03 Jun 2027 23:36:02.581            39.933                Irkutsk          1247.906
       339   03 Jun 2027 23:36:21.306   03 Jun 2027 23:36:39.544            18.238                Irkutsk           569.937
       340   03 Jun 2027 23:37:45.130   03 Jun 2027 23:38:22.653            37.523                Novosib          1172.594
       341   03 Jun 2027 23:39:47.754   03 Jun 2027 23:40:01.645            13.891                Novosib           434.094
       342   03 Jun 2027 23:49:12.438   03 Jun 2027 23:49:49.440            37.002                Sumatra          1156.313
       343   03 Jun 2027 23:50:47.175   03 Jun 2027 23:51:02.648            15.473                Sumatra           483.531
       344   03 Jun 2027 23:51:38.390   03 Jun 2027 23:52:35.731            57.341                Sumatra          1791.906
       345   04 Jun 2027 00:23:00.739   04 Jun 2027 00:23:17.604            16.865            RioGallegos           527.031
       346   04 Jun 2027 00:24:54.696   04 Jun 2027 00:25:07.397            12.701            RioGallegos           396.906
       347   04 Jun 2027 00:27:02.107   04 Jun 2027 00:27:40.367            38.260            RioGallegos          1195.625
       348   04 Jun 2027 00:35:26.227   04 Jun 2027 00:35:53.943            27.716            RioGallegos           866.125
       349   04 Jun 2027 01:03:46.667   04 Jun 2027 01:04:15.881            29.214                Anadyr1           912.937
       350   04 Jun 2027 01:04:39.640   04 Jun 2027 01:05:19.856            40.216                Anadyr2          1256.750
       351   04 Jun 2027 01:06:01.474   04 Jun 2027 01:06:25.578            24.104                Anadyr2           753.250
       352   04 Jun 2027 01:07:04.462   04 Jun 2027 01:08:47.808           103.346                Norilsk          3229.563
       353   04 Jun 2027 01:08:56.549   04 Jun 2027 01:09:16.344            19.795               Magadan1           618.594
       354   04 Jun 2027 01:10:56.875   04 Jun 2027 01:11:41.309            44.434                Irkutsk          1388.563
       355   04 Jun 2027 01:12:02.944   04 Jun 2027 01:13:11.923            68.979                Novosib          2155.594
       356   04 Jun 2027 01:14:43.145   04 Jun 2027 01:14:44.597             1.452                Novosib            45.375
       357   04 Jun 2027 01:15:59.688   04 Jun 2027 01:16:43.438            43.750                Irkutsk          1367.188
       358   04 Jun 2027 01:19:02.891   04 Jun 2027 01:19:19.839            16.948                  Delhi           529.625
       359   04 Jun 2027 01:19:56.285   04 Jun 2027 01:20:15.216            18.931                  Delhi           591.594
       360   04 Jun 2027 01:24:00.227   04 Jun 2027 01:24:26.894            26.667                  Delhi           833.344
       361   04 Jun 2027 01:26:13.007   04 Jun 2027 01:26:44.221            31.214                Sumatra           975.437
       362   04 Jun 2027 01:27:49.823   04 Jun 2027 01:29:46.771           116.948                Sumatra          3654.625
       363   04 Jun 2027 02:07:03.083   04 Jun 2027 02:07:07.150             4.067            RioGallegos           127.094
       364   04 Jun 2027 02:37:22.722   04 Jun 2027 02:38:00.476            37.754                Anadyr1          1179.813
       365   04 Jun 2027 02:38:20.153   04 Jun 2027 02:39:03.228            43.075                Anadyr1          1346.094
       366   04 Jun 2027 02:43:04.675   04 Jun 2027 02:44:09.670            64.995                Norilsk          2031.094
       367   04 Jun 2027 02:44:58.581   04 Jun 2027 02:44:59.100             0.519                Norilsk            16.219
       368   04 Jun 2027 02:45:26.947   04 Jun 2027 02:47:04.488            97.541              Murmansk2          3048.156
       369   04 Jun 2027 02:47:28.857   04 Jun 2027 02:48:24.333            55.476                Irkutsk          1733.625
       370   04 Jun 2027 02:50:12.841   04 Jun 2027 02:50:20.606             7.765                Novosib           242.656
       371   04 Jun 2027 02:50:36.159   04 Jun 2027 02:51:02.748            26.589                Irkutsk           830.906
       372   04 Jun 2027 02:52:40.238   04 Jun 2027 02:53:04.274            24.036                Irkutsk           751.125
       373   04 Jun 2027 02:58:47.177   04 Jun 2027 02:59:16.911            29.734                  Delhi           929.187
       374   04 Jun 2027 04:29:21.338   04 Jun 2027 04:29:31.908            10.570                Norilsk           330.312
       375   04 Jun 2027 04:30:00.912   04 Jun 2027 04:31:46.715           105.803              Murmansk1          3306.344
       376   04 Jun 2027 04:31:49.099   04 Jun 2027 04:32:50.701            61.602              Murmansk2          1925.063
       377   04 Jun 2027 04:32:50.701   04 Jun 2027 04:33:09.876            19.175              Murmansk1           599.219
       378   04 Jun 2027 04:33:47.658   04 Jun 2027 04:35:15.775            88.117                 Moscow          2753.656
       379   04 Jun 2027 04:49:04.521   04 Jun 2027 04:52:14.127           189.606               CapeTown          5925.187
       380   04 Jun 2027 05:53:01.786   04 Jun 2027 05:53:44.968            43.182                Anadyr2          1349.437
       381   04 Jun 2027 05:53:44.968   04 Jun 2027 05:54:11.204            26.236                Anadyr1           819.875
       382   04 Jun 2027 06:04:17.857   04 Jun 2027 06:04:41.152            23.295              Murmansk1           727.969
       383   04 Jun 2027 06:04:42.897   04 Jun 2027 06:05:01.992            19.095                 Moscow           596.719
       384   04 Jun 2027 06:05:23.489   04 Jun 2027 06:06:02.474            38.985              Murmansk2          1218.281
       385   04 Jun 2027 06:06:05.522   04 Jun 2027 06:06:10.414             4.892                 Moscow           152.875
       386   04 Jun 2027 06:06:14.290   04 Jun 2027 06:06:46.442            32.152              Murmansk2          1004.750
       387   04 Jun 2027 06:06:46.442   04 Jun 2027 06:06:55.314             8.872              Murmansk1           277.250
       388   04 Jun 2027 06:07:55.684   04 Jun 2027 06:08:17.832            22.148              Murmansk2           692.125
       389   04 Jun 2027 06:09:24.118   04 Jun 2027 06:10:05.029            40.911              Murmansk2          1278.469
       390   04 Jun 2027 06:24:53.530   04 Jun 2027 06:26:12.037            78.507               CapeTown          2453.344
       391   04 Jun 2027 07:27:41.450   04 Jun 2027 07:27:46.585             5.135               Magadan1           160.469
       392   04 Jun 2027 07:28:02.942   04 Jun 2027 07:28:36.153            33.211                Anadyr1          1037.844
       393   04 Jun 2027 07:28:36.153   04 Jun 2027 07:29:17.984            41.831                Anadyr2          1307.219
       394   04 Jun 2027 07:29:43.659   04 Jun 2027 07:30:27.728            44.069               Magadan1          1377.156
       395   04 Jun 2027 07:31:11.801   04 Jun 2027 07:31:42.640            30.839                Anadyr2           963.719
       396   04 Jun 2027 08:15:23.457   04 Jun 2027 08:15:25.116             1.659            RioGallegos            51.844
       397   04 Jun 2027 08:16:59.177   04 Jun 2027 08:17:46.517            47.340            RioGallegos          1479.375
       398   04 Jun 2027 09:02:06.934   04 Jun 2027 09:05:12.808           185.874                Anadyr1          5808.562
       399   04 Jun 2027 09:05:27.013   04 Jun 2027 09:05:46.555            19.542                Anadyr1           610.688
       400   04 Jun 2027 09:05:50.495   04 Jun 2027 09:07:50.209           119.714                Anadyr2          3741.063
       401   04 Jun 2027 09:07:50.209   04 Jun 2027 09:08:10.218            20.009                Anadyr1           625.281
       402   04 Jun 2027 10:38:09.759   04 Jun 2027 10:38:38.079            28.320                Irkutsk           885.000
       403   04 Jun 2027 10:39:31.575   04 Jun 2027 10:40:29.568            57.993               Magadan1          1812.281
       404   04 Jun 2027 10:40:40.006   04 Jun 2027 10:40:43.620             3.614                Novosib           112.938
       405   04 Jun 2027 10:40:44.628   04 Jun 2027 10:41:09.728            25.100                Norilsk           784.375
       406   04 Jun 2027 10:41:16.682   04 Jun 2027 10:44:40.619           203.937               Magadan2          6373.031
       407   04 Jun 2027 10:45:01.379   04 Jun 2027 10:45:12.367            10.988              Murmansk2           343.375
       408   04 Jun 2027 10:45:17.073   04 Jun 2027 10:46:11.183            54.110              Murmansk2          1690.937
       409   04 Jun 2027 11:19:55.955   04 Jun 2027 11:20:56.945            60.990            RioGallegos          1905.937
       410   04 Jun 2027 11:55:05.634   04 Jun 2027 11:55:45.966            40.332                Sumatra          1260.375
       411   04 Jun 2027 12:07:06.284   04 Jun 2027 12:07:20.979            14.695                  Delhi           459.219
       412   04 Jun 2027 12:08:34.412   04 Jun 2027 12:09:34.745            60.333                Irkutsk          1885.406
       413   04 Jun 2027 12:10:13.318   04 Jun 2027 12:10:37.693            24.375                Novosib           761.719
       414   04 Jun 2027 12:12:26.641   04 Jun 2027 12:12:53.044            26.403                Irkutsk           825.094
       415   04 Jun 2027 12:13:42.363   04 Jun 2027 12:14:50.032            67.669                Novosib          2114.656
       416   04 Jun 2027 12:20:52.035   04 Jun 2027 12:20:56.633             4.598              Murmansk2           143.687
       417   04 Jun 2027 12:22:01.833   04 Jun 2027 12:22:24.055            22.222              Murmansk2           694.437
       418   04 Jun 2027 12:24:04.661   04 Jun 2027 12:24:12.329             7.668              Murmansk1           239.625
       419   04 Jun 2027 12:26:09.788   04 Jun 2027 12:26:52.128            42.340              Murmansk1          1323.125
       420   04 Jun 2027 12:58:18.052   04 Jun 2027 13:00:54.676           156.624            RioGallegos          4894.500
       421   04 Jun 2027 13:32:37.037   04 Jun 2027 13:32:48.777            11.740                Sumatra           366.875
       422   04 Jun 2027 13:35:43.425   04 Jun 2027 13:37:23.515           100.090                Sumatra          3127.813
       423   04 Jun 2027 13:48:23.633   04 Jun 2027 13:52:29.520           245.887                Irkutsk          7683.969
       424   04 Jun 2027 15:18:16.834   04 Jun 2027 15:19:46.446            89.612                  Delhi          2800.375
       425   04 Jun 2027 15:24:56.274   04 Jun 2027 15:25:21.617            25.343                 Moscow           791.969
       426   04 Jun 2027 15:26:45.103   04 Jun 2027 15:30:26.138           221.035                Novosib          6907.344
       427   04 Jun 2027 15:33:31.469   04 Jun 2027 15:34:21.806            50.337                Norilsk          1573.031
       428   04 Jun 2027 16:40:47.818   04 Jun 2027 16:41:08.923            21.105               CapeTown           659.531
       429   04 Jun 2027 16:45:34.667   04 Jun 2027 16:46:16.867            42.200               CapeTown          1318.750
       430   04 Jun 2027 17:00:40.602   04 Jun 2027 17:01:02.008            21.406                 Moscow           668.937
       431   04 Jun 2027 17:03:25.876   04 Jun 2027 17:04:07.384            41.508              Murmansk1          1297.125
       432   04 Jun 2027 17:04:10.275   04 Jun 2027 17:04:49.787            39.512              Murmansk1          1234.750
       433   04 Jun 2027 17:11:31.591   04 Jun 2027 17:11:50.371            18.780              Murmansk2           586.875
       434   04 Jun 2027 17:18:15.523   04 Jun 2027 17:20:00.141           104.618                Anadyr1          3269.312
       435   04 Jun 2027 17:20:07.031   04 Jun 2027 17:20:41.956            34.925                Anadyr1          1091.406
       436   04 Jun 2027 18:12:52.517   04 Jun 2027 18:13:28.745            36.228               CapeTown          1132.125
       437   04 Jun 2027 18:15:20.337   04 Jun 2027 18:15:21.175             0.838               CapeTown            26.188
       438   04 Jun 2027 18:16:05.783   04 Jun 2027 18:16:14.903             9.120               CapeTown           285.000
       439   04 Jun 2027 18:18:19.377   04 Jun 2027 18:18:45.876            26.499               CapeTown           828.094
       440   04 Jun 2027 18:24:45.061   04 Jun 2027 18:25:14.753            29.692               CapeTown           927.875
       441   04 Jun 2027 18:41:25.734   04 Jun 2027 18:44:16.523           170.789                 Moscow          5337.156
       442   04 Jun 2027 18:45:44.078   04 Jun 2027 18:47:06.874            82.796              Murmansk1          2587.375
       443   04 Jun 2027 18:47:19.705   04 Jun 2027 18:47:26.551             6.846              Murmansk2           213.937
       444   04 Jun 2027 18:53:58.673   04 Jun 2027 18:54:30.572            31.899                Anadyr2           996.844
       445   04 Jun 2027 18:58:02.243   04 Jun 2027 18:58:18.044            15.801               Magadan2           493.781
       446   04 Jun 2027 18:58:45.118   04 Jun 2027 18:59:39.933            54.815               Magadan1          1712.969
       447   04 Jun 2027 19:50:25.220   04 Jun 2027 19:51:00.631            35.411               CapeTown          1106.594
       448   04 Jun 2027 19:54:11.192   04 Jun 2027 19:55:28.905            77.713               CapeTown          2428.531
       449   04 Jun 2027 20:29:24.646   04 Jun 2027 20:32:07.428           162.782                Anadyr1          5086.938
       450   04 Jun 2027 20:32:20.752   04 Jun 2027 20:33:37.628            76.876               Magadan1          2402.375
       451   04 Jun 2027 20:33:37.628   04 Jun 2027 20:34:15.788            38.160               Magadan2          1192.500
       452   04 Jun 2027 20:34:59.431   04 Jun 2027 20:35:32.519            33.088               Magadan1          1034.000
       453   04 Jun 2027 20:41:11.773   04 Jun 2027 20:41:56.938            45.165               Magadan1          1411.406
       454   04 Jun 2027 22:05:19.445   04 Jun 2027 22:07:17.308           117.863                Anadyr2          3683.219
       455   04 Jun 2027 22:07:34.678   04 Jun 2027 22:09:02.220            87.542                Anadyr1          2735.687
       456   04 Jun 2027 22:09:37.753   04 Jun 2027 22:11:12.270            94.517               Magadan2          2953.656
       457   04 Jun 2027 22:11:12.270   04 Jun 2027 22:11:39.214            26.944               Magadan1           842.000
       458   04 Jun 2027 22:12:01.257   04 Jun 2027 22:12:46.034            44.777                Norilsk          1399.281
       459   04 Jun 2027 22:14:31.611   04 Jun 2027 22:15:14.008            42.397               Magadan2          1324.906
       460   04 Jun 2027 22:15:27.976   04 Jun 2027 22:16:27.910            59.934                Irkutsk          1872.937
       461   04 Jun 2027 22:59:40.043   04 Jun 2027 23:01:33.462           113.419            RioGallegos          3544.344
       462   04 Jun 2027 23:02:45.010   04 Jun 2027 23:03:02.294            17.284            RioGallegos           540.125
       463   04 Jun 2027 23:07:46.531   04 Jun 2027 23:08:04.769            18.238            RioGallegos           569.938
       464   04 Jun 2027 23:40:54.421   04 Jun 2027 23:41:40.203            45.782                Anadyr1          1430.687
       465   04 Jun 2027 23:42:45.168   04 Jun 2027 23:43:05.982            20.814                Anadyr1           650.438
       466   04 Jun 2027 23:43:08.337   04 Jun 2027 23:43:22.398            14.061                Norilsk           439.406
       467   04 Jun 2027 23:43:34.156   04 Jun 2027 23:44:34.375            60.219                Norilsk          1881.844
       468   04 Jun 2027 23:44:36.313   04 Jun 2027 23:44:40.409             4.096               Magadan1           128.000
       469   04 Jun 2027 23:44:48.562   04 Jun 2027 23:44:58.345             9.783               Magadan2           305.719
       470   04 Jun 2027 23:46:14.343   04 Jun 2027 23:47:03.339            48.996               Magadan1          1531.125
       471   04 Jun 2027 23:47:16.997   04 Jun 2027 23:47:17.370             0.373                Irkutsk            11.656
       472   04 Jun 2027 23:47:35.772   04 Jun 2027 23:48:23.918            48.146               Magadan2          1504.562
       473   04 Jun 2027 23:48:30.525   04 Jun 2027 23:48:41.213            10.688                Irkutsk           334.000
       474   04 Jun 2027 23:48:55.794   04 Jun 2027 23:50:48.532           112.738                Novosib          3523.062
       475   04 Jun 2027 23:54:59.708   04 Jun 2027 23:55:12.060            12.352                Novosib           386.000
       476   05 Jun 2027 00:01:00.414   05 Jun 2027 00:03:30.645           150.231                Sumatra          4694.719
       477   05 Jun 2027 00:40:09.808   05 Jun 2027 00:40:50.281            40.473            RioGallegos          1264.781
       478   05 Jun 2027 01:15:34.384   05 Jun 2027 01:17:21.201           106.817                Anadyr2          3338.031
       479   05 Jun 2027 01:19:06.820   05 Jun 2027 01:20:49.614           102.794                Norilsk          3212.312
       480   05 Jun 2027 01:20:55.193   05 Jun 2027 01:21:22.015            26.822               Magadan2           838.188
       481   05 Jun 2027 01:22:53.787   05 Jun 2027 01:22:56.302             2.515               Magadan2            78.594
       482   05 Jun 2027 01:23:00.137   05 Jun 2027 01:24:54.880           114.743                Irkutsk          3585.719
