uniorb/output/strategy_2/Drop/Drop_KinoSat_110501.txt

KinoSat_110501
-------------------------
    Access    *     Start Time (UTCG)     *     Stop Time (UTCG)  *   Duration (s)        *       Station  *  Data (Mbytes)
         1   01 Jun 2027 04:23:13.469   01 Jun 2027 04:23:51.245            37.776                Irkutsk          2590.000
         2   01 Jun 2027 04:25:19.003   01 Jun 2027 04:27:45.234           146.231                Irkutsk         11767.000
         3   01 Jun 2027 04:27:58.619   01 Jun 2027 04:28:53.942            55.323                Norilsk          6692.500
         4   01 Jun 2027 04:28:54.657   01 Jun 2027 04:29:46.529            51.872                Anadyr2           357.500
         5   01 Jun 2027 04:29:48.272   01 Jun 2027 04:30:43.239            54.967               Magadan2           871.500
         6   01 Jun 2027 04:30:43.718   01 Jun 2027 04:31:21.470            37.752                Anadyr2           239.500
         7   01 Jun 2027 04:31:22.771   01 Jun 2027 04:31:33.704            10.933               Magadan2           650.500
         8   01 Jun 2027 04:31:38.672   01 Jun 2027 04:32:06.345            27.673               Magadan2          2484.000
         9   01 Jun 2027 04:32:09.041   01 Jun 2027 04:32:50.922            41.881               Magadan1          1348.000
        10   01 Jun 2027 04:32:54.356   01 Jun 2027 04:33:04.778            10.422              Murmansk1          1294.500
        11   01 Jun 2027 06:02:00.378   01 Jun 2027 06:02:16.424            16.046                Norilsk           198.500
        12   01 Jun 2027 06:02:24.901   01 Jun 2027 06:03:05.936            41.035                Norilsk          4238.500
        13   01 Jun 2027 06:03:26.780   01 Jun 2027 06:05:15.318           108.538                Irkutsk         10422.000
        14   01 Jun 2027 06:05:18.531   01 Jun 2027 06:05:31.602            13.071                Norilsk          1606.500
        15   01 Jun 2027 06:05:40.373   01 Jun 2027 06:06:32.947            52.574                Irkutsk          4385.500
        16   01 Jun 2027 06:06:35.131   01 Jun 2027 06:06:58.719            23.588              Murmansk1          1092.000
        17   01 Jun 2027 06:07:01.314   01 Jun 2027 06:07:14.644            13.330              Murmansk2          1297.500
        18   01 Jun 2027 06:07:16.182   01 Jun 2027 06:08:07.817            51.635                Irkutsk           769.000
        19   01 Jun 2027 06:08:09.881   01 Jun 2027 06:08:30.796            20.915              Murmansk1          1032.000
        20   01 Jun 2027 06:08:31.813   01 Jun 2027 06:09:03.900            32.087              Murmansk2           508.500
        21   01 Jun 2027 07:39:19.110   01 Jun 2027 07:41:03.502           104.392                Norilsk         11520.500
        22   01 Jun 2027 07:41:08.870   01 Jun 2027 07:41:35.720            26.850                Norilsk          2684.000
        23   01 Jun 2027 07:41:35.807   01 Jun 2027 07:41:37.882             2.075              Murmansk1            43.500
        24   01 Jun 2027 07:41:38.480   01 Jun 2027 07:41:58.135            19.655              Murmansk1           299.000
        25   01 Jun 2027 07:42:03.992   01 Jun 2027 07:42:29.893            25.901                Norilsk          2928.500
        26   01 Jun 2027 07:42:35.058   01 Jun 2027 07:43:12.110            37.052                 Moscow          2582.500
        27   01 Jun 2027 07:43:13.192   01 Jun 2027 07:44:00.167            46.975                Norilsk           541.000
        28   01 Jun 2027 09:15:47.758   01 Jun 2027 09:16:15.747            27.989                Norilsk          2550.500
        29   01 Jun 2027 09:16:16.076   01 Jun 2027 09:16:44.728            28.652                Norilsk           164.500
        30   01 Jun 2027 09:16:55.909   01 Jun 2027 09:17:47.077            51.168                Norilsk          5590.500
        31   01 Jun 2027 09:17:57.514   01 Jun 2027 09:18:46.354            48.840              Murmansk2          5218.500
        32   01 Jun 2027 09:18:57.702   01 Jun 2027 09:19:51.420            53.718                Norilsk          5674.000
        33   01 Jun 2027 09:20:05.912   01 Jun 2027 09:21:05.953            60.041                Norilsk          7246.000
        34   01 Jun 2027 10:54:10.218   01 Jun 2027 10:55:34.205            83.987                 Moscow          7756.000
        35   02 Jun 2027 03:03:03.026   02 Jun 2027 03:03:24.233            21.207                Irkutsk           524.000
        36   02 Jun 2027 03:03:29.190   02 Jun 2027 03:03:54.574            25.384                Anadyr1          2478.500
        37   02 Jun 2027 03:03:56.444   02 Jun 2027 03:04:26.770            30.326                Anadyr2           935.000
        38   02 Jun 2027 03:04:30.421   02 Jun 2027 03:05:05.332            34.911                Anadyr2          1825.500
        39   02 Jun 2027 03:05:10.586   02 Jun 2027 03:05:46.391            35.805                Norilsk          2627.000
        40   02 Jun 2027 03:05:53.667   02 Jun 2027 03:06:36.128            42.461                Anadyr2          3638.000
        41   02 Jun 2027 04:38:22.989   02 Jun 2027 04:39:15.601            52.612                Novosib          6576.500
        42   02 Jun 2027 04:39:25.934   02 Jun 2027 04:39:44.458            18.524                Irkutsk          2315.500
        43   02 Jun 2027 04:39:53.697   02 Jun 2027 04:41:05.398            71.701                Irkutsk          8945.499
        44   02 Jun 2027 04:41:05.694   02 Jun 2027 04:41:08.690             2.996                Novosib           148.000
        45   02 Jun 2027 04:41:17.051   02 Jun 2027 04:41:43.842            26.791                Novosib          3348.875
        46   02 Jun 2027 04:41:50.421   02 Jun 2027 04:41:53.140             2.719                Norilsk           339.875
        47   02 Jun 2027 04:41:55.060   02 Jun 2027 04:43:04.181            69.121               Magadan1          4741.250
        48   02 Jun 2027 04:43:07.369   02 Jun 2027 04:43:25.100            17.731               Magadan1          1594.000
        49   02 Jun 2027 04:43:27.059   02 Jun 2027 04:43:41.003            13.944                Norilsk           979.500
        50   02 Jun 2027 04:43:51.365   02 Jun 2027 04:44:45.183            53.818               Magadan1          5181.000
        51   02 Jun 2027 04:44:46.546   02 Jun 2027 04:45:06.746            20.200              Murmansk2           681.500
        52   02 Jun 2027 06:14:38.281   02 Jun 2027 06:15:02.000            23.719                Norilsk          2964.875
        53   02 Jun 2027 06:15:44.200   02 Jun 2027 06:19:02.863           198.663                Irkutsk         22924.125
        54   02 Jun 2027 06:19:02.873   02 Jun 2027 06:19:39.138            36.265                Irkutsk             5.000
        55   02 Jun 2027 06:19:49.837   02 Jun 2027 06:20:34.609            44.772                Novosib          5349.500
        56   02 Jun 2027 06:20:36.279   02 Jun 2027 06:20:59.705            23.426              Murmansk1           835.000
        57   02 Jun 2027 07:51:59.709   02 Jun 2027 07:52:13.481            13.772              Murmansk2           284.500
        58   02 Jun 2027 07:52:15.148   02 Jun 2027 07:52:25.941            10.793                Irkutsk           833.500
        59   02 Jun 2027 07:52:33.346   02 Jun 2027 07:52:52.156            18.810                Norilsk          2351.250
        60   02 Jun 2027 07:53:02.244   02 Jun 2027 07:54:03.730            61.486                Novosib          6395.250
        61   02 Jun 2027 07:54:11.666   02 Jun 2027 07:55:02.284            50.618              Murmansk2          3968.000
        62   02 Jun 2027 07:55:02.614   02 Jun 2027 07:55:21.692            19.078                Novosib           165.000
        63   02 Jun 2027 07:55:23.922   02 Jun 2027 07:56:25.858            61.936                 Moscow          1115.000
        64   02 Jun 2027 09:28:05.747   02 Jun 2027 09:28:16.251            10.504                Norilsk           988.500
        65   02 Jun 2027 09:28:21.113   02 Jun 2027 09:28:51.424            30.311              Murmansk1          2431.000
        66   02 Jun 2027 09:28:59.482   02 Jun 2027 09:30:22.895            83.413                Norilsk          4029.000
        67   02 Jun 2027 09:30:27.245   02 Jun 2027 09:30:53.547            26.302                Norilsk          2175.000
        68   02 Jun 2027 09:30:58.773   02 Jun 2027 09:31:31.869            33.096              Murmansk1          2613.000
        69   02 Jun 2027 09:31:51.079   02 Jun 2027 09:33:26.984            95.905                Norilsk          9605.000
        70   03 Jun 2027 03:15:10.629   03 Jun 2027 03:15:29.882            19.253                Anadyr2          2018.500
        71   03 Jun 2027 03:15:31.806   03 Jun 2027 03:15:42.189            10.383                Irkutsk           962.000
        72   03 Jun 2027 03:15:46.616   03 Jun 2027 03:16:56.639            70.023                Irkutsk          2213.500
        73   03 Jun 2027 03:16:58.010   03 Jun 2027 03:17:17.435            19.425               Magadan1           685.500
        74   03 Jun 2027 03:17:34.804   03 Jun 2027 03:18:45.214            70.410                Norilsk          8684.500
        75   03 Jun 2027 04:50:17.416   03 Jun 2027 04:50:42.689            25.273               Magadan1           257.500
        76   03 Jun 2027 04:50:45.602   03 Jun 2027 04:51:30.409            44.807               Magadan2          1456.500
        77   03 Jun 2027 04:51:33.960   03 Jun 2027 04:51:58.790            24.830               Magadan1          1775.500
        78   03 Jun 2027 04:52:03.965   03 Jun 2027 04:53:22.088            78.123                Irkutsk          2587.500
        79   03 Jun 2027 04:53:22.353   03 Jun 2027 04:53:34.072            11.719               Magadan2           132.500
        80   03 Jun 2027 04:53:44.002   03 Jun 2027 04:54:32.838            48.836               Magadan1          4965.000
        81   03 Jun 2027 04:54:36.143   03 Jun 2027 04:54:51.908            15.765                Irkutsk          1652.500
        82   03 Jun 2027 04:54:52.496   03 Jun 2027 04:55:21.759            29.263               Magadan2           294.000
        83   03 Jun 2027 04:55:22.270   03 Jun 2027 04:55:25.487             3.217               Magadan1           255.500
        84   03 Jun 2027 04:55:27.240   03 Jun 2027 04:55:41.020            13.780               Magadan1           876.500
        85   03 Jun 2027 04:56:01.362   03 Jun 2027 04:57:37.304            95.942              Murmansk1         10171.000
        86   03 Jun 2027 06:26:39.074   03 Jun 2027 06:27:46.257            67.183                Novosib          3563.500
        87   03 Jun 2027 06:27:59.543   03 Jun 2027 06:29:13.361            73.818                Norilsk          6643.000
        88   03 Jun 2027 06:29:18.191   03 Jun 2027 06:29:42.108            23.917                Norilsk          2415.000
        89   03 Jun 2027 06:29:44.574   03 Jun 2027 06:29:58.981            14.407              Murmansk1          1233.000
        90   03 Jun 2027 06:30:14.971   03 Jun 2027 06:31:19.840            64.869                Norilsk          7995.000
        91   03 Jun 2027 06:31:22.343   03 Jun 2027 06:31:50.563            28.220              Murmansk1          1251.500
        92   03 Jun 2027 06:31:52.742   03 Jun 2027 06:32:28.640            35.898              Murmansk1          1089.500
        93   03 Jun 2027 06:32:40.134   03 Jun 2027 06:34:03.643            83.509              Murmansk2          4243.500
        94   03 Jun 2027 08:04:05.836   03 Jun 2027 08:04:19.247            13.411                Irkutsk           591.500
        95   03 Jun 2027 08:04:21.801   03 Jun 2027 08:04:59.791            37.990                Norilsk          1277.000
        96   03 Jun 2027 08:05:07.867   03 Jun 2027 08:06:04.852            56.985                Novosib          4038.000
        97   03 Jun 2027 08:06:14.577   03 Jun 2027 08:07:32.511            77.934              Murmansk1          4862.500
        98   03 Jun 2027 08:07:33.412   03 Jun 2027 08:08:08.239            34.827                Novosib           450.500
        99   03 Jun 2027 08:08:17.373   03 Jun 2027 08:08:54.667            37.294                Norilsk          4567.000
       100   03 Jun 2027 09:40:12.186   03 Jun 2027 09:40:46.550            34.364              Murmansk1          3109.500
       101   03 Jun 2027 09:40:47.978   03 Jun 2027 09:40:57.261             9.283                Norilsk           714.000
       102   03 Jun 2027 09:41:12.004   03 Jun 2027 09:42:23.175            71.171                Norilsk          7371.500
       103   03 Jun 2027 09:42:25.671   03 Jun 2027 09:43:03.613            37.942                Novosib          1248.000
       104   03 Jun 2027 09:43:08.493   03 Jun 2027 09:43:45.473            36.980              Murmansk1          2440.000
       105   03 Jun 2027 09:43:55.619   03 Jun 2027 09:44:38.674            43.055                Novosib          5073.000
       106   03 Jun 2027 09:44:38.877   03 Jun 2027 09:44:51.632            12.755                Norilsk           101.500
       107   03 Jun 2027 09:45:02.162   03 Jun 2027 09:45:51.820            49.658                 Moscow          5265.000
       108   04 Jun 2027 03:26:56.996   04 Jun 2027 03:27:26.499            29.503               Magadan1          3397.500
       109   04 Jun 2027 03:27:27.551   04 Jun 2027 03:27:36.222             8.671                Anadyr2           526.000
       110   04 Jun 2027 03:27:40.477   04 Jun 2027 03:28:32.713            52.236                Irkutsk          2127.500
       111   04 Jun 2027 03:28:50.841   04 Jun 2027 03:29:02.450            11.609                Norilsk          1451.125
       112   04 Jun 2027 03:29:02.624   04 Jun 2027 03:30:05.504            62.880                Anadyr1          7699.875
       113   04 Jun 2027 03:30:09.184   04 Jun 2027 03:30:42.653            33.469               Magadan1          1840.000
       114   04 Jun 2027 03:30:54.871   04 Jun 2027 03:31:58.731            63.860               Magadan2          6109.000
       115   04 Jun 2027 05:01:44.547   04 Jun 2027 05:02:06.592            22.045                Norilsk          1560.500
       116   04 Jun 2027 05:02:23.155   04 Jun 2027 05:03:00.058            36.903                Norilsk          4612.875
       117   04 Jun 2027 05:03:00.528   04 Jun 2027 05:03:39.461            38.933                Irkutsk          3903.625
       118   04 Jun 2027 05:03:50.277   04 Jun 2027 05:04:32.322            42.045                Norilsk          5255.625
       119   04 Jun 2027 05:04:57.131   04 Jun 2027 05:06:39.976           102.845                Norilsk         12556.875
       120   04 Jun 2027 05:07:00.784   04 Jun 2027 05:08:27.070            86.286               Magadan1         10404.000
       121   04 Jun 2027 05:08:27.346   04 Jun 2027 05:08:48.315            20.969              Murmansk2           138.000
       122   04 Jun 2027 05:08:48.442   04 Jun 2027 05:08:54.701             6.259                Norilsk            63.500
       123   04 Jun 2027 05:08:57.681   04 Jun 2027 05:08:59.006             1.325                Irkutsk           165.625
       124   04 Jun 2027 05:09:00.195   04 Jun 2027 05:09:15.047            14.852                Norilsk          1856.500
       125   04 Jun 2027 05:09:28.399   04 Jun 2027 05:10:27.634            59.235              Murmansk1            62.375
       126   04 Jun 2027 06:38:26.900   04 Jun 2027 06:39:08.545            41.645                Irkutsk          4903.000
       127   04 Jun 2027 06:39:22.195   04 Jun 2027 06:40:19.175            56.980                Norilsk          6825.000
       128   04 Jun 2027 06:40:23.823   04 Jun 2027 06:40:31.446             7.623                Norilsk           952.875
       129   04 Jun 2027 06:40:37.737   04 Jun 2027 06:41:34.919            57.182                Irkutsk          4516.625
       130   04 Jun 2027 06:41:44.855   04 Jun 2027 06:42:35.147            50.292                Norilsk          4968.000
       131   04 Jun 2027 06:42:37.184   04 Jun 2027 06:42:45.358             8.174                Irkutsk          1018.500
       132   04 Jun 2027 06:42:46.488   04 Jun 2027 06:43:02.760            16.272                Norilsk           565.000
       133   04 Jun 2027 06:43:03.723   04 Jun 2027 06:43:23.699            19.976                Novosib           481.500
       134   04 Jun 2027 06:43:39.865   04 Jun 2027 06:45:08.900            89.035              Murmansk1          8083.000
       135   04 Jun 2027 08:16:38.781   04 Jun 2027 08:17:03.808            25.027                 Moscow          2040.000
       136   04 Jun 2027 08:17:07.135   04 Jun 2027 08:17:39.357            32.222              Murmansk2          1663.500
       137   04 Jun 2027 08:17:40.737   04 Jun 2027 08:17:51.044            10.307              Murmansk2           690.000
       138   04 Jun 2027 08:18:05.328   04 Jun 2027 08:19:09.909            64.581                Novosib          7142.000
       139   04 Jun 2027 08:19:17.091   04 Jun 2027 08:19:48.903            31.812                Norilsk          3591.000
       140   04 Jun 2027 08:19:54.766   04 Jun 2027 08:20:13.967            19.201              Murmansk2          2400.125
       141   04 Jun 2027 08:20:15.806   04 Jun 2027 08:20:33.271            17.465                Norilsk          1450.875
       142   04 Jun 2027 09:50:02.177   04 Jun 2027 09:50:29.070            26.893                 Moscow          3318.500
       143   04 Jun 2027 09:51:56.827   04 Jun 2027 09:52:48.316            51.489                 Moscow          1121.000
       144   04 Jun 2027 09:53:06.803   04 Jun 2027 09:54:30.921            84.118                 Moscow          9243.500
       145   04 Jun 2027 09:54:31.008   04 Jun 2027 09:55:01.968            30.960                Novosib            43.500
       146   04 Jun 2027 09:55:02.876   04 Jun 2027 09:55:25.516            22.640                 Moscow           454.000
       147   04 Jun 2027 09:55:34.752   04 Jun 2027 09:56:19.631            44.879                 Moscow          4618.000
       148   04 Jun 2027 09:56:28.605   04 Jun 2027 09:56:45.898            17.293                 Moscow          1205.000
       149   04 Jun 2027 09:56:55.617   04 Jun 2027 09:58:37.291           101.674                 Moscow          4859.500
       150   05 Jun 2027 03:37:17.551   05 Jun 2027 03:38:41.433            83.882                Irkutsk          7146.000
       151   05 Jun 2027 03:38:44.445   05 Jun 2027 03:38:58.657            14.212                Anadyr2          1506.000
       152   05 Jun 2027 03:38:59.832   05 Jun 2027 03:39:17.381            17.549                Anadyr2           587.500
       153   05 Jun 2027 03:39:29.307   05 Jun 2027 03:40:56.190            86.883               Magadan1          5963.000
       154   05 Jun 2027 03:41:00.087   05 Jun 2027 03:41:51.868            51.781                Anadyr2          1948.500
       155   05 Jun 2027 03:41:56.650   05 Jun 2027 03:42:19.640            22.990                Anadyr1          2391.000
       156   05 Jun 2027 03:42:24.323   05 Jun 2027 03:42:55.629            31.306               Magadan2          2341.500
       157   05 Jun 2027 03:43:25.849   05 Jun 2027 03:45:16.319           110.470               Magadan1         13544.500
       158   05 Jun 2027 05:13:34.967   05 Jun 2027 05:14:38.917            63.950                Irkutsk           750.500
       159   05 Jun 2027 05:14:58.722   05 Jun 2027 05:15:14.702            15.980                Norilsk          1997.500
       160   05 Jun 2027 05:15:33.937   05 Jun 2027 05:17:23.125           109.188                Novosib         13648.500
       161   05 Jun 2027 05:17:24.551   05 Jun 2027 05:18:14.370            49.819                Norilsk          4587.000
       162   05 Jun 2027 05:18:26.586   05 Jun 2027 05:19:41.325            74.739                Irkutsk          6108.000
       163   05 Jun 2027 05:19:42.722   05 Jun 2027 05:20:49.935            67.213                Novosib           698.500
       164   05 Jun 2027 05:20:50.912   05 Jun 2027 05:21:13.045            22.133              Murmansk1           488.500
       165   05 Jun 2027 06:50:41.583   05 Jun 2027 06:51:22.882            41.299                Novosib          1723.000
       166   05 Jun 2027 06:51:30.876   05 Jun 2027 06:52:38.351            67.475                Irkutsk          3997.000
       167   05 Jun 2027 06:52:58.974   05 Jun 2027 06:54:04.797            65.823                Novosib          8227.875
       168   05 Jun 2027 06:54:14.252   05 Jun 2027 06:55:24.376            70.124                Norilsk          6811.125
       169   05 Jun 2027 06:55:26.270   05 Jun 2027 06:55:34.892             8.622              Murmansk1           947.000
       170   05 Jun 2027 06:55:40.977   05 Jun 2027 06:57:02.878            81.901                Novosib          3042.500
       171   05 Jun 2027 08:28:39.298   05 Jun 2027 08:29:09.207            29.909                Norilsk          3464.500
       172   05 Jun 2027 08:29:11.132   05 Jun 2027 08:29:31.209            20.077              Murmansk1           962.500
       173   05 Jun 2027 08:29:34.282   05 Jun 2027 08:30:25.421            51.139                Irkutsk          1536.500
       174   05 Jun 2027 08:30:27.810   05 Jun 2027 08:30:27.886             0.076                Irkutsk             9.500
       175   05 Jun 2027 08:30:29.362   05 Jun 2027 08:31:24.214            54.852              Murmansk2          1923.000
       176   05 Jun 2027 08:31:32.136   05 Jun 2027 08:31:45.905            13.769              Murmansk1          1721.125
       177   05 Jun 2027 08:32:00.807   05 Jun 2027 08:33:57.296           116.489                Novosib          9690.875
       178   05 Jun 2027 10:02:00.666   05 Jun 2027 10:03:47.868           107.202                 Moscow          9884.000
       179   05 Jun 2027 10:03:57.237   05 Jun 2027 10:04:38.796            41.559              Murmansk1          4684.500
       180   05 Jun 2027 10:04:38.993   05 Jun 2027 10:05:37.644            58.651              Murmansk1            98.500
       181   05 Jun 2027 10:05:37.986   05 Jun 2027 10:05:56.372            18.386              Murmansk1           171.000
       182   05 Jun 2027 10:06:01.412   05 Jun 2027 10:06:54.865            53.453              Murmansk1          2520.000
       183   05 Jun 2027 10:06:57.605   05 Jun 2027 10:07:19.059            21.454              Murmansk1          1370.000
       184   05 Jun 2027 10:07:32.725   05 Jun 2027 10:07:33.485             0.760                Novosib            95.000
       185   05 Jun 2027 10:07:38.551   05 Jun 2027 10:09:01.287            82.736                 Moscow          9271.000
       186   05 Jun 2027 10:09:08.756   05 Jun 2027 10:10:09.376            60.620                Norilsk          3734.500
       187   06 Jun 2027 03:48:23.462   06 Jun 2027 03:49:36.339            72.877               Magadan1          5264.000
       188   06 Jun 2027 03:49:45.748   06 Jun 2027 03:50:35.698            49.950               Magadan1          4704.500
       189   06 Jun 2027 03:50:36.424   06 Jun 2027 03:50:54.558            18.134               Magadan2           363.000
       190   06 Jun 2027 03:51:04.872   06 Jun 2027 03:51:59.735            54.863               Magadan1          5157.000
       191   06 Jun 2027 03:52:00.360   06 Jun 2027 03:52:23.058            22.698                Anadyr1           312.500
       192   06 Jun 2027 03:52:29.156   06 Jun 2027 03:52:56.213            27.057                Norilsk          3049.000
       193   06 Jun 2027 03:52:56.490   06 Jun 2027 03:53:39.480            42.990                Anadyr2           138.500
       194   06 Jun 2027 03:53:40.906   06 Jun 2027 03:53:46.221             5.315                Irkutsk           664.375
       195   06 Jun 2027 03:53:57.911   06 Jun 2027 03:54:46.251            48.340               Magadan1          5893.625
       196   06 Jun 2027 03:54:56.067   06 Jun 2027 03:55:30.287            34.220               Magadan2          4277.500
       197   06 Jun 2027 03:55:30.287   06 Jun 2027 03:55:39.078             8.791               Magadan1           630.500
       198   06 Jun 2027 03:55:54.614   06 Jun 2027 03:56:45.671            51.057                Anadyr1          1776.500
       199   06 Jun 2027 05:25:46.957   06 Jun 2027 05:25:54.795             7.838               Magadan1           184.000
       200   06 Jun 2027 05:26:00.520   06 Jun 2027 05:26:44.099            43.579                Norilsk          2862.500
       201   06 Jun 2027 05:26:56.892   06 Jun 2027 05:28:05.238            68.346                Norilsk          6396.500
       202   06 Jun 2027 05:28:09.335   06 Jun 2027 05:29:26.048            76.713                Novosib          2048.500
       203   06 Jun 2027 05:29:26.960   06 Jun 2027 05:29:38.240            11.280                Novosib           456.000
       204   06 Jun 2027 05:29:39.009   06 Jun 2027 05:29:54.811            15.802               Magadan1           384.500
       205   06 Jun 2027 05:30:01.772   06 Jun 2027 05:31:21.361            79.589                Irkutsk          3480.500
       206   06 Jun 2027 05:31:24.791   06 Jun 2027 05:31:54.677            29.886               Magadan2          1715.000
       207   06 Jun 2027 05:31:56.525   06 Jun 2027 05:32:13.786            17.261              Murmansk2           924.000
       208   06 Jun 2027 05:32:22.322   06 Jun 2027 05:33:08.098            45.776              Murmansk2          4268.000
       209   06 Jun 2027 07:02:34.920   06 Jun 2027 07:03:19.264            44.344                Novosib          2911.500
       210   06 Jun 2027 07:03:21.166   06 Jun 2027 07:04:38.034            76.868                Irkutsk           951.000
       211   06 Jun 2027 07:04:51.012   06 Jun 2027 07:06:08.501            77.489                Novosib          6489.000
       212   06 Jun 2027 07:06:08.752   06 Jun 2027 07:06:56.969            48.217                Novosib           125.500
       213   06 Jun 2027 07:07:00.788   06 Jun 2027 07:07:28.638            27.850              Murmansk2          1909.500
       214   06 Jun 2027 07:07:34.154   06 Jun 2027 07:08:41.154            67.000                Novosib          2758.000
       215   06 Jun 2027 07:08:42.329   06 Jun 2027 07:08:49.230             6.901                Irkutsk           587.500
       216   06 Jun 2027 07:09:08.295   06 Jun 2027 07:09:34.626            26.331                Norilsk          3291.375
       217   06 Jun 2027 07:09:41.833   06 Jun 2027 07:10:31.315            49.482              Murmansk2          5600.625
       218   06 Jun 2027 08:40:32.926   06 Jun 2027 08:40:43.995            11.069                Novosib           354.000
       219   06 Jun 2027 08:40:44.228   06 Jun 2027 08:40:47.455             3.227                Irkutsk           116.500
       220   06 Jun 2027 08:40:47.800   06 Jun 2027 08:42:04.048            76.248                Novosib           172.500
       221   06 Jun 2027 08:42:05.033   06 Jun 2027 08:42:25.067            20.034                Novosib           492.500
       222   06 Jun 2027 08:42:35.247   06 Jun 2027 08:43:26.965            51.718                Norilsk          5090.000
       223   06 Jun 2027 08:43:27.516   06 Jun 2027 08:43:36.181             8.665              Murmansk2           275.500
       224   06 Jun 2027 08:43:48.653   06 Jun 2027 08:44:50.345            61.692              Murmansk1          6236.000
       225   06 Jun 2027 10:14:11.360   06 Jun 2027 10:14:33.748            22.388                 Moscow           902.500
       226   06 Jun 2027 10:14:41.536   06 Jun 2027 10:15:20.029            38.493              Murmansk2          3894.000
       227   06 Jun 2027 10:15:32.973   06 Jun 2027 10:16:34.289            61.316                 Moscow          6472.000
       228   06 Jun 2027 10:16:35.842   06 Jun 2027 10:17:06.065            30.223              Murmansk2           776.500
       229   06 Jun 2027 10:17:07.432   06 Jun 2027 10:17:29.547            22.115                 Moscow           683.500
       230   06 Jun 2027 10:17:38.152   06 Jun 2027 10:18:49.171            71.019              Murmansk2          4302.500
       231   06 Jun 2027 10:18:49.183   06 Jun 2027 10:19:02.459            13.276                Norilsk             6.000
       232   06 Jun 2027 10:19:03.496   06 Jun 2027 10:19:20.738            17.242                 Moscow           518.500
       233   06 Jun 2027 10:19:26.166   06 Jun 2027 10:19:54.539            28.373              Murmansk2          2714.000
       234   06 Jun 2027 10:20:13.433   06 Jun 2027 10:21:30.313            76.880                Norilsk          9447.000
       235   06 Jun 2027 10:21:32.897   06 Jun 2027 10:22:24.689            51.792              Murmansk2          1292.000
       236   07 Jun 2027 03:59:53.581   07 Jun 2027 04:00:41.576            47.995               Magadan1          4972.500
       237   07 Jun 2027 04:01:00.621   07 Jun 2027 04:02:44.308           103.687               Magadan2          9522.500
       238   07 Jun 2027 04:02:48.016   07 Jun 2027 04:04:01.805            73.789                Anadyr1          1854.000
       239   07 Jun 2027 04:04:11.764   07 Jun 2027 04:04:36.383            24.619                Norilsk          3077.375
       240   07 Jun 2027 04:04:41.102   07 Jun 2027 04:05:26.387            45.285               Magadan2          4261.625
       241   07 Jun 2027 04:05:26.767   07 Jun 2027 04:05:31.543             4.776               Magadan1           190.000
       242   07 Jun 2027 04:05:33.836   07 Jun 2027 04:05:45.611            11.775                Novosib          1146.500
       243   07 Jun 2027 04:05:48.705   07 Jun 2027 04:07:47.193           118.488                Irkutsk          1547.000
       244   07 Jun 2027 04:07:50.493   07 Jun 2027 04:08:18.596            28.103               Magadan2          1650.000
       245   07 Jun 2027 04:08:19.962   07 Jun 2027 04:08:38.874            18.912                Irkutsk           683.000
       246   07 Jun 2027 04:08:55.793   07 Jun 2027 04:10:15.487            79.694                Norilsk          8459.500
       247   07 Jun 2027 05:37:53.873   07 Jun 2027 05:38:49.202            55.329               Magadan1          6692.000
       248   07 Jun 2027 05:38:54.535   07 Jun 2027 05:39:30.767            36.232                Norilsk          2666.500
       249   07 Jun 2027 05:39:32.705   07 Jun 2027 05:39:45.731            13.026               Magadan1           969.000
       250   07 Jun 2027 05:39:51.494   07 Jun 2027 05:41:21.768            90.274                Novosib          2881.500
       251   07 Jun 2027 05:41:26.882   07 Jun 2027 05:41:55.562            28.680                Novosib          2557.000
       252   07 Jun 2027 05:41:55.957   07 Jun 2027 05:43:03.711            67.754                Novosib           197.500
       253   07 Jun 2027 05:43:12.742   07 Jun 2027 05:44:08.777            56.035              Murmansk1          4515.500
       254   07 Jun 2027 05:44:21.738   07 Jun 2027 05:45:25.120            63.382                Norilsk          6480.500
       255   07 Jun 2027 07:14:38.071   07 Jun 2027 07:15:08.287            30.216                Irkutsk          1655.000
       256   07 Jun 2027 07:15:18.123   07 Jun 2027 07:16:03.673            45.550                Norilsk          4918.000
       257   07 Jun 2027 07:16:06.821   07 Jun 2027 07:16:19.767            12.946                Norilsk          1574.000
       258   07 Jun 2027 07:16:25.697   07 Jun 2027 07:17:32.615            66.918                Novosib          2965.000
       259   07 Jun 2027 07:17:39.590   07 Jun 2027 07:18:34.147            54.557                 Moscow          3487.500
       260   07 Jun 2027 07:18:38.440   07 Jun 2027 07:19:00.149            21.709              Murmansk2          2146.500
       261   07 Jun 2027 07:19:01.734   07 Jun 2027 07:19:14.666            12.932              Murmansk2           792.500
       262   07 Jun 2027 07:19:20.111   07 Jun 2027 07:19:54.113            34.002                Novosib          2722.500
       263   07 Jun 2027 07:19:55.815   07 Jun 2027 07:20:14.180            18.365                Norilsk           851.000
       264   07 Jun 2027 07:20:18.986   07 Jun 2027 07:20:43.236            24.250                Irkutsk          1538.500
       265   07 Jun 2027 07:20:43.978   07 Jun 2027 07:20:58.607            14.629                Novosib           371.000
       266   07 Jun 2027 07:21:02.526   07 Jun 2027 07:21:23.394            20.868                Norilsk          1959.500
       267   07 Jun 2027 08:52:20.901   07 Jun 2027 08:52:30.566             9.665                Norilsk          1171.000
       268   07 Jun 2027 08:52:30.796   07 Jun 2027 08:52:42.736            11.940              Murmansk1           115.000
       269   07 Jun 2027 08:53:02.230   07 Jun 2027 08:54:36.848            94.618                Norilsk          9747.000
       270   07 Jun 2027 08:54:40.447   07 Jun 2027 08:54:52.218            11.771                Norilsk          1471.375
       271   07 Jun 2027 08:54:57.831   07 Jun 2027 08:55:41.910            44.079                 Moscow          3134.625
       272   07 Jun 2027 08:55:42.221   07 Jun 2027 08:56:00.031            17.810              Murmansk1           155.500
       273   07 Jun 2027 08:56:13.749   07 Jun 2027 08:57:38.763            85.014                Norilsk          6859.000
       274   07 Jun 2027 10:26:35.287   07 Jun 2027 10:27:20.680            45.393                 Moscow          1364.500
       275   07 Jun 2027 10:27:46.704   07 Jun 2027 10:28:55.055            68.351              Murmansk2          6565.500
       276   07 Jun 2027 10:28:56.959   07 Jun 2027 10:29:23.773            26.814                 Moscow           952.000
       277   07 Jun 2027 10:29:31.049   07 Jun 2027 10:30:04.297            33.248              Murmansk2          3638.000
       278   07 Jun 2027 10:30:04.513   07 Jun 2027 10:30:28.128            23.615                 Moscow           108.000
       279   07 Jun 2027 10:30:44.193   07 Jun 2027 10:32:08.156            83.963              Murmansk2          8032.500
       280   08 Jun 2027 04:12:42.444   08 Jun 2027 04:13:49.015            66.571                Irkutsk          2637.000
       281   08 Jun 2027 04:14:06.504   08 Jun 2027 04:15:37.862            91.358               Magadan1          8744.500
       282   08 Jun 2027 04:15:38.853   08 Jun 2027 04:15:45.051             6.198               Magadan1           495.500
       283   08 Jun 2027 04:15:47.625   08 Jun 2027 04:16:08.843            21.218               Magadan1          1287.000
       284   08 Jun 2027 04:16:23.900   08 Jun 2027 04:18:01.002            97.102                Anadyr1          7528.500
       285   08 Jun 2027 04:18:07.463   08 Jun 2027 04:18:34.489            27.026               Magadan2          3230.500
       286   08 Jun 2027 04:19:01.011   08 Jun 2027 04:20:11.304            70.293                Norilsk          8786.625
       287   08 Jun 2027 04:20:15.351   08 Jun 2027 04:20:15.676             0.325                Anadyr2            40.625
       288   08 Jun 2027 04:20:15.732   08 Jun 2027 04:21:09.761            54.029               Magadan1          6485.250
       289   08 Jun 2027 04:21:20.266   08 Jun 2027 04:21:28.465             8.199              Murmansk1           491.000
       290   08 Jun 2027 05:50:12.014   08 Jun 2027 05:50:47.165            35.151                Norilsk          4393.875
       291   08 Jun 2027 05:50:49.273   08 Jun 2027 05:51:10.327            21.054                Novosib          2055.125
       292   08 Jun 2027 05:51:23.171   08 Jun 2027 05:52:22.737            59.566               Magadan2          6422.000
       293   08 Jun 2027 05:52:33.535   08 Jun 2027 05:53:33.942            60.407                Norilsk          5399.000
       294   08 Jun 2027 05:53:35.760   08 Jun 2027 05:53:53.370            17.610                Novosib           909.000
       295   08 Jun 2027 05:53:54.141   08 Jun 2027 05:54:08.179            14.038                Irkutsk           385.500
       296   08 Jun 2027 05:54:10.098   08 Jun 2027 05:54:27.039            16.941               Magadan2           959.500
       297   08 Jun 2027 05:54:33.008   08 Jun 2027 05:55:14.148            41.140              Murmansk2          2984.500
       298   08 Jun 2027 05:55:17.304   08 Jun 2027 05:55:37.561            20.257              Murmansk2          1578.000
       299   08 Jun 2027 05:55:47.022   08 Jun 2027 05:56:28.904            41.882                Irkutsk          4730.500
       300   08 Jun 2027 05:56:35.321   08 Jun 2027 05:57:19.280            43.959              Murmansk2          3208.500
       301   08 Jun 2027 07:27:10.773   08 Jun 2027 07:27:21.565            10.792                  Delhi          1349.000
       302   08 Jun 2027 07:27:38.707   08 Jun 2027 07:29:22.199           103.492                Norilsk         10042.000
       303   08 Jun 2027 07:29:24.608   08 Jun 2027 07:30:14.467            49.859                Novosib          1204.500
       304   08 Jun 2027 07:30:18.394   08 Jun 2027 07:30:47.714            29.320                Irkutsk          1963.500
       305   08 Jun 2027 07:30:49.556   08 Jun 2027 07:30:59.073             9.517              Murmansk1           921.000
       306   08 Jun 2027 07:31:01.851   08 Jun 2027 07:31:15.544            13.693                 Moscow          1389.000
       307   08 Jun 2027 07:31:16.272   08 Jun 2027 07:31:29.380            13.108                Norilsk           364.000
       308   08 Jun 2027 07:32:04.770   08 Jun 2027 07:34:14.867           130.097              Murmansk1         13931.000
       309   08 Jun 2027 09:03:53.699   08 Jun 2027 09:04:18.100            24.401              Murmansk1          1958.000
       310   08 Jun 2027 09:04:29.491   08 Jun 2027 09:05:21.400            51.909                Norilsk          5695.500
       311   08 Jun 2027 09:05:22.535   08 Jun 2027 09:06:18.446            55.911                Norilsk           567.500
       312   08 Jun 2027 09:06:21.655   08 Jun 2027 09:07:18.484            56.829                Novosib          1604.500
       313   08 Jun 2027 09:07:18.669   08 Jun 2027 09:07:43.174            24.505                Norilsk            92.500
       314   08 Jun 2027 09:07:45.448   08 Jun 2027 09:07:58.026            12.578                Norilsk          1137.000
       315   08 Jun 2027 09:08:20.119   08 Jun 2027 09:10:20.996           120.877                Norilsk         11046.500
       316   08 Jun 2027 10:39:07.375   08 Jun 2027 10:39:24.923            17.548              Murmansk2           736.500
       317   08 Jun 2027 10:40:56.212   08 Jun 2027 10:41:36.613            40.401                 Moscow          4637.500
       318   08 Jun 2027 10:41:36.755   08 Jun 2027 10:41:38.503             1.748              Murmansk1            71.000
       319   08 Jun 2027 10:41:42.266   08 Jun 2027 10:42:05.875            23.609              Murmansk2          1881.500
       320   08 Jun 2027 10:42:08.356   08 Jun 2027 10:42:39.904            31.548              Murmansk1          1240.500
       321   08 Jun 2027 10:42:40.803   08 Jun 2027 10:43:00.970            20.167                 Moscow           449.500
       322   08 Jun 2027 10:43:15.418   08 Jun 2027 10:44:42.977            87.559                 Moscow          7224.000
       323   09 Jun 2027 04:25:10.194   09 Jun 2027 04:25:43.784            33.590               Magadan1            31.000
       324   09 Jun 2027 04:25:58.930   09 Jun 2027 04:27:36.312            97.382               Magadan1          7573.000
       325   09 Jun 2027 04:27:38.434   09 Jun 2027 04:28:17.933            39.499               Magadan2          1061.000
       326   09 Jun 2027 04:28:30.644   09 Jun 2027 04:29:36.667            66.023                Norilsk          6355.500
       327   09 Jun 2027 04:29:41.757   09 Jun 2027 04:30:58.902            77.145                Novosib          2545.000
       328   09 Jun 2027 04:30:59.010   09 Jun 2027 04:31:35.345            36.335                Anadyr1            54.000
       329   09 Jun 2027 04:31:38.050   09 Jun 2027 04:31:53.633            15.583               Magadan2          1352.500
       330   09 Jun 2027 04:31:55.470   09 Jun 2027 04:32:35.110            39.640              Murmansk1           918.500
       331   09 Jun 2027 04:32:49.286   09 Jun 2027 04:33:56.613            67.327                Novosib          7088.000
       332   09 Jun 2027 06:02:15.997   09 Jun 2027 06:02:31.832            15.835                Norilsk           639.000
       333   09 Jun 2027 06:02:39.512   09 Jun 2027 06:03:21.047            41.535                Norilsk          3840.000
       334   09 Jun 2027 06:03:42.422   09 Jun 2027 06:05:30.306           107.884                Irkutsk         10687.500
       335   09 Jun 2027 06:05:33.246   09 Jun 2027 06:05:41.396             8.150                Norilsk          1018.750
       336   09 Jun 2027 06:05:55.020   09 Jun 2027 06:07:00.949            65.929                Irkutsk          7263.250
       337   09 Jun 2027 06:07:01.496   09 Jun 2027 06:08:18.259            76.763                Novosib           273.500
       338   09 Jun 2027 06:08:22.204   09 Jun 2027 06:08:47.460            25.256              Murmansk1          1972.500
       339   09 Jun 2027 06:08:48.742   09 Jun 2027 06:09:21.208            32.466              Murmansk1           641.000
       340   09 Jun 2027 07:39:34.020   09 Jun 2027 07:41:23.614           109.594                Norilsk         11703.500
       341   09 Jun 2027 07:41:27.875   09 Jun 2027 07:41:35.747             7.872              Murmansk1           984.000
       342   09 Jun 2027 07:41:35.747   09 Jun 2027 07:41:50.819            15.072              Murmansk2          1146.500
       343   09 Jun 2027 07:41:50.881   09 Jun 2027 07:42:19.894            29.013                Norilsk            31.000
       344   09 Jun 2027 07:42:24.212   09 Jun 2027 07:42:49.782            25.570                 Moscow          2159.000
       345   09 Jun 2027 07:42:53.670   09 Jun 2027 07:43:11.739            18.069                Norilsk          1944.000
       346   09 Jun 2027 07:43:13.177   09 Jun 2027 07:43:27.933            14.756                Novosib           719.000
       347   09 Jun 2027 07:43:28.021   09 Jun 2027 07:44:16.266            48.245                Norilsk            44.000
       348   09 Jun 2027 09:16:03.331   09 Jun 2027 09:16:48.397            45.066                Novosib          3087.500
       349   09 Jun 2027 09:17:00.174   09 Jun 2027 09:18:31.447            91.273                Norilsk          5888.500
       350   09 Jun 2027 09:18:39.229   09 Jun 2027 09:19:13.470            34.241                Norilsk          3891.000
       351   09 Jun 2027 09:19:14.645   09 Jun 2027 09:19:35.178            20.533              Murmansk2           587.500
       352   09 Jun 2027 09:19:39.558   09 Jun 2027 09:20:06.342            26.784                Norilsk          2190.000
       353   09 Jun 2027 09:20:06.795   09 Jun 2027 09:20:39.735            32.940                Novosib           226.500
       354   09 Jun 2027 10:54:24.796   09 Jun 2027 10:55:48.868            84.072                 Moscow          7692.500
       355   10 Jun 2027 03:03:18.128   10 Jun 2027 03:03:36.744            18.616               Magadan2           751.500
       356   10 Jun 2027 03:03:37.051   10 Jun 2027 03:03:47.900            10.849               Magadan1           153.500
       357   10 Jun 2027 03:03:50.950   10 Jun 2027 03:04:10.057            19.107                Anadyr1          1525.000
       358   10 Jun 2027 03:04:12.519   10 Jun 2027 03:04:43.537            31.018                Anadyr2          1231.000
       359   10 Jun 2027 03:04:45.590   10 Jun 2027 03:05:19.961            34.371                Anadyr1          1026.500
       360   10 Jun 2027 03:05:27.392   10 Jun 2027 03:06:01.300            33.908                Norilsk          3715.500
       361   10 Jun 2027 03:06:09.356   10 Jun 2027 03:06:52.907            43.551               Magadan2          4028.000
       362   10 Jun 2027 04:38:35.877   10 Jun 2027 04:39:18.785            42.908                Norilsk          5363.500
       363   10 Jun 2027 04:39:26.118   10 Jun 2027 04:40:36.901            70.783               Magadan1          5427.501
       364   10 Jun 2027 04:40:39.081   10 Jun 2027 04:40:53.263            14.182               Magadan2          1090.000
       365   10 Jun 2027 04:40:56.701   10 Jun 2027 04:41:20.416            23.715                Novosib          1719.000
       366   10 Jun 2027 04:41:24.795   10 Jun 2027 04:41:31.927             7.132                Novosib           891.500
       367   10 Jun 2027 04:41:32.416   10 Jun 2027 04:41:49.524            17.108               Magadan1          1542.500
       368   10 Jun 2027 04:41:51.537   10 Jun 2027 04:42:09.911            18.374               Magadan1          1006.500
       369   10 Jun 2027 04:42:14.922   10 Jun 2027 04:43:08.113            53.191                Novosib          2505.500
       370   10 Jun 2027 04:43:19.071   10 Jun 2027 04:44:06.706            47.635               Magadan1          5479.000
       371   10 Jun 2027 04:44:08.256   10 Jun 2027 04:44:22.095            13.839               Magadan2           775.000
       372   10 Jun 2027 04:44:24.091   10 Jun 2027 04:44:59.717            35.626               Magadan2           998.000
       373   10 Jun 2027 04:45:02.284   10 Jun 2027 04:45:24.074            21.790              Murmansk2          1283.500
       374   10 Jun 2027 06:14:43.929   10 Jun 2027 06:14:53.733             9.804                Norilsk           152.000
       375   10 Jun 2027 06:15:17.118   10 Jun 2027 06:16:35.639            78.521                Norilsk          9815.125
       376   10 Jun 2027 06:16:37.154   10 Jun 2027 06:17:37.774            60.620                Irkutsk          2634.875
       377   10 Jun 2027 06:17:50.793   10 Jun 2027 06:18:40.764            49.971                Norilsk          6246.375
       378   10 Jun 2027 06:18:51.252   10 Jun 2027 06:19:47.085            55.833              Murmansk2          5507.125
       379   10 Jun 2027 06:19:53.309   10 Jun 2027 06:21:13.269            79.960                Irkutsk          3112.000
       380   10 Jun 2027 07:52:14.191   10 Jun 2027 07:52:51.754            37.563              Murmansk1           209.000
       381   10 Jun 2027 07:53:04.624   10 Jun 2027 07:54:37.414            92.790                Irkutsk          6435.000
       382   10 Jun 2027 07:54:37.529   10 Jun 2027 07:54:45.537             8.008                Norilsk            57.500
       383   10 Jun 2027 07:54:55.436   10 Jun 2027 07:55:52.312            56.876              Murmansk1          4949.500
       384   10 Jun 2027 07:56:04.982   10 Jun 2027 07:57:21.472            76.490                Novosib          6335.000
       385   10 Jun 2027 09:28:20.722   10 Jun 2027 09:28:30.868            10.146                Norilsk          1119.500
       386   10 Jun 2027 09:28:32.828   10 Jun 2027 09:29:01.136            28.308                Norilsk           980.000
       387   10 Jun 2027 09:29:06.508   10 Jun 2027 09:29:47.361            40.853              Murmansk2          2686.000
       388   10 Jun 2027 09:29:48.687   10 Jun 2027 09:30:36.064            47.377                Novosib           663.000
       389   10 Jun 2027 09:30:39.184   10 Jun 2027 09:31:09.363            30.179                Norilsk          1560.000
       390   10 Jun 2027 09:31:13.483   10 Jun 2027 09:31:31.849            18.366              Murmansk2          2060.000
       391   10 Jun 2027 09:31:34.351   10 Jun 2027 09:31:53.834            19.483                Norilsk          1251.000
       392   10 Jun 2027 09:32:06.153   10 Jun 2027 09:33:00.813            54.660                Norilsk          6159.500
       393   11 Jun 2027 03:15:26.229   11 Jun 2027 03:16:12.081            45.852               Magadan1          2555.000
       394   11 Jun 2027 03:16:21.497   11 Jun 2027 03:17:07.789            46.292                Norilsk          4708.000
       395   11 Jun 2027 03:17:08.668   11 Jun 2027 03:17:12.520             3.852               Magadan1           439.500
       396   11 Jun 2027 03:17:16.547   11 Jun 2027 03:17:22.324             5.777                Norilsk           722.125
       397   11 Jun 2027 03:17:33.549   11 Jun 2027 03:18:30.984            57.435               Magadan1          6903.875
       398   11 Jun 2027 03:18:33.298   11 Jun 2027 03:18:54.578            21.280                Anadyr2          1157.000
       399   11 Jun 2027 04:50:32.172   11 Jun 2027 04:50:57.648            25.476               Magadan1           273.000
       400   11 Jun 2027 04:51:00.542   11 Jun 2027 04:51:45.937            45.395               Magadan2          1447.000
       401   11 Jun 2027 04:51:51.061   11 Jun 2027 04:52:14.081            23.020               Magadan2          2562.000
       402   11 Jun 2027 04:52:19.349   11 Jun 2027 04:53:36.844            77.495                Irkutsk          2634.000
       403   11 Jun 2027 04:53:38.489   11 Jun 2027 04:53:51.639            13.150               Magadan1           822.500
       404   11 Jun 2027 04:53:58.782   11 Jun 2027 04:54:28.002            29.220                Norilsk          3571.500
       405   11 Jun 2027 04:54:43.364   11 Jun 2027 04:55:05.157            21.793                Irkutsk          2724.125
       406   11 Jun 2027 04:55:07.653   11 Jun 2027 04:55:58.292            50.639               Magadan1          6204.875
       407   11 Jun 2027 04:56:10.761   11 Jun 2027 04:57:08.597            57.836                Irkutsk          6234.500
       408   11 Jun 2027 06:27:13.786   11 Jun 2027 06:28:14.282            60.496                Norilsk          7562.000
       409   11 Jun 2027 06:28:19.681   11 Jun 2027 06:29:44.051            84.370                Novosib          9053.000
       410   11 Jun 2027 06:29:44.253   11 Jun 2027 06:29:50.087             5.834                Irkutsk           101.000
       411   11 Jun 2027 06:29:55.768   11 Jun 2027 06:30:49.101            53.333              Murmansk1          2840.500
       412   11 Jun 2027 06:30:49.544   11 Jun 2027 06:31:10.911            21.367                Novosib           221.500
       413   11 Jun 2027 06:31:14.406   11 Jun 2027 06:31:49.693            35.287                Novosib          1747.500
       414   11 Jun 2027 06:31:54.360   11 Jun 2027 06:32:02.191             7.831                Irkutsk           978.875
       415   11 Jun 2027 06:32:04.773   11 Jun 2027 06:32:34.244            29.471                Norilsk          2645.625
       416   11 Jun 2027 06:32:44.242   11 Jun 2027 06:32:57.816            13.574              Murmansk1          1051.000
       417   11 Jun 2027 08:04:20.831   11 Jun 2027 08:04:33.892            13.061                Irkutsk           739.000
       418   11 Jun 2027 08:04:38.223   11 Jun 2027 08:04:59.660            21.437                Novosib          2165.500
       419   11 Jun 2027 08:05:16.724   11 Jun 2027 08:06:46.417            89.693                Norilsk          8532.000
       420   11 Jun 2027 08:06:46.917   11 Jun 2027 08:07:04.530            17.613                Norilsk           250.000
       421   11 Jun 2027 08:07:18.196   11 Jun 2027 08:07:50.883            32.687                Irkutsk          4085.875
       422   11 Jun 2027 08:07:59.381   11 Jun 2027 08:09:01.426            62.045              Murmansk2          6996.125
       423   11 Jun 2027 09:40:21.829   11 Jun 2027 09:40:41.156            19.327                Novosib           582.500
       424   11 Jun 2027 09:40:51.581   11 Jun 2027 09:42:12.993            81.412                Norilsk          5212.500
       425   11 Jun 2027 09:42:13.704   11 Jun 2027 09:42:38.225            24.521              Murmansk2           355.500
       426   11 Jun 2027 09:42:39.479   11 Jun 2027 09:43:06.424            26.945                Norilsk           627.000
       427   11 Jun 2027 09:43:12.731   11 Jun 2027 09:44:00.542            47.811              Murmansk2          3153.500
       428   11 Jun 2027 09:44:10.768   11 Jun 2027 09:44:53.934            43.166                Novosib          5113.000
       429   11 Jun 2027 09:44:59.876   11 Jun 2027 09:45:10.890            11.014                Novosib          1376.750
       430   11 Jun 2027 09:45:16.687   11 Jun 2027 09:46:03.937            47.250                 Moscow          4492.750
       431   12 Jun 2027 03:27:11.549   12 Jun 2027 03:27:42.053            30.504               Magadan1          3337.500
       432   12 Jun 2027 03:27:42.608   12 Jun 2027 03:27:50.671             8.063                Anadyr2           277.500
       433   12 Jun 2027 03:27:58.957   12 Jun 2027 03:28:05.691             6.734                Irkutsk           841.750
       434   12 Jun 2027 03:28:06.154   12 Jun 2027 03:28:40.456            34.302               Magadan1          3532.750
       435   12 Jun 2027 03:28:40.677   12 Jun 2027 03:28:46.627             5.950                Anadyr2           110.500
       436   12 Jun 2027 03:28:48.154   12 Jun 2027 03:29:43.346            55.192                Irkutsk           763.500
       437   12 Jun 2027 03:29:56.990   12 Jun 2027 03:30:32.774            35.784               Magadan2          4473.000
       438   12 Jun 2027 03:30:34.024   12 Jun 2027 03:32:07.204            93.180                Anadyr1          2974.000
       439   12 Jun 2027 05:01:59.318   12 Jun 2027 05:02:23.671            24.353                Norilsk          1743.500
       440   12 Jun 2027 05:02:24.305   12 Jun 2027 05:02:48.082            23.777                Novosib           317.000
       441   12 Jun 2027 05:03:01.978   12 Jun 2027 05:03:39.661            37.683                Norilsk          4710.375
       442   12 Jun 2027 05:03:45.246   12 Jun 2027 05:04:27.712            42.466               Magadan2          5030.125
       443   12 Jun 2027 05:04:33.472   12 Jun 2027 05:05:41.859            68.387                Irkutsk          2880.000
       444   12 Jun 2027 05:05:48.412   12 Jun 2027 05:05:55.756             7.344                Norilsk           918.000
       445   12 Jun 2027 05:05:59.517   12 Jun 2027 05:06:02.800             3.283                Norilsk           410.375
       446   12 Jun 2027 05:06:07.247   12 Jun 2027 05:07:22.675            75.428                Irkutsk          6052.125
       447   12 Jun 2027 05:07:30.430   12 Jun 2027 05:08:14.130            43.700              Murmansk1          3877.500
       448   12 Jun 2027 05:08:25.596   12 Jun 2027 05:08:41.869            16.273               Magadan1          2034.125
       449   12 Jun 2027 05:08:47.538   12 Jun 2027 05:09:43.362            55.824              Murmansk1          6533.375
       450   12 Jun 2027 06:38:40.174   12 Jun 2027 06:39:23.117            42.943                Irkutsk          4263.500
       451   12 Jun 2027 06:39:37.431   12 Jun 2027 06:40:35.236            57.805                Norilsk          7157.000
       452   12 Jun 2027 06:40:38.457   12 Jun 2027 06:40:49.058            10.601                Norilsk          1325.125
       453   12 Jun 2027 06:40:52.393   12 Jun 2027 06:41:49.855            57.462                Irkutsk          1952.875
       454   12 Jun 2027 06:42:00.080   12 Jun 2027 06:42:45.632            45.552              Murmansk1          5112.500
       455   12 Jun 2027 06:42:52.049   12 Jun 2027 06:43:17.930            25.881                Norilsk          3208.500
       456   12 Jun 2027 06:43:25.222   12 Jun 2027 06:43:56.935            31.713                Norilsk          3646.000
       457   12 Jun 2027 06:44:01.331   12 Jun 2027 06:44:29.908            28.577                Norilsk          2198.000
       458   12 Jun 2027 06:44:38.598   12 Jun 2027 06:45:10.989            32.391                Irkutsk          4048.875
       459   12 Jun 2027 06:45:26.165   12 Jun 2027 06:46:13.603            47.438              Murmansk2           296.125
       460   12 Jun 2027 08:17:02.861   12 Jun 2027 08:18:27.237            84.376                Irkutsk          6777.000
       461   12 Jun 2027 08:18:27.829   12 Jun 2027 08:18:49.555            21.726              Murmansk1           296.000
       462   12 Jun 2027 08:18:58.017   12 Jun 2027 08:19:31.988            33.971                Norilsk          4231.000
       463   12 Jun 2027 08:19:42.704   12 Jun 2027 08:20:11.530            28.826              Murmansk1          3603.250
       464   12 Jun 2027 08:20:15.686   12 Jun 2027 08:20:28.065            12.379                 Moscow          1547.375
       465   12 Jun 2027 08:20:28.684   12 Jun 2027 08:20:36.214             7.530              Murmansk1           941.250
       466   12 Jun 2027 08:20:36.214   12 Jun 2027 08:21:10.913            34.699              Murmansk2          1653.625
       467   12 Jun 2027 09:50:11.575   12 Jun 2027 09:50:43.721            32.146                 Moscow           835.000
       468   12 Jun 2027 09:52:09.317   12 Jun 2027 09:52:15.443             6.126                 Moscow            75.500
       469   12 Jun 2027 09:52:18.798   12 Jun 2027 09:52:57.465            38.667              Murmansk1          1677.500
       470   12 Jun 2027 09:52:59.380   12 Jun 2027 09:53:30.240            30.860                Novosib           957.500
       471   12 Jun 2027 09:53:32.444   12 Jun 2027 09:54:03.010            30.566                Novosib          1102.000
       472   12 Jun 2027 09:54:04.872   12 Jun 2027 09:54:40.084            35.212                Norilsk           931.000
       473   12 Jun 2027 09:54:41.346   12 Jun 2027 09:55:04.504            23.158              Murmansk1           631.000
       474   12 Jun 2027 09:55:04.719   12 Jun 2027 09:55:25.911            21.192                Norilsk           107.500
       475   12 Jun 2027 09:55:28.325   12 Jun 2027 09:56:14.375            46.050              Murmansk1          1207.000
       476   12 Jun 2027 09:56:16.146   12 Jun 2027 09:56:44.745            28.599              Murmansk1           885.500
       477   12 Jun 2027 09:56:47.142   12 Jun 2027 09:57:14.840            27.698                Norilsk          1198.500
       478   12 Jun 2027 09:57:17.271   12 Jun 2027 09:57:39.140            21.869              Murmansk1          1215.500
       479   12 Jun 2027 09:57:44.951   12 Jun 2027 09:58:11.102            26.151                Norilsk            75.500
       480   13 Jun 2027 03:37:33.552   13 Jun 2027 03:38:56.637            83.085                Irkutsk          8152.000
       481   13 Jun 2027 03:39:00.251   13 Jun 2027 03:39:15.463            15.212                Anadyr2          1807.000
       482   13 Jun 2027 03:39:15.695   13 Jun 2027 03:39:44.859            29.164               Magadan1           116.000
