uniorb/output/strategy_2/Drop/Drop_KinoSat_111410.txt

KinoSat_111410
-------------------------
    Access    *     Start Time (UTCG)     *     Stop Time (UTCG)  *   Duration (s)        *       Station  *  Data (Mbytes)
         1   01 Jun 2027 04:14:27.528   01 Jun 2027 04:14:58.743            31.215                Norilsk           975.469
         2   01 Jun 2027 04:15:35.489   01 Jun 2027 04:15:52.372            16.883              Murmansk1           527.594
         3   01 Jun 2027 04:15:52.372   01 Jun 2027 04:18:31.298           158.926              Murmansk2          4966.438
         4   01 Jun 2027 05:37:05.967   01 Jun 2027 05:37:17.567            11.600               Magadan1           362.500
         5   01 Jun 2027 05:37:49.003   01 Jun 2027 05:41:32.224           223.221                Anadyr1          6975.656
         6   01 Jun 2027 05:41:32.224   01 Jun 2027 05:42:45.793            73.569                Anadyr2          2299.031
         7   01 Jun 2027 07:14:38.287   01 Jun 2027 07:14:55.344            17.057               Magadan1           533.031
         8   01 Jun 2027 07:15:02.059   01 Jun 2027 07:16:03.334            61.275                Anadyr2          1914.844
         9   01 Jun 2027 07:16:16.153   01 Jun 2027 07:17:21.302            65.149               Magadan2          2035.906
        10   01 Jun 2027 07:17:41.779   01 Jun 2027 07:18:23.260            41.481               Magadan2          1296.281
        11   01 Jun 2027 08:48:06.243   01 Jun 2027 08:49:09.603            63.360                Irkutsk          1980.000
        12   01 Jun 2027 08:49:11.204   01 Jun 2027 08:49:17.546             6.342                Novosib           198.188
        13   01 Jun 2027 08:49:21.418   01 Jun 2027 08:50:57.544            96.126                Anadyr1          3003.937
        14   01 Jun 2027 08:51:14.257   01 Jun 2027 08:51:18.801             4.544               Magadan2           142.000
        15   01 Jun 2027 08:51:39.188   01 Jun 2027 08:52:32.787            53.599                Anadyr2          1674.969
        16   01 Jun 2027 08:52:38.575   01 Jun 2027 08:53:54.050            75.475               Magadan1          2358.594
        17   01 Jun 2027 08:53:58.342   01 Jun 2027 08:54:26.429            28.087                Norilsk           877.719
        18   01 Jun 2027 10:26:01.202   01 Jun 2027 10:26:19.789            18.587                Irkutsk           580.844
        19   01 Jun 2027 10:26:23.306   01 Jun 2027 10:29:02.162           158.856                Novosib          4964.250
        20   01 Jun 2027 10:29:10.714   01 Jun 2027 10:29:17.389             6.675                Novosib           208.594
        21   01 Jun 2027 10:29:24.192   01 Jun 2027 10:31:22.600           118.408              Murmansk1          3700.250
        22   01 Jun 2027 10:31:41.511   01 Jun 2027 10:33:27.426           105.915                Norilsk          3309.844
        23   01 Jun 2027 10:35:34.905   01 Jun 2027 10:36:15.230            40.325              Murmansk1          1260.156
        24   01 Jun 2027 10:36:50.304   01 Jun 2027 10:37:45.640            55.336              Murmansk2          1729.250
        25   01 Jun 2027 11:05:34.421   01 Jun 2027 11:05:41.750             7.329            RioGallegos           229.031
        26   01 Jun 2027 11:07:22.917   01 Jun 2027 11:07:42.216            19.299            RioGallegos           603.094
        27   01 Jun 2027 11:08:05.027   01 Jun 2027 11:08:58.768            53.741            RioGallegos          1679.406
        28   01 Jun 2027 11:14:08.260   01 Jun 2027 11:15:00.963            52.703            RioGallegos          1646.969
        29   01 Jun 2027 11:39:53.408   01 Jun 2027 11:40:13.212            19.804                Sumatra           618.875
        30   01 Jun 2027 11:41:47.801   01 Jun 2027 11:44:02.923           135.122                Sumatra          4222.563
        31   01 Jun 2027 11:59:49.358   01 Jun 2027 12:00:27.229            37.871                  Delhi          1183.469
        32   01 Jun 2027 12:06:10.023   01 Jun 2027 12:06:27.252            17.229                Novosib           538.406
        33   01 Jun 2027 13:34:38.679   01 Jun 2027 13:35:45.855            67.176                  Delhi          2099.250
        34   01 Jun 2027 13:39:21.476   01 Jun 2027 13:41:46.108           144.632                Novosib          4519.750
        35   01 Jun 2027 13:48:22.358   01 Jun 2027 13:48:39.660            17.302              Murmansk1           540.688
        36   01 Jun 2027 15:18:45.314   01 Jun 2027 15:21:03.735           138.421                 Moscow          4325.656
        37   01 Jun 2027 15:21:03.974   01 Jun 2027 15:22:12.022            68.048                Norilsk          2126.500
        38   01 Jun 2027 15:22:35.140   01 Jun 2027 15:24:36.494           121.354              Murmansk2          3792.313
        39   01 Jun 2027 16:31:29.405   01 Jun 2027 16:34:12.861           163.456               CapeTown          5108.000
        40   01 Jun 2027 16:53:21.394   01 Jun 2027 16:53:59.628            38.234                 Moscow          1194.812
        41   01 Jun 2027 16:56:49.527   01 Jun 2027 16:58:22.674            93.147              Murmansk1          2910.844
        42   01 Jun 2027 16:58:53.720   01 Jun 2027 17:00:16.803            83.083              Murmansk2          2596.344
        43   01 Jun 2027 17:00:16.803   01 Jun 2027 17:00:33.044            16.241              Murmansk1           507.531
        44   01 Jun 2027 17:12:00.647   01 Jun 2027 17:13:02.540            61.893                Anadyr2          1934.156
        45   01 Jun 2027 17:13:02.540   01 Jun 2027 17:13:25.803            23.263                Anadyr1           726.969
        46   01 Jun 2027 18:30:54.941   01 Jun 2027 18:35:44.709           289.768              Murmansk2          9055.250
        47   01 Jun 2027 18:48:56.858   01 Jun 2027 18:49:29.771            32.913               Magadan2          1028.531
        48   01 Jun 2027 18:50:26.692   01 Jun 2027 18:50:41.888            15.196                Anadyr2           474.875
        49   01 Jun 2027 18:50:59.989   01 Jun 2027 18:51:08.641             8.652               Magadan1           270.375
        50   01 Jun 2027 20:14:10.672   01 Jun 2027 20:14:17.589             6.917                Anadyr2           216.156
        51   01 Jun 2027 20:14:22.353   01 Jun 2027 20:14:27.303             4.950                Anadyr2           154.688
        52   01 Jun 2027 20:14:35.674   01 Jun 2027 20:14:45.136             9.462                Anadyr2           295.688
        53   01 Jun 2027 20:15:35.941   01 Jun 2027 20:16:38.871            62.930                Anadyr2          1966.562
        54   01 Jun 2027 20:16:38.871   01 Jun 2027 20:17:04.028            25.157                Anadyr1           786.156
        55   01 Jun 2027 20:17:12.977   01 Jun 2027 20:17:41.372            28.395               Magadan1           887.344
        56   01 Jun 2027 20:18:07.628   01 Jun 2027 20:18:34.016            26.388               Magadan2           824.625
        57   01 Jun 2027 20:18:54.260   01 Jun 2027 20:19:13.651            19.391               Magadan2           605.969
        58   01 Jun 2027 20:19:26.059   01 Jun 2027 20:19:46.618            20.559               Magadan2           642.469
        59   01 Jun 2027 20:20:08.783   01 Jun 2027 20:20:11.452             2.669                Anadyr2            83.406
        60   01 Jun 2027 20:20:11.889   01 Jun 2027 20:20:45.778            33.889               Magadan1          1059.031
        61   01 Jun 2027 20:21:05.246   01 Jun 2027 20:21:15.161             9.915               Magadan1           309.844
        62   01 Jun 2027 20:21:23.664   01 Jun 2027 20:22:06.377            42.713                Anadyr2          1334.781
        63   01 Jun 2027 20:22:47.243   01 Jun 2027 20:23:25.219            37.976               Magadan1          1186.750
        64   01 Jun 2027 20:23:41.152   01 Jun 2027 20:23:59.731            18.579                Anadyr1           580.594
        65   01 Jun 2027 20:24:34.468   01 Jun 2027 20:25:02.984            28.516               Magadan1           891.125
        66   01 Jun 2027 20:25:15.305   01 Jun 2027 20:25:42.397            27.092               Magadan1           846.625
        67   01 Jun 2027 20:25:58.441   01 Jun 2027 20:26:18.777            20.336                Anadyr2           635.500
        68   01 Jun 2027 20:27:09.105   01 Jun 2027 20:27:52.611            43.506               Magadan2          1359.563
        69   01 Jun 2027 20:28:23.672   01 Jun 2027 20:28:35.130            11.458               Magadan2           358.063
        70   01 Jun 2027 21:13:40.276   01 Jun 2027 21:14:53.868            73.592            RioGallegos          2299.750
        71   01 Jun 2027 21:15:49.064   01 Jun 2027 21:16:17.290            28.226            RioGallegos           882.062
        72   01 Jun 2027 21:16:33.588   01 Jun 2027 21:16:53.349            19.761            RioGallegos           617.531
        73   01 Jun 2027 21:51:55.766   01 Jun 2027 21:52:10.572            14.806                Anadyr1           462.687
        74   01 Jun 2027 21:52:43.044   01 Jun 2027 21:53:03.363            20.319               Magadan2           634.969
        75   01 Jun 2027 21:53:32.883   01 Jun 2027 21:53:36.126             3.243                Anadyr2           101.344
        76   01 Jun 2027 21:53:42.742   01 Jun 2027 21:54:01.582            18.840               Magadan1           588.750
        77   01 Jun 2027 21:54:14.586   01 Jun 2027 21:54:18.946             4.360                Anadyr2           136.250
        78   01 Jun 2027 21:54:21.434   01 Jun 2027 21:54:55.818            34.384                Norilsk          1074.500
        79   01 Jun 2027 21:55:29.982   01 Jun 2027 21:55:41.690            11.708                Norilsk           365.875
        80   01 Jun 2027 21:55:57.692   01 Jun 2027 21:56:14.307            16.615                Norilsk           519.219
        81   01 Jun 2027 21:56:38.791   01 Jun 2027 21:56:48.012             9.221                Irkutsk           288.156
        82   01 Jun 2027 21:57:06.645   01 Jun 2027 21:57:21.092            14.447                Anadyr2           451.469
        83   01 Jun 2027 21:57:26.954   01 Jun 2027 21:57:39.092            12.138                Anadyr2           379.312
        84   01 Jun 2027 21:57:59.671   01 Jun 2027 21:58:19.944            20.273                Norilsk           633.531
        85   01 Jun 2027 21:58:54.136   01 Jun 2027 21:59:24.882            30.746                Norilsk           960.812
        86   01 Jun 2027 22:00:05.365   01 Jun 2027 22:00:19.164            13.799               Magadan2           431.219
        87   01 Jun 2027 22:00:38.014   01 Jun 2027 22:00:41.811             3.797               Magadan2           118.656
        88   01 Jun 2027 22:00:49.159   01 Jun 2027 22:01:13.506            24.347               Magadan1           760.844
        89   01 Jun 2027 22:01:43.593   01 Jun 2027 22:02:02.609            19.016               Magadan2           594.250
        90   01 Jun 2027 22:02:51.738   01 Jun 2027 22:03:38.012            46.274               Magadan2          1446.063
        91   01 Jun 2027 22:05:35.902   01 Jun 2027 22:06:03.989            28.087                Irkutsk           877.719
        92   01 Jun 2027 22:06:17.995   01 Jun 2027 22:06:52.012            34.017                Irkutsk          1063.031
        93   01 Jun 2027 22:17:14.057   01 Jun 2027 22:17:58.129            44.072                Sumatra          1377.250
        94   01 Jun 2027 22:19:44.721   01 Jun 2027 22:20:09.491            24.770                Sumatra           774.063
        95   01 Jun 2027 22:20:23.586   01 Jun 2027 22:21:18.474            54.888                Sumatra          1715.250
        96   01 Jun 2027 23:25:02.798   01 Jun 2027 23:25:56.090            53.292                Anadyr2          1665.375
        97   01 Jun 2027 23:27:28.164   01 Jun 2027 23:27:41.097            12.933                Anadyr1           404.156
        98   01 Jun 2027 23:27:55.197   01 Jun 2027 23:28:49.324            54.127                Norilsk          1691.469
        99   01 Jun 2027 23:28:53.504   01 Jun 2027 23:29:43.327            49.823                Norilsk          1556.969
       100   01 Jun 2027 23:31:27.600   01 Jun 2027 23:31:42.196            14.596                Norilsk           456.125
       101   01 Jun 2027 23:32:14.545   01 Jun 2027 23:32:26.965            12.420                Novosib           388.125
       102   01 Jun 2027 23:32:57.369   01 Jun 2027 23:33:37.285            39.916                Irkutsk          1247.375
       103   01 Jun 2027 23:35:05.270   01 Jun 2027 23:35:34.150            28.880                Irkutsk           902.500
       104   01 Jun 2027 23:36:40.170   01 Jun 2027 23:37:32.510            52.340               Magadan1          1635.625
       105   01 Jun 2027 23:39:44.654   01 Jun 2027 23:40:10.429            25.775                Novosib           805.469
       106   01 Jun 2027 23:40:46.260   01 Jun 2027 23:41:44.729            58.469                Novosib          1827.156
       107   01 Jun 2027 23:47:51.404   01 Jun 2027 23:49:22.477            91.073                  Delhi          2846.031
       108   01 Jun 2027 23:57:18.624   01 Jun 2027 23:57:35.601            16.977                Sumatra           530.531
       109   02 Jun 2027 00:27:52.535   02 Jun 2027 00:28:09.513            16.978            RioGallegos           530.563
       110   02 Jun 2027 00:31:02.197   02 Jun 2027 00:31:15.956            13.759            RioGallegos           429.969
       111   02 Jun 2027 00:31:32.508   02 Jun 2027 00:31:38.252             5.744            RioGallegos           179.500
       112   02 Jun 2027 00:58:56.665   02 Jun 2027 00:59:48.391            51.726                Anadyr1          1616.437
       113   02 Jun 2027 01:00:28.388   02 Jun 2027 01:01:15.583            47.195                Anadyr1          1474.844
       114   02 Jun 2027 01:03:55.771   02 Jun 2027 01:04:42.288            46.517                Norilsk          1453.656
       115   02 Jun 2027 01:05:12.473   02 Jun 2027 01:05:59.732            47.259                Norilsk          1476.844
       116   02 Jun 2027 01:06:18.032   02 Jun 2027 01:06:48.113            30.081               Magadan1           940.031
       117   02 Jun 2027 01:06:48.113   02 Jun 2027 01:08:22.171            94.058               Magadan2          2939.312
       118   02 Jun 2027 01:13:06.445   02 Jun 2027 01:13:15.354             8.909              Murmansk1           278.406
       119   02 Jun 2027 01:13:15.354   02 Jun 2027 01:13:23.863             8.509              Murmansk2           265.906
       120   02 Jun 2027 01:13:47.418   02 Jun 2027 01:13:51.133             3.715                Irkutsk           116.094
       121   02 Jun 2027 01:14:42.651   02 Jun 2027 01:15:09.172            26.521                Irkutsk           828.781
       122   02 Jun 2027 01:17:17.884   02 Jun 2027 01:17:33.474            15.590                Novosib           487.187
       123   02 Jun 2027 01:18:02.922   02 Jun 2027 01:18:10.705             7.783                Novosib           243.219
       124   02 Jun 2027 01:18:18.027   02 Jun 2027 01:19:03.053            45.026                Novosib          1407.062
       125   02 Jun 2027 01:23:30.736   02 Jun 2027 01:24:05.124            34.388                  Delhi          1074.625
       126   02 Jun 2027 01:26:10.903   02 Jun 2027 01:27:42.768            91.865                  Delhi          2870.781
       127   02 Jun 2027 01:59:51.113   02 Jun 2027 02:00:05.591            14.478            RioGallegos           452.437
       128   02 Jun 2027 02:00:54.524   02 Jun 2027 02:00:56.773             2.249            RioGallegos            70.281
       129   02 Jun 2027 02:00:58.001   02 Jun 2027 02:01:41.430            43.429            RioGallegos          1357.156
       130   02 Jun 2027 02:32:13.765   02 Jun 2027 02:32:20.768             7.003                Anadyr2           218.844
       131   02 Jun 2027 02:33:34.820   02 Jun 2027 02:34:10.902            36.082                Anadyr2          1127.563
       132   02 Jun 2027 02:35:53.977   02 Jun 2027 02:35:55.370             1.393                Anadyr2            43.531
       133   02 Jun 2027 02:37:09.857   02 Jun 2027 02:37:31.074            21.217                Anadyr1           663.031
       134   02 Jun 2027 02:38:02.361   02 Jun 2027 02:38:29.373            27.012               Magadan1           844.125
       135   02 Jun 2027 02:39:04.981   02 Jun 2027 02:39:57.986            53.005               Magadan1          1656.406
       136   02 Jun 2027 02:42:04.109   02 Jun 2027 02:42:12.877             8.768              Murmansk1           274.000
       137   02 Jun 2027 02:42:37.171   02 Jun 2027 02:43:13.972            36.801              Murmansk2          1150.031
       138   02 Jun 2027 02:45:25.696   02 Jun 2027 02:45:30.066             4.370                Novosib           136.563
       139   02 Jun 2027 02:45:59.051   02 Jun 2027 02:46:23.656            24.605                Novosib           768.906
       140   02 Jun 2027 02:47:06.335   02 Jun 2027 02:47:12.688             6.353                 Moscow           198.531
       141   02 Jun 2027 02:47:39.395   02 Jun 2027 02:48:47.609            68.214                Irkutsk          2131.688
       142   02 Jun 2027 02:53:04.426   02 Jun 2027 02:53:30.694            26.268                Novosib           820.875
       143   02 Jun 2027 02:54:34.776   02 Jun 2027 02:55:07.237            32.461                  Delhi          1014.406
       144   02 Jun 2027 03:16:20.706   02 Jun 2027 03:16:30.347             9.641               CapeTown           301.281
       145   02 Jun 2027 04:28:04.649   02 Jun 2027 04:29:25.467            80.818              Murmansk1          2525.562
       146   02 Jun 2027 05:48:56.116   02 Jun 2027 05:50:28.510            92.394                Anadyr1          2887.313
       147   02 Jun 2027 05:50:29.037   02 Jun 2027 05:51:53.865            84.828               Magadan1          2650.875
       148   02 Jun 2027 05:54:17.096   02 Jun 2027 05:54:47.085            29.989                Anadyr1           937.156
       149   02 Jun 2027 07:27:04.002   02 Jun 2027 07:27:40.859            36.857                Anadyr1          1151.781
       150   02 Jun 2027 07:29:16.691   02 Jun 2027 07:30:24.366            67.675               Magadan2          2114.844
       151   02 Jun 2027 09:01:36.792   02 Jun 2027 09:01:55.282            18.490                Irkutsk           577.813
       152   02 Jun 2027 09:02:16.750   02 Jun 2027 09:03:14.064            57.314                Irkutsk          1791.062
       153   02 Jun 2027 09:03:17.800   02 Jun 2027 09:05:53.587           155.787               Magadan2          4868.344
       154   02 Jun 2027 09:06:19.548   02 Jun 2027 09:07:41.619            82.071              Murmansk2          2564.719
       155   02 Jun 2027 09:40:50.950   02 Jun 2027 09:41:58.524            67.574            RioGallegos          2111.687
       156   02 Jun 2027 09:43:04.896   02 Jun 2027 09:43:17.750            12.854            RioGallegos           401.688
       157   02 Jun 2027 09:46:53.588   02 Jun 2027 09:47:19.037            25.449            RioGallegos           795.281
       158   02 Jun 2027 10:16:43.063   02 Jun 2027 10:17:39.973            56.910                Sumatra          1778.437
       159   02 Jun 2027 10:36:07.746   02 Jun 2027 10:36:18.704            10.958                Norilsk           342.437
       160   02 Jun 2027 10:36:27.103   02 Jun 2027 10:37:28.517            61.414                Norilsk          1919.188
       161   02 Jun 2027 10:37:29.117   02 Jun 2027 10:37:46.159            17.042                Irkutsk           532.563
       162   02 Jun 2027 10:37:54.214   02 Jun 2027 10:37:58.929             4.715                Norilsk           147.344
       163   02 Jun 2027 10:38:01.820   02 Jun 2027 10:38:22.454            20.634                Irkutsk           644.812
       164   02 Jun 2027 10:38:31.349   02 Jun 2027 10:38:59.918            28.569                Norilsk           892.781
       165   02 Jun 2027 10:39:01.782   02 Jun 2027 10:39:13.462            11.680              Murmansk1           365.000
       166   02 Jun 2027 10:39:18.889   02 Jun 2027 10:39:36.271            17.382                Norilsk           543.187
       167   02 Jun 2027 10:39:40.050   02 Jun 2027 10:40:12.943            32.893              Murmansk1          1027.906
       168   02 Jun 2027 10:40:16.020   02 Jun 2027 10:40:23.702             7.682              Murmansk2           240.062
       169   02 Jun 2027 10:40:30.087   02 Jun 2027 10:40:36.756             6.669                Norilsk           208.406
       170   02 Jun 2027 10:40:42.575   02 Jun 2027 10:41:14.454            31.879                Norilsk           996.219
       171   02 Jun 2027 10:41:20.048   02 Jun 2027 10:41:21.087             1.039                Novosib            32.469
       172   02 Jun 2027 10:41:21.160   02 Jun 2027 10:41:39.757            18.597              Murmansk2           581.156
       173   02 Jun 2027 10:41:43.549   02 Jun 2027 10:41:44.534             0.985                Norilsk            30.781
       174   02 Jun 2027 10:41:51.113   02 Jun 2027 10:42:06.320            15.207                Irkutsk           475.219
       175   02 Jun 2027 10:42:17.553   02 Jun 2027 10:42:40.682            23.129              Murmansk2           722.781
       176   02 Jun 2027 10:42:57.476   02 Jun 2027 10:43:26.720            29.244              Murmansk1           913.875
       177   02 Jun 2027 11:17:59.388   02 Jun 2027 11:18:21.274            21.886            RioGallegos           683.938
       178   02 Jun 2027 11:22:03.779   02 Jun 2027 11:22:51.475            47.696            RioGallegos          1490.500
       179   02 Jun 2027 11:52:13.517   02 Jun 2027 11:53:44.271            90.754                Sumatra          2836.063
       180   02 Jun 2027 12:06:47.930   02 Jun 2027 12:07:42.889            54.959                Novosib          1717.469
       181   02 Jun 2027 12:11:48.312   02 Jun 2027 12:12:30.419            42.107                Irkutsk          1315.844
       182   02 Jun 2027 12:15:15.290   02 Jun 2027 12:15:23.026             7.736              Murmansk1           241.750
       183   02 Jun 2027 12:15:41.619   02 Jun 2027 12:16:05.868            24.249              Murmansk2           757.781
       184   02 Jun 2027 12:19:04.389   02 Jun 2027 12:19:18.193            13.804              Murmansk1           431.375
       185   02 Jun 2027 12:20:14.732   02 Jun 2027 12:20:33.525            18.793              Murmansk1           587.281
       186   02 Jun 2027 13:37:11.902   02 Jun 2027 13:40:16.265           184.363                  Delhi          5761.344
       187   02 Jun 2027 13:40:29.108   02 Jun 2027 13:41:04.726            35.618                  Delhi          1113.062
       188   02 Jun 2027 13:45:37.914   02 Jun 2027 13:46:52.426            74.512                Novosib          2328.500
       189   02 Jun 2027 13:47:47.497   02 Jun 2027 13:48:39.908            52.411                Novosib          1637.844
       190   02 Jun 2027 13:49:13.725   02 Jun 2027 13:49:25.870            12.145                Norilsk           379.531
       191   02 Jun 2027 13:49:39.263   02 Jun 2027 13:50:46.091            66.828                Norilsk          2088.375
       192   02 Jun 2027 13:57:21.959   02 Jun 2027 13:59:00.009            98.050                Norilsk          3064.063
       193   02 Jun 2027 15:20:25.803   02 Jun 2027 15:22:20.930           115.127                 Moscow          3597.719
       194   02 Jun 2027 15:23:56.822   02 Jun 2027 15:25:01.039            64.217              Murmansk2          2006.781
       195   02 Jun 2027 15:25:21.292   02 Jun 2027 15:27:02.529           101.237              Murmansk1          3163.656
       196   02 Jun 2027 15:30:54.909   02 Jun 2027 15:31:19.533            24.624                Norilsk           769.500
       197   02 Jun 2027 15:33:01.685   02 Jun 2027 15:33:47.513            45.828                Norilsk          1432.125
       198   02 Jun 2027 15:39:48.496   02 Jun 2027 15:40:24.501            36.005                Anadyr1          1125.156
       199   02 Jun 2027 15:41:28.671   02 Jun 2027 15:42:36.075            67.404                Anadyr1          2106.375
       200   02 Jun 2027 16:59:46.875   02 Jun 2027 17:00:30.621            43.746                 Moscow          1367.063
       201   02 Jun 2027 17:00:57.820   02 Jun 2027 17:02:08.056            70.236                 Moscow          2194.875
       202   02 Jun 2027 17:02:58.820   02 Jun 2027 17:03:14.117            15.297              Murmansk1           478.031
       203   02 Jun 2027 17:05:06.454   02 Jun 2027 17:05:32.136            25.682              Murmansk1           802.562
       204   02 Jun 2027 17:06:40.721   02 Jun 2027 17:07:06.618            25.897              Murmansk1           809.281
       205   02 Jun 2027 17:14:28.144   02 Jun 2027 17:15:54.781            86.637                Anadyr2          2707.406
       206   02 Jun 2027 17:15:54.781   02 Jun 2027 17:16:08.113            13.332                Anadyr1           416.625
       207   02 Jun 2027 17:19:17.781   02 Jun 2027 17:19:33.275            15.494                Anadyr1           484.188
       208   02 Jun 2027 17:19:45.758   02 Jun 2027 17:20:24.042            38.284                Anadyr1          1196.375
       209   02 Jun 2027 18:11:12.584   02 Jun 2027 18:11:35.843            23.259               CapeTown           726.844
       210   02 Jun 2027 18:15:07.951   02 Jun 2027 18:15:50.816            42.865               CapeTown          1339.531
       211   02 Jun 2027 18:42:47.138   02 Jun 2027 18:47:19.113           271.975              Murmansk1          8499.219
       212   02 Jun 2027 18:50:16.079   02 Jun 2027 18:50:29.149            13.070                Anadyr1           408.437
       213   02 Jun 2027 18:52:57.747   02 Jun 2027 18:53:37.642            39.895               Magadan1          1246.719
       214   02 Jun 2027 18:54:50.867   02 Jun 2027 18:55:12.192            21.325               Magadan1           666.406
       215   02 Jun 2027 18:57:16.149   02 Jun 2027 18:57:27.241            11.092               Magadan1           346.625
       216   02 Jun 2027 18:58:39.086   02 Jun 2027 18:58:56.887            17.801               Magadan1           556.281
       217   02 Jun 2027 20:26:11.919   02 Jun 2027 20:29:55.782           223.863                Anadyr1          6995.719
       218   02 Jun 2027 20:30:12.560   02 Jun 2027 20:31:36.133            83.573                Anadyr2          2611.656
       219   02 Jun 2027 20:31:44.610   02 Jun 2027 20:33:15.037            90.427               Magadan2          2825.844
       220   02 Jun 2027 20:33:49.450   02 Jun 2027 20:34:16.183            26.733               Magadan1           835.406
       221   02 Jun 2027 20:36:27.013   02 Jun 2027 20:37:05.184            38.171               Magadan2          1192.844
       222   02 Jun 2027 21:21:05.355   02 Jun 2027 21:23:18.782           133.427            RioGallegos          4169.594
       223   02 Jun 2027 21:24:47.972   02 Jun 2027 21:25:25.524            37.552            RioGallegos          1173.500
       224   02 Jun 2027 21:26:10.623   02 Jun 2027 21:26:57.980            47.357            RioGallegos          1479.906
       225   02 Jun 2027 22:01:54.618   02 Jun 2027 22:02:29.975            35.357                Anadyr2          1104.906
       226   02 Jun 2027 22:04:03.192   02 Jun 2027 22:05:48.917           105.725                Norilsk          3303.906
       227   02 Jun 2027 22:06:04.032   02 Jun 2027 22:06:12.332             8.300               Magadan2           259.375
       228   02 Jun 2027 22:06:13.574   02 Jun 2027 22:06:23.840            10.266                Norilsk           320.812
       229   02 Jun 2027 22:07:07.309   02 Jun 2027 22:07:46.276            38.967                Norilsk          1217.719
       230   02 Jun 2027 22:08:27.577   02 Jun 2027 22:09:24.589            57.012                Irkutsk          1781.625
       231   02 Jun 2027 22:10:52.264   02 Jun 2027 22:11:53.371            61.107                Irkutsk          1909.594
       232   02 Jun 2027 22:22:30.034   02 Jun 2027 22:23:47.122            77.088                Sumatra          2409.000
       233   02 Jun 2027 22:25:35.641   02 Jun 2027 22:26:19.979            44.338                Sumatra          1385.563
       234   02 Jun 2027 23:36:53.254   02 Jun 2027 23:39:13.055           139.801                Anadyr1          4368.781
       235   02 Jun 2027 23:39:57.269   02 Jun 2027 23:40:20.185            22.916                Norilsk           716.125
       236   02 Jun 2027 23:40:36.009   02 Jun 2027 23:42:16.808           100.799               Magadan2          3149.969
       237   02 Jun 2027 23:43:49.169   02 Jun 2027 23:45:14.605            85.436                Irkutsk          2669.875
       238   02 Jun 2027 23:45:36.400   02 Jun 2027 23:45:47.632            11.232                Novosib           351.000
       239   02 Jun 2027 23:46:51.640   02 Jun 2027 23:47:28.265            36.625                Novosib          1144.531
       240   02 Jun 2027 23:50:19.005   02 Jun 2027 23:50:35.477            16.472                Novosib           514.750
       241   02 Jun 2027 23:50:55.386   02 Jun 2027 23:52:23.155            87.769                Novosib          2742.781
       242   02 Jun 2027 23:57:26.975   02 Jun 2027 23:58:44.725            77.750                  Delhi          2429.688
       243   03 Jun 2027 01:10:38.454   03 Jun 2027 01:10:48.214             9.760                Anadyr1           305.000
       244   03 Jun 2027 01:10:49.326   03 Jun 2027 01:11:25.044            35.718                Anadyr2          1116.187
       245   03 Jun 2027 01:11:49.129   03 Jun 2027 01:13:02.669            73.540                Anadyr1          2298.125
       246   03 Jun 2027 01:15:57.635   03 Jun 2027 01:16:32.572            34.937                Norilsk          1091.781
       247   03 Jun 2027 01:17:05.778   03 Jun 2027 01:18:08.570            62.792               Magadan2          1962.250
       248   03 Jun 2027 01:18:15.728   03 Jun 2027 01:18:32.781            17.053               Magadan2           532.906
       249   03 Jun 2027 01:19:21.346   03 Jun 2027 01:19:58.499            37.153              Murmansk1          1161.031
       250   03 Jun 2027 01:20:03.545   03 Jun 2027 01:21:45.227           101.682                Novosib          3177.562
       251   03 Jun 2027 01:24:06.737   03 Jun 2027 01:24:54.607            47.870                Novosib          1495.937
       252   03 Jun 2027 01:30:06.702   03 Jun 2027 01:30:33.443            26.741                  Delhi           835.656
       253   03 Jun 2027 01:36:07.251   03 Jun 2027 01:36:27.477            20.226                  Delhi           632.063
       254   03 Jun 2027 02:10:09.423   03 Jun 2027 02:12:07.803           118.380            RioGallegos          3699.375
       255   03 Jun 2027 02:43:57.142   03 Jun 2027 02:44:26.531            29.389                Anadyr2           918.406
       256   03 Jun 2027 02:44:44.625   03 Jun 2027 02:45:27.482            42.857                Anadyr1          1339.281
       257   03 Jun 2027 02:49:31.502   03 Jun 2027 02:50:28.324            56.822               Magadan2          1775.687
       258   03 Jun 2027 02:50:31.929   03 Jun 2027 02:50:50.313            18.384               Magadan1           574.500
       259   03 Jun 2027 02:52:18.577   03 Jun 2027 02:52:31.834            13.257               Magadan1           414.281
       260   03 Jun 2027 02:53:44.869   03 Jun 2027 02:54:09.333            24.464                Norilsk           764.500
       261   03 Jun 2027 02:54:50.920   03 Jun 2027 02:55:53.304            62.384              Murmansk2          1949.500
       262   03 Jun 2027 02:57:02.259   03 Jun 2027 02:58:27.510            85.251                Novosib          2664.094
       263   03 Jun 2027 03:00:18.443   03 Jun 2027 03:00:35.610            17.167              Murmansk2           536.469
       264   03 Jun 2027 03:01:05.833   03 Jun 2027 03:01:10.519             4.686                 Moscow           146.437
       265   03 Jun 2027 03:01:12.072   03 Jun 2027 03:01:20.142             8.070              Murmansk2           252.187
       266   03 Jun 2027 03:01:27.965   03 Jun 2027 03:01:39.400            11.435                Novosib           357.344
       267   03 Jun 2027 03:01:44.615   03 Jun 2027 03:01:44.963             0.348                Norilsk            10.875
       268   03 Jun 2027 03:01:56.495   03 Jun 2027 03:03:04.625            68.130                Novosib          2129.062
       269   03 Jun 2027 03:03:09.491   03 Jun 2027 03:03:34.703            25.212                Norilsk           787.875
       270   03 Jun 2027 03:03:34.949   03 Jun 2027 03:03:49.916            14.967              Murmansk2           467.719
       271   03 Jun 2027 03:03:49.916   03 Jun 2027 03:04:23.617            33.701              Murmansk1          1053.156
       272   03 Jun 2027 03:22:26.838   03 Jun 2027 03:22:47.412            20.574               CapeTown           642.938
       273   03 Jun 2027 04:39:20.396   03 Jun 2027 04:40:59.222            98.826                 Moscow          3088.313
       274   03 Jun 2027 06:00:31.421   03 Jun 2027 06:01:09.845            38.424               Magadan1          1200.750
       275   03 Jun 2027 06:01:20.697   03 Jun 2027 06:02:53.839            93.142                Anadyr2          2910.688
       276   03 Jun 2027 06:03:42.374   03 Jun 2027 06:03:56.816            14.442               Magadan1           451.313
       277   03 Jun 2027 06:03:56.816   03 Jun 2027 06:04:27.611            30.795               Magadan2           962.344
       278   03 Jun 2027 07:36:53.964   03 Jun 2027 07:37:23.999            30.035               Magadan2           938.594
       279   03 Jun 2027 07:37:24.320   03 Jun 2027 07:37:28.831             4.511                Norilsk           140.969
       280   03 Jun 2027 07:37:40.731   03 Jun 2027 07:38:29.325            48.594                Anadyr2          1518.563
       281   03 Jun 2027 07:38:29.325   03 Jun 2027 07:38:50.485            21.160                Anadyr1           661.250
       282   03 Jun 2027 07:39:05.953   03 Jun 2027 07:40:25.012            79.059                Anadyr2          2470.594
       283   03 Jun 2027 08:19:38.608   03 Jun 2027 08:20:13.300            34.692            RioGallegos          1084.125
       284   03 Jun 2027 09:11:29.412   03 Jun 2027 09:11:36.533             7.121               Magadan2           222.531
       285   03 Jun 2027 09:12:54.099   03 Jun 2027 09:13:49.343            55.244               Magadan2          1726.375
       286   03 Jun 2027 09:14:16.398   03 Jun 2027 09:14:41.792            25.394                Norilsk           793.562
       287   03 Jun 2027 09:14:42.546   03 Jun 2027 09:16:39.046           116.500               Magadan1          3640.625
       288   03 Jun 2027 09:16:43.707   03 Jun 2027 09:16:56.420            12.713                Irkutsk           397.281
       289   03 Jun 2027 09:17:02.101   03 Jun 2027 09:17:35.613            33.512              Murmansk2          1047.250
       290   03 Jun 2027 09:17:43.692   03 Jun 2027 09:17:56.283            12.591              Murmansk2           393.469
       291   03 Jun 2027 09:18:11.628   03 Jun 2027 09:18:27.715            16.087              Murmansk2           502.719
       292   03 Jun 2027 09:18:27.715   03 Jun 2027 09:19:04.792            37.077              Murmansk1          1158.656
       293   03 Jun 2027 09:52:49.005   03 Jun 2027 09:53:57.282            68.277            RioGallegos          2133.656
       294   03 Jun 2027 09:54:43.118   03 Jun 2027 09:55:24.748            41.630            RioGallegos          1300.938
       295   03 Jun 2027 10:28:48.916   03 Jun 2027 10:29:02.698            13.782                Sumatra           430.688
       296   03 Jun 2027 10:32:12.134   03 Jun 2027 10:32:22.882            10.748                Sumatra           335.875
       297   03 Jun 2027 10:34:50.560   03 Jun 2027 10:34:52.711             2.151                Sumatra            67.219
       298   03 Jun 2027 10:47:52.823   03 Jun 2027 10:48:55.677            62.854                Novosib          1964.187
       299   03 Jun 2027 10:49:29.094   03 Jun 2027 10:49:34.863             5.769                Novosib           180.281
       300   03 Jun 2027 10:49:38.995   03 Jun 2027 10:49:49.803            10.808                Novosib           337.750
       301   03 Jun 2027 10:49:57.541   03 Jun 2027 10:49:58.816             1.275                Norilsk            39.844
       302   03 Jun 2027 10:50:00.352   03 Jun 2027 10:50:06.117             5.765                Irkutsk           180.156
       303   03 Jun 2027 10:50:06.722   03 Jun 2027 10:50:24.317            17.595                Irkutsk           549.844
       304   03 Jun 2027 10:50:36.470   03 Jun 2027 10:51:41.662            65.192                Novosib          2037.250
       305   03 Jun 2027 10:51:46.304   03 Jun 2027 10:52:45.811            59.507                Novosib          1859.594
       306   03 Jun 2027 10:52:58.403   03 Jun 2027 10:53:16.358            17.955                Norilsk           561.094
       307   03 Jun 2027 10:53:18.701   03 Jun 2027 10:53:27.943             9.242              Murmansk2           288.813
       308   03 Jun 2027 10:53:33.892   03 Jun 2027 10:53:38.891             4.999                Novosib           156.219
       309   03 Jun 2027 10:53:41.385   03 Jun 2027 10:53:48.657             7.272              Murmansk1           227.250
       310   03 Jun 2027 10:54:18.960   03 Jun 2027 10:54:30.691            11.731              Murmansk1           366.594
       311   03 Jun 2027 10:55:27.127   03 Jun 2027 10:55:34.952             7.825              Murmansk1           244.531
       312   03 Jun 2027 10:55:44.758   03 Jun 2027 10:56:23.344            38.586                Norilsk          1205.813
       313   03 Jun 2027 11:30:29.874   03 Jun 2027 11:31:12.735            42.861            RioGallegos          1339.406
       314   03 Jun 2027 11:35:17.088   03 Jun 2027 11:35:38.884            21.796            RioGallegos           681.125
       315   03 Jun 2027 12:04:42.405   03 Jun 2027 12:05:42.504            60.099                Sumatra          1878.094
       316   03 Jun 2027 12:18:15.865   03 Jun 2027 12:18:46.497            30.632                  Delhi           957.250
       317   03 Jun 2027 12:18:57.418   03 Jun 2027 12:19:37.972            40.554                Novosib          1267.313
       318   03 Jun 2027 12:20:14.399   03 Jun 2027 12:20:14.428             0.029                Irkutsk             0.906
       319   03 Jun 2027 12:20:19.608   03 Jun 2027 12:21:58.479            98.871                Novosib          3089.719
       320   03 Jun 2027 12:22:56.806   03 Jun 2027 12:23:28.856            32.050                Norilsk          1001.562
       321   03 Jun 2027 12:27:35.348   03 Jun 2027 12:27:53.362            18.014              Murmansk1           562.938
       322   03 Jun 2027 12:31:01.647   03 Jun 2027 12:31:06.586             4.939              Murmansk1           154.344
       323   03 Jun 2027 12:32:08.324   03 Jun 2027 12:32:44.780            36.456              Murmansk1          1139.250
       324   03 Jun 2027 13:49:56.550   03 Jun 2027 13:52:06.275           129.725                  Delhi          4053.906
       325   03 Jun 2027 13:52:59.415   03 Jun 2027 13:54:46.655           107.240                  Delhi          3351.250
       326   03 Jun 2027 13:59:42.604   03 Jun 2027 14:00:37.208            54.604                Novosib          1706.375
       327   03 Jun 2027 14:00:37.661   03 Jun 2027 14:00:53.206            15.545              Murmansk1           485.781
       328   03 Jun 2027 14:01:04.246   03 Jun 2027 14:01:46.537            42.291              Murmansk2          1321.594
       329   03 Jun 2027 14:02:09.785   03 Jun 2027 14:02:34.490            24.705                Norilsk           772.031
       330   03 Jun 2027 14:03:02.179   03 Jun 2027 14:03:34.647            32.468                Norilsk          1014.625
       331   03 Jun 2027 14:10:20.364   03 Jun 2027 14:10:59.913            39.549                Norilsk          1235.906
       332   03 Jun 2027 15:13:57.763   03 Jun 2027 15:15:11.896            74.133               CapeTown          2316.656
       333   03 Jun 2027 15:16:28.381   03 Jun 2027 15:17:35.209            66.828               CapeTown          2088.375
       334   03 Jun 2027 15:32:37.911   03 Jun 2027 15:33:14.347            36.436                 Moscow          1138.625
       335   03 Jun 2027 15:33:52.679   03 Jun 2027 15:34:21.166            28.487                 Moscow           890.219
       336   03 Jun 2027 15:36:06.946   03 Jun 2027 15:36:55.684            48.738              Murmansk1          1523.063
       337   03 Jun 2027 15:37:22.961   03 Jun 2027 15:37:49.846            26.885              Murmansk1           840.156
       338   03 Jun 2027 15:51:27.406   03 Jun 2027 15:52:22.155            54.749                Anadyr1          1710.906
       339   03 Jun 2027 15:52:22.155   03 Jun 2027 15:52:23.721             1.566                Anadyr2            48.937
       340   03 Jun 2027 15:52:48.628   03 Jun 2027 15:53:11.482            22.854                Anadyr1           714.187
       341   03 Jun 2027 15:53:22.410   03 Jun 2027 15:53:30.003             7.593                Anadyr1           237.281
       342   03 Jun 2027 15:53:30.003   03 Jun 2027 15:53:36.785             6.782                Anadyr2           211.937
       343   03 Jun 2027 15:56:44.097   03 Jun 2027 15:57:21.661            37.564                Anadyr2          1173.875
       344   03 Jun 2027 15:57:54.181   03 Jun 2027 15:57:57.529             3.348                Anadyr2           104.625
       345   03 Jun 2027 16:45:49.238   03 Jun 2027 16:46:41.018            51.780               CapeTown          1618.125
       346   03 Jun 2027 16:48:53.603   03 Jun 2027 16:49:04.088            10.485               CapeTown           327.656
       347   03 Jun 2027 16:52:53.655   03 Jun 2027 16:53:31.246            37.591               CapeTown          1174.719
       348   03 Jun 2027 17:12:45.985   03 Jun 2027 17:13:08.071            22.086                 Moscow           690.187
       349   03 Jun 2027 17:14:07.604   03 Jun 2027 17:15:32.102            84.498                 Moscow          2640.562
       350   03 Jun 2027 17:17:35.452   03 Jun 2027 17:18:39.707            64.255              Murmansk1          2007.969
       351   03 Jun 2027 17:26:27.280   03 Jun 2027 17:27:44.985            77.705                Anadyr1          2428.281
       352   03 Jun 2027 17:27:53.834   03 Jun 2027 17:28:19.811            25.977                Anadyr1           811.781
       353   03 Jun 2027 17:38:10.554   03 Jun 2027 17:38:10.602             0.048                Anadyr1             1.500
       354   03 Jun 2027 18:22:43.747   03 Jun 2027 18:23:55.888            72.141               CapeTown          2254.406
       355   03 Jun 2027 18:28:58.526   03 Jun 2027 18:29:20.762            22.236               CapeTown           694.875
       356   03 Jun 2027 18:55:54.219   03 Jun 2027 18:59:18.688           204.469              Murmansk2          6389.656
       357   03 Jun 2027 19:02:17.622   03 Jun 2027 19:04:18.900           121.278                Anadyr2          3789.937
       358   03 Jun 2027 19:05:02.390   03 Jun 2027 19:05:23.111            20.721               Magadan2           647.531
       359   03 Jun 2027 19:05:58.257   03 Jun 2027 19:06:11.013            12.756               Magadan2           398.625
       360   03 Jun 2027 19:07:14.010   03 Jun 2027 19:07:36.208            22.198               Magadan2           693.687
       361   03 Jun 2027 19:08:18.208   03 Jun 2027 19:08:56.192            37.984               Magadan1          1187.000
       362   03 Jun 2027 20:38:12.977   03 Jun 2027 20:42:03.545           230.568                Anadyr2          7205.250
       363   03 Jun 2027 20:42:18.313   03 Jun 2027 20:44:24.228           125.915                Norilsk          3934.844
       364   03 Jun 2027 20:44:52.483   03 Jun 2027 20:44:54.940             2.457               Magadan1            76.781
       365   03 Jun 2027 20:48:10.920   03 Jun 2027 20:48:49.576            38.656               Magadan1          1208.000
       366   03 Jun 2027 20:51:33.109   03 Jun 2027 20:52:01.373            28.264               Magadan1           883.250
       367   03 Jun 2027 21:32:49.160   03 Jun 2027 21:35:13.903           144.743            RioGallegos          4523.219
       368   03 Jun 2027 21:35:53.981   03 Jun 2027 21:36:21.204            27.223            RioGallegos           850.719
       369   03 Jun 2027 22:13:52.212   03 Jun 2027 22:14:26.753            34.541                Anadyr1          1079.406
       370   03 Jun 2027 22:16:03.244   03 Jun 2027 22:16:11.633             8.389                Norilsk           262.156
       371   03 Jun 2027 22:16:31.718   03 Jun 2027 22:18:27.871           116.153               Magadan1          3629.781
       372   03 Jun 2027 22:18:27.871   03 Jun 2027 22:18:33.661             5.790               Magadan2           180.938
       373   03 Jun 2027 22:19:10.817   03 Jun 2027 22:19:34.913            24.096                Norilsk           753.000
       374   03 Jun 2027 22:20:19.212   03 Jun 2027 22:21:14.519            55.307                Irkutsk          1728.344
       375   03 Jun 2027 22:22:14.201   03 Jun 2027 22:22:50.212            36.011                Irkutsk          1125.344
       376   03 Jun 2027 22:23:03.447   03 Jun 2027 22:23:26.928            23.481                Novosib           733.781
       377   03 Jun 2027 22:23:57.315   03 Jun 2027 22:25:00.869            63.554                Novosib          1986.062
       378   03 Jun 2027 22:34:09.989   03 Jun 2027 22:34:47.064            37.075                Sumatra          1158.594
       379   03 Jun 2027 22:36:30.643   03 Jun 2027 22:37:30.565            59.922                Sumatra          1872.563
       380   03 Jun 2027 23:48:42.400   03 Jun 2027 23:49:53.087            70.687                Anadyr1          2208.969
       381   03 Jun 2027 23:50:32.373   03 Jun 2027 23:51:10.982            38.609                Anadyr1          1206.531
       382   03 Jun 2027 23:51:29.615   03 Jun 2027 23:51:30.115             0.500                Anadyr1            15.625
       383   03 Jun 2027 23:51:59.414   03 Jun 2027 23:52:18.629            19.215                Norilsk           600.469
       384   03 Jun 2027 23:52:38.547   03 Jun 2027 23:53:10.991            32.444               Magadan2          1013.875
       385   03 Jun 2027 23:53:10.991   03 Jun 2027 23:53:22.316            11.325               Magadan1           353.906
       386   03 Jun 2027 23:53:42.259   03 Jun 2027 23:53:52.503            10.244                Norilsk           320.125
       387   03 Jun 2027 23:53:59.948   03 Jun 2027 23:54:27.765            27.817               Magadan2           869.281
       388   03 Jun 2027 23:55:20.158   03 Jun 2027 23:56:11.863            51.705               Magadan1          1615.781
       389   03 Jun 2027 23:56:49.225   03 Jun 2027 23:59:05.909           136.684                Irkutsk          4271.375
       390   04 Jun 2027 00:04:01.501   04 Jun 2027 00:04:52.064            50.563                  Delhi          1580.094
       391   04 Jun 2027 00:05:04.521   04 Jun 2027 00:06:29.838            85.317                  Delhi          2666.156
       392   04 Jun 2027 00:46:03.261   04 Jun 2027 00:47:12.390            69.129            RioGallegos          2160.281
       393   04 Jun 2027 01:22:19.791   04 Jun 2027 01:22:40.926            21.135                Anadyr1           660.469
       394   04 Jun 2027 01:23:19.573   04 Jun 2027 01:23:49.602            30.029                Anadyr2           938.406
       395   04 Jun 2027 01:24:31.071   04 Jun 2027 01:25:10.690            39.619                Anadyr2          1238.094
       396   04 Jun 2027 01:27:32.233   04 Jun 2027 01:27:51.700            19.467                Anadyr2           608.344
       397   04 Jun 2027 01:27:59.357   04 Jun 2027 01:28:22.335            22.978                Norilsk           718.063
       398   04 Jun 2027 01:28:32.623   04 Jun 2027 01:30:01.288            88.665               Magadan2          2770.781
       399   04 Jun 2027 01:30:01.288   04 Jun 2027 01:30:33.814            32.526               Magadan1          1016.438
       400   04 Jun 2027 01:31:18.008   04 Jun 2027 01:33:04.488           106.480              Murmansk2          3327.500
       401   04 Jun 2027 01:33:25.101   04 Jun 2027 01:33:37.389            12.288                Novosib           384.000
       402   04 Jun 2027 01:35:13.771   04 Jun 2027 01:35:20.141             6.370                Irkutsk           199.063
       403   04 Jun 2027 01:35:37.849   04 Jun 2027 01:36:02.243            24.394                 Moscow           762.312
       404   04 Jun 2027 01:39:17.792   04 Jun 2027 01:40:07.995            50.203                  Delhi          1568.844
       405   04 Jun 2027 01:47:13.819   04 Jun 2027 01:48:04.013            50.194                  Delhi          1568.562
       406   04 Jun 2027 02:55:41.442   04 Jun 2027 02:58:20.852           159.410                Anadyr2          4981.563
       407   04 Jun 2027 02:59:10.701   04 Jun 2027 02:59:20.383             9.682                Anadyr1           302.563
       408   04 Jun 2027 02:59:44.695   04 Jun 2027 02:59:47.671             2.976                Anadyr1            93.000
       409   04 Jun 2027 03:13:35.472   04 Jun 2027 03:16:18.678           163.206              Murmansk1          5100.187
       410   04 Jun 2027 03:16:45.309   04 Jun 2027 03:17:19.908            34.599              Murmansk1          1081.219
       411   04 Jun 2027 03:17:49.447   04 Jun 2027 03:18:01.871            12.424              Murmansk2           388.250
       412   04 Jun 2027 03:18:15.902   04 Jun 2027 03:18:27.757            11.855                 Moscow           370.469
       413   04 Jun 2027 03:19:03.869   04 Jun 2027 03:20:45.489           101.620                 Moscow          3175.625
       414   04 Jun 2027 03:34:02.585   04 Jun 2027 03:37:09.902           187.317               CapeTown          5853.656
       415   04 Jun 2027 03:39:56.363   04 Jun 2027 03:40:35.773            39.410               CapeTown          1231.562
       416   04 Jun 2027 04:30:06.048   04 Jun 2027 04:32:36.641           150.593                Anadyr1          4706.031
       417   04 Jun 2027 04:32:45.077   04 Jun 2027 04:33:52.153            67.076               Magadan1          2096.125
       418   04 Jun 2027 04:37:28.238   04 Jun 2027 04:38:20.296            52.058               Magadan1          1626.813
       419   04 Jun 2027 04:50:33.203   04 Jun 2027 04:53:26.708           173.505              Murmansk1          5422.031
       420   04 Jun 2027 05:10:20.923   04 Jun 2027 05:11:16.868            55.945               CapeTown          1748.281
       421   04 Jun 2027 06:12:35.342   04 Jun 2027 06:14:26.959           111.617                Anadyr2          3488.031
       422   04 Jun 2027 06:14:32.491   04 Jun 2027 06:14:42.198             9.707               Magadan2           303.344
       423   04 Jun 2027 06:15:05.814   04 Jun 2027 06:15:11.725             5.911                Anadyr2           184.719
       424   04 Jun 2027 06:15:11.725   04 Jun 2027 06:15:12.109             0.384                Anadyr1            12.000
       425   04 Jun 2027 06:15:17.746   04 Jun 2027 06:15:21.077             3.331                Norilsk           104.094
       426   04 Jun 2027 06:15:32.603   04 Jun 2027 06:17:10.956            98.353                Anadyr2          3073.531
       427   04 Jun 2027 07:00:30.425   04 Jun 2027 07:01:22.392            51.967            RioGallegos          1623.969
       428   04 Jun 2027 07:48:14.208   04 Jun 2027 07:49:18.270            64.062                Anadyr2          2001.937
       429   04 Jun 2027 07:49:35.977   04 Jun 2027 07:49:42.572             6.595               Magadan1           206.094
       430   04 Jun 2027 07:50:06.056   04 Jun 2027 07:50:10.054             3.998                Norilsk           124.937
       431   04 Jun 2027 07:50:27.808   04 Jun 2027 07:50:39.379            11.571               Magadan1           361.594
       432   04 Jun 2027 07:50:43.149   04 Jun 2027 07:50:57.238            14.089               Magadan1           440.281
       433   04 Jun 2027 07:51:07.864   04 Jun 2027 07:53:03.949           116.085                Anadyr1          3627.656
       434   04 Jun 2027 08:33:08.587   04 Jun 2027 08:33:13.967             5.380            RioGallegos           168.125
       435   04 Jun 2027 09:23:00.780   04 Jun 2027 09:23:08.618             7.838                Novosib           244.938
       436   04 Jun 2027 09:23:20.271   04 Jun 2027 09:24:54.859            94.588               Magadan2          2955.875
       437   04 Jun 2027 09:25:25.969   04 Jun 2027 09:25:35.812             9.843               Magadan1           307.594
       438   04 Jun 2027 09:26:04.200   04 Jun 2027 09:26:44.899            40.699               Magadan1          1271.844
       439   04 Jun 2027 09:27:02.451   04 Jun 2027 09:27:21.220            18.769                Norilsk           586.531
       440   04 Jun 2027 09:27:23.246   04 Jun 2027 09:29:36.316           133.070               Magadan2          4158.438
       441   04 Jun 2027 09:29:44.955   04 Jun 2027 09:29:54.623             9.668              Murmansk2           302.125
       442   04 Jun 2027 09:29:54.623   04 Jun 2027 09:30:27.576            32.953              Murmansk1          1029.781
       443   04 Jun 2027 10:04:50.358   04 Jun 2027 10:05:32.954            42.596            RioGallegos          1331.125
       444   04 Jun 2027 10:05:54.112   04 Jun 2027 10:06:11.817            17.705            RioGallegos           553.281
       445   04 Jun 2027 10:40:02.616   04 Jun 2027 10:40:43.778            41.162                Sumatra          1286.313
       446   04 Jun 2027 10:43:51.063   04 Jun 2027 10:44:07.354            16.291                Sumatra           509.094
       447   04 Jun 2027 10:52:12.780   04 Jun 2027 10:52:53.858            41.078                  Delhi          1283.688
       448   04 Jun 2027 10:59:58.277   04 Jun 2027 11:01:12.034            73.757                Novosib          2304.906
       449   04 Jun 2027 11:01:20.218   04 Jun 2027 11:01:38.378            18.160                Novosib           567.500
       450   04 Jun 2027 11:01:42.529   04 Jun 2027 11:01:56.619            14.090                Norilsk           440.313
       451   04 Jun 2027 11:02:04.386   04 Jun 2027 11:02:22.561            18.175                Novosib           567.969
       452   04 Jun 2027 11:02:25.317   04 Jun 2027 11:02:29.198             3.881                Irkutsk           121.281
       453   04 Jun 2027 11:02:36.369   04 Jun 2027 11:02:55.929            19.560              Murmansk2           611.250
       454   04 Jun 2027 11:03:08.186   04 Jun 2027 11:03:18.656            10.470              Murmansk2           327.188
       455   04 Jun 2027 11:03:22.956   04 Jun 2027 11:03:38.303            15.347                Norilsk           479.594
       456   04 Jun 2027 11:03:50.903   04 Jun 2027 11:04:29.090            38.187                Novosib          1193.344
       457   04 Jun 2027 11:04:36.017   04 Jun 2027 11:05:16.163            40.146                Norilsk          1254.563
       458   04 Jun 2027 11:05:27.836   04 Jun 2027 11:05:42.943            15.107              Murmansk2           472.094
       459   04 Jun 2027 11:05:42.943   04 Jun 2027 11:06:07.066            24.123              Murmansk1           753.844
       460   04 Jun 2027 11:06:11.656   04 Jun 2027 11:06:29.073            17.417                Novosib           544.281
       461   04 Jun 2027 11:43:06.938   04 Jun 2027 11:44:19.207            72.269            RioGallegos          2258.406
       462   04 Jun 2027 12:17:23.580   04 Jun 2027 12:17:54.314            30.734                Sumatra           960.437
       463   04 Jun 2027 12:20:47.511   04 Jun 2027 12:22:05.915            78.404                Sumatra          2450.125
       464   04 Jun 2027 12:31:10.247   04 Jun 2027 12:33:57.273           167.026                Novosib          5219.562
       465   04 Jun 2027 12:35:49.318   04 Jun 2027 12:36:33.806            44.488                Norilsk          1390.250
       466   04 Jun 2027 14:02:59.555   04 Jun 2027 14:04:01.745            62.190                  Delhi          1943.438
       467   04 Jun 2027 14:04:50.128   04 Jun 2027 14:06:56.234           126.106                  Delhi          3940.812
       468   04 Jun 2027 14:09:36.276   04 Jun 2027 14:10:25.271            48.995                 Moscow          1531.094
       469   04 Jun 2027 14:11:47.790   04 Jun 2027 14:13:45.940           118.150              Murmansk2          3692.188
       470   04 Jun 2027 14:14:18.785   04 Jun 2027 14:14:58.655            39.870                Norilsk          1245.937
       471   04 Jun 2027 14:15:36.244   04 Jun 2027 14:16:38.764            62.520                Norilsk          1953.750
       472   04 Jun 2027 15:24:30.221   04 Jun 2027 15:26:38.675           128.454               CapeTown          4014.188
       473   04 Jun 2027 15:30:18.009   04 Jun 2027 15:30:46.074            28.065               CapeTown           877.031
       474   04 Jun 2027 15:47:43.918   04 Jun 2027 15:48:06.428            22.510                 Moscow           703.438
       475   04 Jun 2027 15:48:18.911   04 Jun 2027 15:48:41.406            22.495              Murmansk2           702.969
       476   04 Jun 2027 15:49:03.866   04 Jun 2027 15:49:55.094            51.228              Murmansk1          1600.875
       477   04 Jun 2027 15:51:06.421   04 Jun 2027 15:51:21.268            14.847              Murmansk1           463.969
       478   04 Jun 2027 15:54:40.706   04 Jun 2027 15:55:12.076            31.370              Murmansk2           980.312
       479   04 Jun 2027 16:03:13.523   04 Jun 2027 16:04:22.316            68.793                Anadyr1          2149.781
       480   04 Jun 2027 16:04:34.402   04 Jun 2027 16:06:01.534            87.132                Anadyr2          2722.875
       481   04 Jun 2027 16:06:02.928   04 Jun 2027 16:07:01.587            58.659                Anadyr2          1833.094
       482   04 Jun 2027 17:09:49.366   04 Jun 2027 17:10:18.455            29.089               CapeTown           909.031
