uniorb/output/strategy_2/Drop/Drop_KinoSat_110202.txt

KinoSat_110202
-------------------------
    Access    *     Start Time (UTCG)     *     Stop Time (UTCG)  *   Duration (s)        *       Station  *  Data (Mbytes)
         1   01 Jun 2027 03:00:01.643   01 Jun 2027 03:00:09.650             8.007                Norilsk           821.500
         2   01 Jun 2027 03:00:13.544   01 Jun 2027 03:00:44.031            30.487               Magadan1          1947.000
         3   01 Jun 2027 03:00:44.331   01 Jun 2027 03:00:47.959             3.628              Murmansk2           150.000
         4   01 Jun 2027 03:00:50.541   01 Jun 2027 03:01:09.280            18.739              Murmansk1          1291.000
         5   01 Jun 2027 03:01:19.105   01 Jun 2027 03:01:42.749            23.644                Novosib          2554.000
         6   01 Jun 2027 04:30:53.167   01 Jun 2027 04:31:11.317            18.150                Novosib           401.000
         7   01 Jun 2027 04:31:14.438   01 Jun 2027 04:32:18.998            64.560                Irkutsk          1560.500
         8   01 Jun 2027 04:32:21.543   01 Jun 2027 04:32:34.500            12.957                Irkutsk          1272.500
         9   01 Jun 2027 04:32:35.868   01 Jun 2027 04:32:45.499             9.631                Novosib           684.000
        10   01 Jun 2027 04:32:59.301   01 Jun 2027 04:34:16.554            77.253                Norilsk          6901.000
        11   01 Jun 2027 04:34:17.115   01 Jun 2027 04:34:23.372             6.257                Norilsk           280.500
        12   01 Jun 2027 04:34:25.771   01 Jun 2027 04:35:26.008            60.237                Norilsk          1199.500
        13   01 Jun 2027 04:35:29.865   01 Jun 2027 04:36:04.842            34.977              Murmansk2          1928.500
        14   01 Jun 2027 04:36:07.151   01 Jun 2027 04:36:34.856            27.705              Murmansk2          1154.500
        15   01 Jun 2027 04:36:40.207   01 Jun 2027 04:37:10.805            30.598              Murmansk1          2675.500
        16   01 Jun 2027 06:08:27.868   01 Jun 2027 06:08:40.735            12.867                 Moscow           980.000
        17   01 Jun 2027 06:08:51.614   01 Jun 2027 06:10:04.811            73.197                Norilsk          5439.500
        18   01 Jun 2027 06:10:05.663   01 Jun 2027 06:10:22.152            16.489                Novosib           426.000
        19   01 Jun 2027 06:10:26.338   01 Jun 2027 06:11:30.213            63.875                 Moscow          2093.000
        20   01 Jun 2027 06:11:39.638   01 Jun 2027 06:12:21.691            42.053              Murmansk2          4712.500
        21   01 Jun 2027 06:12:25.388   01 Jun 2027 06:12:50.019            24.631              Murmansk2          1848.500
        22   01 Jun 2027 06:12:51.052   01 Jun 2027 06:13:42.775            51.723              Murmansk1           516.500
        23   01 Jun 2027 07:44:31.976   01 Jun 2027 07:45:16.773            44.797                Novosib          2381.500
        24   01 Jun 2027 07:45:18.032   01 Jun 2027 07:45:31.224            13.192                 Moscow           629.500
        25   01 Jun 2027 07:45:31.433   01 Jun 2027 07:46:25.640            54.207                Novosib           104.500
        26   01 Jun 2027 07:46:29.446   01 Jun 2027 07:46:33.379             3.933                Norilsk           491.625
        27   01 Jun 2027 07:46:39.836   01 Jun 2027 07:47:19.580            39.744              Murmansk2          4639.875
        28   01 Jun 2027 07:47:20.890   01 Jun 2027 07:47:29.561             8.671                 Moscow           655.000
        29   01 Jun 2027 07:47:38.397   01 Jun 2027 07:48:28.415            50.018                Norilsk          4418.000
        30   01 Jun 2027 07:48:48.662   01 Jun 2027 07:50:23.650            94.988                 Moscow          8063.000
        31   02 Jun 2027 03:06:16.342   02 Jun 2027 03:07:51.752            95.410                Norilsk          7006.500
        32   02 Jun 2027 03:07:56.348   02 Jun 2027 03:08:35.208            38.860               Magadan2          2298.000
        33   02 Jun 2027 03:08:42.791   02 Jun 2027 03:10:35.836           113.045                Irkutsk          3791.500
        34   02 Jun 2027 03:10:42.472   02 Jun 2027 03:11:16.434            33.962                Norilsk          3318.000
        35   02 Jun 2027 03:11:19.415   02 Jun 2027 03:11:55.017            35.602                Novosib          1490.500
        36   02 Jun 2027 03:12:10.492   02 Jun 2027 03:13:32.737            82.245                Norilsk          7737.500
        37   02 Jun 2027 04:42:53.101   02 Jun 2027 04:43:32.369            39.268                Novosib          4908.500
        38   02 Jun 2027 04:43:38.410   02 Jun 2027 04:44:38.418            60.008                Irkutsk          5571.000
        39   02 Jun 2027 04:44:45.031   02 Jun 2027 04:45:14.518            29.487                Norilsk          3306.500
        40   02 Jun 2027 04:45:38.010   02 Jun 2027 04:47:17.845            99.835                Norilsk         11746.000
        41   02 Jun 2027 04:47:24.876   02 Jun 2027 04:48:33.241            68.365                Norilsk          3515.500
        42   02 Jun 2027 04:48:53.787   02 Jun 2027 04:50:09.760            75.973              Murmansk2          9496.625
        43   02 Jun 2027 04:50:09.760   02 Jun 2027 04:50:27.500            17.740              Murmansk1           776.375
        44   02 Jun 2027 06:20:58.424   02 Jun 2027 06:21:28.916            30.492                Novosib          1277.500
        45   02 Jun 2027 06:21:32.755   02 Jun 2027 06:22:20.047            47.292                Norilsk          1919.500
        46   02 Jun 2027 06:22:25.198   02 Jun 2027 06:22:46.716            21.518                Norilsk          2575.500
        47   02 Jun 2027 06:22:47.352   02 Jun 2027 06:23:20.538            33.186                Norilsk           318.000
        48   02 Jun 2027 06:23:21.995   02 Jun 2027 06:23:30.399             8.404                Irkutsk           728.500
        49   02 Jun 2027 06:23:35.366   02 Jun 2027 06:24:23.651            48.285                 Moscow          2483.500
        50   02 Jun 2027 06:24:27.035   02 Jun 2027 06:24:41.574            14.539              Murmansk2          1692.000
        51   02 Jun 2027 06:24:51.404   02 Jun 2027 06:25:36.181            44.777              Murmansk2          4565.500
        52   02 Jun 2027 07:54:24.141   02 Jun 2027 07:54:32.962             8.821                 Moscow          1102.625
        53   02 Jun 2027 07:54:41.762   02 Jun 2027 07:55:02.614            20.852                Novosib          2606.500
        54   02 Jun 2027 07:55:21.692   02 Jun 2027 07:55:50.499            28.807                Novosib           149.375
        55   02 Jun 2027 07:56:25.858   02 Jun 2027 07:57:13.170            47.312                 Moscow          5068.500
        56   02 Jun 2027 07:57:14.750   02 Jun 2027 07:57:57.390            42.640                 Moscow           790.000
        57   02 Jun 2027 07:58:13.906   02 Jun 2027 07:59:19.873            65.967                Novosib          8245.875
        58   02 Jun 2027 07:59:20.293   02 Jun 2027 07:59:28.214             7.921                Norilsk           222.125
        59   02 Jun 2027 07:59:29.139   02 Jun 2027 07:59:59.001            29.862                Norilsk           462.500
        60   02 Jun 2027 08:00:02.978   02 Jun 2027 08:01:18.607            75.629              Murmansk1          1988.500
        61   02 Jun 2027 08:01:25.545   02 Jun 2027 08:02:05.556            40.011              Murmansk1          3469.000
        62   03 Jun 2027 03:17:57.024   03 Jun 2027 03:18:08.284            11.260               Magadan1           898.000
        63   03 Jun 2027 03:18:16.351   03 Jun 2027 03:19:01.845            45.494               Magadan2          4033.500
        64   03 Jun 2027 03:19:05.605   03 Jun 2027 03:19:21.908            16.303               Magadan2          1880.000
        65   03 Jun 2027 03:19:25.148   03 Jun 2027 03:20:30.609            65.461               Magadan1          1620.000
        66   03 Jun 2027 03:20:44.789   03 Jun 2027 03:21:56.838            72.049                Irkutsk          7090.000
        67   03 Jun 2027 03:21:58.126   03 Jun 2027 03:22:03.489             5.363               Magadan2           644.000
        68   03 Jun 2027 03:22:05.185   03 Jun 2027 03:22:53.991            48.806                Novosib           848.000
        69   03 Jun 2027 03:23:04.788   03 Jun 2027 03:24:08.438            63.650                Norilsk          5398.500
        70   03 Jun 2027 03:24:18.335   03 Jun 2027 03:24:48.446            30.111                Norilsk          3763.875
        71   03 Jun 2027 03:24:49.517   03 Jun 2027 03:25:29.067            39.550                Novosib          1720.125
        72   03 Jun 2027 04:55:05.395   03 Jun 2027 04:55:33.395            28.000                Irkutsk          3062.000
        73   03 Jun 2027 04:55:34.264   03 Jun 2027 04:56:05.327            31.063                Norilsk           434.500
        74   03 Jun 2027 04:56:07.088   03 Jun 2027 04:56:39.448            32.360                Irkutsk           880.500
        75   03 Jun 2027 04:56:53.912   03 Jun 2027 04:57:57.689            63.777                Irkutsk          7232.000
        76   03 Jun 2027 04:58:00.906   03 Jun 2027 04:58:20.235            19.329                Novosib          1608.500
        77   03 Jun 2027 04:58:22.803   03 Jun 2027 04:58:41.211            18.408              Murmansk1          1284.000
        78   03 Jun 2027 04:58:44.335   03 Jun 2027 04:59:10.535            26.200                Norilsk          1562.000
        79   03 Jun 2027 04:59:19.975   03 Jun 2027 05:00:22.426            62.451                Norilsk          4720.000
        80   03 Jun 2027 05:00:24.092   03 Jun 2027 05:01:31.924            67.832                 Moscow           833.000
        81   03 Jun 2027 06:32:58.060   03 Jun 2027 06:33:40.752            42.692                Irkutsk          2254.500
        82   03 Jun 2027 06:33:41.061   03 Jun 2027 06:34:06.576            25.515                Novosib           154.500
        83   03 Jun 2027 06:34:08.319   03 Jun 2027 06:34:33.402            25.083              Murmansk1           871.500
        84   03 Jun 2027 06:34:36.824   03 Jun 2027 06:34:51.203            14.379                Norilsk          1711.000
        85   03 Jun 2027 06:35:02.546   03 Jun 2027 06:36:10.132            67.586              Murmansk1          5671.500
        86   03 Jun 2027 06:36:20.647   03 Jun 2027 06:37:16.663            56.016                 Moscow          5257.500
        87   03 Jun 2027 08:06:46.626   03 Jun 2027 08:10:29.544           222.918                 Moscow         20287.000
        88   03 Jun 2027 08:10:34.117   03 Jun 2027 08:11:22.290            48.173                Novosib          2286.500
        89   03 Jun 2027 08:11:26.355   03 Jun 2027 08:11:44.746            18.391              Murmansk1          2032.500
        90   03 Jun 2027 08:11:50.694   03 Jun 2027 08:12:46.627            55.933                Norilsk          2974.000
        91   03 Jun 2027 08:12:46.974   03 Jun 2027 08:13:01.369            14.395                Norilsk           173.500
        92   03 Jun 2027 08:13:09.767   03 Jun 2027 08:14:33.647            83.880                 Moscow          4199.000
        93   04 Jun 2027 03:30:09.865   04 Jun 2027 03:30:33.737            23.872                Norilsk          1093.500
        94   04 Jun 2027 03:30:37.126   04 Jun 2027 03:31:01.507            24.381                Norilsk          1694.500
        95   04 Jun 2027 03:31:05.620   04 Jun 2027 03:31:54.988            49.368                Irkutsk          2056.500
        96   04 Jun 2027 03:31:58.731   04 Jun 2027 03:32:24.444            25.713               Magadan1          1871.500
        97   04 Jun 2027 03:32:29.280   04 Jun 2027 03:32:49.415            20.135                Norilsk          2418.000
        98   04 Jun 2027 03:32:51.280   04 Jun 2027 03:33:09.524            18.244                Novosib           932.500
        99   04 Jun 2027 03:33:12.415   04 Jun 2027 03:34:04.622            52.207                Irkutsk          1445.500
       100   04 Jun 2027 03:34:10.149   04 Jun 2027 03:34:42.847            32.698                Novosib          2763.500
       101   04 Jun 2027 03:34:44.675   04 Jun 2027 03:34:56.842            12.167                Norilsk           914.000
       102   04 Jun 2027 03:34:58.593   04 Jun 2027 03:35:50.012            51.419                Novosib           875.500
       103   04 Jun 2027 03:36:05.860   04 Jun 2027 03:37:42.125            96.265                Norilsk          7924.000
       104   04 Jun 2027 05:07:01.758   04 Jun 2027 05:09:00.237           118.479                Novosib          5696.500
       105   04 Jun 2027 05:09:15.047   04 Jun 2027 05:10:14.768            59.721                Norilsk          7405.000
       106   04 Jun 2027 05:10:16.257   04 Jun 2027 05:10:56.190            39.933                Norilsk           744.500
       107   04 Jun 2027 05:10:56.894   04 Jun 2027 05:11:09.334            12.440                 Moscow           352.000
       108   04 Jun 2027 05:11:15.696   04 Jun 2027 05:11:35.007            19.311                Norilsk          2413.875
       109   04 Jun 2027 05:11:37.311   04 Jun 2027 05:12:06.292            28.981                 Moscow          1919.125
       110   04 Jun 2027 05:12:09.626   04 Jun 2027 05:12:56.126            46.500              Murmansk1          1667.000
       111   04 Jun 2027 05:12:57.929   04 Jun 2027 05:13:13.968            16.039              Murmansk1           901.500
       112   04 Jun 2027 05:13:18.983   04 Jun 2027 05:13:42.046            23.063                Norilsk          2507.500
       113   04 Jun 2027 06:44:56.401   04 Jun 2027 06:45:04.067             7.666                Irkutsk           958.250
       114   04 Jun 2027 06:45:08.900   04 Jun 2027 06:45:57.428            48.528              Murmansk1          2963.250
       115   04 Jun 2027 06:45:57.449   04 Jun 2027 06:46:26.744            29.295                Norilsk            10.500
       116   04 Jun 2027 06:46:29.620   04 Jun 2027 06:46:41.375            11.755              Murmansk2          1438.000
       117   04 Jun 2027 06:46:45.593   04 Jun 2027 06:47:05.032            19.439                Norilsk          2109.000
       118   04 Jun 2027 06:47:05.114   04 Jun 2027 06:48:06.139            61.025              Murmansk2            41.000
       119   04 Jun 2027 06:48:24.804   04 Jun 2027 06:49:46.129            81.325              Murmansk2          9332.500
       120   04 Jun 2027 08:18:57.770   04 Jun 2027 08:20:38.344           100.574                 Moscow         12571.750
       121   04 Jun 2027 08:20:49.714   04 Jun 2027 08:22:29.334            99.620                 Moscow          6438.250
       122   04 Jun 2027 08:22:35.403   04 Jun 2027 08:23:16.646            41.243                 Moscow          3034.500
       123   04 Jun 2027 08:23:31.679   04 Jun 2027 08:25:05.840            94.161              Murmansk1          7516.500
       124   04 Jun 2027 08:25:05.917   04 Jun 2027 08:25:54.506            48.589              Murmansk2            38.500
       125   05 Jun 2027 03:42:05.739   05 Jun 2027 03:42:29.693            23.954                Norilsk          2060.000
       126   05 Jun 2027 03:42:30.624   05 Jun 2027 03:42:55.629            25.005               Magadan1           465.500
       127   05 Jun 2027 03:43:08.283   05 Jun 2027 03:43:43.694            35.411                Novosib          4426.375
       128   05 Jun 2027 03:44:09.969   05 Jun 2027 03:46:17.580           127.611                Irkutsk         15038.125
       129   05 Jun 2027 03:46:22.684   05 Jun 2027 03:46:44.595            21.911                Norilsk          2552.000
       130   05 Jun 2027 03:46:48.925   05 Jun 2027 03:47:15.695            26.770                Norilsk          2165.000
       131   05 Jun 2027 03:47:18.807   05 Jun 2027 03:47:47.178            28.371               Magadan2          1556.000
       132   05 Jun 2027 03:48:02.726   05 Jun 2027 03:49:12.232            69.506                Norilsk          7774.000
       133   05 Jun 2027 03:49:15.247   05 Jun 2027 03:49:18.682             3.435                Irkutsk           429.375
       134   05 Jun 2027 03:49:41.662   05 Jun 2027 03:50:42.345            60.683              Murmansk2          6740.625
       135   05 Jun 2027 05:19:00.199   05 Jun 2027 05:19:16.957            16.758                Novosib          1971.000
       136   05 Jun 2027 05:19:41.325   05 Jun 2027 05:21:28.515           107.190                Irkutsk         12184.000
       137   05 Jun 2027 05:21:36.491   05 Jun 2027 05:22:21.233            44.742                Irkutsk          3988.000
       138   05 Jun 2027 05:22:24.898   05 Jun 2027 05:22:44.566            19.668                 Moscow          1832.500
       139   05 Jun 2027 05:22:44.890   05 Jun 2027 05:23:08.903            24.013                 Moscow           162.000
       140   05 Jun 2027 05:23:09.836   05 Jun 2027 05:23:26.895            17.059                Norilsk           466.500
       141   05 Jun 2027 05:23:37.332   05 Jun 2027 05:24:20.594            43.262                Norilsk          5218.500
       142   05 Jun 2027 05:24:44.528   05 Jun 2027 05:25:11.765            27.237              Murmansk2          3404.625
       143   05 Jun 2027 05:25:11.765   05 Jun 2027 05:25:31.813            20.048              Murmansk1           318.875
       144   05 Jun 2027 06:56:43.181   05 Jun 2027 06:57:10.206            27.025              Murmansk2          1784.500
       145   05 Jun 2027 06:57:15.685   05 Jun 2027 06:58:04.410            48.725                Novosib          2739.500
       146   05 Jun 2027 06:58:15.514   05 Jun 2027 06:59:15.265            59.751                Novosib          5552.000
       147   05 Jun 2027 06:59:17.960   05 Jun 2027 06:59:20.714             2.754                 Moscow           344.250
       148   05 Jun 2027 06:59:20.721   05 Jun 2027 06:59:36.520            15.799                Norilsk          1006.750
       149   05 Jun 2027 06:59:39.538   05 Jun 2027 07:00:26.617            47.079                Norilsk          1509.000
       150   05 Jun 2027 07:00:36.020   05 Jun 2027 07:01:27.146            51.126                Norilsk          4701.500
       151   05 Jun 2027 08:30:56.562   05 Jun 2027 08:31:07.229            10.667                 Moscow          1149.500
       152   05 Jun 2027 08:31:24.214   05 Jun 2027 08:32:52.366            88.152              Murmansk2          8492.500
       153   05 Jun 2027 08:33:08.257   05 Jun 2027 08:34:12.541            64.284              Murmansk1          7945.500
       154   05 Jun 2027 08:34:25.596   05 Jun 2027 08:35:19.122            53.526              Murmansk2          6527.500
       155   05 Jun 2027 08:35:29.624   05 Jun 2027 08:36:20.303            50.679              Murmansk1          5251.000
       156   06 Jun 2027 03:54:29.423   06 Jun 2027 03:54:36.183             6.760                Norilsk           845.000
       157   06 Jun 2027 03:54:42.317   06 Jun 2027 03:56:28.245           105.928                Irkutsk          5607.000
       158   06 Jun 2027 03:56:28.506   06 Jun 2027 03:56:54.798            26.292                Norilsk           130.500
       159   06 Jun 2027 03:56:57.332   06 Jun 2027 03:57:14.773            17.441               Magadan2          1267.000
       160   06 Jun 2027 03:57:14.992   06 Jun 2027 03:57:18.534             3.542               Magadan1           109.500
       161   06 Jun 2027 03:57:25.134   06 Jun 2027 03:58:17.772            52.638                Novosib          3300.000
       162   06 Jun 2027 03:58:19.612   06 Jun 2027 03:58:38.553            18.941                Norilsk           920.000
       163   06 Jun 2027 03:58:43.666   06 Jun 2027 03:59:04.272            20.606                Norilsk          2556.500
       164   06 Jun 2027 03:59:07.531   06 Jun 2027 04:00:08.540            61.009                Novosib          1629.500
       165   06 Jun 2027 04:00:17.083   06 Jun 2027 04:01:02.938            45.855              Murmansk2          4271.500
       166   06 Jun 2027 04:01:06.557   06 Jun 2027 04:01:24.098            17.541                Novosib          1809.500
       167   06 Jun 2027 05:31:28.525   06 Jun 2027 05:31:48.191            19.666                Norilsk          1117.000
       168   06 Jun 2027 05:31:53.395   06 Jun 2027 05:32:05.389            11.994                Novosib          1499.250
       169   06 Jun 2027 05:32:29.118   06 Jun 2027 05:34:23.550           114.432                Irkutsk         12967.250
       170   06 Jun 2027 05:34:28.737   06 Jun 2027 05:35:22.203            53.466                 Moscow          2593.500
       171   06 Jun 2027 05:35:24.081   06 Jun 2027 05:35:42.489            18.408                Irkutsk           939.000
       172   06 Jun 2027 05:35:43.696   06 Jun 2027 05:35:52.761             9.065              Murmansk1           603.500
       173   06 Jun 2027 05:35:55.637   06 Jun 2027 05:36:28.003            32.366                 Moscow          1410.000
       174   06 Jun 2027 05:36:28.628   06 Jun 2027 05:36:32.436             3.808              Murmansk1           312.500
       175   06 Jun 2027 05:36:34.155   06 Jun 2027 05:36:56.691            22.536                 Moscow           859.500
       176   06 Jun 2027 05:37:01.646   06 Jun 2027 05:37:37.910            36.264              Murmansk2          2477.500
       177   06 Jun 2027 07:08:20.205   06 Jun 2027 07:09:11.270            51.065              Murmansk1          4461.500
       178   06 Jun 2027 07:09:34.626   06 Jun 2027 07:11:35.103           120.477                Norilsk         11678.000
       179   06 Jun 2027 07:11:37.083   06 Jun 2027 07:11:58.411            21.328                Novosib           990.000
       180   06 Jun 2027 07:12:06.197   06 Jun 2027 07:12:44.749            38.552                 Moscow          3893.000
       181   06 Jun 2027 07:12:54.516   06 Jun 2027 07:14:07.588            73.072              Murmansk1          4883.500
       182   06 Jun 2027 08:43:32.482   06 Jun 2027 08:44:35.350            62.868                 Moscow          2426.000
       183   06 Jun 2027 08:45:09.606   06 Jun 2027 08:46:07.094            57.488              Murmansk2           382.500
       184   06 Jun 2027 08:46:27.214   06 Jun 2027 08:48:31.877           124.663              Murmansk2         10060.000
       185   07 Jun 2027 04:07:02.774   07 Jun 2027 04:08:55.793           113.019                Norilsk         13360.000
       186   07 Jun 2027 04:08:56.378   07 Jun 2027 04:09:14.823            18.445                Novosib           292.500
       187   07 Jun 2027 04:09:21.288   07 Jun 2027 04:09:58.139            36.851                Novosib          3232.500
       188   07 Jun 2027 04:10:15.487   07 Jun 2027 04:11:54.665            99.178                Norilsk          8674.000
       189   07 Jun 2027 04:11:58.245   07 Jun 2027 04:11:59.053             0.808                Norilsk           101.000
       190   07 Jun 2027 04:12:02.182   07 Jun 2027 04:13:17.196            75.014                Irkutsk          3253.500
       191   07 Jun 2027 04:13:18.022   07 Jun 2027 04:13:58.125            40.103              Murmansk1           413.000
       192   07 Jun 2027 05:43:40.566   07 Jun 2027 05:43:53.179            12.613                Norilsk          1576.625
       193   07 Jun 2027 05:44:06.052   07 Jun 2027 05:45:20.096            74.044                Novosib          9173.375
       194   07 Jun 2027 05:45:25.120   07 Jun 2027 05:45:46.448            21.328                Norilsk          2512.000
       195   07 Jun 2027 05:45:49.954   07 Jun 2027 05:46:32.736            42.782              Murmansk1          1753.000
       196   07 Jun 2027 05:46:33.069   07 Jun 2027 05:46:38.078             5.009                 Moscow           166.500
       197   07 Jun 2027 05:46:46.700   07 Jun 2027 05:47:49.373            62.673                Novosib          4311.000
       198   07 Jun 2027 05:48:00.085   07 Jun 2027 05:48:43.832            43.747                 Moscow          5356.000
       199   07 Jun 2027 07:20:36.422   07 Jun 2027 07:21:52.418            75.996              Murmansk1          9017.500
       200   07 Jun 2027 07:21:58.156   07 Jun 2027 07:22:39.050            40.894                Novosib          2869.000
       201   07 Jun 2027 07:22:46.391   07 Jun 2027 07:23:34.982            48.591                Norilsk          3670.500
       202   07 Jun 2027 07:23:53.335   07 Jun 2027 07:24:44.125            50.790                Norilsk          6348.750
       203   07 Jun 2027 07:24:47.916   07 Jun 2027 07:25:28.628            40.712                 Moscow          4723.250
       204   07 Jun 2027 08:58:40.284   07 Jun 2027 08:59:23.286            43.002              Murmansk1          4679.500
       205   07 Jun 2027 08:59:26.928   07 Jun 2027 09:00:43.180            76.252              Murmansk2          1821.000
       206   08 Jun 2027 04:19:23.193   08 Jun 2027 04:20:50.989            87.796                Novosib          8872.500
       207   08 Jun 2027 04:20:56.983   08 Jun 2027 04:21:48.273            51.290                Norilsk          2997.000
       208   08 Jun 2027 04:21:48.656   08 Jun 2027 04:22:20.603            31.947                Irkutsk           191.500
       209   08 Jun 2027 04:22:23.459   08 Jun 2027 04:22:58.776            35.317                Novosib          1428.000
       210   08 Jun 2027 04:23:01.769   08 Jun 2027 04:23:17.953            16.184              Murmansk2          1496.500
       211   08 Jun 2027 04:23:18.012   08 Jun 2027 04:24:19.635            61.623                Irkutsk            29.500
       212   08 Jun 2027 04:24:20.847   08 Jun 2027 04:24:49.473            28.626              Murmansk2           606.000
       213   08 Jun 2027 04:25:01.657   08 Jun 2027 04:26:01.345            59.688                Novosib          6092.000
       214   08 Jun 2027 05:56:35.542   08 Jun 2027 05:57:11.706            36.164                Irkutsk           459.500
       215   08 Jun 2027 05:57:18.800   08 Jun 2027 05:58:35.077            76.277                Norilsk          3547.000
       216   08 Jun 2027 05:58:36.042   08 Jun 2027 05:58:41.441             5.399                 Moscow           482.500
       217   08 Jun 2027 05:58:49.464   08 Jun 2027 05:59:25.593            36.129                Norilsk          4011.500
       218   08 Jun 2027 05:59:27.356   08 Jun 2027 05:59:38.890            11.534              Murmansk1           881.500
       219   08 Jun 2027 05:59:39.600   08 Jun 2027 06:00:01.556            21.956                 Moscow           355.000
       220   08 Jun 2027 06:00:04.697   08 Jun 2027 06:00:33.547            28.850                 Moscow          1570.500
       221   08 Jun 2027 06:00:39.593   08 Jun 2027 06:01:30.643            51.050                 Moscow          3023.000
       222   08 Jun 2027 07:32:42.599   08 Jun 2027 07:33:04.370            21.771                Norilsk          1274.000
       223   08 Jun 2027 07:33:12.581   08 Jun 2027 07:33:22.576             9.995              Murmansk2          1249.375
       224   08 Jun 2027 07:33:29.381   08 Jun 2027 07:34:47.202            77.821                Norilsk          6258.625
       225   08 Jun 2027 07:34:48.464   08 Jun 2027 07:35:10.133            21.669                Norilsk           631.000
       226   08 Jun 2027 07:35:12.025   08 Jun 2027 07:36:00.170            48.145              Murmansk2           946.000
       227   08 Jun 2027 07:36:07.888   08 Jun 2027 07:36:37.531            29.643              Murmansk2          3705.375
       228   08 Jun 2027 07:36:37.531   08 Jun 2027 07:36:54.145            16.614              Murmansk1           153.625
       229   08 Jun 2027 07:36:54.937   08 Jun 2027 07:37:48.988            54.051              Murmansk2           125.500
       230   09 Jun 2027 03:00:00.795   09 Jun 2027 03:00:53.212            52.417              Murmansk1           397.500
       231   09 Jun 2027 03:00:54.526   09 Jun 2027 03:01:01.654             7.128              Murmansk2           657.000
       232   09 Jun 2027 03:01:02.303   09 Jun 2027 03:01:32.498            30.195                Novosib           324.500
       233   09 Jun 2027 04:31:08.117   09 Jun 2027 04:31:29.242            21.125                Novosib           854.500
       234   09 Jun 2027 04:31:51.913   09 Jun 2027 04:33:40.013           108.100                Norilsk         11335.500
       235   09 Jun 2027 04:33:56.613   09 Jun 2027 04:35:25.049            88.436                Novosib          8300.000
       236   09 Jun 2027 04:35:31.312   09 Jun 2027 04:37:04.603            93.291                Irkutsk          3131.500
       237   09 Jun 2027 04:37:06.840   09 Jun 2027 04:37:51.178            44.338                Novosib           113.000
       238   09 Jun 2027 06:08:41.022   09 Jun 2027 06:08:57.927            16.905                Norilsk           100.000
       239   09 Jun 2027 06:09:06.272   09 Jun 2027 06:09:46.811            40.539                Norilsk          4172.500
       240   09 Jun 2027 06:09:47.866   09 Jun 2027 06:10:43.718            55.852                Norilsk           527.500
       241   09 Jun 2027 06:10:44.893   09 Jun 2027 06:10:50.504             5.611                Irkutsk           587.500
       242   09 Jun 2027 06:10:50.945   09 Jun 2027 06:11:08.838            17.893                Irkutsk           220.500
       243   09 Jun 2027 06:11:12.863   09 Jun 2027 06:12:11.940            59.077                Irkutsk          2012.500
       244   09 Jun 2027 06:12:19.106   09 Jun 2027 06:12:23.637             4.531                Norilsk           566.375
       245   09 Jun 2027 06:12:28.028   09 Jun 2027 06:13:42.267            74.239                 Moscow          5212.125
       246   09 Jun 2027 07:44:47.128   09 Jun 2027 07:45:33.181            46.053                Novosib          2485.000
       247   09 Jun 2027 07:45:42.332   09 Jun 2027 07:46:45.314            62.982                Norilsk          4575.500
       248   09 Jun 2027 07:46:48.239   09 Jun 2027 07:47:21.721            33.482                Norilsk          1462.500
       249   09 Jun 2027 07:47:25.857   09 Jun 2027 07:48:36.271            70.414                Novosib          2068.000
       250   09 Jun 2027 07:48:38.453   09 Jun 2027 07:49:31.951            53.498                Novosib          1091.000
       251   09 Jun 2027 07:49:37.754   09 Jun 2027 07:50:08.739            30.985                Norilsk          2901.500
       252   10 Jun 2027 03:06:31.923   10 Jun 2027 03:08:07.981            96.058                Norilsk          7519.000
       253   10 Jun 2027 03:08:10.847   10 Jun 2027 03:08:49.868            39.021               Magadan2          1433.000
       254   10 Jun 2027 03:08:57.821   10 Jun 2027 03:10:50.286           112.465                Irkutsk          3976.500
       255   10 Jun 2027 03:10:57.031   10 Jun 2027 03:11:32.295            35.264                Norilsk          3372.500
       256   10 Jun 2027 03:11:35.524   10 Jun 2027 03:12:13.806            38.282                Novosib          1614.500
       257   10 Jun 2027 03:12:27.889   10 Jun 2027 03:13:03.192            35.303               Magadan1          4412.875
       258   10 Jun 2027 03:13:03.363   10 Jun 2027 03:13:35.093            31.730                Irkutsk          2714.125
       259   10 Jun 2027 03:13:56.693   10 Jun 2027 03:14:42.766            46.073                Novosib          2261.000
       260   10 Jun 2027 04:43:08.109   10 Jun 2027 04:43:52.299            44.190                Irkutsk          5523.750
       261   10 Jun 2027 04:43:55.869   10 Jun 2027 04:44:26.499            30.630                Norilsk          3826.750
       262   10 Jun 2027 04:44:30.236   10 Jun 2027 04:44:53.147            22.911                Irkutsk          1868.500
       263   10 Jun 2027 04:44:59.884   10 Jun 2027 04:45:30.996            31.112                Norilsk          3368.500
       264   10 Jun 2027 04:45:53.700   10 Jun 2027 04:46:06.538            12.838                Norilsk          1604.750
       265   10 Jun 2027 04:46:06.832   10 Jun 2027 04:47:36.274            89.442                Novosib          9894.250
       266   10 Jun 2027 04:47:39.635   10 Jun 2027 04:48:05.760            26.125                Norilsk          1680.500
       267   10 Jun 2027 04:48:18.766   10 Jun 2027 04:49:10.814            52.048              Murmansk2          6503.000
       268   10 Jun 2027 04:49:10.907   10 Jun 2027 04:49:50.691            39.784                 Moscow            46.500
       269   10 Jun 2027 06:21:13.269   10 Jun 2027 06:22:01.510            48.241                Irkutsk          1222.500
       270   10 Jun 2027 06:22:09.403   10 Jun 2027 06:22:49.515            40.112                Norilsk          3946.500
       271   10 Jun 2027 06:22:54.033   10 Jun 2027 06:23:36.205            42.172                Norilsk          2259.000
       272   10 Jun 2027 06:23:38.272   10 Jun 2027 06:23:44.690             6.418                Irkutsk           802.250
       273   10 Jun 2027 06:23:47.486   10 Jun 2027 06:24:03.722            16.236                Novosib          1629.250
       274   10 Jun 2027 06:24:25.179   10 Jun 2027 06:25:58.023            92.844                Novosib         10728.500
       275   10 Jun 2027 07:54:40.061   10 Jun 2027 07:54:47.822             7.761                 Moscow           970.125
       276   10 Jun 2027 07:54:56.344   10 Jun 2027 07:55:06.899            10.555                 Moscow          1319.375
       277   10 Jun 2027 07:55:15.823   10 Jun 2027 07:55:52.312            36.489              Murmansk2          2298.000
       278   10 Jun 2027 07:56:40.915   10 Jun 2027 07:57:28.422            47.507                 Moscow          5206.000
       279   10 Jun 2027 07:57:29.247   10 Jun 2027 07:58:42.597            73.350                 Moscow           412.500
       280   10 Jun 2027 07:58:42.725   10 Jun 2027 07:58:49.468             6.743                Norilsk            64.000
       281   10 Jun 2027 07:58:53.728   10 Jun 2027 07:59:14.605            20.877              Murmansk1          2130.000
       282   10 Jun 2027 07:59:18.953   10 Jun 2027 07:59:43.003            24.050                Norilsk          2174.000
       283   10 Jun 2027 07:59:44.689   10 Jun 2027 07:59:48.843             4.154                 Moscow           519.250
       284   10 Jun 2027 07:59:52.021   10 Jun 2027 08:00:11.401            19.380              Murmansk2          1912.750
       285   10 Jun 2027 08:00:13.046   10 Jun 2027 08:00:30.442            17.396              Murmansk2           822.500
       286   10 Jun 2027 08:00:35.255   10 Jun 2027 08:00:59.185            23.930                Novosib          2406.500
       287   10 Jun 2027 08:01:07.526   10 Jun 2027 08:01:30.632            23.106                Norilsk          2341.000
       288   10 Jun 2027 08:01:33.336   10 Jun 2027 08:02:22.866            49.530              Murmansk1          1352.000
       289   11 Jun 2027 03:18:22.515   11 Jun 2027 03:19:18.539            56.024                Novosib          5944.000
       290   11 Jun 2027 03:19:21.148   11 Jun 2027 03:19:37.205            16.057               Magadan2          1304.500
       291   11 Jun 2027 03:19:39.685   11 Jun 2027 03:20:45.249            65.564               Magadan2          1240.000
       292   11 Jun 2027 03:20:59.805   11 Jun 2027 03:22:10.928            71.123                Irkutsk          7278.000
       293   11 Jun 2027 03:22:12.718   11 Jun 2027 03:22:25.675            12.957               Magadan1           895.000
       294   11 Jun 2027 03:22:32.351   11 Jun 2027 03:23:01.296            28.945                Norilsk          3338.000
       295   11 Jun 2027 03:23:03.036   11 Jun 2027 03:23:30.420            27.384                Irkutsk           870.000
       296   11 Jun 2027 03:23:32.267   11 Jun 2027 03:23:48.989            16.722                Novosib           923.500
       297   11 Jun 2027 03:23:53.914   11 Jun 2027 03:24:24.298            30.384                Norilsk          2462.500
       298   11 Jun 2027 03:24:36.268   11 Jun 2027 03:25:56.819            80.551                Norilsk          5985.000
       299   11 Jun 2027 04:55:31.793   11 Jun 2027 04:57:01.543            89.750                Norilsk          8843.000
       300   11 Jun 2027 04:57:06.280   11 Jun 2027 04:57:42.175            35.895                Norilsk          2368.500
       301   11 Jun 2027 04:57:42.593   11 Jun 2027 04:58:04.588            21.995                Norilsk           209.000
       302   11 Jun 2027 04:58:11.885   11 Jun 2027 04:58:44.835            32.950                Irkutsk          3648.500
       303   11 Jun 2027 04:58:51.983   11 Jun 2027 04:59:21.384            29.401                Novosib          3574.000
       304   11 Jun 2027 04:59:21.567   11 Jun 2027 04:59:24.161             2.594              Murmansk1            91.500
       305   11 Jun 2027 04:59:25.069   11 Jun 2027 04:59:34.744             9.675                Norilsk           454.000
       306   11 Jun 2027 04:59:41.206   11 Jun 2027 05:00:31.409            50.203                 Moscow          3231.000
       307   11 Jun 2027 05:00:32.137   11 Jun 2027 05:00:41.287             9.150                 Moscow           364.000
       308   11 Jun 2027 05:01:12.887   11 Jun 2027 05:03:13.146           120.259              Murmansk1         14304.000
       309   11 Jun 2027 06:33:09.703   11 Jun 2027 06:33:32.399            22.696                Norilsk           661.000
       310   11 Jun 2027 06:33:37.903   11 Jun 2027 06:34:37.509            59.606                 Moscow          2752.000
       311   11 Jun 2027 06:34:44.413   11 Jun 2027 06:35:18.745            34.332                Novosib          3452.000
       312   11 Jun 2027 06:35:19.063   11 Jun 2027 06:35:35.910            16.847                 Moscow           159.000
       313   11 Jun 2027 06:35:41.058   11 Jun 2027 06:36:25.021            43.963              Murmansk2          2574.000
       314   11 Jun 2027 06:36:34.876   11 Jun 2027 06:37:33.003            58.127                 Moscow          4927.500
       315   11 Jun 2027 08:07:01.442   11 Jun 2027 08:10:47.957           226.515                 Moscow         20099.500
       316   11 Jun 2027 08:10:50.877   11 Jun 2027 08:11:07.542            16.665                Norilsk          1460.000
       317   11 Jun 2027 08:11:15.515   11 Jun 2027 08:11:48.876            33.361              Murmansk1          3986.500
       318   11 Jun 2027 08:11:50.294   11 Jun 2027 08:12:07.508            17.214                Norilsk           709.000
       319   11 Jun 2027 08:12:13.781   11 Jun 2027 08:12:50.343            36.562              Murmansk1          3136.500
       320   11 Jun 2027 08:13:01.611   11 Jun 2027 08:13:16.168            14.557                Norilsk           454.000
       321   11 Jun 2027 08:13:22.839   11 Jun 2027 08:13:46.580            23.741                Norilsk          2967.625
       322   11 Jun 2027 08:14:12.424   11 Jun 2027 08:16:21.783           129.359                Norilsk         13289.875
       323   12 Jun 2027 03:30:25.398   12 Jun 2027 03:30:51.100            25.702                Norilsk          1543.000
       324   12 Jun 2027 03:30:51.741   12 Jun 2027 03:31:09.690            17.949                Norilsk           320.500
       325   12 Jun 2027 03:31:11.682   12 Jun 2027 03:31:22.050            10.368                Novosib           996.000
       326   12 Jun 2027 03:31:40.011   12 Jun 2027 03:32:57.765            77.754               Magadan1          8980.500
       327   12 Jun 2027 03:33:00.977   12 Jun 2027 03:33:26.054            25.077                Irkutsk          1606.000
       328   12 Jun 2027 03:33:26.488   12 Jun 2027 03:33:50.201            23.713                Novosib           217.000
       329   12 Jun 2027 03:33:59.903   12 Jun 2027 03:34:57.084            57.181                Novosib          4851.000
       330   12 Jun 2027 03:35:01.547   12 Jun 2027 03:35:42.332            40.785                Norilsk          2231.500
       331   12 Jun 2027 03:35:42.839   12 Jun 2027 03:35:56.573            13.734               Magadan2           253.500
       332   12 Jun 2027 03:36:06.399   12 Jun 2027 03:37:03.859            57.460                Novosib          4913.000
       333   12 Jun 2027 03:37:16.791   12 Jun 2027 03:38:10.263            53.472              Murmansk2          6466.000
       334   12 Jun 2027 05:07:16.895   12 Jun 2027 05:07:42.145            25.250                Novosib          3156.250
       335   12 Jun 2027 05:07:43.089   12 Jun 2027 05:08:18.074            34.985                Norilsk          3190.250
       336   12 Jun 2027 05:08:54.287   12 Jun 2027 05:11:21.046           146.759                Irkutsk         18106.500
       337   12 Jun 2027 05:11:23.323   12 Jun 2027 05:12:11.344            48.021              Murmansk1          1138.500
       338   12 Jun 2027 05:12:24.150   12 Jun 2027 05:13:33.294            69.144              Murmansk2          6403.000
       339   12 Jun 2027 05:13:37.365   12 Jun 2027 05:14:16.571            39.206              Murmansk1          2035.500
       340   12 Jun 2027 06:45:10.989   12 Jun 2027 06:45:13.017             2.028                Irkutsk           253.500
       341   12 Jun 2027 06:45:23.807   12 Jun 2027 06:46:39.228            75.421                 Moscow          6528.500
       342   12 Jun 2027 06:46:42.982   12 Jun 2027 06:47:00.430            17.448                Norilsk          1877.000
       343   12 Jun 2027 06:47:02.886   12 Jun 2027 06:47:27.822            24.936                 Moscow          1228.000
       344   12 Jun 2027 06:47:28.779   12 Jun 2027 06:48:19.927            51.148              Murmansk1           478.500
       345   12 Jun 2027 06:48:21.054   12 Jun 2027 06:48:39.358            18.304              Murmansk2           563.500
       346   12 Jun 2027 06:48:42.943   12 Jun 2027 06:49:18.360            35.417              Murmansk1          1792.500
       347   12 Jun 2027 08:18:49.692   12 Jun 2027 08:19:07.574            17.882                 Moscow           254.000
       348   12 Jun 2027 08:19:09.850   12 Jun 2027 08:20:15.686            65.836                 Moscow          1138.000
       349   12 Jun 2027 08:20:28.065   12 Jun 2027 08:21:29.383            61.318                 Moscow          6189.500
       350   12 Jun 2027 08:21:33.888   12 Jun 2027 08:22:34.342            60.454              Murmansk1          2252.500
       351   12 Jun 2027 08:22:38.914   12 Jun 2027 08:23:16.132            37.218              Murmansk2          2286.000
       352   12 Jun 2027 08:23:28.292   12 Jun 2027 08:24:24.688            56.396                Norilsk          6080.000
       353   12 Jun 2027 08:24:25.721   12 Jun 2027 08:25:20.346            54.625              Murmansk1           516.500
       354   12 Jun 2027 08:25:20.670   12 Jun 2027 08:26:11.611            50.941              Murmansk2           162.000
       355   13 Jun 2027 03:42:21.246   13 Jun 2027 03:42:44.317            23.071                Norilsk          2422.000
       356   13 Jun 2027 03:42:45.411   13 Jun 2027 03:43:10.334            24.923               Magadan2           547.000
       357   13 Jun 2027 03:43:26.052   13 Jun 2027 03:44:43.305            77.253                Novosib          7859.000
       358   13 Jun 2027 03:44:50.772   13 Jun 2027 03:45:27.486            36.714               Magadan1          3733.500
       359   13 Jun 2027 03:45:27.793   13 Jun 2027 03:45:30.921             3.128               Magadan1           153.500
       360   13 Jun 2027 03:45:32.170   13 Jun 2027 03:46:24.486            52.316                Norilsk           624.500
       361   13 Jun 2027 03:46:24.941   13 Jun 2027 03:46:29.253             4.312                Novosib           227.500
       362   13 Jun 2027 03:46:32.343   13 Jun 2027 03:46:50.357            18.014                Irkutsk          1545.000
       363   13 Jun 2027 03:46:51.304   13 Jun 2027 03:47:26.732            35.428               Magadan2           473.500
       364   13 Jun 2027 03:47:30.779   13 Jun 2027 03:48:18.530            47.751                Norilsk          2023.500
       365   13 Jun 2027 03:48:20.631   13 Jun 2027 03:49:01.234            40.603              Murmansk2          1050.500
       366   13 Jun 2027 03:49:07.084   13 Jun 2027 03:49:14.421             7.337                Novosib           917.125
       367   13 Jun 2027 03:49:18.267   13 Jun 2027 03:49:57.441            39.174              Murmansk2          3930.875
       368   13 Jun 2027 05:19:14.294   13 Jun 2027 05:19:37.690            23.396                Norilsk          1402.500
       369   13 Jun 2027 05:19:55.972   13 Jun 2027 05:21:09.377            73.405                Irkutsk          9141.000
       370   13 Jun 2027 05:21:15.678   13 Jun 2027 05:21:54.972            39.294                Norilsk          3150.500
       371   13 Jun 2027 05:21:54.977   13 Jun 2027 05:22:08.662            13.685                 Moscow             2.500
       372   13 Jun 2027 05:22:27.153   13 Jun 2027 05:24:06.265            99.112                 Moscow          9245.500
       373   13 Jun 2027 05:24:12.790   13 Jun 2027 05:24:43.355            30.565                 Moscow          3262.500
       374   13 Jun 2027 05:24:53.983   13 Jun 2027 05:25:16.242            22.259                 Moscow          1113.000
       375   13 Jun 2027 05:25:16.958   13 Jun 2027 05:25:26.536             9.578              Murmansk2           358.000
       376   13 Jun 2027 05:25:33.573   13 Jun 2027 05:27:08.374            94.801                Novosib          3518.500
       377   13 Jun 2027 06:56:56.866   13 Jun 2027 06:57:13.409            16.543                Norilsk          1311.000
       378   13 Jun 2027 06:57:17.503   13 Jun 2027 06:57:46.799            29.296                Novosib          2047.000
       379   13 Jun 2027 06:57:50.573   13 Jun 2027 06:58:09.288            18.715                Norilsk          1887.000
       380   13 Jun 2027 06:58:19.097   13 Jun 2027 06:59:09.662            50.565                Novosib          4904.500
       381   13 Jun 2027 06:59:10.981   13 Jun 2027 06:59:26.629            15.648                 Moscow           659.500
       382   13 Jun 2027 06:59:30.065   13 Jun 2027 07:00:06.358            36.293                Novosib          1718.000
       383   13 Jun 2027 07:00:15.360   13 Jun 2027 07:01:08.323            52.963              Murmansk2          4501.000
       384   13 Jun 2027 07:01:11.066   13 Jun 2027 07:01:26.161            15.095              Murmansk1          1371.500
       385   13 Jun 2027 08:31:11.410   13 Jun 2027 08:31:21.998            10.588                 Moscow           953.000
       386   13 Jun 2027 08:31:38.889   13 Jun 2027 08:33:09.379            90.490              Murmansk2          8445.500
       387   13 Jun 2027 08:33:22.762   13 Jun 2027 08:34:29.996            67.234              Murmansk1          6691.500
       388   13 Jun 2027 08:34:40.450   13 Jun 2027 08:35:34.744            54.294              Murmansk1          5227.000
       389   13 Jun 2027 08:35:44.249   13 Jun 2027 08:36:35.507            51.258              Murmansk2          4752.500
