uniorb/output/strategy_2/Drop/Drop_KinoSat_110110.txt

KinoSat_110110
-------------------------
    Access    *     Start Time (UTCG)     *     Stop Time (UTCG)  *   Duration (s)        *       Station  *  Data (Mbytes)
         1   01 Jun 2027 03:18:35.848   01 Jun 2027 03:19:08.447            32.599                Novosib          3832.500
         2   01 Jun 2027 03:19:15.677   01 Jun 2027 03:20:04.850            49.173                Irkutsk          3615.000
         3   01 Jun 2027 03:20:05.574   01 Jun 2027 03:20:10.098             4.524                Novosib           362.000
         4   01 Jun 2027 03:20:17.610   01 Jun 2027 03:21:30.784            73.174                Irkutsk          3756.000
         5   01 Jun 2027 03:21:40.344   01 Jun 2027 03:22:30.968            50.624                Norilsk          4780.000
         6   01 Jun 2027 03:22:37.858   01 Jun 2027 03:23:09.076            31.218                Novosib          3445.000
         7   01 Jun 2027 03:23:12.280   01 Jun 2027 03:23:44.855            32.575                Novosib          1602.000
         8   01 Jun 2027 03:23:45.783   01 Jun 2027 03:23:50.926             5.143              Murmansk2           464.000
         9   01 Jun 2027 03:24:07.881   01 Jun 2027 03:25:31.094            83.213                Novosib          8477.500
        10   01 Jun 2027 04:55:35.565   01 Jun 2027 04:55:43.425             7.860                Norilsk           982.500
        11   01 Jun 2027 04:55:43.863   01 Jun 2027 04:56:51.152            67.289                Novosib          5656.500
        12   01 Jun 2027 04:56:57.512   01 Jun 2027 04:58:07.239            69.727                Irkutsk          3180.000
        13   01 Jun 2027 04:58:13.594   01 Jun 2027 04:58:50.751            37.157                Norilsk          3177.500
        14   01 Jun 2027 04:58:50.850   01 Jun 2027 04:59:10.582            19.732              Murmansk1            49.500
        15   01 Jun 2027 04:59:15.278   01 Jun 2027 04:59:58.279            43.001                Irkutsk          2348.000
        16   01 Jun 2027 05:00:09.603   01 Jun 2027 05:01:05.518            55.915                 Moscow          5662.000
        17   01 Jun 2027 05:01:08.715   01 Jun 2027 05:01:31.169            22.454              Murmansk1          1598.500
        18   01 Jun 2027 06:32:18.373   01 Jun 2027 06:32:44.026            25.653                 Moscow          2346.500
        19   01 Jun 2027 06:32:46.689   01 Jun 2027 06:33:06.528            19.839                Norilsk          1331.500
        20   01 Jun 2027 06:33:07.861   01 Jun 2027 06:33:15.819             7.958                Norilsk           666.500
        21   01 Jun 2027 06:33:17.519   01 Jun 2027 06:33:23.170             5.651                 Moscow           706.375
        22   01 Jun 2027 06:33:25.740   01 Jun 2027 06:33:54.215            28.475              Murmansk1          1428.625
        23   01 Jun 2027 06:33:54.507   01 Jun 2027 06:34:01.864             7.357                Norilsk           146.000
        24   01 Jun 2027 06:34:02.451   01 Jun 2027 06:34:19.835            17.384              Murmansk2           293.500
        25   01 Jun 2027 06:34:28.252   01 Jun 2027 06:35:14.215            45.963              Murmansk1          4208.500
        26   01 Jun 2027 06:35:18.984   01 Jun 2027 06:35:39.616            20.632                 Moscow          2384.500
        27   01 Jun 2027 06:35:41.169   01 Jun 2027 06:35:49.262             8.093              Murmansk2           776.500
        28   01 Jun 2027 06:35:53.163   01 Jun 2027 06:36:18.342            25.179                Novosib          1950.500
        29   01 Jun 2027 06:36:28.914   01 Jun 2027 06:37:30.283            61.369                Norilsk          5286.000
        30   01 Jun 2027 08:09:57.053   01 Jun 2027 08:10:35.075            38.022              Murmansk1          3445.500
        31   01 Jun 2027 08:10:36.473   01 Jun 2027 08:11:33.323            56.850                 Moscow           699.000
        32   01 Jun 2027 08:12:14.243   01 Jun 2027 08:12:25.578            11.335              Murmansk2           649.000
        33   02 Jun 2027 03:30:40.870   02 Jun 2027 03:31:15.787            34.917                Norilsk          2926.500
        34   02 Jun 2027 03:31:20.469   02 Jun 2027 03:31:54.954            34.485                Irkutsk          2341.000
        35   02 Jun 2027 03:31:57.833   02 Jun 2027 03:32:31.551            33.718                Norilsk          1439.500
        36   02 Jun 2027 03:32:35.806   02 Jun 2027 03:33:05.578            29.772                Irkutsk          2127.500
        37   02 Jun 2027 03:33:05.721   02 Jun 2027 03:33:49.509            43.788                Novosib            71.500
        38   02 Jun 2027 03:33:59.382   02 Jun 2027 03:35:07.567            68.185                Novosib          4936.500
        39   02 Jun 2027 03:35:10.550   02 Jun 2027 03:35:41.285            30.735              Murmansk2          1491.500
        40   02 Jun 2027 03:35:44.673   02 Jun 2027 03:36:06.127            21.454                Norilsk          1694.000
        41   02 Jun 2027 03:36:17.967   02 Jun 2027 03:37:05.554            47.587                Norilsk          5920.000
        42   02 Jun 2027 03:37:11.754   02 Jun 2027 03:37:27.536            15.782                Norilsk          1972.750
        43   02 Jun 2027 03:37:32.487   02 Jun 2027 03:37:55.279            22.792                Novosib          1127.250
        44   02 Jun 2027 05:08:28.529   02 Jun 2027 05:10:03.648            95.119                Novosib          5579.500
        45   02 Jun 2027 05:10:05.230   02 Jun 2027 05:10:10.308             5.078              Murmansk2           634.750
        46   02 Jun 2027 05:10:13.234   02 Jun 2027 05:10:26.997            13.763                Norilsk          1619.250
        47   02 Jun 2027 05:10:27.443   02 Jun 2027 05:10:39.265            11.822                Norilsk           223.000
        48   02 Jun 2027 05:10:48.142   02 Jun 2027 05:11:28.202            40.060                 Moscow          4438.500
        49   02 Jun 2027 05:11:31.795   02 Jun 2027 05:11:58.963            27.168                 Moscow          1796.500
        50   02 Jun 2027 05:11:59.346   02 Jun 2027 05:13:10.334            70.988                 Moscow           191.500
        51   02 Jun 2027 06:44:17.113   02 Jun 2027 06:44:32.304            15.191              Murmansk1           620.500
        52   02 Jun 2027 06:44:37.898   02 Jun 2027 06:45:26.025            48.127                 Moscow          2797.000
        53   02 Jun 2027 06:45:29.897   02 Jun 2027 06:46:28.870            58.973              Murmansk2          1936.000
        54   02 Jun 2027 06:46:36.809   02 Jun 2027 06:47:13.683            36.874                Norilsk          3969.500
        55   02 Jun 2027 06:47:19.788   02 Jun 2027 06:47:47.619            27.831                Norilsk          3052.500
        56   02 Jun 2027 06:47:51.517   02 Jun 2027 06:48:18.245            26.728              Murmansk2          1949.000
        57   02 Jun 2027 06:48:21.299   02 Jun 2027 06:48:53.583            32.284                Norilsk          1527.000
        58   02 Jun 2027 06:49:08.511   02 Jun 2027 06:49:50.276            41.765              Murmansk2          4363.000
        59   03 Jun 2027 03:43:12.889   03 Jun 2027 03:43:26.460            13.571                Norilsk          1242.000
        60   03 Jun 2027 03:43:27.825   03 Jun 2027 03:43:39.569            11.744                Irkutsk           682.500
        61   03 Jun 2027 03:43:45.337   03 Jun 2027 03:44:24.473            39.136                Irkutsk          2884.000
        62   03 Jun 2027 03:44:32.440   03 Jun 2027 03:45:20.373            47.933                Novosib          3983.500
        63   03 Jun 2027 03:45:21.033   03 Jun 2027 03:45:55.354            34.321                Novosib           330.000
        64   03 Jun 2027 03:46:05.487   03 Jun 2027 03:46:47.412            41.925                Novosib          5066.500
        65   03 Jun 2027 03:46:55.976   03 Jun 2027 03:47:57.353            61.377                Irkutsk          4282.000
        66   03 Jun 2027 03:48:09.474   03 Jun 2027 03:48:36.073            26.599                Norilsk          3324.875
        67   03 Jun 2027 03:48:41.280   03 Jun 2027 03:49:29.640            48.360                Irkutsk          5339.125
        68   03 Jun 2027 05:20:25.067   03 Jun 2027 05:20:33.080             8.013              Murmansk1           566.000
        69   03 Jun 2027 05:20:47.883   03 Jun 2027 05:22:03.638            75.755                Norilsk          7401.500
        70   03 Jun 2027 05:22:07.331   03 Jun 2027 05:22:31.287            23.956              Murmansk2          1846.500
        71   03 Jun 2027 05:22:36.380   03 Jun 2027 05:22:57.836            21.456                 Moscow          2546.500
        72   03 Jun 2027 05:23:05.604   03 Jun 2027 05:23:30.053            24.449                Novosib          3056.125
        73   03 Jun 2027 05:23:39.867   03 Jun 2027 05:25:15.673            95.806                 Moscow          5734.875
        74   03 Jun 2027 06:56:47.461   03 Jun 2027 06:57:28.118            40.657              Murmansk1          2291.000
        75   03 Jun 2027 06:57:31.302   03 Jun 2027 06:58:06.054            34.752              Murmansk1          1592.000
        76   03 Jun 2027 06:58:15.886   03 Jun 2027 06:59:01.653            45.767                 Moscow          4916.000
        77   03 Jun 2027 06:59:05.247   03 Jun 2027 06:59:30.129            24.882              Murmansk2          1797.000
        78   03 Jun 2027 06:59:30.346   03 Jun 2027 06:59:41.347            11.001                 Moscow           108.500
        79   03 Jun 2027 06:59:42.764   03 Jun 2027 07:00:21.157            38.393                 Moscow           708.500
        80   03 Jun 2027 07:00:22.156   03 Jun 2027 07:01:23.780            61.624                Norilsk           499.500
        81   04 Jun 2027 03:55:04.054   04 Jun 2027 03:56:32.302            88.248                Irkutsk         10998.500
        82   04 Jun 2027 03:56:39.462   04 Jun 2027 03:57:26.979            47.517                Norilsk          3580.000
        83   04 Jun 2027 03:57:31.480   04 Jun 2027 03:57:50.125            18.645                Norilsk          2250.500
        84   04 Jun 2027 03:57:54.140   04 Jun 2027 03:58:12.230            18.090                Novosib          2007.500
        85   04 Jun 2027 03:58:13.715   04 Jun 2027 03:58:19.924             6.209              Murmansk1           742.500
        86   04 Jun 2027 03:58:20.351   04 Jun 2027 03:58:42.244            21.893                Norilsk           213.500
        87   04 Jun 2027 03:58:45.155   04 Jun 2027 03:59:57.327            72.172                Novosib          1455.500
        88   04 Jun 2027 04:00:00.247   04 Jun 2027 04:00:24.515            24.268                Norilsk          1460.000
        89   04 Jun 2027 04:00:35.278   04 Jun 2027 04:01:40.479            65.201              Murmansk1          5381.500
        90   04 Jun 2027 05:33:16.123   04 Jun 2027 05:34:16.351            60.228                Norilsk          7222.000
        91   04 Jun 2027 05:34:19.418   04 Jun 2027 05:34:36.829            17.411                Irkutsk          1533.500
        92   04 Jun 2027 05:34:42.898   04 Jun 2027 05:35:54.969            72.071                Irkutsk          3034.500
        93   04 Jun 2027 05:35:56.693   04 Jun 2027 05:36:36.157            39.464              Murmansk1           862.000
        94   04 Jun 2027 05:36:55.196   04 Jun 2027 05:37:58.807            63.611              Murmansk2          7951.375
        95   04 Jun 2027 05:37:58.807   04 Jun 2027 05:38:02.160             3.353              Murmansk1           142.125
        96   04 Jun 2027 07:08:34.609   04 Jun 2027 07:09:37.890            63.281              Murmansk2          6715.500
        97   04 Jun 2027 07:09:41.288   04 Jun 2027 07:10:03.885            22.597                Norilsk          1699.000
        98   04 Jun 2027 07:10:07.605   04 Jun 2027 07:10:30.789            23.184              Murmansk2          1860.000
        99   04 Jun 2027 07:10:37.123   04 Jun 2027 07:11:25.647            48.524              Murmansk2          3167.000
       100   04 Jun 2027 07:11:28.125   04 Jun 2027 07:12:08.089            39.964                Norilsk          1239.000
       101   04 Jun 2027 07:12:10.031   04 Jun 2027 07:13:00.492            50.461              Murmansk2           971.000
       102   04 Jun 2027 07:13:21.354   04 Jun 2027 07:14:13.092            51.738                Norilsk          6467.250
       103   04 Jun 2027 07:14:13.910   04 Jun 2027 07:15:15.726            61.816              Murmansk1          3963.750
       104   05 Jun 2027 04:07:05.325   05 Jun 2027 04:07:28.019            22.694                Norilsk           939.000
       105   05 Jun 2027 04:07:35.341   05 Jun 2027 04:07:44.193             8.852                Novosib          1106.500
       106   05 Jun 2027 04:07:54.628   05 Jun 2027 04:08:46.098            51.470                Novosib          6433.750
       107   05 Jun 2027 04:08:53.798   05 Jun 2027 04:10:23.173            89.375                Irkutsk          5188.251
       108   05 Jun 2027 04:10:28.915   05 Jun 2027 04:12:48.842           139.927                Irkutsk          2871.000
       109   05 Jun 2027 04:12:49.712   05 Jun 2027 04:13:12.222            22.510              Murmansk1           435.000
       110   05 Jun 2027 04:13:33.764   05 Jun 2027 04:14:45.431            71.667                 Moscow          6243.000
       111   05 Jun 2027 05:45:04.333   05 Jun 2027 05:45:18.724            14.391              Murmansk1           680.500
       112   05 Jun 2027 05:45:32.045   05 Jun 2027 05:46:52.756            80.711                 Moscow          6660.500
       113   05 Jun 2027 05:46:54.290   05 Jun 2027 05:47:21.695            27.405                Irkutsk           767.000
       114   05 Jun 2027 05:47:27.270   05 Jun 2027 05:47:59.783            32.513                 Moscow          2787.500
       115   05 Jun 2027 05:48:20.140   05 Jun 2027 05:49:38.414            78.274                Norilsk          9784.250
       116   05 Jun 2027 05:49:47.461   05 Jun 2027 05:50:05.940            18.479                Norilsk           394.250
       117   05 Jun 2027 07:18:15.299   05 Jun 2027 07:18:17.729             2.430                 Moscow           303.750
       118   05 Jun 2027 07:18:40.405   05 Jun 2027 07:20:26.866           106.461                 Moscow         11817.250
       119   05 Jun 2027 07:20:30.393   05 Jun 2027 07:21:22.213            51.820                Novosib          1763.500
       120   05 Jun 2027 07:21:22.938   05 Jun 2027 07:21:38.815            15.877              Murmansk1           362.500
       121   05 Jun 2027 07:22:00.212   05 Jun 2027 07:22:48.712            48.500                Norilsk          6062.500
       122   05 Jun 2027 07:22:51.646   05 Jun 2027 07:23:42.827            51.181              Murmansk1          6103.000
       123   05 Jun 2027 07:23:48.677   05 Jun 2027 07:24:34.502            45.825                Novosib          2925.000
       124   05 Jun 2027 07:24:52.698   05 Jun 2027 07:25:55.155            62.457              Murmansk2          7807.125
       125   05 Jun 2027 07:25:55.155   05 Jun 2027 07:26:11.893            16.738              Murmansk1          1290.875
       126   06 Jun 2027 04:19:09.472   06 Jun 2027 04:19:39.678            30.206                Novosib          1549.500
       127   06 Jun 2027 04:19:58.748   06 Jun 2027 04:21:19.872            81.124                Norilsk          9535.000
       128   06 Jun 2027 04:21:22.938   06 Jun 2027 04:21:44.614            21.676                Irkutsk          1533.000
       129   06 Jun 2027 04:21:47.650   06 Jun 2027 04:22:09.641            21.991                Novosib          1518.000
       130   06 Jun 2027 04:22:10.336   06 Jun 2027 04:22:15.730             5.394              Murmansk1           347.500
       131   06 Jun 2027 04:22:22.034   06 Jun 2027 04:22:53.042            31.008              Murmansk1          3152.000
       132   06 Jun 2027 04:23:00.971   06 Jun 2027 04:23:40.008            39.037                Norilsk          3964.500
       133   06 Jun 2027 04:23:44.158   06 Jun 2027 04:24:09.443            25.285              Murmansk1          2075.000
       134   06 Jun 2027 04:24:14.508   06 Jun 2027 04:24:38.121            23.613              Murmansk1          2532.500
       135   06 Jun 2027 04:24:40.241   06 Jun 2027 04:25:10.111            29.870                 Moscow          1060.000
       136   06 Jun 2027 04:25:16.486   06 Jun 2027 04:25:43.559            27.073              Murmansk2          3187.500
       137   06 Jun 2027 05:57:04.398   06 Jun 2027 05:58:00.806            56.408                Novosib           872.000
       138   06 Jun 2027 05:58:02.566   06 Jun 2027 05:58:13.857            11.291              Murmansk1           880.000
       139   06 Jun 2027 05:58:17.202   06 Jun 2027 05:58:29.055            11.853                Norilsk          1481.625
       140   06 Jun 2027 05:58:39.586   06 Jun 2027 05:59:44.559            64.973                Novosib          5456.375
       141   06 Jun 2027 05:59:52.583   06 Jun 2027 06:00:48.823            56.240                Norilsk          4012.000
       142   06 Jun 2027 06:00:50.543   06 Jun 2027 06:01:11.572            21.029                Novosib           860.000
       143   06 Jun 2027 07:30:46.201   06 Jun 2027 07:32:04.312            78.111                 Moscow          4077.000
       144   06 Jun 2027 07:32:08.980   06 Jun 2027 07:33:01.535            52.555              Murmansk2          2334.000
       145   06 Jun 2027 07:33:19.449   06 Jun 2027 07:34:33.419            73.970              Murmansk1          8957.000
       146   06 Jun 2027 07:34:36.186   06 Jun 2027 07:35:04.517            28.331              Murmansk1          1383.500
       147   06 Jun 2027 07:35:09.494   06 Jun 2027 07:35:57.566            48.072                Norilsk          2488.500
       148   06 Jun 2027 07:36:00.050   06 Jun 2027 07:36:45.653            45.603              Murmansk2          1242.000
       149   06 Jun 2027 07:37:05.317   06 Jun 2027 07:38:40.480            95.163                 Moscow          9832.000
       150   07 Jun 2027 03:00:05.108   07 Jun 2027 03:00:26.793            21.685              Murmansk2          2554.000
       151   07 Jun 2027 03:00:36.743   07 Jun 2027 03:01:35.238            58.495                Novosib          4975.000
       152   07 Jun 2027 03:01:35.684   07 Jun 2027 03:01:52.021            16.337                Norilsk           223.000
       153   07 Jun 2027 04:31:21.541   07 Jun 2027 04:32:57.871            96.330                Norilsk         11866.000
       154   07 Jun 2027 04:32:59.491   07 Jun 2027 04:33:10.451            10.960                Norilsk           810.000
       155   07 Jun 2027 04:33:14.454   07 Jun 2027 04:33:24.196             9.742                Novosib          1217.750
       156   07 Jun 2027 04:33:24.442   07 Jun 2027 04:33:32.623             8.181                Norilsk           906.750
       157   07 Jun 2027 04:33:47.630   07 Jun 2027 04:35:19.931            92.301                Irkutsk          7503.500
       158   07 Jun 2027 04:35:24.218   07 Jun 2027 04:36:38.072            73.854                 Moscow          2143.500
       159   07 Jun 2027 04:36:52.862   07 Jun 2027 04:38:43.131           110.269                 Moscow          7395.000
       160   07 Jun 2027 06:09:09.892   07 Jun 2027 06:09:48.431            38.539              Murmansk1          3175.500
       161   07 Jun 2027 06:09:51.490   07 Jun 2027 06:10:15.996            24.506              Murmansk2          1529.500
       162   07 Jun 2027 06:10:16.653   07 Jun 2027 06:10:22.035             5.382                Norilsk           328.500
       163   07 Jun 2027 06:10:23.779   07 Jun 2027 06:10:45.696            21.917                Novosib           872.000
       164   07 Jun 2027 06:11:01.864   07 Jun 2027 06:11:34.830            32.966              Murmansk2          4120.750
       165   07 Jun 2027 06:11:34.830   07 Jun 2027 06:12:09.660            34.830              Murmansk1          3963.250
       166   07 Jun 2027 06:12:29.205   07 Jun 2027 06:13:56.591            87.386                 Moscow          9772.500
       167   07 Jun 2027 07:43:05.956   07 Jun 2027 07:43:53.167            47.211                 Moscow          5593.000
       168   07 Jun 2027 07:43:56.433   07 Jun 2027 07:44:53.032            56.599              Murmansk1          1633.000
       169   07 Jun 2027 07:45:15.308   07 Jun 2027 07:46:51.839            96.531              Murmansk2         11138.000
       170   07 Jun 2027 07:47:06.052   07 Jun 2027 07:48:16.907            70.855                 Moscow          7106.500
       171   07 Jun 2027 07:48:20.491   07 Jun 2027 07:49:22.687            62.196                 Moscow          1792.000
       172   07 Jun 2027 07:49:35.872   07 Jun 2027 07:50:03.903            28.031                Norilsk          3503.875
       173   07 Jun 2027 07:50:05.039   07 Jun 2027 07:50:44.334            39.295              Murmansk1          2366.625
       174   08 Jun 2027 03:06:23.661   08 Jun 2027 03:07:18.066            54.405                Novosib          3008.500
       175   08 Jun 2027 03:07:18.098   08 Jun 2027 03:07:49.465            31.367               Magadan1            16.000
       176   08 Jun 2027 03:08:06.775   08 Jun 2027 03:09:50.706           103.931                Novosib          8655.000
       177   08 Jun 2027 03:09:51.370   08 Jun 2027 03:10:15.561            24.191               Magadan2           332.000
       178   08 Jun 2027 03:10:15.823   08 Jun 2027 03:10:39.697            23.874               Magadan2           131.000
       179   08 Jun 2027 03:10:40.186   08 Jun 2027 03:10:51.437            11.251                Norilsk           244.500
       180   08 Jun 2027 03:10:53.924   08 Jun 2027 03:11:27.544            33.620               Magadan2          1243.500
       181   08 Jun 2027 03:11:28.154   08 Jun 2027 03:12:01.242            33.088                Irkutsk           305.000
       182   08 Jun 2027 03:12:06.226   08 Jun 2027 03:12:41.725            35.499              Murmansk1          2492.000
       183   08 Jun 2027 03:12:48.646   08 Jun 2027 03:13:25.097            36.451                Norilsk          3460.500
       184   08 Jun 2027 03:13:25.956   08 Jun 2027 03:13:37.430            11.474              Murmansk1           429.500
       185   08 Jun 2027 04:43:17.716   08 Jun 2027 04:44:18.573            60.857                Novosib           697.000
       186   08 Jun 2027 04:44:38.019   08 Jun 2027 04:45:29.897            51.878                Novosib          6484.750
       187   08 Jun 2027 04:45:33.437   08 Jun 2027 04:46:18.936            45.499              Murmansk2          5008.250
       188   08 Jun 2027 04:46:18.993   08 Jun 2027 04:46:26.615             7.622                Irkutsk            28.500
       189   08 Jun 2027 04:46:38.696   08 Jun 2027 04:47:30.137            51.441                 Moscow          6040.500
       190   08 Jun 2027 04:47:32.350   08 Jun 2027 04:48:33.112            60.762                 Moscow          1106.500
       191   08 Jun 2027 04:48:35.238   08 Jun 2027 04:49:17.345            42.107                 Moscow          1063.000
       192   08 Jun 2027 04:49:20.332   08 Jun 2027 04:49:35.127            14.795              Murmansk2          1493.500
       193   08 Jun 2027 06:20:19.915   08 Jun 2027 06:20:55.918            36.003                 Moscow          1193.000
       194   08 Jun 2027 06:21:03.694   08 Jun 2027 06:21:36.768            33.074              Murmansk1          3888.000
       195   08 Jun 2027 06:21:38.740   08 Jun 2027 06:21:51.277            12.537                 Moscow           986.000
       196   08 Jun 2027 06:22:01.448   08 Jun 2027 06:23:11.656            70.208                 Moscow          5085.500
       197   08 Jun 2027 06:23:14.417   08 Jun 2027 06:23:31.027            16.610                Norilsk          1380.500
       198   08 Jun 2027 06:23:31.856   08 Jun 2027 06:23:50.381            18.525                Novosib           414.500
       199   08 Jun 2027 06:23:51.983   08 Jun 2027 06:23:57.451             5.468                Norilsk           683.500
       200   08 Jun 2027 06:23:59.678   08 Jun 2027 06:24:26.841            27.163              Murmansk1          1231.000
       201   08 Jun 2027 06:24:30.279   08 Jun 2027 06:24:52.767            22.488                 Moscow          1719.000
       202   08 Jun 2027 06:24:53.030   08 Jun 2027 06:24:56.384             3.354                Norilsk           131.500
       203   08 Jun 2027 06:24:57.284   08 Jun 2027 06:25:32.393            35.109                 Moscow           450.000
       204   08 Jun 2027 07:55:26.925   08 Jun 2027 07:56:01.306            34.381              Murmansk1          2733.500
       205   08 Jun 2027 07:56:21.249   08 Jun 2027 07:56:42.738            21.489                 Moscow           658.500
       206   08 Jun 2027 07:57:10.485   08 Jun 2027 07:58:11.495            61.010              Murmansk2          5482.000
       207   08 Jun 2027 07:58:23.985   08 Jun 2027 08:00:33.778           129.793              Murmansk1          6245.000
       208   09 Jun 2027 03:18:45.592   09 Jun 2027 03:19:20.300            34.708                Irkutsk           727.500
       209   09 Jun 2027 03:19:28.851   09 Jun 2027 03:20:19.631            50.780                Irkutsk          4275.500
       210   09 Jun 2027 03:20:22.218   09 Jun 2027 03:20:58.919            36.701                Novosib          1293.500
       211   09 Jun 2027 03:21:05.391   09 Jun 2027 03:21:50.731            45.340                Norilsk          3236.000
       212   09 Jun 2027 03:21:55.875   09 Jun 2027 03:22:28.635            32.760                Norilsk          2572.000
       213   09 Jun 2027 03:22:45.707   09 Jun 2027 03:24:00.989            75.282                Norilsk          8536.000
       214   09 Jun 2027 03:24:01.024   09 Jun 2027 03:24:04.044             3.020              Murmansk1            17.500
       215   09 Jun 2027 03:24:06.257   09 Jun 2027 03:24:24.276            18.019                Novosib          1106.500
       216   09 Jun 2027 03:24:41.801   09 Jun 2027 03:25:53.650            71.849                Norilsk          8762.500
       217   09 Jun 2027 04:55:51.726   09 Jun 2027 04:56:10.820            19.094                Norilsk          2386.750
       218   09 Jun 2027 04:56:13.076   09 Jun 2027 04:57:12.265            59.189                Irkutsk          5670.250
       219   09 Jun 2027 04:57:13.271   09 Jun 2027 04:58:22.015            68.744                Irkutsk           503.000
       220   09 Jun 2027 04:58:28.507   09 Jun 2027 04:59:06.661            38.154                Norilsk          3246.000
       221   09 Jun 2027 04:59:28.056   09 Jun 2027 05:01:14.282           106.226              Murmansk2         10697.500
       222   09 Jun 2027 05:01:20.024   09 Jun 2027 05:02:09.772            49.748              Murmansk1           784.500
       223   09 Jun 2027 06:32:34.639   09 Jun 2027 06:33:02.412            27.773                 Moscow          2661.500
       224   09 Jun 2027 06:33:03.784   09 Jun 2027 06:33:27.717            23.933              Murmansk2           686.000
       225   09 Jun 2027 06:33:32.209   09 Jun 2027 06:33:59.193            26.984                 Moscow          2246.000
       226   09 Jun 2027 06:34:04.741   09 Jun 2027 06:34:28.411            23.670                Novosib          2774.000
       227   09 Jun 2027 06:34:43.236   09 Jun 2027 06:35:55.714            72.478              Murmansk2          7412.500
       228   09 Jun 2027 06:36:00.291   09 Jun 2027 06:36:45.399            45.108              Murmansk1          2288.500
       229   09 Jun 2027 06:36:46.014   09 Jun 2027 06:37:26.679            40.665              Murmansk1           307.500
       230   09 Jun 2027 08:09:55.243   09 Jun 2027 08:10:55.425            60.182              Murmansk1          7082.500
       231   09 Jun 2027 08:11:12.203   09 Jun 2027 08:12:28.905            76.702              Murmansk1          8389.000
       232   10 Jun 2027 03:30:55.953   10 Jun 2027 03:31:31.633            35.680                Norilsk          2827.000
       233   10 Jun 2027 03:31:32.889   10 Jun 2027 03:31:55.066            22.177                Novosib           628.000
       234   10 Jun 2027 03:32:09.233   10 Jun 2027 03:33:20.910            71.677                Irkutsk          7083.500
       235   10 Jun 2027 03:33:45.492   10 Jun 2027 03:35:07.159            81.667                Norilsk         10208.375
       236   10 Jun 2027 03:35:20.873   10 Jun 2027 03:36:52.493            91.620                Irkutsk          8939.625
       237   10 Jun 2027 03:37:01.641   10 Jun 2027 03:37:44.703            43.062                Irkutsk          4574.000
       238   10 Jun 2027 05:08:40.495   10 Jun 2027 05:09:16.324            35.829                Novosib          3683.000
       239   10 Jun 2027 05:09:30.460   10 Jun 2027 05:09:57.923            27.463                Norilsk          3432.875
       240   10 Jun 2027 05:10:01.876   10 Jun 2027 05:10:54.269            52.393              Murmansk1          5611.625
       241   10 Jun 2027 05:11:03.250   10 Jun 2027 05:11:41.475            38.225              Murmansk2          4490.500
       242   10 Jun 2027 05:11:42.731   10 Jun 2027 05:12:15.016            32.285                 Moscow           628.000
       243   10 Jun 2027 05:12:18.404   10 Jun 2027 05:13:26.528            68.124                 Moscow          1694.000
       244   10 Jun 2027 06:44:48.132   10 Jun 2027 06:45:45.793            57.661              Murmansk1          5439.500
       245   10 Jun 2027 06:45:49.514   10 Jun 2027 06:46:21.907            32.393              Murmansk2          1860.500
       246   10 Jun 2027 06:46:22.172   10 Jun 2027 06:47:03.772            41.600                 Moscow           132.500
       247   10 Jun 2027 06:47:08.603   10 Jun 2027 06:47:49.843            41.240              Murmansk2          2415.500
       248   10 Jun 2027 06:47:49.864   10 Jun 2027 06:48:08.449            18.585                Novosib            10.500
       249   10 Jun 2027 06:48:09.664   10 Jun 2027 06:48:33.123            23.459              Murmansk2           607.500
       250   10 Jun 2027 06:48:37.460   10 Jun 2027 06:49:32.899            55.439              Murmansk2          2168.500
       251   11 Jun 2027 03:43:28.707   11 Jun 2027 03:43:41.159            12.452                Norilsk          1250.500
       252   11 Jun 2027 03:43:42.146   11 Jun 2027 03:43:54.655            12.509                Irkutsk           493.500
       253   11 Jun 2027 03:44:04.673   11 Jun 2027 03:44:51.828            47.155                Irkutsk          5009.000
       254   11 Jun 2027 03:45:03.259   11 Jun 2027 03:45:49.310            46.051                Norilsk          5715.500
       255   11 Jun 2027 03:45:56.309   11 Jun 2027 03:46:06.054             9.745                Norilsk          1218.125
       256   11 Jun 2027 03:46:10.259   11 Jun 2027 03:47:01.103            50.844                Novosib          4383.875
       257   11 Jun 2027 03:47:02.760   11 Jun 2027 03:47:25.143            22.383                Norilsk           828.500
       258   11 Jun 2027 03:47:31.084   11 Jun 2027 03:48:10.991            39.907              Murmansk1          2970.500
       259   11 Jun 2027 03:48:25.528   11 Jun 2027 03:49:25.866            60.338                Norilsk          7268.500
       260   11 Jun 2027 03:49:30.403   11 Jun 2027 03:49:52.697            22.294                Norilsk          2268.500
       261   11 Jun 2027 05:20:39.833   11 Jun 2027 05:20:52.300            12.467              Murmansk1           288.500
       262   11 Jun 2027 05:20:56.523   11 Jun 2027 05:21:02.599             6.076                Irkutsk           759.500
       263   11 Jun 2027 05:21:02.615   11 Jun 2027 05:21:30.450            27.835                Norilsk          1360.000
       264   11 Jun 2027 05:21:33.833   11 Jun 2027 05:21:50.105            16.272                Novosib          1691.500
       265   11 Jun 2027 05:21:50.322   11 Jun 2027 05:22:38.210            47.888                Irkutsk           108.500
       266   11 Jun 2027 05:22:43.672   11 Jun 2027 05:23:09.384            25.712                Norilsk          2731.000
       267   11 Jun 2027 05:23:10.008   11 Jun 2027 05:23:37.937            27.929                 Moscow           312.000
       268   11 Jun 2027 05:23:39.492   11 Jun 2027 05:23:48.090             8.598              Murmansk1           777.500
       269   11 Jun 2027 05:23:54.809   11 Jun 2027 05:24:19.239            24.430                Norilsk          3053.750
       270   11 Jun 2027 05:24:36.334   11 Jun 2027 05:26:50.289           133.955                 Moscow          8853.250
       271   11 Jun 2027 06:57:02.505   11 Jun 2027 06:57:43.989            41.484              Murmansk2          2728.500
       272   11 Jun 2027 06:57:45.965   11 Jun 2027 06:58:23.624            37.659              Murmansk2           988.000
       273   11 Jun 2027 06:58:29.816   11 Jun 2027 06:59:16.434            46.618                 Moscow          3096.000
       274   11 Jun 2027 06:59:19.400   11 Jun 2027 06:59:43.622            24.222                Norilsk          1483.000
       275   11 Jun 2027 06:59:44.691   11 Jun 2027 06:59:56.031            11.340              Murmansk1           534.500
       276   11 Jun 2027 06:59:58.661   11 Jun 2027 07:00:36.338            37.677                 Moscow          1315.000
       277   11 Jun 2027 07:00:36.906   11 Jun 2027 07:01:05.583            28.677                Norilsk           284.000
       278   11 Jun 2027 07:01:23.636   11 Jun 2027 07:02:46.189            82.553              Murmansk1          9026.500
       279   12 Jun 2027 03:55:18.416   12 Jun 2027 03:56:46.412            87.996                Irkutsk         10013.000
       280   12 Jun 2027 03:56:50.243   12 Jun 2027 03:57:47.971            57.728                Novosib          1915.500
       281   12 Jun 2027 03:57:53.273   12 Jun 2027 03:58:35.148            41.875                Norilsk          2651.000
       282   12 Jun 2027 03:58:38.040   12 Jun 2027 03:58:50.546            12.506              Murmansk2          1446.000
       283   12 Jun 2027 03:58:57.716   12 Jun 2027 03:59:27.966            30.250                Norilsk          3585.000
       284   12 Jun 2027 03:59:30.887   12 Jun 2027 04:00:02.775            31.888                Norilsk          1460.500
       285   12 Jun 2027 04:00:12.878   12 Jun 2027 04:01:09.942            57.064              Murmansk1          5051.500
       286   12 Jun 2027 04:01:11.743   12 Jun 2027 04:01:22.600            10.857              Murmansk1           900.500
       287   12 Jun 2027 04:01:23.282   12 Jun 2027 04:01:23.850             0.568                Norilsk            71.000
       288   12 Jun 2027 04:01:29.922   12 Jun 2027 04:01:53.558            23.636                Norilsk           501.500
       289   12 Jun 2027 05:33:30.745   12 Jun 2027 05:33:58.154            27.409                Norilsk          3426.125
       290   12 Jun 2027 05:34:03.425   12 Jun 2027 05:34:57.446            54.021                Irkutsk          6391.875
       291   12 Jun 2027 05:34:59.769   12 Jun 2027 05:35:26.680            26.911              Murmansk2          1161.500
       292   12 Jun 2027 05:35:29.416   12 Jun 2027 05:35:47.061            17.645              Murmansk2          1368.000
       293   12 Jun 2027 05:35:47.617   12 Jun 2027 05:36:14.734            27.117                Norilsk           278.000
       294   12 Jun 2027 05:36:14.794   12 Jun 2027 05:36:50.659            35.865              Murmansk1            30.000
       295   12 Jun 2027 05:37:10.960   12 Jun 2027 05:38:16.134            65.174              Murmansk2          8146.750
       296   12 Jun 2027 05:38:16.624   12 Jun 2027 05:38:53.743            37.119                Novosib           235.250
       297   12 Jun 2027 07:08:49.647   12 Jun 2027 07:09:55.717            66.070              Murmansk2          6805.500
       298   12 Jun 2027 07:09:56.866   12 Jun 2027 07:10:18.618            21.752                Norilsk           574.500
       299   12 Jun 2027 07:10:25.157   12 Jun 2027 07:10:51.817            26.660              Murmansk2          3269.500
       300   12 Jun 2027 07:10:57.158   12 Jun 2027 07:11:57.905            60.747                Novosib          2670.500
       301   12 Jun 2027 07:12:00.150   12 Jun 2027 07:12:14.073            13.923              Murmansk1          1122.500
       302   12 Jun 2027 07:12:18.268   12 Jun 2027 07:12:40.149            21.881                Novosib          2097.500
       303   12 Jun 2027 07:12:51.811   12 Jun 2027 07:13:44.371            52.560                 Moscow          2778.500
       304   12 Jun 2027 07:13:49.741   12 Jun 2027 07:14:36.958            47.217                 Moscow          2685.000
       305   13 Jun 2027 04:07:21.084   13 Jun 2027 04:07:45.525            24.441                Norilsk          1231.000
       306   13 Jun 2027 04:07:57.739   13 Jun 2027 04:08:09.180            11.441                Novosib          1430.125
       307   13 Jun 2027 04:08:18.504   13 Jun 2027 04:09:44.788            86.284                Norilsk          9338.875
       308   13 Jun 2027 04:09:46.094   13 Jun 2027 04:10:10.065            23.971                Norilsk           653.000
       309   13 Jun 2027 04:10:10.201   13 Jun 2027 04:10:32.086            21.885              Murmansk1            68.000
       310   13 Jun 2027 04:10:34.055   13 Jun 2027 04:11:12.807            38.752                Norilsk           984.500
       311   13 Jun 2027 04:11:22.774   13 Jun 2027 04:12:02.700            39.926                Norilsk          4983.500
       312   13 Jun 2027 04:12:12.360   13 Jun 2027 04:12:20.339             7.979                Novosib           997.375
       313   13 Jun 2027 04:12:25.873   13 Jun 2027 04:13:23.325            57.452                 Moscow          6599.625
       314   13 Jun 2027 04:13:28.432   13 Jun 2027 04:13:57.844            29.412              Murmansk2          2553.500
       315   13 Jun 2027 05:45:23.198   13 Jun 2027 05:46:28.073            64.875              Murmansk2          2612.000
       316   13 Jun 2027 05:46:29.300   13 Jun 2027 05:46:58.716            29.416              Murmansk2           613.500
       317   13 Jun 2027 05:47:02.405   13 Jun 2027 05:47:28.428            26.023                Norilsk          1844.500
       318   13 Jun 2027 05:47:41.370   13 Jun 2027 05:48:37.275            55.905                Norilsk          6471.000
       319   13 Jun 2027 05:48:44.812   13 Jun 2027 05:49:44.126            59.314                Novosib          3768.500
       320   13 Jun 2027 07:18:55.197   13 Jun 2027 07:20:58.702           123.505                 Moscow         13554.000
       321   13 Jun 2027 07:21:02.900   13 Jun 2027 07:21:27.907            25.007                 Moscow          2099.000
       322   13 Jun 2027 07:21:36.851   13 Jun 2027 07:22:30.561            53.710                Novosib          4472.000
       323   13 Jun 2027 07:22:30.983   13 Jun 2027 07:22:46.087            15.104                 Moscow           211.000
       324   13 Jun 2027 07:22:47.042   13 Jun 2027 07:22:51.174             4.132              Murmansk1           477.500
       325   13 Jun 2027 07:22:56.621   13 Jun 2027 07:23:26.659            30.038                Norilsk          2723.500
       326   13 Jun 2027 07:23:32.372   13 Jun 2027 07:23:55.246            22.874              Murmansk1          2856.500
       327   13 Jun 2027 07:23:59.320   13 Jun 2027 07:24:16.161            16.841              Murmansk1          2037.000
       328   13 Jun 2027 07:24:18.979   13 Jun 2027 07:24:48.451            29.472                Novosib          1409.000
       329   13 Jun 2027 07:25:07.320   13 Jun 2027 07:26:12.349            65.029              Murmansk2          8128.625
       330   13 Jun 2027 07:26:12.349   13 Jun 2027 07:26:27.883            15.534              Murmansk1          1305.875
