uniorb/output/strategy_2/Drop/Drop_KinoSat_110902.txt

KinoSat_110902
-------------------------
    Access    *     Start Time (UTCG)     *     Stop Time (UTCG)  *   Duration (s)        *       Station  *  Data (Mbytes)
         1   01 Jun 2027 04:00:59.629   01 Jun 2027 04:02:56.660           117.031                Anadyr1          3657.219
         2   01 Jun 2027 04:05:18.224   01 Jun 2027 04:06:14.357            56.133               Magadan1          1754.156
         3   01 Jun 2027 05:36:58.013   01 Jun 2027 05:36:59.996             1.983                Irkutsk            61.969
         4   01 Jun 2027 05:38:07.605   01 Jun 2027 05:39:17.071            69.466                Irkutsk          2170.813
         5   01 Jun 2027 05:40:57.331   01 Jun 2027 05:41:13.254            15.923                Irkutsk           497.594
         6   01 Jun 2027 07:14:07.802   01 Jun 2027 07:14:29.156            21.354               Magadan1           667.312
         7   01 Jun 2027 07:14:55.344   01 Jun 2027 07:17:41.779           166.435               Magadan1          5201.094
         8   01 Jun 2027 07:18:36.567   01 Jun 2027 07:18:58.715            22.148                Norilsk           692.125
         9   01 Jun 2027 07:22:00.190   01 Jun 2027 07:22:24.522            24.332              Murmansk2           760.375
        10   01 Jun 2027 07:55:50.615   01 Jun 2027 07:56:13.747            23.132            RioGallegos           722.875
        11   01 Jun 2027 07:59:24.122   01 Jun 2027 08:00:12.878            48.756            RioGallegos          1523.625
        12   01 Jun 2027 08:28:09.811   01 Jun 2027 08:30:44.069           154.258                Sumatra          4820.562
        13   01 Jun 2027 08:40:24.270   01 Jun 2027 08:41:53.963            89.693                  Delhi          2802.906
        14   01 Jun 2027 08:43:47.061   01 Jun 2027 08:44:47.718            60.657                  Delhi          1895.531
        15   01 Jun 2027 08:49:17.546   01 Jun 2027 08:50:06.377            48.831                Novosib          1525.969
        16   01 Jun 2027 08:50:29.361   01 Jun 2027 08:51:15.512            46.151                Novosib          1442.219
        17   01 Jun 2027 08:51:41.185   01 Jun 2027 08:51:47.986             6.801                Novosib           212.531
        18   01 Jun 2027 08:52:02.654   01 Jun 2027 08:54:10.367           127.713                Irkutsk          3991.031
        19   01 Jun 2027 08:54:47.162   01 Jun 2027 08:55:27.174            40.012                Novosib          1250.375
        20   01 Jun 2027 08:59:41.532   01 Jun 2027 08:59:53.702            12.170              Murmansk2           380.312
        21   01 Jun 2027 10:27:53.346   01 Jun 2027 10:28:24.366            31.020                Irkutsk           969.375
        22   01 Jun 2027 10:29:02.162   01 Jun 2027 10:29:10.714             8.552                Novosib           267.250
        23   01 Jun 2027 10:29:12.674   01 Jun 2027 10:31:12.882           120.208                Norilsk          3756.500
        24   01 Jun 2027 10:31:18.547   01 Jun 2027 10:31:41.511            22.964                Norilsk           717.625
        25   01 Jun 2027 10:31:58.460   01 Jun 2027 10:32:45.566            47.106                 Moscow          1472.063
        26   01 Jun 2027 10:35:34.905   01 Jun 2027 10:36:15.230            40.325              Murmansk2          1260.156
        27   01 Jun 2027 11:50:59.899   01 Jun 2027 11:54:47.803           227.904                  Delhi          7122.000
        28   01 Jun 2027 12:09:50.235   01 Jun 2027 12:11:03.501            73.266                Norilsk          2289.563
        29   01 Jun 2027 12:11:50.337   01 Jun 2027 12:12:49.512            59.175              Murmansk2          1849.219
        30   01 Jun 2027 13:15:39.946   01 Jun 2027 13:17:28.796           108.850               CapeTown          3401.563
        31   01 Jun 2027 13:18:25.765   01 Jun 2027 13:19:19.988            54.223               CapeTown          1694.469
        32   01 Jun 2027 13:43:07.414   01 Jun 2027 13:43:41.402            33.988                 Moscow          1062.125
        33   01 Jun 2027 13:44:03.854   01 Jun 2027 13:45:03.069            59.215                 Moscow          1850.469
        34   01 Jun 2027 13:46:09.274   01 Jun 2027 13:46:18.746             9.472              Murmansk2           296.000
        35   01 Jun 2027 13:46:36.655   01 Jun 2027 13:48:22.358           105.703              Murmansk1          3303.219
        36   01 Jun 2027 13:48:39.660   01 Jun 2027 13:48:47.580             7.920              Murmansk1           247.500
        37   01 Jun 2027 13:54:40.957   01 Jun 2027 13:57:56.989           196.032                Anadyr1          6126.000
        38   01 Jun 2027 15:20:50.991   01 Jun 2027 15:21:01.665            10.674              Murmansk2           333.563
        39   01 Jun 2027 15:21:29.340   01 Jun 2027 15:21:53.691            24.351              Murmansk2           760.969
        40   01 Jun 2027 15:22:35.140   01 Jun 2027 15:23:19.971            44.831              Murmansk1          1400.969
        41   01 Jun 2027 15:24:36.494   01 Jun 2027 15:24:37.857             1.363              Murmansk1            42.594
        42   01 Jun 2027 15:31:24.951   01 Jun 2027 15:34:20.366           175.415               Magadan2          5481.719
        43   01 Jun 2027 15:34:20.366   01 Jun 2027 15:34:51.962            31.596               Magadan1           987.375
        44   01 Jun 2027 15:35:27.109   01 Jun 2027 15:36:07.918            40.809                Anadyr1          1275.281
        45   01 Jun 2027 15:37:28.664   01 Jun 2027 15:37:59.412            30.748                Anadyr2           960.875
        46   01 Jun 2027 17:08:27.001   01 Jun 2027 17:08:36.929             9.928                Anadyr1           310.250
        47   01 Jun 2027 17:08:36.929   01 Jun 2027 17:09:40.871            63.942                Anadyr2          1998.188
        48   01 Jun 2027 17:09:53.535   01 Jun 2027 17:11:05.692            72.157                Anadyr1          2254.906
        49   01 Jun 2027 17:11:26.644   01 Jun 2027 17:11:35.061             8.417               Magadan1           263.031
        50   01 Jun 2027 17:11:35.061   01 Jun 2027 17:11:47.372            12.311               Magadan2           384.719
        51   01 Jun 2027 17:11:55.497   01 Jun 2027 17:12:12.750            17.253               Magadan2           539.156
        52   01 Jun 2027 17:12:35.041   01 Jun 2027 17:13:02.540            27.499                Anadyr1           859.344
        53   01 Jun 2027 17:13:06.787   01 Jun 2027 17:13:31.943            25.156               Magadan1           786.125
        54   01 Jun 2027 17:13:34.195   01 Jun 2027 17:14:27.083            52.888                Anadyr2          1652.750
        55   01 Jun 2027 17:15:07.139   01 Jun 2027 17:16:05.224            58.085               Magadan1          1815.156
        56   01 Jun 2027 18:41:37.961   01 Jun 2027 18:45:27.181           229.220                Norilsk          7163.125
        57   01 Jun 2027 18:51:08.641   01 Jun 2027 18:51:29.468            20.827               Magadan1           650.844
        58   01 Jun 2027 18:51:46.416   01 Jun 2027 18:52:26.196            39.780               Magadan2          1243.125
        59   01 Jun 2027 18:53:18.608   01 Jun 2027 18:53:30.634            12.026               Magadan1           375.812
        60   01 Jun 2027 19:35:05.019   01 Jun 2027 19:35:45.535            40.516            RioGallegos          1266.125
        61   01 Jun 2027 19:36:36.592   01 Jun 2027 19:37:55.380            78.788            RioGallegos          2462.125
        62   01 Jun 2027 19:39:35.163   01 Jun 2027 19:40:24.818            49.655            RioGallegos          1551.719
        63   01 Jun 2027 19:41:44.366   01 Jun 2027 19:42:11.492            27.126            RioGallegos           847.688
        64   01 Jun 2027 20:20:11.355   01 Jun 2027 20:21:09.481            58.126                Norilsk          1816.437
        65   01 Jun 2027 20:22:10.247   01 Jun 2027 20:23:08.721            58.474                Novosib          1827.313
        66   01 Jun 2027 20:23:36.620   01 Jun 2027 20:23:57.450            20.830                Norilsk           650.937
        67   01 Jun 2027 20:24:09.201   01 Jun 2027 20:25:37.227            88.026                Novosib          2750.813
        68   01 Jun 2027 20:25:39.564   01 Jun 2027 20:27:03.052            83.488                Novosib          2609.000
        69   01 Jun 2027 20:31:36.376   01 Jun 2027 20:31:44.561             8.185                Irkutsk           255.781
        70   01 Jun 2027 20:41:54.004   01 Jun 2027 20:42:48.311            54.307                Sumatra          1697.094
        71   01 Jun 2027 20:43:31.572   01 Jun 2027 20:44:31.851            60.279                Sumatra          1883.719
        72   01 Jun 2027 21:55:26.762   01 Jun 2027 21:56:14.527            47.765               Magadan1          1492.656
        73   01 Jun 2027 21:57:31.767   01 Jun 2027 21:57:41.374             9.607               Magadan1           300.219
        74   01 Jun 2027 21:57:42.829   01 Jun 2027 21:57:59.671            16.842                Norilsk           526.312
        75   01 Jun 2027 21:58:18.586   01 Jun 2027 21:59:13.425            54.839                Novosib          1713.719
        76   01 Jun 2027 22:00:39.279   01 Jun 2027 22:00:51.558            12.279                Norilsk           383.719
        77   01 Jun 2027 22:01:23.250   01 Jun 2027 22:01:43.791            20.541                Norilsk           641.906
        78   01 Jun 2027 22:02:12.839   01 Jun 2027 22:02:39.594            26.755                Novosib           836.094
        79   01 Jun 2027 22:03:12.833   01 Jun 2027 22:03:28.940            16.107                Novosib           503.344
        80   01 Jun 2027 22:03:47.529   01 Jun 2027 22:03:58.529            11.000                Norilsk           343.750
        81   01 Jun 2027 22:04:52.450   01 Jun 2027 22:05:43.866            51.416                Novosib          1606.750
        82   01 Jun 2027 22:07:25.724   01 Jun 2027 22:08:31.027            65.303                  Delhi          2040.719
        83   01 Jun 2027 22:10:29.869   01 Jun 2027 22:11:17.183            47.314                  Delhi          1478.562
        84   01 Jun 2027 22:13:45.800   01 Jun 2027 22:14:38.281            52.481                  Delhi          1640.031
        85   01 Jun 2027 23:24:45.142   01 Jun 2027 23:25:02.798            17.656                Anadyr2           551.750
        86   01 Jun 2027 23:27:28.164   01 Jun 2027 23:28:19.909            51.745                Anadyr2          1617.031
        87   01 Jun 2027 23:28:22.967   01 Jun 2027 23:28:59.411            36.444               Magadan2          1138.875
        88   01 Jun 2027 23:29:20.956   01 Jun 2027 23:29:28.383             7.427               Magadan2           232.094
        89   01 Jun 2027 23:29:43.327   01 Jun 2027 23:29:47.259             3.932                Norilsk           122.875
        90   01 Jun 2027 23:30:08.790   01 Jun 2027 23:30:29.270            20.480               Magadan2           640.000
        91   01 Jun 2027 23:30:32.577   01 Jun 2027 23:33:17.141           164.564              Murmansk2          5142.625
        92   01 Jun 2027 23:33:17.141   01 Jun 2027 23:33:43.874            26.733              Murmansk1           835.406
        93   01 Jun 2027 23:35:13.251   01 Jun 2027 23:35:52.018            38.767                 Moscow          1211.469
        94   01 Jun 2027 23:36:37.527   01 Jun 2027 23:37:24.092            46.565                 Moscow          1455.156
        95   01 Jun 2027 23:39:06.034   01 Jun 2027 23:40:27.282            81.248                 Moscow          2539.000
        96   02 Jun 2027 00:55:33.318   02 Jun 2027 00:55:33.773             0.455                Anadyr1            14.219
        97   02 Jun 2027 00:55:48.167   02 Jun 2027 00:55:55.468             7.301                Anadyr1           228.156
        98   02 Jun 2027 00:56:10.935   02 Jun 2027 00:56:44.780            33.845                Anadyr1          1057.656
        99   02 Jun 2027 00:57:58.479   02 Jun 2027 00:58:08.240             9.761                Anadyr2           305.031
       100   02 Jun 2027 00:58:20.371   02 Jun 2027 00:58:34.506            14.135                Anadyr1           441.719
       101   02 Jun 2027 00:59:48.391   02 Jun 2027 01:00:28.388            39.997                Anadyr2          1249.906
       102   02 Jun 2027 01:00:33.492   02 Jun 2027 01:01:16.094            42.602               Magadan1          1331.312
       103   02 Jun 2027 01:01:48.453   02 Jun 2027 01:02:33.278            44.825               Magadan1          1400.781
       104   02 Jun 2027 01:04:05.899   02 Jun 2027 01:04:20.711            14.812               Magadan1           462.875
       105   02 Jun 2027 01:04:27.391   02 Jun 2027 01:05:13.452            46.061               Magadan1          1439.406
       106   02 Jun 2027 01:07:37.588   02 Jun 2027 01:07:57.989            20.401              Murmansk1           637.531
       107   02 Jun 2027 01:08:07.374   02 Jun 2027 01:08:33.700            26.326              Murmansk2           822.688
       108   02 Jun 2027 01:10:18.961   02 Jun 2027 01:10:20.340             1.379              Murmansk1            43.094
       109   02 Jun 2027 01:11:01.122   02 Jun 2027 01:11:29.072            27.950                Novosib           873.438
       110   02 Jun 2027 01:12:19.225   02 Jun 2027 01:12:30.047            10.822                 Moscow           338.188
       111   02 Jun 2027 01:12:36.488   02 Jun 2027 01:13:06.445            29.957              Murmansk2           936.156
       112   02 Jun 2027 01:13:45.380   02 Jun 2027 01:14:16.999            31.619              Murmansk2           988.094
       113   02 Jun 2027 01:16:56.398   02 Jun 2027 01:17:32.816            36.418              Murmansk2          1138.062
       114   02 Jun 2027 01:21:00.301   02 Jun 2027 01:21:50.132            49.831                 Moscow          1557.219
       115   02 Jun 2027 01:40:28.309   02 Jun 2027 01:40:40.146            11.837               CapeTown           369.906
       116   02 Jun 2027 01:41:45.662   02 Jun 2027 01:43:14.672            89.010               CapeTown          2781.562
       117   02 Jun 2027 02:30:09.027   02 Jun 2027 02:31:07.415            58.388                Anadyr2          1824.625
       118   02 Jun 2027 02:32:13.765   02 Jun 2027 02:32:20.768             7.003                Anadyr1           218.844
       119   02 Jun 2027 02:32:55.600   02 Jun 2027 02:33:22.941            27.341               Magadan1           854.406
       120   02 Jun 2027 02:34:54.912   02 Jun 2027 02:34:59.491             4.579               Magadan1           143.094
       121   02 Jun 2027 02:35:04.348   02 Jun 2027 02:35:25.298            20.950               Magadan2           654.688
       122   02 Jun 2027 02:36:51.324   02 Jun 2027 02:37:04.499            13.175               Magadan2           411.719
       123   02 Jun 2027 02:37:11.262   02 Jun 2027 02:37:26.443            15.181               Magadan1           474.406
       124   02 Jun 2027 02:38:29.373   02 Jun 2027 02:38:54.262            24.889               Magadan1           777.781
       125   02 Jun 2027 02:40:11.281   02 Jun 2027 02:40:50.998            39.717                Norilsk          1241.156
       126   02 Jun 2027 02:42:12.877   02 Jun 2027 02:42:19.768             6.891              Murmansk1           215.344
       127   02 Jun 2027 02:43:13.972   02 Jun 2027 02:43:23.210             9.238              Murmansk2           288.687
       128   02 Jun 2027 02:43:31.160   02 Jun 2027 02:43:55.303            24.143              Murmansk2           754.469
       129   02 Jun 2027 02:45:34.091   02 Jun 2027 02:46:08.102            34.011              Murmansk1          1062.844
       130   02 Jun 2027 02:48:24.274   02 Jun 2027 02:48:57.386            33.112                 Moscow          1034.750
       131   02 Jun 2027 02:51:01.317   02 Jun 2027 02:51:46.153            44.836                 Moscow          1401.125
       132   02 Jun 2027 02:54:57.181   02 Jun 2027 02:55:03.467             6.286                 Moscow           196.437
       133   02 Jun 2027 02:56:01.148   02 Jun 2027 02:57:07.148            66.000                 Moscow          2062.500
       134   02 Jun 2027 04:11:58.306   02 Jun 2027 04:12:01.239             2.933               Magadan1            91.656
       135   02 Jun 2027 04:12:18.086   02 Jun 2027 04:12:20.617             2.531               Magadan1            79.094
       136   02 Jun 2027 04:12:56.703   02 Jun 2027 04:14:57.702           120.999                Anadyr2          3781.219
       137   02 Jun 2027 04:15:07.017   02 Jun 2027 04:18:32.273           205.256                Anadyr2          6414.250
       138   02 Jun 2027 05:49:31.327   02 Jun 2027 05:51:32.723           121.396                Irkutsk          3793.625
       139   02 Jun 2027 05:51:53.865   02 Jun 2027 05:52:11.057            17.192               Magadan2           537.250
       140   02 Jun 2027 05:52:11.057   02 Jun 2027 05:52:20.397             9.340               Magadan1           291.875
       141   02 Jun 2027 05:52:20.727   02 Jun 2027 05:54:17.096           116.369                Anadyr1          3636.531
       142   02 Jun 2027 07:24:50.243   02 Jun 2027 07:25:37.707            47.464                Irkutsk          1483.250
       143   02 Jun 2027 07:26:07.655   02 Jun 2027 07:27:24.230            76.575                Irkutsk          2392.969
       144   02 Jun 2027 07:28:04.276   02 Jun 2027 07:28:19.115            14.839                Novosib           463.719
       145   02 Jun 2027 07:28:42.277   02 Jun 2027 07:29:28.250            45.973               Magadan1          1436.656
       146   02 Jun 2027 07:29:48.449   02 Jun 2027 07:29:50.802             2.353                Norilsk            73.531
       147   02 Jun 2027 07:29:57.967   02 Jun 2027 07:30:10.930            12.963              Murmansk1           405.094
       148   02 Jun 2027 07:30:28.488   02 Jun 2027 07:31:29.045            60.557                Novosib          1892.406
       149   02 Jun 2027 07:31:33.494   02 Jun 2027 07:33:11.554            98.060              Murmansk1          3064.375
       150   02 Jun 2027 07:33:11.554   02 Jun 2027 07:34:01.321            49.767              Murmansk2          1555.219
       151   02 Jun 2027 07:34:17.156   02 Jun 2027 07:34:28.833            11.677              Murmansk2           364.906
       152   02 Jun 2027 07:34:31.937   02 Jun 2027 07:35:00.379            28.442                Norilsk           888.813
       153   02 Jun 2027 07:35:33.330   02 Jun 2027 07:35:51.001            17.671              Murmansk1           552.219
       154   02 Jun 2027 07:36:38.337   02 Jun 2027 07:37:09.622            31.285              Murmansk2           977.656
       155   02 Jun 2027 07:37:09.622   02 Jun 2027 07:37:46.626            37.004              Murmansk1          1156.375
       156   02 Jun 2027 07:38:10.254   02 Jun 2027 07:38:46.867            36.613              Murmansk1          1144.156
       157   02 Jun 2027 08:06:30.219   02 Jun 2027 08:06:54.450            24.231            RioGallegos           757.219
       158   02 Jun 2027 08:08:14.050   02 Jun 2027 08:08:29.867            15.817            RioGallegos           494.281
       159   02 Jun 2027 08:09:33.315   02 Jun 2027 08:09:59.587            26.272            RioGallegos           821.000
       160   02 Jun 2027 08:10:33.919   02 Jun 2027 08:11:03.231            29.312            RioGallegos           916.000
       161   02 Jun 2027 08:13:00.493   02 Jun 2027 08:13:51.496            51.003            RioGallegos          1593.844
       162   02 Jun 2027 08:39:59.111   02 Jun 2027 08:41:03.874            64.763                Sumatra          2023.844
       163   02 Jun 2027 08:42:56.354   02 Jun 2027 08:43:23.267            26.913                Sumatra           841.031
       164   02 Jun 2027 08:48:06.182   02 Jun 2027 08:49:02.373            56.191                Sumatra          1755.969
       165   02 Jun 2027 08:51:15.698   02 Jun 2027 08:52:16.117            60.419                  Delhi          1888.094
       166   02 Jun 2027 08:56:06.233   02 Jun 2027 08:56:35.282            29.049                  Delhi           907.781
       167   02 Jun 2027 08:58:18.312   02 Jun 2027 08:59:20.903            62.591                  Delhi          1955.969
       168   02 Jun 2027 09:01:55.282   02 Jun 2027 09:02:16.750            21.468                Irkutsk           670.875
       169   02 Jun 2027 09:02:22.051   02 Jun 2027 09:03:07.168            45.117                Norilsk          1409.906
       170   02 Jun 2027 09:03:20.827   02 Jun 2027 09:03:53.438            32.611                Norilsk          1019.094
       171   02 Jun 2027 09:03:58.360   02 Jun 2027 09:04:41.092            42.732                Irkutsk          1335.375
       172   02 Jun 2027 09:04:41.513   02 Jun 2027 09:05:04.130            22.617                Norilsk           706.781
       173   02 Jun 2027 09:05:20.766   02 Jun 2027 09:06:27.583            66.817                Novosib          2088.031
       174   02 Jun 2027 09:06:36.100   02 Jun 2027 09:06:52.070            15.970                 Moscow           499.062
       175   02 Jun 2027 09:07:41.619   02 Jun 2027 09:07:51.781            10.162              Murmansk2           317.562
       176   02 Jun 2027 09:08:25.254   02 Jun 2027 09:08:26.835             1.581                Norilsk            49.406
       177   02 Jun 2027 09:10:48.151   02 Jun 2027 09:11:21.478            33.327              Murmansk1          1041.469
       178   02 Jun 2027 09:43:54.858   02 Jun 2027 09:44:33.535            38.677            RioGallegos          1208.656
       179   02 Jun 2027 09:45:33.062   02 Jun 2027 09:45:58.760            25.698            RioGallegos           803.062
       180   02 Jun 2027 09:47:31.841   02 Jun 2027 09:47:50.077            18.236            RioGallegos           569.875
       181   02 Jun 2027 10:18:24.558   02 Jun 2027 10:19:40.368            75.810                Sumatra          2369.063
       182   02 Jun 2027 10:24:03.799   02 Jun 2027 10:24:04.357             0.558                  Delhi            17.437
       183   02 Jun 2027 10:28:29.024   02 Jun 2027 10:28:33.069             4.045                  Delhi           126.406
       184   02 Jun 2027 10:31:03.840   02 Jun 2027 10:31:28.392            24.552                  Delhi           767.250
       185   02 Jun 2027 10:38:40.955   02 Jun 2027 10:38:42.830             1.875              Murmansk1            58.594
       186   02 Jun 2027 10:38:56.049   02 Jun 2027 10:39:01.782             5.733              Murmansk1           179.156
       187   02 Jun 2027 10:39:04.137   02 Jun 2027 10:39:42.600            38.463                 Moscow          1201.969
       188   02 Jun 2027 10:39:56.804   02 Jun 2027 10:40:49.929            53.125                 Moscow          1660.156
       189   02 Jun 2027 10:40:56.923   02 Jun 2027 10:41:20.048            23.125                Novosib           722.656
       190   02 Jun 2027 10:41:21.160   02 Jun 2027 10:41:27.589             6.429              Murmansk1           200.906
       191   02 Jun 2027 10:41:36.497   02 Jun 2027 10:41:37.155             0.658                Novosib            20.563
       192   02 Jun 2027 10:41:39.757   02 Jun 2027 10:42:17.553            37.796              Murmansk2          1181.125
       193   02 Jun 2027 10:42:57.476   02 Jun 2027 10:43:26.720            29.244              Murmansk2           913.875
       194   02 Jun 2027 12:04:40.678   02 Jun 2027 12:06:35.609           114.931                  Delhi          3591.594
       195   02 Jun 2027 12:06:51.686   02 Jun 2027 12:07:24.047            32.361                  Delhi          1011.281
       196   02 Jun 2027 12:10:23.837   02 Jun 2027 12:11:45.485            81.648                 Moscow          2551.500
       197   02 Jun 2027 12:12:53.852   02 Jun 2027 12:13:04.600            10.748              Murmansk2           335.875
       198   02 Jun 2027 12:13:28.449   02 Jun 2027 12:13:56.915            28.466              Murmansk1           889.562
       199   02 Jun 2027 12:16:05.868   02 Jun 2027 12:16:25.059            19.191              Murmansk2           599.719
       200   02 Jun 2027 12:17:51.422   02 Jun 2027 12:18:01.002             9.580                Norilsk           299.375
       201   02 Jun 2027 12:19:20.694   02 Jun 2027 12:19:49.379            28.685              Murmansk2           896.406
       202   02 Jun 2027 13:23:52.604   02 Jun 2027 13:26:41.166           168.562               CapeTown          5267.562
       203   02 Jun 2027 13:29:38.987   02 Jun 2027 13:30:19.760            40.773               CapeTown          1274.156
       204   02 Jun 2027 13:48:37.673   02 Jun 2027 13:50:56.405           138.732              Murmansk2          4335.375
       205   02 Jun 2027 13:52:53.749   02 Jun 2027 13:53:09.663            15.914              Murmansk1           497.313
       206   02 Jun 2027 13:53:15.339   02 Jun 2027 13:53:50.914            35.575              Murmansk1          1111.719
       207   02 Jun 2027 13:57:33.054   02 Jun 2027 13:58:13.522            40.468              Murmansk2          1264.625
       208   02 Jun 2027 14:03:11.980   02 Jun 2027 14:07:15.103           243.123                Anadyr2          7597.594
       209   02 Jun 2027 15:27:29.249   02 Jun 2027 15:27:54.535            25.286              Murmansk2           790.187
       210   02 Jun 2027 15:28:51.163   02 Jun 2027 15:29:07.468            16.305              Murmansk1           509.531
       211   02 Jun 2027 15:29:41.649   02 Jun 2027 15:30:48.863            67.214              Murmansk1          2100.437
       212   02 Jun 2027 15:38:33.435   02 Jun 2027 15:40:24.501           111.066                Anadyr2          3470.813
       213   02 Jun 2027 15:41:08.827   02 Jun 2027 15:41:28.671            19.844                Anadyr1           620.125
       214   02 Jun 2027 15:42:36.527   02 Jun 2027 15:45:40.902           184.375               Magadan1          5761.719
       215   02 Jun 2027 15:46:06.870   02 Jun 2027 15:47:44.704            97.834               Magadan2          3057.313
       216   02 Jun 2027 17:14:26.433   02 Jun 2027 17:14:28.144             1.711                Anadyr2            53.469
       217   02 Jun 2027 17:14:44.146   02 Jun 2027 17:15:03.509            19.363                Anadyr1           605.094
       218   02 Jun 2027 17:15:54.781   02 Jun 2027 17:16:26.682            31.901                Anadyr2           996.906
       219   02 Jun 2027 17:16:52.827   02 Jun 2027 17:18:38.959           106.132               Magadan1          3316.625
       220   02 Jun 2027 17:21:18.772   02 Jun 2027 17:21:31.636            12.864               Magadan2           402.000
       221   02 Jun 2027 17:24:45.841   02 Jun 2027 17:25:12.699            26.858               Magadan2           839.313
       222   02 Jun 2027 17:28:17.109   02 Jun 2027 17:28:32.123            15.014               Magadan1           469.188
       223   02 Jun 2027 18:50:19.450   02 Jun 2027 18:52:04.073           104.623                Anadyr2          3269.469
       224   02 Jun 2027 18:52:23.537   02 Jun 2027 18:54:01.691            98.154                Anadyr1          3067.312
       225   02 Jun 2027 18:54:06.150   02 Jun 2027 18:55:52.776           106.626               Magadan2          3332.063
       226   02 Jun 2027 18:56:02.430   02 Jun 2027 18:56:30.717            28.287                Norilsk           883.969
       227   02 Jun 2027 18:59:00.012   02 Jun 2027 19:01:22.114           142.102                Irkutsk          4440.688
       228   02 Jun 2027 19:03:13.525   02 Jun 2027 19:03:24.849            11.324                Irkutsk           353.875
       229   02 Jun 2027 19:44:35.289   02 Jun 2027 19:44:47.286            11.997            RioGallegos           374.906
       230   02 Jun 2027 19:46:06.036   02 Jun 2027 19:47:38.710            92.674            RioGallegos          2896.063
       231   02 Jun 2027 19:54:56.257   02 Jun 2027 19:54:57.107             0.850            RioGallegos            26.562
       232   02 Jun 2027 20:27:50.782   02 Jun 2027 20:27:53.334             2.552                Anadyr2            79.750
       233   02 Jun 2027 20:28:11.496   02 Jun 2027 20:30:00.033           108.537                Norilsk          3391.781
       234   02 Jun 2027 20:30:47.548   02 Jun 2027 20:30:54.231             6.683               Magadan2           208.844
       235   02 Jun 2027 20:32:15.241   02 Jun 2027 20:34:01.992           106.751                Irkutsk          3335.969
       236   02 Jun 2027 20:34:21.690   02 Jun 2027 20:36:58.369           156.679                Novosib          4896.219
       237   02 Jun 2027 20:37:55.146   02 Jun 2027 20:38:49.868            54.722                Novosib          1710.063
       238   02 Jun 2027 20:45:55.979   02 Jun 2027 20:46:52.502            56.523                Sumatra          1766.344
       239   02 Jun 2027 20:54:16.303   02 Jun 2027 20:55:28.409            72.106                Sumatra          2253.312
       240   02 Jun 2027 22:04:46.289   02 Jun 2027 22:06:04.032            77.743               Magadan2          2429.469
       241   02 Jun 2027 22:08:03.070   02 Jun 2027 22:08:11.923             8.853                Irkutsk           276.656
       242   02 Jun 2027 22:08:19.662   02 Jun 2027 22:08:27.577             7.915                Irkutsk           247.344
       243   02 Jun 2027 22:09:24.589   02 Jun 2027 22:09:41.907            17.318                Irkutsk           541.187
       244   02 Jun 2027 22:09:56.207   02 Jun 2027 22:10:40.902            44.695                Novosib          1396.719
       245   02 Jun 2027 22:10:51.443   02 Jun 2027 22:10:55.715             4.272                Novosib           133.500
       246   02 Jun 2027 22:15:37.009   02 Jun 2027 22:15:56.810            19.801                Novosib           618.781
       247   02 Jun 2027 22:16:31.996   02 Jun 2027 22:18:03.344            91.348                  Delhi          2854.625
       248   02 Jun 2027 22:19:21.631   02 Jun 2027 22:19:23.559             1.928                  Delhi            60.250
       249   02 Jun 2027 22:20:21.197   02 Jun 2027 22:21:46.222            85.025                  Delhi          2657.031
       250   02 Jun 2027 23:33:48.249   02 Jun 2027 23:33:53.586             5.337                Anadyr1           166.781
       251   02 Jun 2027 23:34:20.107   02 Jun 2027 23:34:23.413             3.306                Anadyr2           103.312
       252   02 Jun 2027 23:35:42.149   02 Jun 2027 23:36:07.950            25.801                Anadyr1           806.281
       253   02 Jun 2027 23:36:31.869   02 Jun 2027 23:36:53.254            21.385                Anadyr1           668.281
       254   02 Jun 2027 23:39:56.133   02 Jun 2027 23:41:39.284           103.151               Magadan1          3223.469
       255   02 Jun 2027 23:42:16.808   02 Jun 2027 23:42:30.722            13.914               Magadan1           434.813
       256   02 Jun 2027 23:42:45.912   02 Jun 2027 23:47:22.520           276.608              Murmansk2          8644.000
       257   02 Jun 2027 23:51:53.976   02 Jun 2027 23:52:40.964            46.988                 Moscow          1468.375
       258   03 Jun 2027 00:15:43.985   03 Jun 2027 00:16:09.136            25.151               CapeTown           785.969
       259   03 Jun 2027 00:16:52.081   03 Jun 2027 00:17:56.883            64.802               CapeTown          2025.062
       260   03 Jun 2027 01:12:01.489   03 Jun 2027 01:13:25.525            84.036               Magadan2          2626.125
       261   03 Jun 2027 01:13:30.933   03 Jun 2027 01:14:09.964            39.031               Magadan1          1219.719
       262   03 Jun 2027 01:14:22.897   03 Jun 2027 01:14:35.265            12.368               Magadan1           386.500
       263   03 Jun 2027 01:15:52.079   03 Jun 2027 01:15:57.635             5.556                Norilsk           173.625
       264   03 Jun 2027 01:16:04.833   03 Jun 2027 01:16:09.916             5.083               Magadan2           158.844
       265   03 Jun 2027 01:18:16.217   03 Jun 2027 01:19:21.346            65.129              Murmansk1          2035.281
       266   03 Jun 2027 01:19:21.346   03 Jun 2027 01:20:04.786            43.440              Murmansk2          1357.500
       267   03 Jun 2027 01:20:37.279   03 Jun 2027 01:20:50.753            13.474              Murmansk2           421.062
       268   03 Jun 2027 01:21:12.326   03 Jun 2027 01:22:07.227            54.901              Murmansk2          1715.656
       269   03 Jun 2027 01:27:14.856   03 Jun 2027 01:27:16.630             1.774                 Moscow            55.438
       270   03 Jun 2027 01:28:46.044   03 Jun 2027 01:28:53.336             7.292                 Moscow           227.875
       271   03 Jun 2027 01:29:47.209   03 Jun 2027 01:30:42.167            54.958                 Moscow          1717.438
       272   03 Jun 2027 01:45:37.878   03 Jun 2027 01:47:06.096            88.218               CapeTown          2756.812
       273   03 Jun 2027 02:42:07.615   03 Jun 2027 02:43:06.343            58.728                Anadyr1          1835.250
       274   03 Jun 2027 02:43:27.623   03 Jun 2027 02:43:57.142            29.519                Anadyr2           922.469
       275   03 Jun 2027 02:44:04.763   03 Jun 2027 02:44:57.717            52.954               Magadan1          1654.813
       276   03 Jun 2027 02:46:33.620   03 Jun 2027 02:46:49.503            15.883               Magadan2           496.344
       277   03 Jun 2027 02:49:02.664   03 Jun 2027 02:49:07.218             4.554               Magadan2           142.313
       278   03 Jun 2027 02:49:44.825   03 Jun 2027 02:50:31.929            47.104               Magadan1          1472.000
       279   03 Jun 2027 02:54:14.345   03 Jun 2027 02:54:59.583            45.238              Murmansk1          1413.688
       280   03 Jun 2027 02:55:53.304   03 Jun 2027 02:55:54.947             1.643              Murmansk1            51.344
       281   03 Jun 2027 02:55:57.315   03 Jun 2027 02:56:05.885             8.570              Murmansk2           267.812
       282   03 Jun 2027 02:57:31.061   03 Jun 2027 02:58:28.465            57.404                 Moscow          1793.875
       283   03 Jun 2027 02:59:37.508   03 Jun 2027 02:59:45.190             7.682                 Moscow           240.062
       284   03 Jun 2027 03:00:00.849   03 Jun 2027 03:00:14.111            13.262                 Moscow           414.437
       285   03 Jun 2027 03:00:53.862   03 Jun 2027 03:01:23.140            29.278                Norilsk           914.938
       286   03 Jun 2027 04:25:02.708   03 Jun 2027 04:25:40.828            38.120                Anadyr2          1191.250
       287   03 Jun 2027 04:26:10.573   03 Jun 2027 04:26:14.266             3.693               Magadan1           115.406
       288   03 Jun 2027 04:26:14.266   03 Jun 2027 04:26:44.218            29.952               Magadan2           936.000
       289   03 Jun 2027 04:26:57.446   03 Jun 2027 04:29:15.529           138.083                Anadyr1          4315.094
       290   03 Jun 2027 04:29:19.470   03 Jun 2027 04:30:19.746            60.276               Magadan2          1883.625
       291   03 Jun 2027 05:59:19.687   03 Jun 2027 05:59:49.650            29.963                Anadyr2           936.344
       292   03 Jun 2027 05:59:56.429   03 Jun 2027 06:01:20.697            84.268                Anadyr2          2633.375
       293   03 Jun 2027 06:01:50.375   03 Jun 2027 06:03:04.412            74.037                Anadyr1          2313.656
       294   03 Jun 2027 06:03:04.412   03 Jun 2027 06:03:51.804            47.392                Anadyr2          1481.000
       295   03 Jun 2027 06:03:56.816   03 Jun 2027 06:04:27.611            30.795               Magadan1           962.344
       296   03 Jun 2027 06:04:37.854   03 Jun 2027 06:04:40.105             2.251               Magadan2            70.344
       297   03 Jun 2027 06:04:40.345   03 Jun 2027 06:06:06.988            86.643                Anadyr1          2707.594
       298   03 Jun 2027 06:06:19.554   03 Jun 2027 06:06:48.149            28.595                Norilsk           893.594
       299   03 Jun 2027 06:07:31.939   03 Jun 2027 06:07:40.988             9.049              Murmansk1           282.781
       300   03 Jun 2027 06:08:06.509   03 Jun 2027 06:08:11.398             4.889              Murmansk1           152.781
       301   03 Jun 2027 06:41:53.147   03 Jun 2027 06:43:17.158            84.011            RioGallegos          2625.344
       302   03 Jun 2027 07:35:23.865   03 Jun 2027 07:35:33.826             9.961                Irkutsk           311.281
       303   03 Jun 2027 07:35:45.427   03 Jun 2027 07:35:49.748             4.321                Irkutsk           135.031
       304   03 Jun 2027 07:36:15.267   03 Jun 2027 07:36:32.367            17.100                Novosib           534.375
       305   03 Jun 2027 07:36:52.303   03 Jun 2027 07:36:56.422             4.119                Irkutsk           128.719
       306   03 Jun 2027 07:37:17.599   03 Jun 2027 07:38:12.844            55.245                Novosib          1726.406
       307   03 Jun 2027 07:38:27.130   03 Jun 2027 07:39:20.900            53.770                Novosib          1680.313
       308   03 Jun 2027 07:39:30.940   03 Jun 2027 07:40:46.278            75.338                Irkutsk          2354.312
       309   03 Jun 2027 07:41:00.473   03 Jun 2027 07:42:05.069            64.596                Irkutsk          2018.625
       310   03 Jun 2027 07:42:30.247   03 Jun 2027 07:42:32.082             1.835                Novosib            57.344
       311   03 Jun 2027 07:42:59.233   03 Jun 2027 07:43:03.940             4.707              Murmansk2           147.094
       312   03 Jun 2027 07:43:26.813   03 Jun 2027 07:43:38.497            11.684              Murmansk2           365.125
       313   03 Jun 2027 07:46:25.939   03 Jun 2027 07:46:28.882             2.943              Murmansk2            91.969
       314   03 Jun 2027 07:46:44.127   03 Jun 2027 07:47:08.649            24.522              Murmansk1           766.313
       315   03 Jun 2027 08:17:08.317   03 Jun 2027 08:17:59.553            51.236            RioGallegos          1601.125
       316   03 Jun 2027 08:20:13.300   03 Jun 2027 08:20:55.084            41.784            RioGallegos          1305.750
       317   03 Jun 2027 08:52:39.041   03 Jun 2027 08:53:20.286            41.245                Sumatra          1288.906
       318   03 Jun 2027 08:59:42.570   03 Jun 2027 08:59:59.891            17.321                Sumatra           541.281
       319   03 Jun 2027 09:02:25.374   03 Jun 2027 09:03:11.537            46.163                  Delhi          1442.594
       320   03 Jun 2027 09:05:43.371   03 Jun 2027 09:06:16.369            32.998                  Delhi          1031.187
       321   03 Jun 2027 09:07:02.263   03 Jun 2027 09:08:28.277            86.014                  Delhi          2687.937
       322   03 Jun 2027 09:12:16.886   03 Jun 2027 09:12:47.624            30.738                Irkutsk           960.562
       323   03 Jun 2027 09:12:53.843   03 Jun 2027 09:12:58.350             4.507                Novosib           140.844
       324   03 Jun 2027 09:13:06.695   03 Jun 2027 09:13:27.337            20.642                Novosib           645.062
       325   03 Jun 2027 09:14:04.022   03 Jun 2027 09:14:15.965            11.943                Irkutsk           373.219
       326   03 Jun 2027 09:14:20.592   03 Jun 2027 09:15:01.793            41.201                Novosib          1287.531
       327   03 Jun 2027 09:15:22.023   03 Jun 2027 09:16:27.450            65.427                Norilsk          2044.594
       328   03 Jun 2027 09:16:34.534   03 Jun 2027 09:16:53.799            19.265                Novosib           602.031
       329   03 Jun 2027 09:16:56.420   03 Jun 2027 09:18:01.226            64.806                Irkutsk          2025.188
       330   03 Jun 2027 09:18:10.551   03 Jun 2027 09:19:10.977            60.426                 Moscow          1888.312
       331   03 Jun 2027 09:19:40.128   03 Jun 2027 09:20:08.746            28.618                 Moscow           894.313
       332   03 Jun 2027 09:58:04.653   03 Jun 2027 09:58:46.723            42.070            RioGallegos          1314.688
       333   03 Jun 2027 10:32:22.882   03 Jun 2027 10:33:12.346            49.464                Sumatra          1545.750
       334   03 Jun 2027 10:34:35.845   03 Jun 2027 10:34:50.560            14.715                Sumatra           459.844
       335   03 Jun 2027 10:39:14.769   03 Jun 2027 10:40:43.500            88.731                  Delhi          2772.844
       336   03 Jun 2027 10:50:19.936   03 Jun 2027 10:50:36.470            16.534                Novosib           516.687
       337   03 Jun 2027 10:50:52.281   03 Jun 2027 10:51:20.930            28.649                Norilsk           895.281
       338   03 Jun 2027 10:51:25.600   03 Jun 2027 10:51:29.039             3.439              Murmansk1           107.469
       339   03 Jun 2027 10:51:37.156   03 Jun 2027 10:52:00.553            23.397                Norilsk           731.156
       340   03 Jun 2027 10:52:03.380   03 Jun 2027 10:52:54.330            50.950                 Moscow          1592.188
       341   03 Jun 2027 10:52:57.756   03 Jun 2027 10:53:32.073            34.317                 Moscow          1072.406
       342   03 Jun 2027 10:53:38.891   03 Jun 2027 10:53:44.088             5.197                Novosib           162.406
       343   03 Jun 2027 10:53:45.517   03 Jun 2027 10:54:00.179            14.662                Norilsk           458.187
       344   03 Jun 2027 10:54:10.469   03 Jun 2027 10:55:12.722            62.253                 Moscow          1945.406
       345   03 Jun 2027 12:20:30.793   03 Jun 2027 12:22:54.300           143.507                 Moscow          4484.594
       346   03 Jun 2027 12:23:41.151   03 Jun 2027 12:24:38.001            56.850                 Moscow          1776.562
       347   03 Jun 2027 12:24:41.070   03 Jun 2027 12:27:16.742           155.672              Murmansk1          4864.750
       348   03 Jun 2027 13:35:18.935   03 Jun 2027 13:37:46.684           147.749               CapeTown          4617.156
       349   03 Jun 2027 13:38:17.295   03 Jun 2027 13:38:27.685            10.390               CapeTown           324.688
       350   03 Jun 2027 13:40:05.304   03 Jun 2027 13:41:52.700           107.396               CapeTown          3356.125
       351   03 Jun 2027 14:00:53.206   03 Jun 2027 14:03:06.699           133.493              Murmansk1          4171.656
       352   03 Jun 2027 14:15:04.453   03 Jun 2027 14:17:35.923           151.470                Anadyr1          4733.437
       353   03 Jun 2027 14:18:21.714   03 Jun 2027 14:19:23.897            62.183                Anadyr1          1943.219
       354   03 Jun 2027 15:40:04.461   03 Jun 2027 15:42:06.327           121.866              Murmansk2          3808.313
       355   03 Jun 2027 15:50:33.707   03 Jun 2027 15:51:27.406            53.699                Anadyr1          1678.094
       356   03 Jun 2027 15:52:22.155   03 Jun 2027 15:52:48.628            26.473                Anadyr1           827.281
       357   03 Jun 2027 15:53:11.482   03 Jun 2027 15:53:22.410            10.928                Anadyr1           341.500
       358   03 Jun 2027 15:53:22.410   03 Jun 2027 15:53:30.003             7.593                Anadyr2           237.281
       359   03 Jun 2027 15:53:36.785   03 Jun 2027 15:55:14.193            97.408                Anadyr2          3044.000
       360   03 Jun 2027 15:55:52.829   03 Jun 2027 15:57:30.486            97.657               Magadan2          3051.781
       361   03 Jun 2027 15:58:25.095   03 Jun 2027 15:59:46.827            81.732               Magadan1          2554.125
       362   03 Jun 2027 15:59:56.513   03 Jun 2027 16:00:11.495            14.982               Magadan1           468.187
       363   03 Jun 2027 16:00:54.892   03 Jun 2027 16:01:19.485            24.593               Magadan1           768.531
       364   03 Jun 2027 17:26:27.831   03 Jun 2027 17:27:53.834            86.003                Anadyr2          2687.594
       365   03 Jun 2027 17:28:45.134   03 Jun 2027 17:28:46.919             1.785                Anadyr1            55.781
       366   03 Jun 2027 17:28:50.835   03 Jun 2027 17:31:05.661           134.826               Magadan2          4213.312
       367   03 Jun 2027 17:31:21.138   03 Jun 2027 17:32:50.137            88.999               Magadan2          2781.219
       368   03 Jun 2027 19:02:19.452   03 Jun 2027 19:04:05.256           105.804                Anadyr1          3306.375
       369   03 Jun 2027 19:04:18.900   03 Jun 2027 19:06:00.889           101.989                Anadyr2          3187.156
       370   03 Jun 2027 19:06:11.013   03 Jun 2027 19:07:14.010            62.997               Magadan1          1968.656
       371   03 Jun 2027 19:07:14.970   03 Jun 2027 19:08:28.433            73.463                Norilsk          2295.719
       372   03 Jun 2027 19:10:09.429   03 Jun 2027 19:13:05.604           176.175                Irkutsk          5505.469
       373   03 Jun 2027 19:15:18.906   03 Jun 2027 19:16:21.446            62.540                Irkutsk          1954.375
       374   03 Jun 2027 19:26:32.418   03 Jun 2027 19:27:29.159            56.741                Sumatra          1773.156
       375   03 Jun 2027 19:29:53.049   03 Jun 2027 19:31:03.091            70.042                Sumatra          2188.813
       376   03 Jun 2027 20:44:11.979   03 Jun 2027 20:46:00.807           108.828                Irkutsk          3400.875
       377   03 Jun 2027 20:46:24.205   03 Jun 2027 20:48:39.804           135.599                Novosib          4237.469
       378   03 Jun 2027 20:51:49.307   03 Jun 2027 20:52:30.632            41.325                Novosib          1291.406
       379   03 Jun 2027 20:57:53.944   03 Jun 2027 20:58:23.209            29.265                Sumatra           914.531
       380   03 Jun 2027 21:07:26.525   03 Jun 2027 21:07:29.737             3.212                Sumatra           100.375
       381   03 Jun 2027 22:13:46.794   03 Jun 2027 22:13:52.212             5.418                Anadyr1           169.312
       382   03 Jun 2027 22:16:47.268   03 Jun 2027 22:18:27.871           100.603               Magadan2          3143.844
       383   03 Jun 2027 22:19:53.697   03 Jun 2027 22:22:40.587           166.890              Murmansk1          5215.312
       384   03 Jun 2027 22:27:23.077   03 Jun 2027 22:27:38.663            15.586                Novosib           487.063
       385   03 Jun 2027 22:27:55.079   03 Jun 2027 22:29:42.620           107.541                  Delhi          3360.656
       386   03 Jun 2027 22:36:59.202   03 Jun 2027 22:37:51.103            51.901                  Delhi          1621.906
       387   03 Jun 2027 23:51:10.982   03 Jun 2027 23:51:29.615            18.633                Anadyr1           582.281
       388   03 Jun 2027 23:51:38.224   03 Jun 2027 23:52:09.009            30.785               Magadan2           962.031
       389   03 Jun 2027 23:52:26.464   03 Jun 2027 23:52:38.547            12.083               Magadan2           377.594
       390   03 Jun 2027 23:53:22.316   03 Jun 2027 23:53:59.948            37.632               Magadan1          1176.000
       391   03 Jun 2027 23:54:25.797   03 Jun 2027 23:57:20.174           174.377              Murmansk2          5449.281
       392   03 Jun 2027 23:57:44.381   03 Jun 2027 23:59:05.113            80.732              Murmansk2          2522.875
       393   03 Jun 2027 23:59:57.336   04 Jun 2027 00:02:53.413           176.077                 Moscow          5502.406
       394   04 Jun 2027 00:25:56.457   04 Jun 2027 00:27:28.079            91.622               CapeTown          2863.188
       395   04 Jun 2027 01:23:29.880   04 Jun 2027 01:24:48.992            79.112               Magadan2          2472.250
       396   04 Jun 2027 01:27:17.006   04 Jun 2027 01:28:03.001            45.995               Magadan1          1437.344
       397   04 Jun 2027 01:30:17.837   04 Jun 2027 01:31:18.008            60.171              Murmansk2          1880.344
       398   04 Jun 2027 01:31:18.008   04 Jun 2027 01:32:01.632            43.624              Murmansk1          1363.250
       399   04 Jun 2027 01:32:57.395   04 Jun 2027 01:33:25.101            27.706                Novosib           865.812
       400   04 Jun 2027 01:36:24.385   04 Jun 2027 01:36:37.356            12.971                 Moscow           405.344
       401   04 Jun 2027 01:40:54.626   04 Jun 2027 01:41:09.027            14.401                 Moscow           450.031
       402   04 Jun 2027 01:44:43.286   04 Jun 2027 01:44:49.097             5.811                 Moscow           181.594
       403   04 Jun 2027 01:45:11.592   04 Jun 2027 01:46:05.528            53.936                 Moscow          1685.500
       404   04 Jun 2027 01:57:29.558   04 Jun 2027 01:58:33.871            64.313               CapeTown          2009.781
       405   04 Jun 2027 02:54:08.049   04 Jun 2027 02:55:41.442            93.393                Anadyr2          2918.531
       406   04 Jun 2027 02:55:43.682   04 Jun 2027 02:56:53.272            69.590               Magadan2          2174.688
       407   04 Jun 2027 02:58:01.955   04 Jun 2027 02:58:31.846            29.891               Magadan1           934.094
       408   04 Jun 2027 03:00:21.616   04 Jun 2027 03:01:10.239            48.623                Anadyr1          1519.469
       409   04 Jun 2027 03:01:10.239   04 Jun 2027 03:01:33.525            23.286                Anadyr2           727.688
       410   04 Jun 2027 03:01:59.394   04 Jun 2027 03:04:37.102           157.708                Anadyr1          4928.375
       411   04 Jun 2027 03:04:39.652   04 Jun 2027 03:05:04.087            24.435                Anadyr1           763.594
       412   04 Jun 2027 03:05:44.589   04 Jun 2027 03:05:54.874            10.285               Magadan2           321.406
       413   04 Jun 2027 04:36:51.636   04 Jun 2027 04:37:11.133            19.497               Magadan1           609.281
       414   04 Jun 2027 04:37:17.607   04 Jun 2027 04:38:31.964            74.357                Anadyr1          2323.656
       415   04 Jun 2027 04:38:51.655   04 Jun 2027 04:39:31.338            39.683                Anadyr1          1240.094
       416   04 Jun 2027 04:40:04.044   04 Jun 2027 04:42:41.801           157.757               Magadan1          4929.906
       417   04 Jun 2027 05:22:43.585   04 Jun 2027 05:23:16.523            32.938            RioGallegos          1029.313
       418   04 Jun 2027 05:23:47.505   04 Jun 2027 05:24:33.233            45.728            RioGallegos          1429.000
       419   04 Jun 2027 05:27:48.517   04 Jun 2027 05:28:23.357            34.840            RioGallegos          1088.750
       420   04 Jun 2027 05:28:51.373   04 Jun 2027 05:28:53.593             2.220            RioGallegos            69.375
       421   04 Jun 2027 06:10:05.999   04 Jun 2027 06:11:34.522            88.523               Magadan2          2766.344
       422   04 Jun 2027 06:11:39.664   04 Jun 2027 06:12:17.166            37.502               Magadan1          1171.937
       423   04 Jun 2027 06:12:34.700   04 Jun 2027 06:12:38.530             3.830                Norilsk           119.687
       424   04 Jun 2027 06:12:40.857   04 Jun 2027 06:14:17.858            97.001               Magadan2          3031.281
       425   04 Jun 2027 06:14:26.959   04 Jun 2027 06:15:05.814            38.855                Anadyr1          1214.219
       426   04 Jun 2027 06:15:11.725   04 Jun 2027 06:15:12.109             0.384                Anadyr2            12.000
       427   04 Jun 2027 06:15:12.109   04 Jun 2027 06:15:32.603            20.494                Anadyr1           640.438
       428   04 Jun 2027 06:15:33.037   04 Jun 2027 06:16:18.812            45.775               Magadan2          1430.469
       429   04 Jun 2027 06:16:29.285   04 Jun 2027 06:16:30.007             0.722               Magadan2            22.562
       430   04 Jun 2027 06:16:30.007   04 Jun 2027 06:17:27.539            57.532               Magadan1          1797.875
       431   04 Jun 2027 06:17:34.382   04 Jun 2027 06:17:52.457            18.075                Irkutsk           564.844
       432   04 Jun 2027 06:17:58.628   04 Jun 2027 06:18:48.322            49.694              Murmansk1          1552.937
       433   04 Jun 2027 06:18:48.322   04 Jun 2027 06:18:59.386            11.064              Murmansk2           345.750
       434   04 Jun 2027 06:53:38.174   04 Jun 2027 06:54:35.182            57.008            RioGallegos          1781.500
       435   04 Jun 2027 06:55:02.292   04 Jun 2027 06:56:13.794            71.502            RioGallegos          2234.437
       436   04 Jun 2027 07:31:38.172   04 Jun 2027 07:32:58.399            80.227                Sumatra          2507.094
       437   04 Jun 2027 07:47:26.168   04 Jun 2027 07:48:31.732            65.564               Magadan1          2048.875
       438   04 Jun 2027 07:48:53.557   04 Jun 2027 07:48:58.664             5.107                Irkutsk           159.594
       439   04 Jun 2027 07:49:04.598   04 Jun 2027 07:49:35.977            31.379               Magadan1           980.594
       440   04 Jun 2027 07:50:05.218   04 Jun 2027 07:50:18.454            13.236                Irkutsk           413.625
       441   04 Jun 2027 07:50:39.379   04 Jun 2027 07:50:43.149             3.770               Magadan2           117.813
       442   04 Jun 2027 07:50:52.205   04 Jun 2027 07:51:28.656            36.451                Irkutsk          1139.094
       443   04 Jun 2027 07:51:34.650   04 Jun 2027 07:51:53.827            19.177                Norilsk           599.281
       444   04 Jun 2027 07:51:55.832   04 Jun 2027 07:52:08.899            13.067                Norilsk           408.344
       445   04 Jun 2027 07:52:10.161   04 Jun 2027 07:52:41.334            31.173               Magadan1           974.156
       446   04 Jun 2027 07:52:45.161   04 Jun 2027 07:53:44.579            59.418                Norilsk          1856.812
       447   04 Jun 2027 07:53:55.735   04 Jun 2027 07:54:31.301            35.566              Murmansk2          1111.437
       448   04 Jun 2027 07:54:55.225   04 Jun 2027 07:54:55.994             0.769              Murmansk1            24.031
       449   04 Jun 2027 07:55:10.787   04 Jun 2027 07:55:19.105             8.318              Murmansk2           259.938
       450   04 Jun 2027 07:55:52.919   04 Jun 2027 07:56:37.918            44.999              Murmansk1          1406.219
       451   04 Jun 2027 08:29:19.857   04 Jun 2027 08:29:59.116            39.259            RioGallegos          1226.844
       452   04 Jun 2027 09:03:55.022   04 Jun 2027 09:04:10.892            15.870                Sumatra           495.937
       453   04 Jun 2027 09:04:13.765   04 Jun 2027 09:06:25.162           131.397                Sumatra          4106.156
       454   04 Jun 2027 09:14:03.108   04 Jun 2027 09:14:24.544            21.436                  Delhi           669.875
       455   04 Jun 2027 09:24:48.097   04 Jun 2027 09:24:54.060             5.963                Irkutsk           186.344
       456   04 Jun 2027 09:25:26.278   04 Jun 2027 09:25:39.762            13.484                Norilsk           421.375
       457   04 Jun 2027 09:25:42.994   04 Jun 2027 09:26:11.812            28.818                Norilsk           900.562
       458   04 Jun 2027 09:26:14.077   04 Jun 2027 09:27:12.431            58.354                Irkutsk          1823.562
       459   04 Jun 2027 09:27:23.413   04 Jun 2027 09:27:54.862            31.449                Norilsk           982.781
       460   04 Jun 2027 09:28:00.033   04 Jun 2027 09:28:44.473            44.440                Norilsk          1388.750
       461   04 Jun 2027 09:28:48.370   04 Jun 2027 09:29:31.850            43.480                Novosib          1358.750
       462   04 Jun 2027 09:29:34.559   04 Jun 2027 09:30:16.994            42.435                 Moscow          1326.094
       463   04 Jun 2027 09:30:24.081   04 Jun 2027 09:30:45.403            21.322                Novosib           666.313
       464   04 Jun 2027 09:30:53.778   04 Jun 2027 09:31:14.827            21.049                 Moscow           657.781
       465   04 Jun 2027 10:10:06.635   04 Jun 2027 10:10:43.076            36.441            RioGallegos          1138.781
       466   04 Jun 2027 10:11:49.104   04 Jun 2027 10:12:41.876            52.772            RioGallegos          1649.125
       467   04 Jun 2027 10:48:33.430   04 Jun 2027 10:49:48.685            75.255                  Delhi          2351.719
       468   04 Jun 2027 10:59:30.223   04 Jun 2027 11:00:37.269            67.046                  Delhi          2095.188
       469   04 Jun 2027 11:01:51.791   04 Jun 2027 11:02:51.423            59.632                 Moscow          1863.500
       470   04 Jun 2027 11:02:55.929   04 Jun 2027 11:03:08.186            12.257              Murmansk2           383.031
       471   04 Jun 2027 11:03:25.479   04 Jun 2027 11:04:14.197            48.718              Murmansk2          1522.438
       472   04 Jun 2027 11:04:23.311   04 Jun 2027 11:04:36.017            12.706                Norilsk           397.063
       473   04 Jun 2027 11:04:37.397   04 Jun 2027 11:04:43.402             6.005                Novosib           187.656
       474   04 Jun 2027 11:04:58.075   04 Jun 2027 11:06:05.001            66.926                 Moscow          2091.437
       475   04 Jun 2027 12:32:30.334   04 Jun 2027 12:35:49.271           198.937                 Moscow          6216.781
       476   04 Jun 2027 12:35:58.591   04 Jun 2027 12:37:44.046           105.455              Murmansk2          3295.469
       477   04 Jun 2027 12:38:00.236   04 Jun 2027 12:38:48.683            48.447              Murmansk1          1513.969
       478   04 Jun 2027 12:39:23.200   04 Jun 2027 12:39:41.173            17.973              Murmansk2           561.656
       479   04 Jun 2027 13:46:54.810   04 Jun 2027 13:50:18.338           203.528               CapeTown          6360.250
       480   04 Jun 2027 13:51:47.916   04 Jun 2027 13:53:00.260            72.344               CapeTown          2260.750
       481   04 Jun 2027 14:13:10.785   04 Jun 2027 14:15:08.089           117.304              Murmansk1          3665.750
       482   04 Jun 2027 14:22:41.902   04 Jun 2027 14:22:53.375            11.473              Murmansk1           358.531
