uniorb/output/strategy_2/Drop/Drop_KinoSat_111702.txt

KinoSat_111702
-------------------------
    Access    *     Start Time (UTCG)     *     Stop Time (UTCG)  *   Duration (s)        *       Station  *  Data (Mbytes)
         1   01 Jun 2027 03:44:03.912   01 Jun 2027 03:44:11.249             7.337              Murmansk2           229.281
         2   01 Jun 2027 03:44:11.293   01 Jun 2027 03:44:43.585            32.292                 Moscow          1009.125
         3   01 Jun 2027 03:44:46.906   01 Jun 2027 03:46:15.674            88.768              Murmansk1          2774.000
         4   01 Jun 2027 03:47:37.492   01 Jun 2027 03:48:00.646            23.154                Novosib           723.563
         5   01 Jun 2027 03:48:40.106   01 Jun 2027 03:48:50.666            10.560                Novosib           330.000
         6   01 Jun 2027 03:49:08.230   01 Jun 2027 03:51:57.381           169.151                  Delhi          5285.969
         7   01 Jun 2027 04:05:38.464   01 Jun 2027 04:07:07.007            88.543               CapeTown          2766.969
         8   01 Jun 2027 05:03:58.353   01 Jun 2027 05:04:03.458             5.105               Magadan2           159.531
         9   01 Jun 2027 05:04:42.515   01 Jun 2027 05:05:10.820            28.305               Magadan2           884.531
        10   01 Jun 2027 05:18:28.890   01 Jun 2027 05:18:52.484            23.594                Norilsk           737.312
        11   01 Jun 2027 05:20:00.592   01 Jun 2027 05:20:09.635             9.043              Murmansk1           282.594
        12   01 Jun 2027 05:20:40.918   01 Jun 2027 05:23:42.592           181.674              Murmansk1          5677.313
        13   01 Jun 2027 05:23:42.592   01 Jun 2027 05:24:11.648            29.056              Murmansk2           908.000
        14   01 Jun 2027 05:24:17.417   01 Jun 2027 05:24:54.166            36.749                 Moscow          1148.406
        15   01 Jun 2027 06:42:02.040   01 Jun 2027 06:45:33.189           211.149               Magadan1          6598.406
        16   01 Jun 2027 08:20:19.849   01 Jun 2027 08:24:02.760           222.911                Anadyr1          6965.969
        17   01 Jun 2027 09:52:38.746   01 Jun 2027 09:53:22.967            44.221               Magadan2          1381.906
        18   01 Jun 2027 09:53:33.005   01 Jun 2027 09:57:49.004           255.999               Magadan1          7999.969
        19   01 Jun 2027 09:57:49.004   01 Jun 2027 09:58:45.044            56.040               Magadan2          1751.250
        20   01 Jun 2027 11:30:30.509   01 Jun 2027 11:32:29.568           119.059               Magadan2          3720.594
        21   01 Jun 2027 11:32:37.640   01 Jun 2027 11:36:24.573           226.933                Norilsk          7091.656
        22   01 Jun 2027 12:10:51.090   01 Jun 2027 12:12:07.423            76.333            RioGallegos          2385.406
        23   01 Jun 2027 12:13:16.176   01 Jun 2027 12:15:24.571           128.395            RioGallegos          4012.344
        24   01 Jun 2027 12:47:16.182   01 Jun 2027 12:49:45.777           149.595                Sumatra          4674.844
        25   01 Jun 2027 13:00:03.787   01 Jun 2027 13:00:44.075            40.288                Irkutsk          1259.000
        26   01 Jun 2027 13:01:16.517   01 Jun 2027 13:03:00.661           104.144                Novosib          3254.500
        27   01 Jun 2027 13:03:47.900   01 Jun 2027 13:05:13.362            85.462                Irkutsk          2670.687
        28   01 Jun 2027 13:06:33.296   01 Jun 2027 13:07:03.090            29.794                Norilsk           931.063
        29   01 Jun 2027 14:29:52.794   01 Jun 2027 14:30:38.391            45.597                  Delhi          1424.906
        30   01 Jun 2027 14:32:05.805   01 Jun 2027 14:34:25.788           139.983                  Delhi          4374.469
        31   01 Jun 2027 14:38:04.002   01 Jun 2027 14:39:06.634            62.632                Novosib          1957.250
        32   01 Jun 2027 14:41:13.773   01 Jun 2027 14:43:06.877           113.104                Novosib          3534.500
        33   01 Jun 2027 14:44:21.188   01 Jun 2027 14:45:51.252            90.064                Norilsk          2814.500
        34   01 Jun 2027 16:13:43.345   01 Jun 2027 16:16:52.267           188.922                 Moscow          5903.813
        35   01 Jun 2027 16:17:14.355   01 Jun 2027 16:19:59.104           164.749              Murmansk1          5148.406
        36   01 Jun 2027 16:22:37.086   01 Jun 2027 16:27:07.998           270.912                Norilsk          8466.000
        37   01 Jun 2027 17:52:02.933   01 Jun 2027 17:53:50.903           107.970                 Moscow          3374.063
        38   01 Jun 2027 17:54:46.894   01 Jun 2027 17:57:56.400           189.506              Murmansk1          5922.063
        39   01 Jun 2027 19:03:26.611   01 Jun 2027 19:07:49.792           263.181               CapeTown          8224.406
        40   01 Jun 2027 19:34:49.698   01 Jun 2027 19:39:30.113           280.415              Murmansk2          8762.969
        41   01 Jun 2027 19:39:59.665   01 Jun 2027 19:40:43.410            43.745              Murmansk1          1367.031
        42   01 Jun 2027 21:19:40.420   01 Jun 2027 21:21:15.098            94.678                Anadyr1          2958.687
        43   01 Jun 2027 21:21:36.046   01 Jun 2027 21:23:47.605           131.559                Anadyr2          4111.219
        44   01 Jun 2027 21:23:56.158   01 Jun 2027 21:26:13.764           137.606               Magadan2          4300.188
        45   01 Jun 2027 21:26:44.603   01 Jun 2027 21:27:16.258            31.655               Magadan2           989.219
        46   01 Jun 2027 21:28:02.823   01 Jun 2027 21:28:35.319            32.496               Magadan1          1015.500
        47   01 Jun 2027 21:30:54.704   01 Jun 2027 21:31:24.028            29.324               Magadan2           916.375
        48   01 Jun 2027 21:34:20.419   01 Jun 2027 21:34:43.833            23.414               Magadan2           731.687
        49   01 Jun 2027 22:15:15.971   01 Jun 2027 22:17:31.767           135.796            RioGallegos          4243.625
        50   01 Jun 2027 22:17:55.790   01 Jun 2027 22:18:05.627             9.837            RioGallegos           307.406
        51   01 Jun 2027 22:20:07.654   01 Jun 2027 22:20:29.009            21.355            RioGallegos           667.344
        52   01 Jun 2027 22:20:54.734   01 Jun 2027 22:21:21.641            26.907            RioGallegos           840.844
        53   01 Jun 2027 22:55:28.194   01 Jun 2027 22:57:23.741           115.547                Anadyr1          3610.844
        54   01 Jun 2027 22:57:33.976   01 Jun 2027 22:59:19.624           105.648                Norilsk          3301.500
        55   01 Jun 2027 22:59:37.410   01 Jun 2027 22:59:47.852            10.442               Magadan2           326.312
        56   01 Jun 2027 23:00:24.480   01 Jun 2027 23:00:59.128            34.648                Norilsk          1082.750
        57   01 Jun 2027 23:01:05.583   01 Jun 2027 23:01:43.924            38.341               Magadan1          1198.156
        58   01 Jun 2027 23:02:17.540   01 Jun 2027 23:03:05.366            47.826                Irkutsk          1494.563
        59   01 Jun 2027 23:04:49.129   01 Jun 2027 23:04:52.961             3.832                Irkutsk           119.750
        60   01 Jun 2027 23:05:21.423   01 Jun 2027 23:05:31.983            10.560               Magadan1           330.000
        61   01 Jun 2027 23:05:33.803   01 Jun 2027 23:06:03.922            30.119                Irkutsk           941.219
        62   01 Jun 2027 23:07:31.560   01 Jun 2027 23:07:48.765            17.205                Irkutsk           537.656
        63   01 Jun 2027 23:08:50.297   01 Jun 2027 23:09:00.034             9.737               Magadan1           304.281
        64   01 Jun 2027 23:09:41.022   01 Jun 2027 23:11:05.872            84.850                Irkutsk          2651.562
        65   01 Jun 2027 23:18:37.220   01 Jun 2027 23:19:27.775            50.555                Sumatra          1579.844
        66   01 Jun 2027 23:21:00.534   01 Jun 2027 23:21:37.477            36.943                Sumatra          1154.469
        67   01 Jun 2027 23:25:49.084   01 Jun 2027 23:26:30.745            41.661                Sumatra          1301.906
        68   01 Jun 2027 23:57:33.051   01 Jun 2027 23:57:47.114            14.063            RioGallegos           439.469
        69   02 Jun 2027 00:00:13.176   02 Jun 2027 00:01:18.038            64.862            RioGallegos          2026.938
        70   02 Jun 2027 00:30:39.692   02 Jun 2027 00:31:41.763            62.071                Anadyr1          1939.719
        71   02 Jun 2027 00:32:46.369   02 Jun 2027 00:33:08.295            21.926                Anadyr2           685.188
        72   02 Jun 2027 00:33:20.680   02 Jun 2027 00:33:38.606            17.926                Anadyr2           560.187
        73   02 Jun 2027 00:33:39.013   02 Jun 2027 00:35:07.788            88.775                Norilsk          2774.219
        74   02 Jun 2027 00:35:19.835   02 Jun 2027 00:35:37.363            17.528               Magadan1           547.750
        75   02 Jun 2027 00:37:17.810   02 Jun 2027 00:40:32.767           194.957                Irkutsk          6092.406
        76   02 Jun 2027 00:46:17.586   02 Jun 2027 00:46:23.359             5.773                Irkutsk           180.406
        77   02 Jun 2027 00:46:38.403   02 Jun 2027 00:46:52.769            14.366                Irkutsk           448.938
        78   02 Jun 2027 00:46:56.947   02 Jun 2027 00:47:28.004            31.057                Novosib           970.531
        79   02 Jun 2027 00:48:58.940   02 Jun 2027 00:49:43.180            44.240                Irkutsk          1382.500
        80   02 Jun 2027 00:53:54.165   02 Jun 2027 00:54:37.389            43.224                  Delhi          1350.750
        81   02 Jun 2027 00:59:19.421   02 Jun 2027 01:00:01.053            41.632                Sumatra          1301.000
        82   02 Jun 2027 01:01:17.753   02 Jun 2027 01:02:40.528            82.775                Sumatra          2586.719
        83   02 Jun 2027 01:36:50.342   02 Jun 2027 01:37:19.899            29.557            RioGallegos           923.656
        84   02 Jun 2027 02:04:39.464   02 Jun 2027 02:04:51.140            11.676                Anadyr1           364.875
        85   02 Jun 2027 02:05:18.662   02 Jun 2027 02:05:52.082            33.420                Anadyr1          1044.375
        86   02 Jun 2027 02:06:23.495   02 Jun 2027 02:06:47.629            24.134                Anadyr1           754.188
        87   02 Jun 2027 02:08:44.259   02 Jun 2027 02:09:00.903            16.644                Anadyr1           520.125
        88   02 Jun 2027 02:09:24.858   02 Jun 2027 02:10:15.873            51.015                Norilsk          1594.219
        89   02 Jun 2027 02:10:25.693   02 Jun 2027 02:10:48.783            23.090               Magadan2           721.562
        90   02 Jun 2027 02:12:07.601   02 Jun 2027 02:13:43.157            95.556              Murmansk2          2986.125
        91   02 Jun 2027 02:14:31.828   02 Jun 2027 02:14:53.209            21.381                Irkutsk           668.156
        92   02 Jun 2027 02:16:23.419   02 Jun 2027 02:16:29.959             6.540                Novosib           204.375
        93   02 Jun 2027 02:17:16.391   02 Jun 2027 02:17:27.309            10.918                Novosib           341.187
        94   02 Jun 2027 02:18:08.840   02 Jun 2027 02:19:10.573            61.733                Irkutsk          1929.156
        95   02 Jun 2027 02:23:38.509   02 Jun 2027 02:24:37.326            58.817                Novosib          1838.031
        96   02 Jun 2027 02:29:41.519   02 Jun 2027 02:30:07.163            25.644                  Delhi           801.375
        97   02 Jun 2027 02:32:57.851   02 Jun 2027 02:33:17.048            19.197                  Delhi           599.906
        98   02 Jun 2027 03:02:44.799   02 Jun 2027 03:06:04.303           199.504            RioGallegos          6234.500
        99   02 Jun 2027 03:07:13.222   02 Jun 2027 03:07:56.474            43.252            RioGallegos          1351.625
       100   02 Jun 2027 03:54:25.274   02 Jun 2027 03:54:39.143            13.869              Murmansk1           433.406
       101   02 Jun 2027 03:55:22.503   02 Jun 2027 03:55:48.822            26.319              Murmansk2           822.469
       102   02 Jun 2027 03:56:17.036   02 Jun 2027 03:56:18.073             1.037                Norilsk            32.406
       103   02 Jun 2027 03:56:38.761   02 Jun 2027 03:58:21.677           102.916                 Moscow          3216.125
       104   02 Jun 2027 03:59:05.914   02 Jun 2027 04:00:49.656           103.742                  Delhi          3241.937
       105   02 Jun 2027 04:01:22.254   02 Jun 2027 04:02:21.863            59.609                 Moscow          1862.781
       106   02 Jun 2027 04:03:20.371   02 Jun 2027 04:04:38.256            77.885                  Delhi          2433.906
       107   02 Jun 2027 04:22:24.976   02 Jun 2027 04:22:49.295            24.319               CapeTown           759.969
       108   02 Jun 2027 04:23:15.318   02 Jun 2027 04:24:02.640            47.322               CapeTown          1478.812
       109   02 Jun 2027 04:25:18.975   02 Jun 2027 04:25:55.993            37.018               CapeTown          1156.813
       110   02 Jun 2027 05:30:36.775   02 Jun 2027 05:30:40.928             4.153              Murmansk2           129.781
       111   02 Jun 2027 05:31:02.820   02 Jun 2027 05:31:04.349             1.529              Murmansk1            47.781
       112   02 Jun 2027 05:31:04.349   02 Jun 2027 05:31:49.276            44.927              Murmansk2          1403.969
       113   02 Jun 2027 05:33:00.637   02 Jun 2027 05:35:00.491           119.854              Murmansk1          3745.438
       114   02 Jun 2027 05:35:14.438   02 Jun 2027 05:35:46.671            32.233                 Moscow          1007.281
       115   02 Jun 2027 05:36:19.337   02 Jun 2027 05:36:26.846             7.509                 Moscow           234.656
       116   02 Jun 2027 05:36:46.763   02 Jun 2027 05:38:11.884            85.121                 Moscow          2660.031
       117   02 Jun 2027 06:02:22.179   02 Jun 2027 06:02:52.130            29.951               CapeTown           935.969
       118   02 Jun 2027 06:54:04.954   02 Jun 2027 06:58:00.265           235.311               Magadan2          7353.469
       119   02 Jun 2027 06:58:00.265   02 Jun 2027 06:58:05.641             5.376               Magadan1           168.000
       120   02 Jun 2027 06:58:09.345   02 Jun 2027 06:58:52.879            43.534                Anadyr2          1360.437
       121   02 Jun 2027 08:31:12.501   02 Jun 2027 08:32:19.807            67.306                Anadyr1          2103.312
       122   02 Jun 2027 08:32:19.807   02 Jun 2027 08:33:30.207            70.400                Anadyr2          2200.000
       123   02 Jun 2027 08:44:28.026   02 Jun 2027 08:44:50.057            22.031                 Moscow           688.469
       124   02 Jun 2027 10:04:07.760   02 Jun 2027 10:06:38.226           150.466               Magadan2          4702.063
       125   02 Jun 2027 10:07:28.611   02 Jun 2027 10:09:42.344           133.733                Anadyr2          4179.156
       126   02 Jun 2027 10:09:50.172   02 Jun 2027 10:10:27.173            37.001               Magadan2          1156.281
       127   02 Jun 2027 10:10:40.376   02 Jun 2027 10:10:47.469             7.093              Murmansk2           221.656
       128   02 Jun 2027 10:10:52.433   02 Jun 2027 10:11:00.932             8.499                Norilsk           265.594
       129   02 Jun 2027 10:11:11.782   02 Jun 2027 10:11:28.451            16.669               Magadan1           520.906
       130   02 Jun 2027 10:11:48.773   02 Jun 2027 10:12:41.836            53.063              Murmansk2          1658.219
       131   02 Jun 2027 10:46:24.503   02 Jun 2027 10:47:28.004            63.501            RioGallegos          1984.406
       132   02 Jun 2027 11:22:33.615   02 Jun 2027 11:22:53.881            20.266                Sumatra           633.312
       133   02 Jun 2027 11:23:54.325   02 Jun 2027 11:25:19.452            85.127                Sumatra          2660.219
       134   02 Jun 2027 11:41:04.640   02 Jun 2027 11:41:33.397            28.757                Norilsk           898.656
       135   02 Jun 2027 11:41:44.641   02 Jun 2027 11:42:27.656            43.015                Irkutsk          1344.219
       136   02 Jun 2027 11:42:39.974   02 Jun 2027 11:42:50.600            10.626                Irkutsk           332.062
       137   02 Jun 2027 11:42:55.755   02 Jun 2027 11:43:33.771            38.016                Novosib          1188.000
       138   02 Jun 2027 11:43:41.008   02 Jun 2027 11:44:39.776            58.768                Norilsk          1836.500
       139   02 Jun 2027 11:44:46.467   02 Jun 2027 11:44:46.968             0.501                Norilsk            15.656
       140   02 Jun 2027 11:44:53.695   02 Jun 2027 11:44:56.225             2.530                Norilsk            79.062
       141   02 Jun 2027 11:44:57.548   02 Jun 2027 11:45:03.678             6.130                Novosib           191.563
       142   02 Jun 2027 11:45:03.762   02 Jun 2027 11:45:47.510            43.748              Murmansk1          1367.125
       143   02 Jun 2027 11:45:58.432   02 Jun 2027 11:46:19.735            21.303                Novosib           665.719
       144   02 Jun 2027 11:46:27.165   02 Jun 2027 11:46:36.222             9.057                Novosib           283.031
       145   02 Jun 2027 11:46:44.250   02 Jun 2027 11:47:14.941            30.691                Norilsk           959.094
       146   02 Jun 2027 11:47:26.631   02 Jun 2027 11:47:36.585             9.954                Irkutsk           311.063
       147   02 Jun 2027 11:48:05.404   02 Jun 2027 11:48:14.788             9.384              Murmansk2           293.250
       148   02 Jun 2027 11:48:26.436   02 Jun 2027 11:48:49.108            22.672              Murmansk1           708.500
       149   02 Jun 2027 11:52:15.460   02 Jun 2027 11:52:33.609            18.149                Norilsk           567.156
       150   02 Jun 2027 12:23:13.007   02 Jun 2027 12:24:13.077            60.070            RioGallegos          1877.188
       151   02 Jun 2027 12:25:11.094   02 Jun 2027 12:27:25.132           134.038            RioGallegos          4188.687
       152   02 Jun 2027 13:03:53.668   02 Jun 2027 13:05:10.196            76.528                Sumatra          2391.500
       153   02 Jun 2027 13:12:36.076   02 Jun 2027 13:13:19.698            43.622                Irkutsk          1363.187
       154   02 Jun 2027 13:15:46.301   02 Jun 2027 13:17:37.053           110.752                Irkutsk          3461.000
       155   02 Jun 2027 13:21:31.573   02 Jun 2027 13:22:40.668            69.095                Irkutsk          2159.219
       156   02 Jun 2027 14:42:20.042   02 Jun 2027 14:44:57.090           157.048                  Delhi          4907.750
       157   02 Jun 2027 14:46:56.452   02 Jun 2027 14:47:30.202            33.750                  Delhi          1054.687
       158   02 Jun 2027 14:50:40.669   02 Jun 2027 14:53:46.552           185.883                Novosib          5808.844
       159   02 Jun 2027 14:54:56.088   02 Jun 2027 14:55:21.496            25.408                Norilsk           794.000
       160   02 Jun 2027 14:56:01.826   02 Jun 2027 14:56:22.004            20.178                Novosib           630.562
       161   02 Jun 2027 14:59:28.589   02 Jun 2027 14:59:32.411             3.822                Norilsk           119.438
       162   02 Jun 2027 15:01:09.423   02 Jun 2027 15:02:16.700            67.277                Norilsk          2102.406
       163   02 Jun 2027 16:25:50.219   02 Jun 2027 16:27:43.815           113.596                 Moscow          3549.875
       164   02 Jun 2027 16:29:00.152   02 Jun 2027 16:29:23.303            23.151                 Moscow           723.469
       165   02 Jun 2027 16:30:00.821   02 Jun 2027 16:31:05.027            64.206              Murmansk2          2006.438
       166   02 Jun 2027 16:35:35.860   02 Jun 2027 16:39:38.938           243.078                Norilsk          7596.188
       167   02 Jun 2027 17:40:20.644   02 Jun 2027 17:41:04.580            43.936               CapeTown          1373.000
       168   02 Jun 2027 17:46:35.698   02 Jun 2027 17:46:46.503            10.805               CapeTown           337.656
       169   02 Jun 2027 17:49:51.568   02 Jun 2027 17:50:07.097            15.529               CapeTown           485.281
       170   02 Jun 2027 18:04:45.102   02 Jun 2027 18:09:30.808           285.706                 Moscow          8928.313
       171   02 Jun 2027 18:25:08.287   02 Jun 2027 18:25:14.831             6.544                Anadyr2           204.500
       172   02 Jun 2027 18:25:52.372   02 Jun 2027 18:26:00.538             8.166                Anadyr2           255.188
       173   02 Jun 2027 18:26:13.786   02 Jun 2027 18:26:33.485            19.699                Anadyr2           615.594
       174   02 Jun 2027 18:30:07.537   02 Jun 2027 18:30:34.462            26.925                Anadyr1           841.406
       175   02 Jun 2027 19:15:41.103   02 Jun 2027 19:17:05.768            84.665               CapeTown          2645.781
       176   02 Jun 2027 19:23:44.150   02 Jun 2027 19:25:29.987           105.837               CapeTown          3307.406
       177   02 Jun 2027 19:47:39.646   02 Jun 2027 19:49:29.058           109.412              Murmansk2          3419.125
       178   02 Jun 2027 19:49:29.058   02 Jun 2027 19:53:24.179           235.121              Murmansk1          7347.531
       179   02 Jun 2027 21:31:41.938   02 Jun 2027 21:35:26.694           224.756                Anadyr1          7023.625
       180   02 Jun 2027 21:35:33.629   02 Jun 2027 21:36:53.236            79.607                Anadyr2          2487.719
       181   02 Jun 2027 21:37:11.131   02 Jun 2027 21:38:20.185            69.054               Magadan1          2157.938
       182   02 Jun 2027 21:38:37.925   02 Jun 2027 21:38:39.004             1.079               Magadan2            33.719
       183   02 Jun 2027 21:38:44.275   02 Jun 2027 21:40:01.271            76.996               Magadan2          2406.125
       184   02 Jun 2027 22:26:48.248   02 Jun 2027 22:28:48.884           120.636            RioGallegos          3769.875
       185   02 Jun 2027 22:32:59.962   02 Jun 2027 22:33:28.961            28.999            RioGallegos           906.219
       186   02 Jun 2027 23:07:27.009   02 Jun 2027 23:08:55.619            88.610                Anadyr2          2769.063
       187   02 Jun 2027 23:08:57.663   02 Jun 2027 23:09:31.752            34.089                Anadyr1          1065.281
       188   02 Jun 2027 23:09:32.996   02 Jun 2027 23:11:09.411            96.415                Norilsk          3012.969
       189   02 Jun 2027 23:11:12.842   02 Jun 2027 23:11:37.761            24.919               Magadan2           778.719
       190   02 Jun 2027 23:12:14.223   02 Jun 2027 23:12:54.562            40.339               Magadan1          1260.594
       191   02 Jun 2027 23:14:04.233   02 Jun 2027 23:15:04.396            60.163                Irkutsk          1880.094
       192   02 Jun 2027 23:22:05.946   02 Jun 2027 23:22:47.188            41.242                Irkutsk          1288.812
       193   02 Jun 2027 23:23:09.308   02 Jun 2027 23:23:30.443            21.135                Irkutsk           660.469
       194   02 Jun 2027 23:28:17.547   02 Jun 2027 23:28:51.875            34.328                Sumatra          1072.750
       195   02 Jun 2027 23:28:58.417   02 Jun 2027 23:29:18.477            20.060                Sumatra           626.875
       196   02 Jun 2027 23:33:24.351   02 Jun 2027 23:33:53.104            28.753                Sumatra           898.531
       197   02 Jun 2027 23:37:08.443   02 Jun 2027 23:37:31.249            22.806                Sumatra           712.687
       198   02 Jun 2027 23:38:43.221   02 Jun 2027 23:38:57.417            14.196                Sumatra           443.625
       199   03 Jun 2027 00:08:56.710   03 Jun 2027 00:09:41.628            44.918            RioGallegos          1403.688
       200   03 Jun 2027 00:12:01.369   03 Jun 2027 00:12:48.507            47.138            RioGallegos          1473.062
       201   03 Jun 2027 00:42:44.514   03 Jun 2027 00:43:03.411            18.897                Anadyr1           590.531
       202   03 Jun 2027 00:43:42.972   03 Jun 2027 00:44:46.772            63.800                Anadyr2          1993.750
       203   03 Jun 2027 00:46:05.779   03 Jun 2027 00:48:19.797           134.018               Magadan1          4188.063
       204   03 Jun 2027 00:49:18.755   03 Jun 2027 00:51:24.056           125.301                Irkutsk          3915.656
       205   03 Jun 2027 00:58:17.540   03 Jun 2027 00:58:54.331            36.791                  Delhi          1149.719
       206   03 Jun 2027 01:00:25.615   03 Jun 2027 01:01:00.698            35.083                  Delhi          1096.344
       207   03 Jun 2027 01:03:17.952   03 Jun 2027 01:04:16.300            58.348                  Delhi          1823.375
       208   03 Jun 2027 01:37:34.084   03 Jun 2027 01:38:14.528            40.444            RioGallegos          1263.875
       209   03 Jun 2027 01:39:56.914   03 Jun 2027 01:40:13.749            16.835            RioGallegos           526.094
       210   03 Jun 2027 01:42:34.278   03 Jun 2027 01:43:14.538            40.260            RioGallegos          1258.125
       211   03 Jun 2027 01:48:33.491   03 Jun 2027 01:48:53.871            20.380            RioGallegos           636.875
       212   03 Jun 2027 02:17:35.041   03 Jun 2027 02:18:23.974            48.933                Anadyr2          1529.156
       213   03 Jun 2027 02:20:27.339   03 Jun 2027 02:20:45.638            18.299                Anadyr2           571.844
       214   03 Jun 2027 02:21:26.959   03 Jun 2027 02:22:32.629            65.670                Norilsk          2052.187
       215   03 Jun 2027 02:24:00.117   03 Jun 2027 02:25:27.168            87.051              Murmansk1          2720.344
       216   03 Jun 2027 02:25:38.125   03 Jun 2027 02:26:26.671            48.546                Irkutsk          1517.063
       217   03 Jun 2027 02:27:00.103   03 Jun 2027 02:27:28.962            28.859                Irkutsk           901.844
       218   03 Jun 2027 02:30:08.336   03 Jun 2027 02:31:00.634            52.298                Irkutsk          1634.313
       219   03 Jun 2027 02:38:21.315   03 Jun 2027 02:40:51.578           150.263                  Delhi          4695.719
       220   03 Jun 2027 03:15:14.455   03 Jun 2027 03:17:00.980           106.525            RioGallegos          3328.906
       221   03 Jun 2027 03:17:46.293   03 Jun 2027 03:19:32.837           106.544            RioGallegos          3329.500
       222   03 Jun 2027 04:07:47.182   03 Jun 2027 04:08:05.822            18.640                 Moscow           582.500
       223   03 Jun 2027 04:08:07.519   03 Jun 2027 04:08:12.224             4.705                Novosib           147.031
       224   03 Jun 2027 04:08:18.816   03 Jun 2027 04:08:50.304            31.488              Murmansk1           984.000
       225   03 Jun 2027 04:08:50.304   03 Jun 2027 04:11:01.829           131.525              Murmansk2          4110.156
       226   03 Jun 2027 04:11:06.731   03 Jun 2027 04:11:55.907            49.176                Novosib          1536.750
       227   03 Jun 2027 04:28:16.658   03 Jun 2027 04:31:01.932           165.274               CapeTown          5164.812
       228   03 Jun 2027 05:44:00.909   03 Jun 2027 05:44:23.803            22.894              Murmansk2           715.438
       229   03 Jun 2027 05:44:32.626   03 Jun 2027 05:44:34.168             1.542                 Moscow            48.188
       230   03 Jun 2027 05:44:49.450   03 Jun 2027 05:45:21.458            32.008              Murmansk1          1000.250
       231   03 Jun 2027 05:45:21.458   03 Jun 2027 05:46:47.050            85.592              Murmansk2          2674.750
       232   03 Jun 2027 05:47:28.314   03 Jun 2027 05:47:38.178             9.864              Murmansk2           308.250
       233   03 Jun 2027 05:48:12.603   03 Jun 2027 05:48:17.938             5.335              Murmansk1           166.719
       234   03 Jun 2027 06:05:45.716   03 Jun 2027 06:07:15.262            89.546               CapeTown          2798.313
       235   03 Jun 2027 07:05:43.594   03 Jun 2027 07:06:07.733            24.139               Magadan2           754.344
       236   03 Jun 2027 07:06:07.733   03 Jun 2027 07:06:39.878            32.145               Magadan1          1004.531
       237   03 Jun 2027 07:07:00.067   03 Jun 2027 07:07:48.850            48.783               Magadan1          1524.469
       238   03 Jun 2027 07:07:51.733   03 Jun 2027 07:08:02.117            10.384                Anadyr2           324.500
       239   03 Jun 2027 07:08:03.691   03 Jun 2027 07:08:18.423            14.732                Anadyr1           460.375
       240   03 Jun 2027 07:10:09.446   03 Jun 2027 07:10:53.757            44.311                Anadyr1          1384.719
       241   03 Jun 2027 07:11:23.104   03 Jun 2027 07:12:18.321            55.217                Anadyr1          1725.531
       242   03 Jun 2027 08:41:59.095   03 Jun 2027 08:43:24.762            85.667                Anadyr1          2677.094
       243   03 Jun 2027 08:44:04.235   03 Jun 2027 08:44:41.787            37.552               Magadan1          1173.500
       244   03 Jun 2027 08:45:19.499   03 Jun 2027 08:46:14.520            55.021                Anadyr1          1719.406
       245   03 Jun 2027 08:46:14.520   03 Jun 2027 08:47:03.572            49.052                Anadyr2          1532.875
       246   03 Jun 2027 09:29:48.684   03 Jun 2027 09:30:25.336            36.652            RioGallegos          1145.375
       247   03 Jun 2027 10:13:53.091   03 Jun 2027 10:16:07.393           134.302               Magadan1          4196.937
       248   03 Jun 2027 10:17:16.481   03 Jun 2027 10:18:47.533            91.052               Magadan2          2845.375
       249   03 Jun 2027 10:19:50.010   03 Jun 2027 10:21:50.878           120.868               Magadan1          3777.125
       250   03 Jun 2027 10:22:03.796   03 Jun 2027 10:23:11.254            67.458                Irkutsk          2108.063
       251   03 Jun 2027 10:23:15.813   03 Jun 2027 10:23:22.580             6.767               Magadan2           211.469
       252   03 Jun 2027 10:23:40.192   03 Jun 2027 10:23:48.330             8.138                Norilsk           254.313
       253   03 Jun 2027 10:23:49.502   03 Jun 2027 10:24:39.227            49.725              Murmansk2          1553.906
       254   03 Jun 2027 10:58:20.532   03 Jun 2027 10:59:08.810            48.278            RioGallegos          1508.688
       255   03 Jun 2027 11:00:14.054   03 Jun 2027 11:00:39.881            25.827            RioGallegos           807.094
       256   03 Jun 2027 11:34:03.923   03 Jun 2027 11:35:02.933            59.010                Sumatra          1844.063
       257   03 Jun 2027 11:53:43.463   03 Jun 2027 11:54:59.216            75.753                Irkutsk          2367.281
       258   03 Jun 2027 11:55:11.131   03 Jun 2027 11:56:25.171            74.040                Irkutsk          2313.750
       259   03 Jun 2027 11:56:28.452   03 Jun 2027 11:57:10.990            42.538              Murmansk1          1329.313
       260   03 Jun 2027 11:57:16.467   03 Jun 2027 11:58:25.189            68.722                Irkutsk          2147.563
       261   03 Jun 2027 11:58:30.002   03 Jun 2027 11:59:39.074            69.072              Murmansk1          2158.500
       262   03 Jun 2027 12:00:47.192   03 Jun 2027 12:01:13.708            26.516                Norilsk           828.625
       263   03 Jun 2027 12:02:20.205   03 Jun 2027 12:02:25.738             5.533                Norilsk           172.906
       264   03 Jun 2027 12:02:32.108   03 Jun 2027 12:03:18.866            46.758                Norilsk          1461.187
       265   03 Jun 2027 12:04:06.977   03 Jun 2027 12:04:40.678            33.701              Murmansk1          1053.156
       266   03 Jun 2027 12:04:40.678   03 Jun 2027 12:04:44.591             3.913              Murmansk2           122.281
       267   03 Jun 2027 12:05:22.192   03 Jun 2027 12:05:52.735            30.543              Murmansk2           954.469
       268   03 Jun 2027 12:06:46.852   03 Jun 2027 12:07:09.723            22.871              Murmansk1           714.719
       269   03 Jun 2027 12:40:49.272   03 Jun 2027 12:41:51.615            62.343            RioGallegos          1948.219
       270   03 Jun 2027 12:45:39.733   03 Jun 2027 12:46:06.604            26.871            RioGallegos           839.719
       271   03 Jun 2027 13:11:05.001   03 Jun 2027 13:11:30.487            25.486                Sumatra           796.438
       272   03 Jun 2027 13:13:47.191   03 Jun 2027 13:14:14.513            27.322                Sumatra           853.813
       273   03 Jun 2027 13:15:10.246   03 Jun 2027 13:16:56.884           106.638                Sumatra          3332.438
       274   03 Jun 2027 13:25:15.126   03 Jun 2027 13:27:43.380           148.254                Irkutsk          4632.937
       275   03 Jun 2027 13:38:32.333   03 Jun 2027 13:38:53.995            21.662                Norilsk           676.938
       276   03 Jun 2027 14:54:56.906   03 Jun 2027 14:57:40.854           163.948                  Delhi          5123.375
       277   03 Jun 2027 14:59:52.710   03 Jun 2027 15:01:18.984            86.274                  Delhi          2696.063
       278   03 Jun 2027 15:03:24.513   03 Jun 2027 15:05:08.174           103.661                Novosib          3239.406
       279   03 Jun 2027 15:06:54.546   03 Jun 2027 15:07:05.236            10.690                Norilsk           334.062
       280   03 Jun 2027 15:08:16.391   03 Jun 2027 15:09:39.590            83.199                Novosib          2599.969
       281   03 Jun 2027 16:38:00.290   03 Jun 2027 16:39:41.627           101.337                 Moscow          3166.781
       282   03 Jun 2027 16:41:30.742   03 Jun 2027 16:44:06.539           155.797              Murmansk2          4868.656
       283   03 Jun 2027 16:48:47.488   03 Jun 2027 16:49:20.946            33.458              Murmansk2          1045.563
       284   03 Jun 2027 16:49:53.335   03 Jun 2027 16:51:07.687            74.352                Norilsk          2323.500
       285   03 Jun 2027 16:57:08.342   03 Jun 2027 16:57:40.983            32.641                Anadyr1          1020.031
       286   03 Jun 2027 17:00:51.389   03 Jun 2027 17:01:01.746            10.357                Anadyr2           323.656
       287   03 Jun 2027 17:02:08.618   03 Jun 2027 17:02:20.783            12.165                Anadyr1           380.156
       288   03 Jun 2027 17:51:22.401   03 Jun 2027 17:52:15.828            53.427               CapeTown          1669.594
       289   03 Jun 2027 17:54:28.874   03 Jun 2027 17:55:00.830            31.956               CapeTown           998.625
       290   03 Jun 2027 17:58:14.501   03 Jun 2027 17:58:53.303            38.802               CapeTown          1212.563
       291   03 Jun 2027 18:17:36.256   03 Jun 2027 18:18:34.963            58.707                 Moscow          1834.594
       292   03 Jun 2027 18:19:35.575   03 Jun 2027 18:20:22.450            46.875              Murmansk1          1464.844
       293   03 Jun 2027 18:20:30.395   03 Jun 2027 18:21:47.796            77.401              Murmansk2          2418.781
       294   03 Jun 2027 18:22:00.943   03 Jun 2027 18:22:08.707             7.764                 Moscow           242.625
       295   03 Jun 2027 18:24:12.420   03 Jun 2027 18:24:50.089            37.669              Murmansk1          1177.156
       296   03 Jun 2027 18:27:48.815   03 Jun 2027 18:29:34.984           106.169              Murmansk2          3317.781
       297   03 Jun 2027 19:28:00.062   03 Jun 2027 19:28:55.670            55.608               CapeTown          1737.750
       298   03 Jun 2027 19:32:55.542   03 Jun 2027 19:33:22.122            26.580               CapeTown           830.625
       299   03 Jun 2027 19:35:26.560   03 Jun 2027 19:35:53.446            26.886               CapeTown           840.188
       300   03 Jun 2027 20:00:37.526   03 Jun 2027 20:04:58.440           260.914              Murmansk2          8153.562
       301   03 Jun 2027 20:10:25.688   03 Jun 2027 20:11:23.435            57.747               Magadan1          1804.594
       302   03 Jun 2027 20:13:49.672   03 Jun 2027 20:13:57.006             7.334               Magadan2           229.188
       303   03 Jun 2027 20:16:03.765   03 Jun 2027 20:16:14.824            11.059               Magadan1           345.594
       304   03 Jun 2027 20:16:24.249   03 Jun 2027 20:16:26.245             1.996               Magadan2            62.375
       305   03 Jun 2027 20:16:36.090   03 Jun 2027 20:17:05.160            29.070               Magadan2           908.437
       306   03 Jun 2027 21:43:43.294   03 Jun 2027 21:48:50.804           307.510                Anadyr1          9609.687
       307   03 Jun 2027 21:49:03.217   03 Jun 2027 21:49:04.022             0.805                Norilsk            25.156
       308   03 Jun 2027 21:49:11.746   03 Jun 2027 21:51:44.661           152.915               Magadan1          4778.594
       309   03 Jun 2027 21:56:06.862   03 Jun 2027 21:56:35.113            28.251               Magadan2           882.844
       310   03 Jun 2027 22:38:28.735   03 Jun 2027 22:40:22.058           113.323            RioGallegos          3541.344
       311   03 Jun 2027 22:40:49.247   03 Jun 2027 22:41:43.015            53.768            RioGallegos          1680.250
       312   03 Jun 2027 22:47:43.298   03 Jun 2027 22:47:51.336             8.038            RioGallegos           251.188
       313   03 Jun 2027 23:19:25.206   03 Jun 2027 23:20:39.754            74.548                Anadyr1          2329.625
       314   03 Jun 2027 23:21:06.654   03 Jun 2027 23:21:34.843            28.189                Anadyr1           880.906
       315   03 Jun 2027 23:21:35.199   03 Jun 2027 23:23:11.318            96.119                Norilsk          3003.719
       316   03 Jun 2027 23:23:15.597   03 Jun 2027 23:24:47.009            91.412               Magadan2          2856.625
       317   03 Jun 2027 23:25:37.161   03 Jun 2027 23:25:51.208            14.047               Magadan2           438.969
       318   03 Jun 2027 23:25:54.343   03 Jun 2027 23:26:18.982            24.639                Irkutsk           769.969
       319   03 Jun 2027 23:28:05.813   03 Jun 2027 23:29:05.487            59.674                Irkutsk          1864.813
       320   03 Jun 2027 23:39:52.452   03 Jun 2027 23:41:12.231            79.779                Sumatra          2493.094
       321   03 Jun 2027 23:49:49.440   03 Jun 2027 23:50:47.175            57.735                Sumatra          1804.219
       322   04 Jun 2027 00:18:20.646   04 Jun 2027 00:18:37.447            16.801            RioGallegos           525.031
       323   04 Jun 2027 00:20:26.481   04 Jun 2027 00:20:38.496            12.015            RioGallegos           375.469
       324   04 Jun 2027 00:22:47.144   04 Jun 2027 00:22:51.146             4.002            RioGallegos           125.063
       325   04 Jun 2027 00:23:17.604   04 Jun 2027 00:23:52.999            35.395            RioGallegos          1106.094
       326   04 Jun 2027 00:54:21.175   04 Jun 2027 00:55:04.430            43.255                Anadyr1          1351.719
       327   04 Jun 2027 00:55:44.261   04 Jun 2027 00:56:37.898            53.637                Anadyr2          1676.156
       328   04 Jun 2027 00:57:28.333   04 Jun 2027 00:58:31.751            63.418                Norilsk          1981.813
       329   04 Jun 2027 00:58:34.018   04 Jun 2027 00:59:22.634            48.616               Magadan2          1519.250
       330   04 Jun 2027 00:59:49.550   04 Jun 2027 01:00:28.986            39.436               Magadan1          1232.375
       331   04 Jun 2027 01:01:26.864   04 Jun 2027 01:03:17.241           110.377                Irkutsk          3449.281
       332   04 Jun 2027 01:06:55.414   04 Jun 2027 01:07:15.015            19.601                Novosib           612.531
       333   04 Jun 2027 01:12:56.941   04 Jun 2027 01:13:30.602            33.661                  Delhi          1051.906
       334   04 Jun 2027 01:16:08.673   04 Jun 2027 01:17:05.794            57.121                Sumatra          1785.031
       335   04 Jun 2027 01:20:14.870   04 Jun 2027 01:21:18.589            63.719                Sumatra          1991.219
       336   04 Jun 2027 01:55:20.377   04 Jun 2027 01:56:08.673            48.296            RioGallegos          1509.250
       337   04 Jun 2027 02:00:32.826   04 Jun 2027 02:00:39.899             7.073            RioGallegos           221.031
       338   04 Jun 2027 02:28:03.289   04 Jun 2027 02:28:42.038            38.749                Anadyr1          1210.906
       339   04 Jun 2027 02:30:24.726   04 Jun 2027 02:30:40.605            15.879                Anadyr1           496.219
       340   04 Jun 2027 02:33:28.930   04 Jun 2027 02:35:05.789            96.859                Norilsk          3026.844
       341   04 Jun 2027 02:35:55.246   04 Jun 2027 02:36:08.304            13.058              Murmansk2           408.062
       342   04 Jun 2027 02:36:39.685   04 Jun 2027 02:37:20.617            40.932              Murmansk1          1279.125
       343   04 Jun 2027 02:37:25.851   04 Jun 2027 02:39:09.058           103.207                Novosib          3225.219
       344   04 Jun 2027 02:41:49.164   04 Jun 2027 02:41:54.559             5.395                Irkutsk           168.594
       345   04 Jun 2027 02:44:40.000   04 Jun 2027 02:44:43.995             3.995                Irkutsk           124.844
       346   04 Jun 2027 02:44:51.689   04 Jun 2027 02:45:34.783            43.094                  Delhi          1346.688
       347   04 Jun 2027 02:50:34.569   04 Jun 2027 02:52:55.625           141.056                  Delhi          4408.000
       348   04 Jun 2027 03:28:08.987   04 Jun 2027 03:28:09.414             0.427            RioGallegos            13.344
       349   04 Jun 2027 03:29:08.626   04 Jun 2027 03:30:20.418            71.792            RioGallegos          2243.500
       350   04 Jun 2027 04:20:17.673   04 Jun 2027 04:20:33.011            15.338                 Moscow           479.313
       351   04 Jun 2027 04:20:43.793   04 Jun 2027 04:20:55.138            11.345                Novosib           354.531
       352   04 Jun 2027 04:21:01.354   04 Jun 2027 04:27:06.175           364.821                 Moscow         11400.656
       353   04 Jun 2027 04:39:48.184   04 Jun 2027 04:40:48.345            60.161               CapeTown          1880.031
       354   04 Jun 2027 04:41:02.584   04 Jun 2027 04:42:47.521           104.937               CapeTown          3279.281
       355   04 Jun 2027 04:44:46.568   04 Jun 2027 04:45:30.950            44.382               CapeTown          1386.938
       356   04 Jun 2027 05:54:06.943   04 Jun 2027 05:54:07.253             0.310                Novosib             9.688
       357   04 Jun 2027 05:55:56.346   04 Jun 2027 05:56:34.368            38.022                 Moscow          1188.188
       358   04 Jun 2027 05:56:37.700   04 Jun 2027 05:57:10.620            32.920              Murmansk2          1028.750
       359   04 Jun 2027 05:57:10.620   04 Jun 2027 05:58:09.956            59.336              Murmansk1          1854.250
       360   04 Jun 2027 05:58:21.864   04 Jun 2027 05:58:44.766            22.902              Murmansk2           715.687
       361   04 Jun 2027 05:59:04.841   04 Jun 2027 05:59:19.676            14.835              Murmansk1           463.594
       362   04 Jun 2027 05:59:19.676   04 Jun 2027 06:00:24.221            64.545              Murmansk2          2017.031
       363   04 Jun 2027 06:15:02.975   04 Jun 2027 06:15:36.644            33.669               CapeTown          1052.156
       364   04 Jun 2027 07:18:10.342   04 Jun 2027 07:18:36.103            25.761               Magadan2           805.031
       365   04 Jun 2027 07:18:37.928   04 Jun 2027 07:19:49.404            71.476               Magadan2          2233.625
       366   04 Jun 2027 07:20:04.559   04 Jun 2027 07:20:32.220            27.661                Anadyr1           864.406
       367   04 Jun 2027 07:20:53.789   04 Jun 2027 07:21:02.481             8.692                Norilsk           271.625
       368   04 Jun 2027 07:21:26.723   04 Jun 2027 07:22:09.043            42.320                Anadyr2          1322.500
       369   04 Jun 2027 07:27:04.562   04 Jun 2027 07:27:11.743             7.181              Murmansk2           224.406
       370   04 Jun 2027 08:50:24.622   04 Jun 2027 08:50:28.432             3.810                Anadyr2           119.062
       371   04 Jun 2027 08:52:32.871   04 Jun 2027 08:53:52.334            79.463                Anadyr2          2483.219
       372   04 Jun 2027 08:54:03.729   04 Jun 2027 08:54:53.793            50.064               Magadan1          1564.500
       373   04 Jun 2027 08:55:08.804   04 Jun 2027 08:55:24.433            15.629               Magadan1           488.406
       374   04 Jun 2027 08:55:28.640   04 Jun 2027 08:58:15.487           166.847                Anadyr2          5213.969
       375   04 Jun 2027 10:25:32.943   04 Jun 2027 10:25:45.539            12.596               Magadan1           393.625
       376   04 Jun 2027 10:29:03.543   04 Jun 2027 10:30:31.295            87.752               Magadan2          2742.250
       377   04 Jun 2027 10:30:58.082   04 Jun 2027 10:35:14.612           256.530               Magadan2          8016.563
       378   04 Jun 2027 10:35:32.592   04 Jun 2027 10:35:42.584             9.992              Murmansk2           312.250
       379   04 Jun 2027 10:35:42.584   04 Jun 2027 10:36:38.909            56.325              Murmansk1          1760.156
       380   04 Jun 2027 11:10:19.843   04 Jun 2027 11:11:17.583            57.740            RioGallegos          1804.375
       381   04 Jun 2027 11:45:42.911   04 Jun 2027 11:46:16.465            33.554                Sumatra          1048.562
       382   04 Jun 2027 11:46:40.950   04 Jun 2027 11:47:21.754            40.804                Sumatra          1275.125
       383   04 Jun 2027 12:06:04.905   04 Jun 2027 12:06:47.038            42.133                Irkutsk          1316.656
       384   04 Jun 2027 12:09:54.273   04 Jun 2027 12:10:13.318            19.045                Novosib           595.156
       385   04 Jun 2027 12:12:04.866   04 Jun 2027 12:12:10.829             5.963              Murmansk1           186.344
       386   04 Jun 2027 12:12:15.093   04 Jun 2027 12:12:50.083            34.990              Murmansk2          1093.438
       387   04 Jun 2027 12:14:39.575   04 Jun 2027 12:14:40.716             1.141                Norilsk            35.656
       388   04 Jun 2027 12:15:34.579   04 Jun 2027 12:15:50.657            16.078              Murmansk1           502.437
       389   04 Jun 2027 12:18:34.314   04 Jun 2027 12:18:48.536            14.222              Murmansk2           444.437
       390   04 Jun 2027 12:48:35.435   04 Jun 2027 12:48:54.293            18.858            RioGallegos           589.312
       391   04 Jun 2027 12:51:57.687   04 Jun 2027 12:53:13.154            75.467            RioGallegos          2358.344
       392   04 Jun 2027 12:57:08.389   04 Jun 2027 12:58:18.052            69.663            RioGallegos          2176.969
       393   04 Jun 2027 13:26:13.815   04 Jun 2027 13:27:28.788            74.973                Sumatra          2342.906
       394   04 Jun 2027 13:28:49.777   04 Jun 2027 13:28:55.018             5.241                Sumatra           163.781
       395   04 Jun 2027 13:38:02.878   04 Jun 2027 13:39:20.029            77.151                Irkutsk          2410.969
       396   04 Jun 2027 13:41:29.236   04 Jun 2027 13:42:06.720            37.484                Novosib          1171.375
       397   04 Jun 2027 13:42:46.258   04 Jun 2027 13:44:53.466           127.208                Irkutsk          3975.250
       398   04 Jun 2027 15:07:47.215   04 Jun 2027 15:10:19.524           152.309                  Delhi          4759.656
       399   04 Jun 2027 15:16:18.029   04 Jun 2027 15:20:28.697           250.668                Novosib          7833.375
       400   04 Jun 2027 16:30:46.353   04 Jun 2027 16:31:52.403            66.050               CapeTown          2064.063
       401   04 Jun 2027 16:33:29.641   04 Jun 2027 16:35:23.380           113.739               CapeTown          3554.344
       402   04 Jun 2027 16:53:45.296   04 Jun 2027 16:54:42.021            56.725                 Moscow          1772.656
       403   04 Jun 2027 17:00:22.819   04 Jun 2027 17:00:48.677            25.858              Murmansk2           808.063
       404   04 Jun 2027 17:05:38.010   04 Jun 2027 17:06:12.162            34.152              Murmansk2          1067.250
       405   04 Jun 2027 17:08:50.912   04 Jun 2027 17:10:10.287            79.375                Anadyr1          2480.469
       406   04 Jun 2027 17:11:03.714   04 Jun 2027 17:11:44.223            40.509                Anadyr2          1265.906
       407   04 Jun 2027 18:05:37.928   04 Jun 2027 18:05:58.631            20.703               CapeTown           646.969
       408   04 Jun 2027 18:10:12.348   04 Jun 2027 18:10:34.176            21.828               CapeTown           682.125
       409   04 Jun 2027 18:13:28.745   04 Jun 2027 18:15:20.337           111.592               CapeTown          3487.250
       410   04 Jun 2027 18:30:41.068   04 Jun 2027 18:33:46.199           185.131                 Moscow          5785.344
       411   04 Jun 2027 18:34:22.343   04 Jun 2027 18:34:54.123            31.780                 Moscow           993.125
       412   04 Jun 2027 18:44:05.702   04 Jun 2027 18:44:27.700            21.998                Anadyr2           687.437
       413   04 Jun 2027 18:49:41.644   04 Jun 2027 18:50:27.776            46.132               Magadan1          1441.625
       414   04 Jun 2027 18:50:59.940   04 Jun 2027 18:51:01.473             1.533               Magadan2            47.906
       415   04 Jun 2027 19:40:25.003   04 Jun 2027 19:41:18.154            53.151               CapeTown          1660.969
       416   04 Jun 2027 19:43:59.313   04 Jun 2027 19:45:38.348            99.035               CapeTown          3094.844
       417   04 Jun 2027 20:13:51.298   04 Jun 2027 20:16:39.163           167.865              Murmansk1          5245.781
       418   04 Jun 2027 20:22:21.288   04 Jun 2027 20:23:24.324            63.036               Magadan2          1969.875
       419   04 Jun 2027 20:23:24.324   04 Jun 2027 20:23:57.822            33.498               Magadan1          1046.812
       420   04 Jun 2027 20:27:23.971   04 Jun 2027 20:27:42.858            18.887               Magadan1           590.219
       421   04 Jun 2027 21:55:44.431   04 Jun 2027 21:59:31.118           226.687                Anadyr2          7083.969
       422   04 Jun 2027 22:00:02.230   04 Jun 2027 22:01:40.985            98.755               Magadan1          3086.094
       423   04 Jun 2027 22:01:40.985   04 Jun 2027 22:02:17.683            36.698               Magadan2          1146.812
       424   04 Jun 2027 22:02:19.493   04 Jun 2027 22:02:23.670             4.177                Norilsk           130.531
       425   04 Jun 2027 22:02:52.981   04 Jun 2027 22:03:13.865            20.884               Magadan2           652.625
       426   04 Jun 2027 22:04:04.530   04 Jun 2027 22:04:31.758            27.228               Magadan1           850.875
       427   04 Jun 2027 22:04:41.054   04 Jun 2027 22:05:00.846            19.792               Magadan1           618.500
       428   04 Jun 2027 22:08:02.276   04 Jun 2027 22:08:07.931             5.655               Magadan1           176.719
       429   04 Jun 2027 22:08:23.596   04 Jun 2027 22:08:54.247            30.651               Magadan1           957.844
       430   04 Jun 2027 22:50:14.431   04 Jun 2027 22:52:18.355           123.924            RioGallegos          3872.625
       431   04 Jun 2027 22:53:06.111   04 Jun 2027 22:53:35.905            29.794            RioGallegos           931.063
       432   04 Jun 2027 22:56:22.141   04 Jun 2027 22:56:29.550             7.409            RioGallegos           231.531
       433   04 Jun 2027 22:59:09.746   04 Jun 2027 22:59:40.043            30.297            RioGallegos           946.781
       434   04 Jun 2027 23:31:22.687   04 Jun 2027 23:32:28.172            65.485                Anadyr1          2046.406
       435   04 Jun 2027 23:33:12.490   04 Jun 2027 23:34:35.567            83.077                Anadyr1          2596.156
       436   04 Jun 2027 23:34:45.649   04 Jun 2027 23:35:13.351            27.702                Norilsk           865.688
       437   04 Jun 2027 23:35:15.859   04 Jun 2027 23:35:18.462             2.603               Magadan1            81.344
       438   04 Jun 2027 23:35:21.656   04 Jun 2027 23:36:07.177            45.521               Magadan2          1422.531
       439   04 Jun 2027 23:37:47.033   04 Jun 2027 23:39:05.447            78.414                Irkutsk          2450.437
       440   04 Jun 2027 23:39:57.535   04 Jun 2027 23:42:11.625           134.090                Novosib          4190.313
       441   04 Jun 2027 23:52:13.844   04 Jun 2027 23:53:31.696            77.852                Sumatra          2432.875
       442   05 Jun 2027 00:29:13.707   05 Jun 2027 00:29:24.074            10.367            RioGallegos           323.969
       443   05 Jun 2027 00:31:03.326   05 Jun 2027 00:31:15.763            12.437            RioGallegos           388.656
       444   05 Jun 2027 00:35:34.577   05 Jun 2027 00:35:58.586            24.009            RioGallegos           750.281
       445   05 Jun 2027 01:06:09.939   05 Jun 2027 01:07:05.253            55.314                Anadyr1          1728.563
       446   05 Jun 2027 01:07:45.591   05 Jun 2027 01:08:28.677            43.086                Anadyr1          1346.438
       447   05 Jun 2027 01:09:30.668   05 Jun 2027 01:11:09.156            98.488                Norilsk          3077.750
       448   05 Jun 2027 01:11:18.316   05 Jun 2027 01:11:37.557            19.241               Magadan1           601.281
       449   05 Jun 2027 01:11:45.385   05 Jun 2027 01:12:28.747            43.362               Magadan2          1355.062
       450   05 Jun 2027 01:13:23.203   05 Jun 2027 01:13:45.519            22.316                Irkutsk           697.375
       451   05 Jun 2027 01:13:59.450   05 Jun 2027 01:14:13.415            13.965                Irkutsk           436.406
       452   05 Jun 2027 01:14:27.212   05 Jun 2027 01:16:35.391           128.179                Irkutsk          4005.594
       453   05 Jun 2027 01:21:24.603   05 Jun 2027 01:21:46.817            22.214                  Delhi           694.188
       454   05 Jun 2027 01:27:30.059   05 Jun 2027 01:27:53.956            23.897                  Delhi           746.781
       455   05 Jun 2027 01:28:48.126   05 Jun 2027 01:29:11.709            23.583                Sumatra           736.969
       456   05 Jun 2027 01:29:53.612   05 Jun 2027 01:32:11.323           137.711                Sumatra          4303.469
       457   05 Jun 2027 02:12:10.644   05 Jun 2027 02:12:14.649             4.005            RioGallegos           125.156
       458   05 Jun 2027 02:39:44.519   05 Jun 2027 02:39:49.014             4.495                Anadyr1           140.469
       459   05 Jun 2027 02:40:04.883   05 Jun 2027 02:40:43.429            38.546                Anadyr1          1204.563
       460   05 Jun 2027 02:45:30.756   05 Jun 2027 02:47:05.937            95.181                Norilsk          2974.406
       461   05 Jun 2027 02:47:52.149   05 Jun 2027 02:48:46.388            54.239              Murmansk1          1694.969
       462   05 Jun 2027 02:49:18.178   05 Jun 2027 02:49:34.339            16.161                Novosib           505.031
       463   05 Jun 2027 02:49:56.765   05 Jun 2027 02:51:43.324           106.559                Irkutsk          3329.969
       464   05 Jun 2027 02:56:53.100   05 Jun 2027 02:57:17.896            24.796                  Delhi           774.875
       465   05 Jun 2027 02:59:20.291   05 Jun 2027 03:01:17.932           117.641                  Delhi          3676.281
       466   05 Jun 2027 04:32:22.607   05 Jun 2027 04:32:34.320            11.713                Novosib           366.031
       467   05 Jun 2027 04:33:01.589   05 Jun 2027 04:35:39.062           157.473              Murmansk2          4921.031
       468   05 Jun 2027 04:36:14.139   05 Jun 2027 04:38:08.692           114.553                 Moscow          3579.781
       469   05 Jun 2027 04:39:08.732   05 Jun 2027 04:39:22.394            13.662                 Moscow           426.937
       470   05 Jun 2027 04:51:26.162   05 Jun 2027 04:54:38.328           192.166               CapeTown          6005.187
       471   05 Jun 2027 05:47:55.532   05 Jun 2027 05:48:07.333            11.801                Anadyr1           368.781
       472   05 Jun 2027 05:48:19.737   05 Jun 2027 05:48:45.230            25.493                Anadyr1           796.656
       473   05 Jun 2027 05:55:54.403   05 Jun 2027 05:56:07.812            13.409               Magadan1           419.031
       474   05 Jun 2027 05:56:08.172   05 Jun 2027 05:56:13.322             5.150                Anadyr2           160.937
       475   05 Jun 2027 05:57:51.166   05 Jun 2027 05:57:56.450             5.284                Anadyr1           165.125
       476   05 Jun 2027 06:06:12.321   05 Jun 2027 06:06:33.154            20.833              Murmansk2           651.031
       477   05 Jun 2027 06:06:42.368   05 Jun 2027 06:07:30.852            48.484                 Moscow          1515.125
       478   05 Jun 2027 06:07:47.527   05 Jun 2027 06:08:25.497            37.970              Murmansk2          1186.562
       479   05 Jun 2027 06:08:39.639   05 Jun 2027 06:09:18.421            38.782              Murmansk2          1211.937
       480   05 Jun 2027 06:09:53.532   05 Jun 2027 06:10:20.707            27.175              Murmansk2           849.219
       481   05 Jun 2027 06:27:24.219   05 Jun 2027 06:28:37.907            73.688               CapeTown          2302.750
       482   05 Jun 2027 06:31:51.690   05 Jun 2027 06:32:28.807            37.117               CapeTown          1159.906
