uniorb/output/strategy_2/Drop/Drop_KinoSat_110904.txt

KinoSat_110904
-------------------------
    Access    *     Start Time (UTCG)     *     Stop Time (UTCG)  *   Duration (s)        *       Station  *  Data (Mbytes)
         1   01 Jun 2027 03:41:28.664   01 Jun 2027 03:41:30.538             1.874               Magadan2            58.562
         2   01 Jun 2027 03:41:43.973   01 Jun 2027 03:41:48.622             4.649                Anadyr2           145.281
         3   01 Jun 2027 03:41:54.319   01 Jun 2027 03:42:16.178            21.859               Magadan2           683.094
         4   01 Jun 2027 03:42:16.178   01 Jun 2027 03:42:18.414             2.236               Magadan1            69.875
         5   01 Jun 2027 03:42:22.479   01 Jun 2027 03:45:36.041           193.562                Anadyr2          6048.812
         6   01 Jun 2027 03:45:36.041   01 Jun 2027 03:46:06.013            29.972                Anadyr1           936.625
         7   01 Jun 2027 03:47:02.080   01 Jun 2027 03:47:11.439             9.359               Magadan1           292.469
         8   01 Jun 2027 05:18:02.939   01 Jun 2027 05:18:19.524            16.585                Irkutsk           518.281
         9   01 Jun 2027 05:19:33.998   01 Jun 2027 05:20:15.897            41.899                Irkutsk          1309.344
        10   01 Jun 2027 06:55:16.539   01 Jun 2027 06:55:33.150            16.611                Novosib           519.094
        11   01 Jun 2027 06:55:49.927   01 Jun 2027 06:57:07.751            77.824               Magadan2          2432.000
        12   01 Jun 2027 06:57:25.154   01 Jun 2027 06:57:57.071            31.917                Novosib           997.406
        13   01 Jun 2027 06:58:21.032   01 Jun 2027 06:58:54.984            33.952                Irkutsk          1061.000
        14   01 Jun 2027 06:59:07.863   01 Jun 2027 06:59:44.299            36.436                Novosib          1138.625
        15   01 Jun 2027 08:31:32.294   01 Jun 2027 08:31:57.257            24.963                Norilsk           780.094
        16   01 Jun 2027 08:31:59.354   01 Jun 2027 08:33:49.921           110.567                Novosib          3455.219
        17   01 Jun 2027 08:33:51.863   01 Jun 2027 08:35:03.357            71.494                Irkutsk          2234.188
        18   01 Jun 2027 08:35:18.147   01 Jun 2027 08:36:32.280            74.133                Novosib          2316.656
        19   01 Jun 2027 09:55:20.504   01 Jun 2027 09:55:55.764            35.260                  Delhi          1101.875
        20   01 Jun 2027 10:08:20.235   01 Jun 2027 10:09:02.245            42.010              Murmansk2          1312.812
        21   01 Jun 2027 10:09:23.267   01 Jun 2027 10:12:45.884           202.617                Norilsk          6331.781
        22   01 Jun 2027 10:12:48.051   01 Jun 2027 10:13:19.678            31.627              Murmansk2           988.344
        23   01 Jun 2027 11:30:22.512   01 Jun 2027 11:35:00.993           278.481                  Delhi          8702.531
        24   01 Jun 2027 11:43:51.810   01 Jun 2027 11:44:30.550            38.740                 Moscow          1210.625
        25   01 Jun 2027 11:44:38.124   01 Jun 2027 11:47:30.473           172.349                 Moscow          5385.906
        26   01 Jun 2027 11:47:38.042   01 Jun 2027 11:48:49.538            71.496                 Moscow          2234.250
        27   01 Jun 2027 13:13:26.778   01 Jun 2027 13:14:54.773            87.995                 Moscow          2749.844
        28   01 Jun 2027 13:16:57.374   01 Jun 2027 13:21:33.089           275.715              Murmansk1          8616.094
        29   01 Jun 2027 13:21:40.440   01 Jun 2027 13:21:56.737            16.297              Murmansk2           509.281
        30   01 Jun 2027 13:22:31.125   01 Jun 2027 13:22:57.112            25.987              Murmansk2           812.094
        31   01 Jun 2027 13:24:30.905   01 Jun 2027 13:25:41.697            70.792                Norilsk          2212.250
        32   01 Jun 2027 13:32:40.525   01 Jun 2027 13:36:02.376           201.851                Anadyr1          6307.844
        33   01 Jun 2027 13:36:06.017   01 Jun 2027 13:36:49.930            43.913                Anadyr2          1372.281
        34   01 Jun 2027 14:26:49.568   01 Jun 2027 14:28:00.832            71.264               CapeTown          2227.000
        35   01 Jun 2027 14:55:02.627   01 Jun 2027 14:55:15.538            12.911              Murmansk1           403.469
        36   01 Jun 2027 14:55:48.766   01 Jun 2027 14:56:10.077            21.311              Murmansk2           665.969
        37   01 Jun 2027 14:56:24.153   01 Jun 2027 14:56:27.885             3.732              Murmansk2           116.625
        38   01 Jun 2027 14:58:08.393   01 Jun 2027 14:59:35.172            86.779              Murmansk1          2711.844
        39   01 Jun 2027 15:07:25.763   01 Jun 2027 15:10:16.184           170.421                Anadyr1          5325.656
        40   01 Jun 2027 15:16:59.474   01 Jun 2027 15:17:58.244            58.770                Anadyr1          1836.563
        41   01 Jun 2027 15:18:41.139   01 Jun 2027 15:18:52.672            11.533                Anadyr1           360.406
        42   01 Jun 2027 15:18:52.672   01 Jun 2027 15:18:53.572             0.900                Anadyr2            28.125
        43   01 Jun 2027 16:13:25.060   01 Jun 2027 16:13:31.332             6.272               CapeTown           196.000
        44   01 Jun 2027 16:36:08.172   01 Jun 2027 16:39:41.782           213.610              Murmansk2          6675.313
        45   01 Jun 2027 16:39:41.782   01 Jun 2027 16:40:03.167            21.385              Murmansk1           668.281
        46   01 Jun 2027 16:43:13.864   01 Jun 2027 16:45:03.997           110.133                Anadyr2          3441.656
        47   01 Jun 2027 16:45:53.994   01 Jun 2027 16:50:41.744           287.750               Magadan2          8992.188
        48   01 Jun 2027 18:19:09.036   01 Jun 2027 18:22:48.939           219.903                Anadyr2          6871.969
        49   01 Jun 2027 18:23:09.573   01 Jun 2027 18:25:16.678           127.105               Magadan2          3972.031
        50   01 Jun 2027 18:28:20.646   01 Jun 2027 18:28:31.134            10.488               Magadan2           327.750
        51   01 Jun 2027 18:30:08.937   01 Jun 2027 18:30:13.960             5.023               Magadan2           156.969
        52   01 Jun 2027 18:30:57.325   01 Jun 2027 18:31:01.221             3.896               Magadan1           121.750
        53   01 Jun 2027 18:31:37.556   01 Jun 2027 18:32:30.413            52.857               Magadan2          1651.781
        54   01 Jun 2027 18:32:30.413   01 Jun 2027 18:32:37.577             7.164               Magadan1           223.875
        55   01 Jun 2027 18:33:33.675   01 Jun 2027 18:34:05.279            31.604               Magadan1           987.625
        56   01 Jun 2027 18:34:05.279   01 Jun 2027 18:34:20.719            15.440               Magadan2           482.500
        57   01 Jun 2027 19:13:57.871   01 Jun 2027 19:15:23.722            85.851            RioGallegos          2682.844
        58   01 Jun 2027 19:15:54.614   01 Jun 2027 19:16:01.067             6.453            RioGallegos           201.656
        59   01 Jun 2027 19:17:06.439   01 Jun 2027 19:20:21.779           195.340            RioGallegos          6104.375
        60   01 Jun 2027 19:23:20.060   01 Jun 2027 19:23:30.965            10.905            RioGallegos           340.781
        61   01 Jun 2027 19:57:01.650   01 Jun 2027 19:59:01.055           119.405                Norilsk          3731.406
        62   01 Jun 2027 20:01:22.547   01 Jun 2027 20:03:26.182           123.635                Irkutsk          3863.594
        63   01 Jun 2027 20:04:20.606   01 Jun 2027 20:04:35.551            14.945                Irkutsk           467.031
        64   01 Jun 2027 20:09:08.269   01 Jun 2027 20:10:29.117            80.848                Irkutsk          2526.500
        65   01 Jun 2027 20:15:19.970   01 Jun 2027 20:16:23.644            63.674                Sumatra          1989.812
        66   01 Jun 2027 20:17:13.635   01 Jun 2027 20:18:47.131            93.496                Sumatra          2921.750
        67   01 Jun 2027 20:20:59.017   01 Jun 2027 20:21:07.451             8.434                Sumatra           263.562
        68   01 Jun 2027 20:24:39.703   01 Jun 2027 20:25:50.489            70.786                Sumatra          2212.063
        69   01 Jun 2027 21:34:05.684   01 Jun 2027 21:34:35.957            30.273                Norilsk           946.031
        70   01 Jun 2027 21:35:24.776   01 Jun 2027 21:35:44.873            20.097                Norilsk           628.031
        71   01 Jun 2027 21:36:46.883   01 Jun 2027 21:37:55.448            68.565                Irkutsk          2142.656
        72   01 Jun 2027 21:39:17.264   01 Jun 2027 21:39:35.247            17.983                Novosib           561.969
        73   01 Jun 2027 21:41:42.630   01 Jun 2027 21:42:59.727            77.097                Novosib          2409.281
        74   01 Jun 2027 21:44:50.139   01 Jun 2027 21:45:10.882            20.743                Norilsk           648.219
        75   01 Jun 2027 21:45:15.288   01 Jun 2027 21:45:57.364            42.076                  Delhi          1314.875
        76   01 Jun 2027 21:46:56.600   01 Jun 2027 21:48:09.369            72.769                Novosib          2274.031
        77   01 Jun 2027 21:50:59.669   01 Jun 2027 21:52:05.039            65.370                  Delhi          2042.812
        78   01 Jun 2027 21:53:12.015   01 Jun 2027 21:54:31.068            79.053                  Delhi          2470.406
        79   01 Jun 2027 23:06:03.162   01 Jun 2027 23:06:06.639             3.477                Anadyr1           108.656
        80   01 Jun 2027 23:06:25.360   01 Jun 2027 23:06:33.172             7.812                Anadyr1           244.125
        81   01 Jun 2027 23:07:05.860   01 Jun 2027 23:07:22.825            16.965                Anadyr1           530.156
        82   01 Jun 2027 23:08:45.547   01 Jun 2027 23:09:03.627            18.080                Anadyr1           565.000
        83   01 Jun 2027 23:09:04.998   01 Jun 2027 23:10:35.196            90.198                Norilsk          2818.687
        84   01 Jun 2027 23:10:52.440   01 Jun 2027 23:10:53.249             0.809                Anadyr1            25.281
        85   01 Jun 2027 23:11:02.190   01 Jun 2027 23:11:20.684            18.494               Magadan2           577.937
        86   01 Jun 2027 23:11:25.062   01 Jun 2027 23:16:01.060           275.998              Murmansk2          8624.938
        87   01 Jun 2027 23:16:59.207   01 Jun 2027 23:18:05.130            65.923              Murmansk2          2060.094
        88   01 Jun 2027 23:19:46.029   01 Jun 2027 23:21:00.449            74.420                 Moscow          2325.625
        89   02 Jun 2027 00:36:48.385   02 Jun 2027 00:36:55.117             6.732                Anadyr1           210.375
        90   02 Jun 2027 00:37:10.637   02 Jun 2027 00:37:23.027            12.390                Anadyr1           387.188
        91   02 Jun 2027 00:38:26.030   02 Jun 2027 00:38:54.281            28.251                Anadyr2           882.844
        92   02 Jun 2027 00:39:26.574   02 Jun 2027 00:40:07.263            40.689                Anadyr2          1271.531
        93   02 Jun 2027 00:42:15.365   02 Jun 2027 00:43:23.259            67.894               Magadan2          2121.688
        94   02 Jun 2027 00:43:42.395   02 Jun 2027 00:44:15.818            33.423               Magadan1          1044.469
        95   02 Jun 2027 00:44:15.818   02 Jun 2027 00:44:46.258            30.440               Magadan2           951.250
        96   02 Jun 2027 00:44:56.190   02 Jun 2027 00:45:14.035            17.845               Magadan2           557.656
        97   02 Jun 2027 00:46:04.093   02 Jun 2027 00:46:47.448            43.355                Norilsk          1354.844
        98   02 Jun 2027 00:47:03.599   02 Jun 2027 00:48:14.614            71.015              Murmansk2          2219.219
        99   02 Jun 2027 00:50:52.905   02 Jun 2027 00:52:05.392            72.487                 Moscow          2265.219
       100   02 Jun 2027 00:55:20.779   02 Jun 2027 00:55:28.237             7.458              Murmansk1           233.062
       101   02 Jun 2027 00:56:17.409   02 Jun 2027 00:56:39.091            21.682                Novosib           677.562
       102   02 Jun 2027 00:57:49.207   02 Jun 2027 00:58:33.328            44.121                 Moscow          1378.781
       103   02 Jun 2027 01:00:17.388   02 Jun 2027 01:01:52.238            94.850                 Moscow          2964.062
       104   02 Jun 2027 01:22:57.765   02 Jun 2027 01:23:33.097            35.332               CapeTown          1104.125
       105   02 Jun 2027 01:26:20.312   02 Jun 2027 01:26:37.018            16.706               CapeTown           522.063
       106   02 Jun 2027 02:11:05.954   02 Jun 2027 02:11:12.462             6.508                Anadyr1           203.375
       107   02 Jun 2027 02:11:40.867   02 Jun 2027 02:11:58.947            18.080                Anadyr1           565.000
       108   02 Jun 2027 02:12:55.375   02 Jun 2027 02:12:58.188             2.813                Anadyr1            87.906
       109   02 Jun 2027 02:13:23.827   02 Jun 2027 02:13:32.216             8.389                Anadyr1           262.156
       110   02 Jun 2027 02:13:33.013   02 Jun 2027 02:13:49.885            16.872                Anadyr2           527.250
       111   02 Jun 2027 02:13:58.500   02 Jun 2027 02:15:03.962            65.462               Magadan2          2045.688
       112   02 Jun 2027 02:16:42.107   02 Jun 2027 02:16:47.915             5.808               Magadan2           181.500
       113   02 Jun 2027 02:17:28.675   02 Jun 2027 02:17:35.088             6.413               Magadan2           200.406
       114   02 Jun 2027 02:17:51.115   02 Jun 2027 02:18:05.661            14.546               Magadan2           454.563
       115   02 Jun 2027 02:19:16.756   02 Jun 2027 02:19:33.093            16.337               Magadan1           510.531
       116   02 Jun 2027 02:20:12.164   02 Jun 2027 02:20:39.571            27.407                Norilsk           856.469
       117   02 Jun 2027 02:21:18.804   02 Jun 2027 02:21:45.565            26.761               Magadan1           836.281
       118   02 Jun 2027 02:21:50.285   02 Jun 2027 02:22:01.275            10.990                Norilsk           343.438
       119   02 Jun 2027 02:23:01.328   02 Jun 2027 02:23:25.809            24.481              Murmansk2           765.031
       120   02 Jun 2027 02:23:42.348   02 Jun 2027 02:23:49.441             7.093              Murmansk2           221.656
       121   02 Jun 2027 02:24:58.785   02 Jun 2027 02:25:04.544             5.759              Murmansk2           179.969
       122   02 Jun 2027 02:25:04.544   02 Jun 2027 02:25:35.093            30.549              Murmansk1           954.656
       123   02 Jun 2027 02:27:17.878   02 Jun 2027 02:27:27.395             9.517              Murmansk1           297.406
       124   02 Jun 2027 02:28:04.652   02 Jun 2027 02:28:31.660            27.008                Novosib           844.000
       125   02 Jun 2027 02:29:50.814   02 Jun 2027 02:30:04.288            13.474                 Moscow           421.063
       126   02 Jun 2027 02:30:28.103   02 Jun 2027 02:31:05.569            37.466              Murmansk1          1170.813
       127   02 Jun 2027 02:33:03.592   02 Jun 2027 02:34:23.524            79.932                 Moscow          2497.875
       128   02 Jun 2027 02:57:58.854   02 Jun 2027 02:58:37.436            38.582               CapeTown          1205.688
       129   02 Jun 2027 03:01:24.989   02 Jun 2027 03:01:53.767            28.778               CapeTown           899.313
       130   02 Jun 2027 03:54:12.343   02 Jun 2027 03:56:48.921           156.578                Anadyr1          4893.062
       131   02 Jun 2027 03:56:48.921   02 Jun 2027 03:56:50.645             1.724                Anadyr2            53.875
       132   02 Jun 2027 03:57:06.853   02 Jun 2027 03:57:07.690             0.837               Magadan1            26.156
       133   02 Jun 2027 03:58:16.906   02 Jun 2027 03:59:15.369            58.463                Anadyr2          1826.969
       134   02 Jun 2027 05:29:39.993   02 Jun 2027 05:29:42.274             2.281                Irkutsk            71.281
       135   02 Jun 2027 05:29:54.504   02 Jun 2027 05:31:14.094            79.590                Irkutsk          2487.187
       136   02 Jun 2027 05:32:21.937   02 Jun 2027 05:32:59.553            37.616                Irkutsk          1175.500
       137   02 Jun 2027 07:08:34.988   02 Jun 2027 07:08:41.952             6.964                Irkutsk           217.625
       138   02 Jun 2027 07:09:07.640   02 Jun 2027 07:10:39.090            91.450               Magadan1          2857.812
       139   02 Jun 2027 07:10:52.000   02 Jun 2027 07:11:54.601            62.601              Murmansk2          1956.281
       140   02 Jun 2027 07:12:17.205   02 Jun 2027 07:12:17.621             0.416                Norilsk            13.000
       141   02 Jun 2027 07:12:37.235   02 Jun 2027 07:13:12.944            35.709              Murmansk2          1115.906
       142   02 Jun 2027 07:13:22.779   02 Jun 2027 07:14:23.263            60.484                Norilsk          1890.125
       143   02 Jun 2027 07:45:46.138   02 Jun 2027 07:46:24.489            38.351            RioGallegos          1198.469
       144   02 Jun 2027 07:47:54.959   02 Jun 2027 07:47:57.829             2.870            RioGallegos            89.688
       145   02 Jun 2027 07:49:03.714   02 Jun 2027 07:50:02.642            58.928            RioGallegos          1841.500
       146   02 Jun 2027 07:56:14.107   02 Jun 2027 07:57:01.219            47.112            RioGallegos          1472.250
       147   02 Jun 2027 08:21:10.189   02 Jun 2027 08:22:19.275            69.086                Sumatra          2158.937
       148   02 Jun 2027 08:34:13.345   02 Jun 2027 08:35:07.918            54.573                  Delhi          1705.406
       149   02 Jun 2027 08:36:07.916   02 Jun 2027 08:36:29.660            21.744                  Delhi           679.500
       150   02 Jun 2027 08:42:07.087   02 Jun 2027 08:42:29.777            22.690                Irkutsk           709.063
       151   02 Jun 2027 08:43:03.311   02 Jun 2027 08:43:24.241            20.930                Norilsk           654.062
       152   02 Jun 2027 08:43:25.033   02 Jun 2027 08:44:19.575            54.542                Irkutsk          1704.438
       153   02 Jun 2027 08:44:50.447   02 Jun 2027 08:46:13.312            82.865                Norilsk          2589.531
       154   02 Jun 2027 08:46:19.786   02 Jun 2027 08:46:32.178            12.392              Murmansk2           387.250
       155   02 Jun 2027 08:46:33.582   02 Jun 2027 08:46:52.470            18.888                Norilsk           590.250
       156   02 Jun 2027 08:47:18.857   02 Jun 2027 08:47:31.105            12.248                Novosib           382.750
       157   02 Jun 2027 08:49:30.616   02 Jun 2027 08:49:59.684            29.068              Murmansk2           908.375
       158   02 Jun 2027 08:51:09.664   02 Jun 2027 08:51:12.534             2.870              Murmansk2            89.687
       159   02 Jun 2027 08:51:38.821   02 Jun 2027 08:52:32.896            54.075              Murmansk1          1689.844
       160   02 Jun 2027 09:23:38.823   02 Jun 2027 09:23:42.588             3.765            RioGallegos           117.656
       161   02 Jun 2027 09:24:19.376   02 Jun 2027 09:24:49.793            30.417            RioGallegos           950.531
       162   02 Jun 2027 09:27:29.043   02 Jun 2027 09:28:01.921            32.878            RioGallegos          1027.438
       163   02 Jun 2027 09:57:50.934   02 Jun 2027 09:58:18.607            27.673                Sumatra           864.781
       164   02 Jun 2027 10:00:43.431   02 Jun 2027 10:00:57.335            13.904                Sumatra           434.500
       165   02 Jun 2027 10:01:27.199   02 Jun 2027 10:02:37.421            70.222                Sumatra          2194.438
       166   02 Jun 2027 10:08:02.906   02 Jun 2027 10:08:13.222            10.316                  Delhi           322.375
       167   02 Jun 2027 10:18:41.412   02 Jun 2027 10:18:50.503             9.091              Murmansk2           284.094
       168   02 Jun 2027 10:18:54.325   02 Jun 2027 10:19:16.521            22.196                Novosib           693.625
       169   02 Jun 2027 10:19:18.796   02 Jun 2027 10:19:47.225            28.429              Murmansk1           888.406
       170   02 Jun 2027 10:20:18.664   02 Jun 2027 10:20:30.817            12.153              Murmansk1           379.781
       171   02 Jun 2027 10:20:34.716   02 Jun 2027 10:21:43.683            68.967                Novosib          2155.219
       172   02 Jun 2027 10:21:55.915   02 Jun 2027 10:23:08.871            72.956                 Moscow          2279.875
       173   02 Jun 2027 10:25:29.406   02 Jun 2027 10:25:38.277             8.871                 Moscow           277.219
       174   02 Jun 2027 11:43:24.512   02 Jun 2027 11:45:34.226           129.714                  Delhi          4053.563
       175   02 Jun 2027 11:54:28.798   02 Jun 2027 11:54:45.185            16.387              Murmansk1           512.094
       176   02 Jun 2027 11:54:52.362   02 Jun 2027 11:55:16.151            23.789              Murmansk1           743.406
       177   02 Jun 2027 11:55:26.037   02 Jun 2027 11:56:21.751            55.714                 Moscow          1741.063
       178   02 Jun 2027 11:56:34.391   02 Jun 2027 11:56:40.134             5.743                 Moscow           179.469
       179   02 Jun 2027 11:56:55.500   02 Jun 2027 11:57:38.636            43.136                 Moscow          1348.000
       180   02 Jun 2027 11:57:49.214   02 Jun 2027 11:57:52.675             3.461              Murmansk1           108.156
       181   02 Jun 2027 11:57:53.614   02 Jun 2027 11:58:24.210            30.596              Murmansk1           956.125
       182   02 Jun 2027 11:58:29.244   02 Jun 2027 11:58:37.218             7.974              Murmansk2           249.187
       183   02 Jun 2027 11:58:37.218   02 Jun 2027 11:58:44.506             7.288              Murmansk1           227.750
       184   02 Jun 2027 11:58:47.563   02 Jun 2027 11:59:34.469            46.906                Norilsk          1465.812
       185   02 Jun 2027 12:01:10.227   02 Jun 2027 12:01:17.956             7.729              Murmansk1           241.531
       186   02 Jun 2027 12:01:43.159   02 Jun 2027 12:02:15.732            32.573              Murmansk1          1017.906
       187   02 Jun 2027 12:02:57.023   02 Jun 2027 12:03:25.926            28.903              Murmansk2           903.219
       188   02 Jun 2027 12:04:21.042   02 Jun 2027 12:04:45.275            24.233              Murmansk1           757.281
       189   02 Jun 2027 13:06:19.761   02 Jun 2027 13:08:56.213           156.452               CapeTown          4889.125
       190   02 Jun 2027 13:09:34.510   02 Jun 2027 13:10:15.124            40.614               CapeTown          1269.188
       191   02 Jun 2027 13:26:19.568   02 Jun 2027 13:26:29.478             9.910                 Moscow           309.688
       192   02 Jun 2027 13:29:07.936   02 Jun 2027 13:31:55.342           167.406              Murmansk2          5231.437
       193   02 Jun 2027 13:33:42.070   02 Jun 2027 13:33:49.048             6.978              Murmansk1           218.063
       194   02 Jun 2027 13:34:07.051   02 Jun 2027 13:34:36.178            29.127              Murmansk2           910.219
       195   02 Jun 2027 13:34:36.178   02 Jun 2027 13:34:57.020            20.842              Murmansk1           651.312
       196   02 Jun 2027 13:36:20.361   02 Jun 2027 13:37:08.138            47.777              Murmansk2          1493.031
       197   02 Jun 2027 13:40:48.795   02 Jun 2027 13:40:56.604             7.809              Murmansk2           244.031
       198   02 Jun 2027 13:41:30.346   02 Jun 2027 13:41:37.610             7.264              Murmansk2           227.000
       199   02 Jun 2027 13:44:21.593   02 Jun 2027 13:48:27.741           246.148                Anadyr1          7692.125
       200   02 Jun 2027 13:50:19.946   02 Jun 2027 13:50:45.744            25.798                Anadyr1           806.187
       201   02 Jun 2027 15:07:30.348   02 Jun 2027 15:07:50.670            20.322              Murmansk2           635.062
       202   02 Jun 2027 15:08:10.086   02 Jun 2027 15:08:37.537            27.451              Murmansk1           857.844
       203   02 Jun 2027 15:11:37.087   02 Jun 2027 15:11:52.697            15.610              Murmansk2           487.813
       204   02 Jun 2027 15:13:33.783   02 Jun 2027 15:13:53.451            19.668              Murmansk1           614.625
       205   02 Jun 2027 15:15:25.296   02 Jun 2027 15:15:44.763            19.467              Murmansk2           608.344
       206   02 Jun 2027 15:17:22.900   02 Jun 2027 15:17:26.590             3.690              Murmansk2           115.313
       207   02 Jun 2027 15:19:24.835   02 Jun 2027 15:21:37.706           132.871                Anadyr1          4152.219
       208   02 Jun 2027 15:25:38.164   02 Jun 2027 15:25:48.799            10.635                Anadyr1           332.344
       209   02 Jun 2027 15:25:55.207   02 Jun 2027 15:26:12.155            16.948                Anadyr1           529.625
       210   02 Jun 2027 15:29:55.171   02 Jun 2027 15:30:19.559            24.388                Anadyr2           762.125
       211   02 Jun 2027 15:30:48.956   02 Jun 2027 15:30:53.956             5.000                Anadyr2           156.250
       212   02 Jun 2027 15:31:09.587   02 Jun 2027 15:31:12.968             3.381                Anadyr1           105.656
       213   02 Jun 2027 16:49:24.982   02 Jun 2027 16:51:48.011           143.029              Murmansk1          4469.656
       214   02 Jun 2027 16:55:15.204   02 Jun 2027 16:58:11.817           176.613                Anadyr1          5519.156
       215   02 Jun 2027 16:58:16.021   02 Jun 2027 16:59:16.346            60.325               Magadan1          1885.156
       216   02 Jun 2027 16:59:16.346   02 Jun 2027 16:59:17.636             1.290               Magadan2            40.313
       217   02 Jun 2027 16:59:50.352   02 Jun 2027 17:00:15.325            24.973               Magadan1           780.406
       218   02 Jun 2027 17:02:31.074   02 Jun 2027 17:03:11.240            40.166               Magadan2          1255.188
       219   02 Jun 2027 17:04:54.942   02 Jun 2027 17:06:09.360            74.418               Magadan2          2325.562
       220   02 Jun 2027 18:31:09.785   02 Jun 2027 18:32:53.019           103.234                Anadyr2          3226.062
       221   02 Jun 2027 18:33:13.963   02 Jun 2027 18:35:23.606           129.643                Anadyr1          4051.344
       222   02 Jun 2027 18:35:23.720   02 Jun 2027 18:37:39.101           135.381                Norilsk          4230.656
       223   02 Jun 2027 19:25:42.870   02 Jun 2027 19:27:55.166           132.296            RioGallegos          4134.250
       224   02 Jun 2027 19:28:23.176   02 Jun 2027 19:29:19.068            55.892            RioGallegos          1746.625
       225   02 Jun 2027 19:35:02.181   02 Jun 2027 19:35:08.138             5.957            RioGallegos           186.156
       226   02 Jun 2027 20:07:34.975   02 Jun 2027 20:07:45.216            10.241                Anadyr1           320.031
       227   02 Jun 2027 20:08:34.409   02 Jun 2027 20:08:43.234             8.825                Anadyr1           275.781
       228   02 Jun 2027 20:09:01.587   02 Jun 2027 20:10:55.782           114.195                Norilsk          3568.594
       229   02 Jun 2027 20:13:14.682   02 Jun 2027 20:14:30.047            75.365                Irkutsk          2355.156
       230   02 Jun 2027 20:15:32.138   02 Jun 2027 20:18:02.548           150.410                Novosib          4700.313
       231   02 Jun 2027 20:20:42.622   02 Jun 2027 20:21:08.502            25.880                Irkutsk           808.750
       232   02 Jun 2027 20:22:52.994   02 Jun 2027 20:22:54.287             1.293                Irkutsk            40.406
       233   02 Jun 2027 20:27:02.157   02 Jun 2027 20:28:06.839            64.682                Sumatra          2021.312
       234   02 Jun 2027 20:29:33.548   02 Jun 2027 20:30:46.307            72.759                Sumatra          2273.719
       235   02 Jun 2027 20:31:08.250   02 Jun 2027 20:31:19.306            11.056                Sumatra           345.500
       236   02 Jun 2027 21:45:34.644   02 Jun 2027 21:46:02.779            28.135               Magadan1           879.219
       237   02 Jun 2027 21:46:13.107   02 Jun 2027 21:46:37.361            24.254                Norilsk           757.937
       238   02 Jun 2027 21:47:39.136   02 Jun 2027 21:47:59.069            19.933                Norilsk           622.906
       239   02 Jun 2027 21:48:49.036   02 Jun 2027 21:49:38.372            49.336                Irkutsk          1541.750
       240   02 Jun 2027 21:50:22.355   02 Jun 2027 21:51:55.997            93.642                Novosib          2926.312
       241   02 Jun 2027 21:56:52.542   02 Jun 2027 21:59:21.571           149.029                  Delhi          4657.156
       242   02 Jun 2027 22:01:47.305   02 Jun 2027 22:02:26.979            39.674                  Delhi          1239.812
       243   02 Jun 2027 23:16:43.483   02 Jun 2027 23:16:59.923            16.440                Anadyr2           513.750
       244   02 Jun 2027 23:17:27.172   02 Jun 2027 23:18:01.836            34.664                Anadyr1          1083.250
       245   02 Jun 2027 23:21:06.879   02 Jun 2027 23:23:12.233           125.354               Magadan2          3917.313
       246   02 Jun 2027 23:23:21.233   02 Jun 2027 23:25:17.614           116.381              Murmansk1          3636.906
       247   02 Jun 2027 23:25:17.614   02 Jun 2027 23:26:07.261            49.647              Murmansk2          1551.469
       248   02 Jun 2027 23:28:24.073   02 Jun 2027 23:29:29.879            65.806                 Moscow          2056.437
       249   02 Jun 2027 23:31:58.612   02 Jun 2027 23:33:25.474            86.862                 Moscow          2714.437
       250   03 Jun 2027 00:48:32.985   03 Jun 2027 00:48:34.661             1.676                Anadyr2            52.375
       251   03 Jun 2027 00:48:42.055   03 Jun 2027 00:48:55.945            13.890                Anadyr1           434.062
       252   03 Jun 2027 00:49:30.318   03 Jun 2027 00:50:03.373            33.055                Anadyr2          1032.969
       253   03 Jun 2027 00:50:25.439   03 Jun 2027 00:50:51.840            26.401                Anadyr1           825.031
       254   03 Jun 2027 00:53:43.580   03 Jun 2027 00:54:56.331            72.751               Magadan2          2273.469
       255   03 Jun 2027 00:55:34.428   03 Jun 2027 00:55:41.199             6.771               Magadan2           211.594
       256   03 Jun 2027 00:55:45.288   03 Jun 2027 00:56:14.796            29.508               Magadan2           922.125
       257   03 Jun 2027 00:56:57.220   03 Jun 2027 00:56:58.315             1.095               Magadan2            34.219
       258   03 Jun 2027 00:57:16.720   03 Jun 2027 00:57:18.755             2.035               Magadan2            63.594
       259   03 Jun 2027 00:57:30.199   03 Jun 2027 00:58:03.073            32.874               Magadan1          1027.313
       260   03 Jun 2027 00:59:04.859   03 Jun 2027 01:00:14.831            69.972              Murmansk2          2186.625
       261   03 Jun 2027 01:00:14.831   03 Jun 2027 01:00:48.985            34.154              Murmansk1          1067.312
       262   03 Jun 2027 01:01:04.800   03 Jun 2027 01:01:33.125            28.325                Novosib           885.156
       263   03 Jun 2027 01:02:28.001   03 Jun 2027 01:02:40.055            12.054                 Moscow           376.688
       264   03 Jun 2027 01:04:43.552   03 Jun 2027 01:04:48.275             4.723                 Moscow           147.594
       265   03 Jun 2027 01:05:00.580   03 Jun 2027 01:05:19.157            18.577                 Moscow           580.531
       266   03 Jun 2027 01:08:20.402   03 Jun 2027 01:09:35.698            75.296                Novosib          2353.000
       267   03 Jun 2027 01:26:52.833   03 Jun 2027 01:28:04.048            71.215               CapeTown          2225.469
       268   03 Jun 2027 01:36:31.739   03 Jun 2027 01:37:36.049            64.310               CapeTown          2009.687
       269   03 Jun 2027 02:23:58.709   03 Jun 2027 02:24:10.701            11.992                Anadyr1           374.750
       270   03 Jun 2027 02:24:20.341   03 Jun 2027 02:24:56.576            36.235                Anadyr2          1132.344
       271   03 Jun 2027 02:25:16.148   03 Jun 2027 02:25:38.624            22.476                Anadyr1           702.375
       272   03 Jun 2027 02:25:45.028   03 Jun 2027 02:26:00.394            15.366               Magadan1           480.187
       273   03 Jun 2027 02:26:12.041   03 Jun 2027 02:26:32.301            20.260               Magadan2           633.125
       274   03 Jun 2027 02:27:48.415   03 Jun 2027 02:28:13.280            24.865               Magadan2           777.031
       275   03 Jun 2027 02:33:11.577   03 Jun 2027 02:33:20.543             8.966               Magadan1           280.188
       276   03 Jun 2027 02:33:20.543   03 Jun 2027 02:33:39.879            19.336               Magadan2           604.250
       277   03 Jun 2027 02:34:43.640   03 Jun 2027 02:34:48.907             5.267                Norilsk           164.594
       278   03 Jun 2027 02:35:02.956   03 Jun 2027 02:36:22.736            79.780              Murmansk1          2493.125
       279   03 Jun 2027 02:38:16.808   03 Jun 2027 02:38:44.723            27.915                 Moscow           872.344
       280   03 Jun 2027 02:39:08.858   03 Jun 2027 02:39:19.608            10.750                Novosib           335.937
       281   03 Jun 2027 02:39:50.899   03 Jun 2027 02:40:14.447            23.548                Novosib           735.875
       282   03 Jun 2027 02:43:12.527   03 Jun 2027 02:44:11.250            58.723                 Moscow          1835.094
       283   03 Jun 2027 03:03:02.062   03 Jun 2027 03:03:50.180            48.118               CapeTown          1503.688
       284   03 Jun 2027 03:12:42.988   03 Jun 2027 03:12:45.723             2.735               CapeTown            85.469
       285   03 Jun 2027 03:13:55.955   03 Jun 2027 03:14:18.724            22.769               CapeTown           711.531
       286   03 Jun 2027 04:05:17.150   03 Jun 2027 04:05:20.475             3.325                Anadyr1           103.906
       287   03 Jun 2027 04:05:23.898   03 Jun 2027 04:05:51.437            27.539                Anadyr1           860.594
       288   03 Jun 2027 04:05:53.120   03 Jun 2027 04:07:43.254           110.134               Magadan1          3441.687
       289   03 Jun 2027 04:07:48.141   03 Jun 2027 04:08:41.286            53.145                Anadyr1          1660.781
       290   03 Jun 2027 04:08:41.286   03 Jun 2027 04:09:06.631            25.345                Anadyr2           792.031
       291   03 Jun 2027 04:09:39.082   03 Jun 2027 04:10:06.672            27.590                Anadyr2           862.188
       292   03 Jun 2027 04:10:11.677   03 Jun 2027 04:11:31.361            79.684                Anadyr2          2490.125
       293   03 Jun 2027 05:43:19.168   03 Jun 2027 05:44:27.417            68.249               Magadan2          2132.781
       294   03 Jun 2027 05:45:18.034   03 Jun 2027 05:45:57.754            39.720                Anadyr1          1241.250
       295   03 Jun 2027 05:45:57.754   03 Jun 2027 05:47:12.726            74.972                Anadyr2          2342.875
       296   03 Jun 2027 05:47:13.744   03 Jun 2027 05:47:21.749             8.005               Magadan1           250.156
       297   03 Jun 2027 07:17:23.732   03 Jun 2027 07:17:40.506            16.774               Magadan2           524.187
       298   03 Jun 2027 07:18:04.380   03 Jun 2027 07:18:55.464            51.084                Novosib          1596.375
       299   03 Jun 2027 07:19:13.451   03 Jun 2027 07:19:24.594            11.143                Norilsk           348.219
       300   03 Jun 2027 07:19:30.431   03 Jun 2027 07:20:15.403            44.972               Magadan2          1405.375
       301   03 Jun 2027 07:20:21.701   03 Jun 2027 07:20:42.508            20.807                Irkutsk           650.219
       302   03 Jun 2027 07:20:51.352   03 Jun 2027 07:21:50.829            59.477                Novosib          1858.656
       303   03 Jun 2027 07:22:10.491   03 Jun 2027 07:22:27.800            17.309               Magadan1           540.906
       304   03 Jun 2027 07:22:29.431   03 Jun 2027 07:23:57.951            88.520              Murmansk2          2766.250
       305   03 Jun 2027 07:57:48.461   03 Jun 2027 07:58:17.007            28.546            RioGallegos           892.062
       306   03 Jun 2027 08:03:05.829   03 Jun 2027 08:03:25.713            19.884            RioGallegos           621.375
       307   03 Jun 2027 08:32:55.751   03 Jun 2027 08:34:05.954            70.203                Sumatra          2193.844
       308   03 Jun 2027 08:36:46.190   03 Jun 2027 08:36:47.993             1.803                Sumatra            56.344
       309   03 Jun 2027 08:44:44.543   03 Jun 2027 08:46:11.911            87.368                  Delhi          2730.250
       310   03 Jun 2027 08:51:16.098   03 Jun 2027 08:51:45.905            29.807                  Delhi           931.469
       311   03 Jun 2027 08:52:54.549   03 Jun 2027 08:53:12.134            17.585                Norilsk           549.531
       312   03 Jun 2027 08:53:18.029   03 Jun 2027 08:54:29.330            71.301                Norilsk          2228.156
       313   03 Jun 2027 08:54:40.844   03 Jun 2027 08:55:07.787            26.943                Irkutsk           841.969
       314   03 Jun 2027 08:55:09.720   03 Jun 2027 08:55:28.966            19.246                Novosib           601.437
       315   03 Jun 2027 08:55:34.305   03 Jun 2027 08:55:52.370            18.065              Murmansk1           564.531
       316   03 Jun 2027 08:55:52.370   03 Jun 2027 08:56:39.294            46.924              Murmansk2          1466.375
       317   03 Jun 2027 08:56:43.628   03 Jun 2027 08:56:50.755             7.127                Norilsk           222.719
       318   03 Jun 2027 08:56:51.885   03 Jun 2027 08:57:31.432            39.547                Norilsk          1235.844
       319   03 Jun 2027 08:57:32.029   03 Jun 2027 08:57:59.697            27.668                Novosib           864.625
       320   03 Jun 2027 08:58:08.179   03 Jun 2027 08:59:18.881            70.702                Novosib          2209.438
       321   03 Jun 2027 09:36:42.266   03 Jun 2027 09:37:22.844            40.578            RioGallegos          1268.062
       322   03 Jun 2027 10:10:37.038   03 Jun 2027 10:12:39.143           122.105                Sumatra          3815.781
       323   03 Jun 2027 10:30:51.042   03 Jun 2027 10:31:27.630            36.588              Murmansk1          1143.375
       324   03 Jun 2027 10:31:37.382   03 Jun 2027 10:32:19.401            42.019                 Moscow          1313.094
       325   03 Jun 2027 10:32:27.259   03 Jun 2027 10:32:53.782            26.523                Norilsk           828.844
       326   03 Jun 2027 10:33:08.482   03 Jun 2027 10:34:13.980            65.498              Murmansk1          2046.813
       327   03 Jun 2027 10:34:18.167   03 Jun 2027 10:34:29.694            11.527              Murmansk1           360.219
       328   03 Jun 2027 10:34:29.694   03 Jun 2027 10:35:07.709            38.015              Murmansk2          1187.969
       329   03 Jun 2027 11:56:23.947   03 Jun 2027 11:59:40.993           197.046                  Delhi          6157.687
       330   03 Jun 2027 12:09:04.679   03 Jun 2027 12:09:21.878            17.199              Murmansk1           537.469
       331   03 Jun 2027 12:09:47.021   03 Jun 2027 12:09:49.462             2.441              Murmansk1            76.281
       332   03 Jun 2027 12:10:22.700   03 Jun 2027 12:10:50.207            27.507                Norilsk           859.594
       333   03 Jun 2027 12:13:42.176   03 Jun 2027 12:14:12.509            30.333              Murmansk1           947.906
       334   03 Jun 2027 12:16:39.451   03 Jun 2027 12:17:41.075            61.624              Murmansk1          1925.750
       335   03 Jun 2027 13:17:10.667   03 Jun 2027 13:19:42.549           151.882               CapeTown          4746.313
       336   03 Jun 2027 13:23:13.898   03 Jun 2027 13:24:40.610            86.712               CapeTown          2709.750
       337   03 Jun 2027 13:41:20.363   03 Jun 2027 13:41:36.699            16.336              Murmansk2           510.500
       338   03 Jun 2027 13:41:52.744   03 Jun 2027 13:42:25.929            33.185              Murmansk2          1037.031
       339   03 Jun 2027 13:44:03.443   03 Jun 2027 13:44:37.209            33.766              Murmansk2          1055.188
       340   03 Jun 2027 13:46:06.730   03 Jun 2027 13:46:07.602             0.872              Murmansk2            27.250
       341   03 Jun 2027 13:50:42.586   03 Jun 2027 13:51:06.153            23.567              Murmansk1           736.469
       342   03 Jun 2027 13:56:08.773   03 Jun 2027 13:59:50.174           221.401                Anadyr1          6918.781
       343   03 Jun 2027 14:00:28.912   03 Jun 2027 14:02:20.293           111.381                Anadyr2          3480.656
       344   03 Jun 2027 15:21:57.768   03 Jun 2027 15:23:38.973           101.205              Murmansk1          3162.656
       345   03 Jun 2027 15:31:24.453   03 Jun 2027 15:32:19.809            55.356                Anadyr1          1729.875
       346   03 Jun 2027 15:32:56.548   03 Jun 2027 15:33:15.746            19.198                Anadyr1           599.937
       347   03 Jun 2027 15:34:18.798   03 Jun 2027 15:35:26.552            67.754                Anadyr1          2117.313
       348   03 Jun 2027 15:35:51.949   03 Jun 2027 15:36:47.321            55.372               Magadan1          1730.375
       349   03 Jun 2027 15:36:59.197   03 Jun 2027 15:38:39.742           100.545               Magadan2          3142.031
       350   03 Jun 2027 17:07:16.595   03 Jun 2027 17:08:58.888           102.293                Anadyr2          3196.656
       351   03 Jun 2027 17:09:19.296   03 Jun 2027 17:09:46.557            27.261                Anadyr1           851.906
       352   03 Jun 2027 17:10:26.259   03 Jun 2027 17:11:52.902            86.643               Magadan2          2707.594
       353   03 Jun 2027 17:11:52.902   03 Jun 2027 17:11:55.998             3.096               Magadan1            96.750
       354   03 Jun 2027 17:15:24.868   03 Jun 2027 17:15:32.094             7.226               Magadan2           225.812
       355   03 Jun 2027 17:15:49.465   03 Jun 2027 17:16:00.929            11.464               Magadan1           358.250
       356   03 Jun 2027 17:16:39.400   03 Jun 2027 17:16:47.075             7.675               Magadan1           239.844
       357   03 Jun 2027 17:16:57.073   03 Jun 2027 17:17:48.850            51.777               Magadan2          1618.031
       358   03 Jun 2027 18:43:10.288   03 Jun 2027 18:47:10.358           240.070                Anadyr2          7502.188
       359   03 Jun 2027 18:47:13.930   03 Jun 2027 18:48:47.480            93.550               Magadan1          2923.437
       360   03 Jun 2027 18:52:54.818   03 Jun 2027 18:54:51.694           116.876                Irkutsk          3652.375
       361   03 Jun 2027 19:37:31.621   03 Jun 2027 19:39:36.293           124.672            RioGallegos          3896.000
       362   03 Jun 2027 19:40:47.141   03 Jun 2027 19:40:52.093             4.952            RioGallegos           154.750
       363   03 Jun 2027 19:48:29.167   03 Jun 2027 19:48:37.105             7.938            RioGallegos           248.063
       364   03 Jun 2027 20:20:42.521   03 Jun 2027 20:20:43.428             0.907                Anadyr2            28.344
       365   03 Jun 2027 20:21:02.039   03 Jun 2027 20:22:52.439           110.400                Norilsk          3450.000
       366   03 Jun 2027 20:23:18.041   03 Jun 2027 20:23:42.833            24.792               Magadan1           774.750
       367   03 Jun 2027 20:24:38.154   03 Jun 2027 20:25:23.833            45.679               Magadan1          1427.469
       368   03 Jun 2027 20:26:11.617   03 Jun 2027 20:26:40.279            28.662                Norilsk           895.688
       369   03 Jun 2027 20:26:45.802   03 Jun 2027 20:29:25.205           159.403                Novosib          4981.344
       370   03 Jun 2027 20:30:27.374   03 Jun 2027 20:30:37.201             9.827                Novosib           307.094
       371   03 Jun 2027 20:31:55.464   03 Jun 2027 20:32:25.983            30.519                Novosib           953.719
       372   03 Jun 2027 20:38:50.877   03 Jun 2027 20:41:26.961           156.084                Sumatra          4877.625
       373   03 Jun 2027 21:57:36.425   03 Jun 2027 21:58:20.837            44.412               Magadan1          1387.875
       374   03 Jun 2027 22:00:51.966   03 Jun 2027 22:01:16.863            24.897                Irkutsk           778.031
       375   03 Jun 2027 22:01:28.593   03 Jun 2027 22:01:55.132            26.539                Irkutsk           829.344
       376   03 Jun 2027 22:02:47.370   03 Jun 2027 22:04:10.840            83.470                Novosib          2608.437
       377   03 Jun 2027 22:08:36.159   03 Jun 2027 22:12:15.408           219.249                  Delhi          6851.531
       378   03 Jun 2027 23:28:44.664   03 Jun 2027 23:29:09.363            24.699                Anadyr2           771.844
       379   03 Jun 2027 23:32:13.053   03 Jun 2027 23:32:32.318            19.265                Anadyr2           602.031
       380   03 Jun 2027 23:32:55.715   03 Jun 2027 23:33:59.699            63.984               Magadan1          1999.500
       381   03 Jun 2027 23:34:17.486   03 Jun 2027 23:34:47.704            30.218               Magadan1           944.313
       382   03 Jun 2027 23:34:47.704   03 Jun 2027 23:35:11.715            24.011               Magadan2           750.344
       383   03 Jun 2027 23:35:18.761   03 Jun 2027 23:38:08.646           169.885              Murmansk1          5308.906
       384   03 Jun 2027 23:38:52.716   03 Jun 2027 23:39:57.476            64.760              Murmansk1          2023.750
       385   03 Jun 2027 23:40:43.853   03 Jun 2027 23:42:06.342            82.489                 Moscow          2577.781
       386   03 Jun 2027 23:45:46.969   03 Jun 2027 23:46:03.452            16.483                 Moscow           515.094
       387   04 Jun 2027 01:00:18.668   04 Jun 2027 01:00:26.847             8.179                Anadyr1           255.594
       388   04 Jun 2027 01:01:39.782   04 Jun 2027 01:02:01.072            21.290                Anadyr1           665.313
       389   04 Jun 2027 01:02:25.269   04 Jun 2027 01:02:53.032            27.763                Anadyr2           867.594
       390   04 Jun 2027 01:05:11.522   04 Jun 2027 01:06:27.959            76.437               Magadan2          2388.656
       391   04 Jun 2027 01:07:23.482   04 Jun 2027 01:07:30.958             7.476               Magadan2           233.625
       392   04 Jun 2027 01:07:44.093   04 Jun 2027 01:08:56.549            72.456               Magadan2          2264.250
       393   04 Jun 2027 01:11:06.300   04 Jun 2027 01:12:13.634            67.334              Murmansk2          2104.188
       394   04 Jun 2027 01:13:11.923   04 Jun 2027 01:13:23.932            12.009                Novosib           375.281
       395   04 Jun 2027 01:13:24.720   04 Jun 2027 01:13:32.630             7.910              Murmansk2           247.187
       396   04 Jun 2027 01:13:44.099   04 Jun 2027 01:14:06.693            22.594              Murmansk2           706.063
       397   04 Jun 2027 01:16:17.633   04 Jun 2027 01:16:33.867            16.234                 Moscow           507.313
       398   04 Jun 2027 01:17:24.137   04 Jun 2027 01:17:38.138            14.001                 Moscow           437.531
       399   04 Jun 2027 01:21:42.147   04 Jun 2027 01:21:56.210            14.063                 Moscow           439.469
       400   04 Jun 2027 01:22:22.741   04 Jun 2027 01:22:39.132            16.391                 Moscow           512.219
       401   04 Jun 2027 01:26:34.674   04 Jun 2027 01:26:43.872             9.198                 Moscow           287.438
       402   04 Jun 2027 01:38:36.248   04 Jun 2027 01:40:00.582            84.334               CapeTown          2635.437
       403   04 Jun 2027 01:49:30.105   04 Jun 2027 01:49:50.088            19.983               CapeTown           624.469
       404   04 Jun 2027 02:34:59.238   04 Jun 2027 02:36:27.306            88.068                Anadyr1          2752.125
       405   04 Jun 2027 02:36:57.646   04 Jun 2027 02:37:09.650            12.004                Anadyr2           375.125
       406   04 Jun 2027 02:37:12.870   04 Jun 2027 02:37:52.379            39.509               Magadan1          1234.656
       407   04 Jun 2027 02:38:02.098   04 Jun 2027 02:38:25.248            23.150               Magadan2           723.437
       408   04 Jun 2027 02:39:24.454   04 Jun 2027 02:39:43.203            18.749               Magadan2           585.906
       409   04 Jun 2027 02:42:24.396   04 Jun 2027 02:43:21.437            57.041               Magadan2          1782.531
       410   04 Jun 2027 02:47:04.488   04 Jun 2027 02:48:01.789            57.301              Murmansk2          1790.656
       411   04 Jun 2027 02:50:19.961   04 Jun 2027 02:51:14.155            54.194                 Moscow          1693.563
       412   04 Jun 2027 02:52:14.677   04 Jun 2027 02:53:11.259            56.582                 Moscow          1768.187
       413   04 Jun 2027 03:15:17.546   04 Jun 2027 03:15:35.472            17.926               CapeTown           560.187
       414   04 Jun 2027 04:17:52.977   04 Jun 2027 04:18:04.677            11.700                Anadyr2           365.625
       415   04 Jun 2027 04:18:11.239   04 Jun 2027 04:18:22.995            11.756                Anadyr2           367.375
       416   04 Jun 2027 04:18:27.158   04 Jun 2027 04:19:20.000            52.842               Magadan2          1651.312
       417   04 Jun 2027 04:19:20.000   04 Jun 2027 04:19:22.137             2.137               Magadan1            66.781
       418   04 Jun 2027 04:19:49.102   04 Jun 2027 04:21:58.100           128.998                Anadyr1          4031.187
       419   04 Jun 2027 04:21:58.100   04 Jun 2027 04:22:17.534            19.434                Anadyr2           607.312
       420   04 Jun 2027 04:22:43.622   04 Jun 2027 04:23:09.347            25.725               Magadan2           803.906
       421   04 Jun 2027 05:53:14.194   04 Jun 2027 05:53:41.228            27.034                Irkutsk           844.813
       422   04 Jun 2027 05:53:44.968   04 Jun 2027 05:54:11.204            26.236                Anadyr2           819.875
       423   04 Jun 2027 05:54:11.204   04 Jun 2027 05:55:23.969            72.765                Anadyr1          2273.906
       424   04 Jun 2027 05:55:39.795   04 Jun 2027 05:56:21.586            41.791                Irkutsk          1305.969
       425   04 Jun 2027 05:56:36.558   04 Jun 2027 05:57:59.526            82.968                Anadyr1          2592.750
       426   04 Jun 2027 06:34:54.603   04 Jun 2027 06:35:28.364            33.761            RioGallegos          1055.031
       427   04 Jun 2027 06:35:50.886   04 Jun 2027 06:36:36.120            45.234            RioGallegos          1413.563
       428   04 Jun 2027 07:28:12.436   04 Jun 2027 07:29:23.890            71.454               Magadan1          2232.937
       429   04 Jun 2027 07:29:41.539   04 Jun 2027 07:30:20.846            39.307                Norilsk          1228.344
       430   04 Jun 2027 07:30:37.003   04 Jun 2027 07:30:49.683            12.680               Magadan1           396.250
       431   04 Jun 2027 07:31:01.157   04 Jun 2027 07:31:21.089            19.932                Irkutsk           622.875
       432   04 Jun 2027 07:31:25.566   04 Jun 2027 07:31:32.253             6.687               Magadan1           208.969
       433   04 Jun 2027 07:31:40.317   04 Jun 2027 07:32:34.940            54.623                Norilsk          1706.969
       434   04 Jun 2027 07:32:44.984   04 Jun 2027 07:32:57.038            12.054                Norilsk           376.688
       435   04 Jun 2027 07:33:05.465   04 Jun 2027 07:33:29.940            24.475               Magadan1           764.844
       436   04 Jun 2027 07:33:31.967   04 Jun 2027 07:34:07.471            35.504              Murmansk2          1109.500
       437   04 Jun 2027 07:34:26.706   04 Jun 2027 07:35:34.615            67.909              Murmansk1          2122.156
       438   04 Jun 2027 08:09:54.206   04 Jun 2027 08:10:47.405            53.199            RioGallegos          1662.469
       439   04 Jun 2027 08:44:47.469   04 Jun 2027 08:45:45.811            58.342                Sumatra          1823.188
       440   04 Jun 2027 08:55:44.677   04 Jun 2027 08:56:53.725            69.048                  Delhi          2157.750
       441   04 Jun 2027 08:57:44.951   04 Jun 2027 08:58:02.682            17.731                  Delhi           554.094
       442   04 Jun 2027 08:59:43.322   04 Jun 2027 09:01:06.926            83.604                  Delhi          2612.625
       443   04 Jun 2027 09:05:05.273   04 Jun 2027 09:05:11.817             6.544                Irkutsk           204.500
       444   04 Jun 2027 09:05:50.820   04 Jun 2027 09:06:14.165            23.345                Novosib           729.531
       445   04 Jun 2027 09:06:33.512   04 Jun 2027 09:07:10.812            37.300                Norilsk          1165.625
       446   04 Jun 2027 09:07:15.518   04 Jun 2027 09:08:32.029            76.511              Murmansk2          2390.969
       447   04 Jun 2027 09:08:42.318   04 Jun 2027 09:08:44.320             2.002                Irkutsk            62.562
       448   04 Jun 2027 09:08:45.343   04 Jun 2027 09:08:49.281             3.938                Norilsk           123.062
       449   04 Jun 2027 09:08:50.528   04 Jun 2027 09:09:25.604            35.076                Norilsk          1096.125
       450   04 Jun 2027 09:09:32.848   04 Jun 2027 09:09:42.044             9.196                Irkutsk           287.375
       451   04 Jun 2027 09:09:44.276   04 Jun 2027 09:10:21.800            37.524              Murmansk1          1172.625
       452   04 Jun 2027 09:10:23.163   04 Jun 2027 09:11:07.330            44.167              Murmansk2          1380.219
       453   04 Jun 2027 09:49:06.835   04 Jun 2027 09:49:26.739            19.904            RioGallegos           622.000
       454   04 Jun 2027 09:49:54.049   04 Jun 2027 09:50:27.896            33.847            RioGallegos          1057.719
       455   04 Jun 2027 10:23:50.178   04 Jun 2027 10:24:27.587            37.409                Sumatra          1169.031
       456   04 Jun 2027 10:25:12.352   04 Jun 2027 10:27:01.533           109.181                Sumatra          3411.906
       457   04 Jun 2027 10:42:51.820   04 Jun 2027 10:43:38.255            46.435              Murmansk1          1451.094
       458   04 Jun 2027 10:43:48.120   04 Jun 2027 10:44:10.807            22.687                Norilsk           708.969
       459   04 Jun 2027 10:44:16.836   04 Jun 2027 10:44:26.852            10.016              Murmansk1           313.000
       460   04 Jun 2027 10:44:27.982   04 Jun 2027 10:44:52.198            24.216                Norilsk           756.750
       461   04 Jun 2027 10:45:01.379   04 Jun 2027 10:45:12.367            10.988              Murmansk1           343.375
       462   04 Jun 2027 10:45:17.073   04 Jun 2027 10:46:11.183            54.110              Murmansk1          1690.937
       463   04 Jun 2027 10:46:15.979   04 Jun 2027 10:46:20.875             4.896                Novosib           153.000
       464   04 Jun 2027 10:46:29.073   04 Jun 2027 10:47:05.355            36.282                Novosib          1133.813
       465   04 Jun 2027 10:48:03.729   04 Jun 2027 10:48:47.473            43.744                 Moscow          1367.000
       466   04 Jun 2027 12:11:21.399   04 Jun 2027 12:11:46.255            24.856                  Delhi           776.750
       467   04 Jun 2027 12:13:23.404   04 Jun 2027 12:13:47.418            24.014                 Moscow           750.437
       468   04 Jun 2027 12:14:10.592   04 Jun 2027 12:14:37.120            26.528                 Moscow           829.000
       469   04 Jun 2027 12:15:14.375   04 Jun 2027 12:17:15.331           120.956                 Moscow          3779.875
       470   04 Jun 2027 12:17:20.103   04 Jun 2027 12:18:02.208            42.105              Murmansk1          1315.781
       471   04 Jun 2027 12:18:34.314   04 Jun 2027 12:18:48.536            14.222              Murmansk1           444.437
       472   04 Jun 2027 12:19:04.056   04 Jun 2027 12:20:06.864            62.808              Murmansk1          1962.750
       473   04 Jun 2027 13:28:28.551   04 Jun 2027 13:31:26.140           177.589               CapeTown          5549.656
       474   04 Jun 2027 13:34:34.971   04 Jun 2027 13:35:09.176            34.205               CapeTown          1068.906
       475   04 Jun 2027 13:53:34.712   04 Jun 2027 13:55:57.228           142.516              Murmansk1          4453.625
       476   04 Jun 2027 13:57:16.967   04 Jun 2027 13:57:45.564            28.597              Murmansk1           893.656
       477   04 Jun 2027 14:02:23.023   04 Jun 2027 14:03:01.691            38.668              Murmansk2          1208.375
       478   04 Jun 2027 14:07:59.655   04 Jun 2027 14:11:46.448           226.793                Anadyr1          7087.281
       479   04 Jun 2027 15:32:34.101   04 Jun 2027 15:33:59.628            85.527              Murmansk1          2672.719
       480   04 Jun 2027 15:39:16.909   04 Jun 2027 15:39:28.404            11.495              Murmansk2           359.219
       481   04 Jun 2027 15:43:24.503   04 Jun 2027 15:45:47.046           142.543                Anadyr1          4454.469
       482   04 Jun 2027 15:45:59.328   04 Jun 2027 15:46:11.683            12.355                Anadyr1           386.094
