uniorb/output/strategy_2/Drop/Drop_KinoSat_110305.txt

KinoSat_110305
-------------------------
    Access    *     Start Time (UTCG)     *     Stop Time (UTCG)  *   Duration (s)        *       Station  *  Data (Mbytes)
         1   01 Jun 2027 03:56:33.484   01 Jun 2027 03:57:46.196            72.712                Norilsk          9089.000
         2   01 Jun 2027 03:57:52.722   01 Jun 2027 03:58:34.989            42.267               Magadan1          4337.000
         3   01 Jun 2027 03:58:44.187   01 Jun 2027 03:59:52.612            68.425                Novosib          4599.000
         4   01 Jun 2027 03:59:53.451   01 Jun 2027 04:00:19.656            26.205                Novosib           419.500
         5   01 Jun 2027 04:00:20.508   01 Jun 2027 04:00:48.752            28.244                Irkutsk           426.000
         6   01 Jun 2027 04:00:54.410   01 Jun 2027 04:01:29.639            35.229                Irkutsk          2829.000
         7   01 Jun 2027 04:01:46.449   01 Jun 2027 04:03:11.332            84.883                Novosib          8405.000
         8   01 Jun 2027 04:03:12.492   01 Jun 2027 04:03:25.125            12.633              Murmansk2           580.000
         9   01 Jun 2027 04:03:30.109   01 Jun 2027 04:03:54.408            24.299                Novosib          2492.000
        10   01 Jun 2027 05:33:33.652   01 Jun 2027 05:34:46.364            72.712                Novosib          7207.500
        11   01 Jun 2027 05:34:46.938   01 Jun 2027 05:36:28.235           101.297                Novosib           287.000
        12   01 Jun 2027 05:36:31.106   01 Jun 2027 05:36:58.013            26.907                Irkutsk          1435.500
        13   01 Jun 2027 05:36:59.996   01 Jun 2027 05:38:07.605            67.609                Irkutsk           991.500
        14   01 Jun 2027 05:38:08.777   01 Jun 2027 05:38:43.908            35.131                 Moscow           586.000
        15   01 Jun 2027 05:38:50.795   01 Jun 2027 05:39:40.336            49.541                 Moscow          3443.500
        16   01 Jun 2027 07:11:16.597   01 Jun 2027 07:11:48.696            32.099                Novosib           929.500
        17   01 Jun 2027 07:11:55.072   01 Jun 2027 07:12:24.873            29.801              Murmansk1          3188.000
        18   01 Jun 2027 07:12:26.159   01 Jun 2027 07:12:47.405            21.246                Irkutsk           643.000
        19   01 Jun 2027 07:12:47.818   01 Jun 2027 07:13:06.155            18.337                Norilsk           206.500
        20   01 Jun 2027 07:13:12.213   01 Jun 2027 07:13:42.414            30.201                Novosib          3029.000
        21   01 Jun 2027 07:13:43.001   01 Jun 2027 07:14:08.278            25.277              Murmansk1           293.500
        22   01 Jun 2027 07:14:13.144   01 Jun 2027 07:15:17.028            63.884              Murmansk1          2433.000
        23   01 Jun 2027 08:44:47.271   01 Jun 2027 08:46:44.587           117.316                 Moscow         13468.500
        24   01 Jun 2027 08:47:01.080   01 Jun 2027 08:48:14.549            73.469                Novosib          8246.500
        25   01 Jun 2027 08:48:24.789   01 Jun 2027 08:49:38.413            73.624                 Moscow          5120.000
        26   01 Jun 2027 08:49:41.533   01 Jun 2027 08:49:57.296            15.763                Norilsk          1560.000
        27   01 Jun 2027 08:49:59.408   01 Jun 2027 08:50:06.051             6.643                 Moscow           830.375
        28   01 Jun 2027 08:50:06.377   01 Jun 2027 08:50:18.054            11.677                Novosib           388.625
        29   01 Jun 2027 08:50:21.069   01 Jun 2027 08:50:48.260            27.191              Murmansk1          1507.500
        30   01 Jun 2027 08:51:26.268   01 Jun 2027 08:52:17.890            51.622                 Moscow          1962.000
        31   01 Jun 2027 08:52:39.807   01 Jun 2027 08:53:13.793            33.986                Norilsk          1995.500
        32   02 Jun 2027 04:08:39.683   02 Jun 2027 04:09:31.142            51.459                Novosib          4553.000
        33   02 Jun 2027 04:09:34.756   02 Jun 2027 04:09:38.674             3.918               Magadan2           489.750
        34   02 Jun 2027 04:09:38.674   02 Jun 2027 04:09:50.622            11.948               Magadan1          1317.250
        35   02 Jun 2027 04:10:09.603   02 Jun 2027 04:12:03.304           113.701                Novosib          9490.500
        36   02 Jun 2027 04:12:09.116   02 Jun 2027 04:12:37.242            28.126                Norilsk          2906.000
        37   02 Jun 2027 04:12:38.371   02 Jun 2027 04:13:01.303            22.932                Novosib           564.500
        38   02 Jun 2027 04:13:08.418   02 Jun 2027 04:13:49.031            40.613               Magadan1          3557.500
        39   02 Jun 2027 04:14:03.565   02 Jun 2027 04:14:29.900            26.335               Magadan1          3291.875
        40   02 Jun 2027 04:14:29.900   02 Jun 2027 04:14:40.806            10.906               Magadan2          1363.250
        41   02 Jun 2027 04:14:55.392   02 Jun 2027 04:15:57.628            62.236                Novosib          7779.500
        42   02 Jun 2027 04:15:58.091   02 Jun 2027 04:16:03.820             5.729                Norilsk           716.125
        43   02 Jun 2027 04:16:11.518   02 Jun 2027 04:16:40.298            28.780                Novosib          1409.250
        44   02 Jun 2027 05:45:36.507   02 Jun 2027 05:47:07.538            91.031                Irkutsk         10608.000
        45   02 Jun 2027 05:47:09.627   02 Jun 2027 05:47:28.628            19.001                Norilsk          1044.500
        46   02 Jun 2027 05:47:34.978   02 Jun 2027 05:48:08.373            33.395                Norilsk          3175.000
        47   02 Jun 2027 05:48:19.362   02 Jun 2027 05:49:16.293            56.931                Irkutsk          5494.500
        48   02 Jun 2027 05:49:21.891   02 Jun 2027 05:49:45.165            23.274                 Moscow          2799.000
        49   02 Jun 2027 05:49:46.378   02 Jun 2027 05:49:50.717             4.339              Murmansk1           542.375
        50   02 Jun 2027 05:49:55.570   02 Jun 2027 05:50:19.851            24.281                 Moscow          2490.625
        51   02 Jun 2027 05:50:42.968   02 Jun 2027 05:52:18.354            95.386              Murmansk2         10888.000
        52   02 Jun 2027 07:23:16.549   02 Jun 2027 07:23:31.813            15.264                Norilsk          1259.000
        53   02 Jun 2027 07:23:37.113   02 Jun 2027 07:23:59.534            22.421                Irkutsk          2650.000
        54   02 Jun 2027 07:24:14.442   02 Jun 2027 07:25:32.818            78.376                Norilsk          7454.000
        55   02 Jun 2027 07:25:33.143   02 Jun 2027 07:25:45.987            12.844                Norilsk           162.500
        56   02 Jun 2027 07:25:55.946   02 Jun 2027 07:27:09.379            73.433              Murmansk1          4979.500
        57   02 Jun 2027 07:27:12.254   02 Jun 2027 07:27:52.360            40.106                Novosib          1437.500
        58   02 Jun 2027 08:57:04.915   02 Jun 2027 08:58:48.384           103.469                 Moscow          6686.000
        59   02 Jun 2027 08:58:51.871   02 Jun 2027 08:59:09.936            18.065                 Moscow          1743.500
        60   02 Jun 2027 08:59:17.797   02 Jun 2027 08:59:55.350            37.553                 Moscow          3930.500
        61   02 Jun 2027 09:00:02.230   02 Jun 2027 09:00:45.313            43.083              Murmansk2          3440.000
        62   02 Jun 2027 09:00:48.343   02 Jun 2027 09:01:13.393            25.050              Murmansk1          1515.000
        63   02 Jun 2027 09:01:19.893   02 Jun 2027 09:01:46.488            26.595                Norilsk          3250.000
        64   02 Jun 2027 09:01:50.026   02 Jun 2027 09:02:09.604            19.578                 Moscow          1769.000
        65   02 Jun 2027 09:02:17.622   02 Jun 2027 09:02:52.596            34.974                 Moscow          4009.000
        66   02 Jun 2027 09:02:55.156   02 Jun 2027 09:03:44.541            49.385              Murmansk2          1280.000
        67   02 Jun 2027 09:03:53.438   02 Jun 2027 09:04:41.513            48.075                Norilsk          4448.500
        68   03 Jun 2027 04:20:26.114   03 Jun 2027 04:20:43.148            17.034               Magadan1           825.500
        69   03 Jun 2027 04:20:45.025   03 Jun 2027 04:21:24.589            39.564                Novosib           938.500
        70   03 Jun 2027 04:21:41.742   03 Jun 2027 04:22:14.879            33.137                Norilsk          4142.125
        71   03 Jun 2027 04:22:19.876   03 Jun 2027 04:23:01.237            41.361                Irkutsk          5170.125
        72   03 Jun 2027 04:23:02.973   03 Jun 2027 04:23:50.208            47.235               Magadan2          2630.750
        73   03 Jun 2027 04:23:55.759   03 Jun 2027 04:24:39.744            43.985                Irkutsk          2775.500
        74   03 Jun 2027 04:24:46.961   03 Jun 2027 04:26:10.463            83.502                Novosib          3608.500
        75   03 Jun 2027 04:26:10.573   03 Jun 2027 04:26:14.266             3.693               Magadan2            55.000
        76   03 Jun 2027 04:26:17.302   03 Jun 2027 04:26:26.214             8.912                Novosib          1114.000
        77   03 Jun 2027 04:26:30.751   03 Jun 2027 04:26:54.187            23.436              Murmansk2          2672.500
        78   03 Jun 2027 04:26:58.032   03 Jun 2027 04:27:17.128            19.096                Norilsk          1922.500
        79   03 Jun 2027 04:27:29.131   03 Jun 2027 04:27:59.394            30.263                Norilsk          3782.875
        80   03 Jun 2027 04:28:01.351   03 Jun 2027 04:28:52.794            51.443                Novosib          2218.625
        81   03 Jun 2027 05:57:10.021   03 Jun 2027 05:57:23.008            12.987                Novosib           644.500
        82   03 Jun 2027 05:57:32.094   03 Jun 2027 05:58:37.136            65.042                Novosib          4543.000
        83   03 Jun 2027 05:59:06.697   03 Jun 2027 06:01:39.020           152.323                Irkutsk         14780.500
        84   03 Jun 2027 06:01:43.467   03 Jun 2027 06:02:15.248            31.781              Murmansk2          2223.500
        85   03 Jun 2027 06:02:17.886   03 Jun 2027 06:02:34.273            16.387              Murmansk1          1319.000
        86   03 Jun 2027 06:02:34.485   03 Jun 2027 06:02:38.711             4.226                Irkutsk           106.000
        87   03 Jun 2027 06:02:59.414   03 Jun 2027 06:04:20.328            80.914              Murmansk2          9403.000
        88   03 Jun 2027 07:35:04.522   03 Jun 2027 07:35:23.641            19.119                Novosib          1185.000
        89   03 Jun 2027 07:35:36.361   03 Jun 2027 07:36:27.268            50.907              Murmansk1          6360.000
        90   03 Jun 2027 07:36:32.367   03 Jun 2027 07:37:17.599            45.232                Novosib          2549.500
        91   03 Jun 2027 07:37:19.826   03 Jun 2027 07:37:36.185            16.359              Murmansk2          1113.500
        92   03 Jun 2027 07:37:44.013   03 Jun 2027 07:38:17.193            33.180              Murmansk2          3914.000
        93   03 Jun 2027 07:38:19.582   03 Jun 2027 07:39:02.480            42.898              Murmansk2          1194.500
        94   03 Jun 2027 07:39:15.127   03 Jun 2027 07:40:01.740            46.613                 Moscow          5826.625
        95   03 Jun 2027 07:40:06.241   03 Jun 2027 07:40:26.787            20.546                Norilsk           496.875
        96   03 Jun 2027 09:11:09.226   03 Jun 2027 09:12:03.707            54.481                 Moscow          4591.500
        97   03 Jun 2027 09:12:15.959   03 Jun 2027 09:13:13.698            57.739              Murmansk1          6126.000
        98   03 Jun 2027 09:13:25.771   03 Jun 2027 09:13:58.365            32.594                 Moscow          4074.250
        99   03 Jun 2027 09:14:08.031   03 Jun 2027 09:15:36.283            88.252              Murmansk1          6795.250
       100   04 Jun 2027 03:00:03.429   04 Jun 2027 03:00:41.410            37.981                Irkutsk          1714.500
       101   04 Jun 2027 03:00:46.481   04 Jun 2027 03:01:39.334            52.853                Novosib          2535.500
       102   04 Jun 2027 03:01:49.270   04 Jun 2027 03:03:10.915            81.645                Norilsk          4968.000
       103   04 Jun 2027 03:03:12.566   04 Jun 2027 03:03:38.637            26.071              Murmansk2           825.500
       104   04 Jun 2027 03:03:42.742   04 Jun 2027 03:04:01.691            18.949              Murmansk1          2052.500
       105   04 Jun 2027 04:32:53.822   04 Jun 2027 04:33:36.015            42.193                Novosib          5274.125
       106   04 Jun 2027 04:33:37.722   04 Jun 2027 04:34:18.668            40.946                Norilsk          5118.250
       107   04 Jun 2027 04:34:28.125   04 Jun 2027 04:35:16.143            48.018                Norilsk          5418.625
       108   04 Jun 2027 04:35:17.856   04 Jun 2027 04:35:26.642             8.786                Norilsk           856.500
       109   04 Jun 2027 04:35:41.251   04 Jun 2027 04:37:05.709            84.458                Norilsk          7304.500
       110   04 Jun 2027 04:37:11.133   04 Jun 2027 04:37:28.238            17.105               Magadan1          2138.125
       111   04 Jun 2027 04:37:29.787   04 Jun 2027 04:38:08.716            38.929              Murmansk1          1348.375
       112   04 Jun 2027 04:38:17.940   04 Jun 2027 04:39:11.505            53.565                Irkutsk          4612.000
       113   04 Jun 2027 04:39:15.930   04 Jun 2027 04:39:20.273             4.343                Novosib           542.875
       114   04 Jun 2027 04:39:27.255   04 Jun 2027 04:40:05.490            38.235                Norilsk          4779.375
       115   04 Jun 2027 04:40:23.143   04 Jun 2027 04:41:04.678            41.535              Murmansk2           381.250
       116   04 Jun 2027 06:10:20.039   04 Jun 2027 06:12:34.700           134.661                Norilsk         16284.000
       117   04 Jun 2027 06:12:38.530   04 Jun 2027 06:13:17.734            39.204                Norilsk          1915.000
       118   04 Jun 2027 06:13:19.343   04 Jun 2027 06:13:39.949            20.606              Murmansk1           804.500
       119   04 Jun 2027 06:13:51.949   04 Jun 2027 06:14:51.574            59.625              Murmansk2          6000.000
       120   04 Jun 2027 06:14:52.545   04 Jun 2027 06:15:17.746            25.201                Norilsk           485.500
       121   04 Jun 2027 06:15:20.147   04 Jun 2027 06:15:47.753            27.606              Murmansk2          1200.500
       122   04 Jun 2027 07:46:30.869   04 Jun 2027 07:47:06.665            35.796                 Moscow          1404.000
       123   04 Jun 2027 07:47:09.535   04 Jun 2027 07:47:32.102            22.567              Murmansk1          1435.000
       124   04 Jun 2027 07:47:35.581   04 Jun 2027 07:47:50.717            15.136                Norilsk          1739.500
       125   04 Jun 2027 07:47:52.817   04 Jun 2027 07:48:28.076            35.259              Murmansk2          1050.000
       126   04 Jun 2027 07:48:29.842   04 Jun 2027 07:48:48.150            18.308                Novosib           883.000
       127   04 Jun 2027 07:48:49.614   04 Jun 2027 07:49:07.114            17.500              Murmansk2           732.000
       128   04 Jun 2027 07:49:16.124   04 Jun 2027 07:50:06.056            49.932                Norilsk          4505.000
       129   04 Jun 2027 07:50:10.054   04 Jun 2027 07:50:29.439            19.385                Norilsk          1999.000
       130   04 Jun 2027 07:50:34.344   04 Jun 2027 07:51:17.754            43.410                Novosib          2452.500
       131   04 Jun 2027 07:51:28.534   04 Jun 2027 07:52:08.376            39.842                Novosib          1395.000
       132   04 Jun 2027 09:22:01.602   04 Jun 2027 09:22:58.414            56.812              Murmansk2          6851.000
       133   04 Jun 2027 09:23:41.306   04 Jun 2027 09:24:48.395            67.089              Murmansk2          7435.000
       134   04 Jun 2027 09:24:51.330   04 Jun 2027 09:25:03.212            11.882              Murmansk2          1467.500
       135   04 Jun 2027 09:25:04.185   04 Jun 2027 09:25:56.527            52.342                 Moscow           486.500
       136   04 Jun 2027 09:26:10.393   04 Jun 2027 09:27:29.020            78.627              Murmansk1          6933.000
       137   05 Jun 2027 03:06:17.831   05 Jun 2027 03:06:46.349            28.518               Magadan1          3564.750
       138   05 Jun 2027 03:06:46.349   05 Jun 2027 03:06:58.397            12.048               Magadan2           950.250
       139   05 Jun 2027 03:08:06.141   05 Jun 2027 03:08:49.841            43.700               Magadan2          5462.500
       140   05 Jun 2027 03:08:49.841   05 Jun 2027 03:09:29.617            39.776               Magadan1          2400.500
       141   05 Jun 2027 03:09:33.427   05 Jun 2027 03:10:27.888            54.461                Irkutsk          1905.000
       142   05 Jun 2027 03:10:29.461   05 Jun 2027 03:11:22.641            53.180                Norilsk           786.500
       143   05 Jun 2027 03:11:24.768   05 Jun 2027 03:12:10.249            45.481                Novosib          1063.500
       144   05 Jun 2027 03:12:15.929   05 Jun 2027 03:13:24.464            68.535                Novosib          2840.000
       145   05 Jun 2027 03:13:31.310   05 Jun 2027 03:14:05.005            33.695                Norilsk          3423.000
       146   05 Jun 2027 03:14:14.875   05 Jun 2027 03:14:55.567            40.692                Irkutsk          4935.000
       147   05 Jun 2027 03:15:01.840   05 Jun 2027 03:15:43.557            41.717              Murmansk2          3136.500
       148   05 Jun 2027 03:15:53.361   05 Jun 2027 03:16:32.156            38.795              Murmansk1          4175.500
       149   05 Jun 2027 04:44:59.325   05 Jun 2027 04:45:04.900             5.575                Novosib           696.875
       150   05 Jun 2027 04:45:07.841   05 Jun 2027 04:45:32.603            24.762                Norilsk          1645.125
       151   05 Jun 2027 04:45:34.232   05 Jun 2027 04:46:36.466            62.234                Novosib           814.500
       152   05 Jun 2027 04:46:48.595   05 Jun 2027 04:47:43.074            54.479                Novosib          6064.500
       153   05 Jun 2027 04:48:13.357   05 Jun 2027 04:49:55.181           101.824                Norilsk         12728.000
       154   05 Jun 2027 04:49:59.126   05 Jun 2027 04:50:27.400            28.274                Irkutsk          3534.250
       155   05 Jun 2027 04:50:32.017   05 Jun 2027 04:51:08.415            36.398              Murmansk2          3160.250
       156   05 Jun 2027 04:51:24.151   05 Jun 2027 04:52:02.465            38.314                Norilsk          4789.250
       157   05 Jun 2027 04:52:10.298   05 Jun 2027 04:53:13.945            63.647                Novosib          3078.750
       158   05 Jun 2027 06:22:04.171   05 Jun 2027 06:22:15.639            11.468                  Delhi          1433.500
       159   05 Jun 2027 06:22:45.779   05 Jun 2027 06:25:24.471           158.692                 Moscow         18010.500
       160   05 Jun 2027 06:25:32.095   05 Jun 2027 06:26:12.704            40.609                Irkutsk          3812.000
       161   05 Jun 2027 06:26:17.183   05 Jun 2027 06:26:42.778            25.595              Murmansk2          2239.500
       162   05 Jun 2027 06:26:44.370   05 Jun 2027 06:26:59.057            14.687                Novosib           796.000
       163   05 Jun 2027 07:58:53.691   05 Jun 2027 07:59:37.455            43.764                Norilsk          5455.500
       164   05 Jun 2027 07:59:49.176   05 Jun 2027 08:00:39.874            50.698                Norilsk          5860.500
       165   05 Jun 2027 08:00:54.281   05 Jun 2027 08:01:31.627            37.346              Murmansk1          4668.250
       166   05 Jun 2027 08:01:36.973   05 Jun 2027 08:01:57.979            21.006                 Moscow          2625.750
       167   05 Jun 2027 08:02:06.496   05 Jun 2027 08:02:34.178            27.682                Norilsk          3460.250
       168   05 Jun 2027 08:02:44.746   05 Jun 2027 08:03:35.354            50.608                Novosib          6326.000
       169   05 Jun 2027 08:03:45.137   05 Jun 2027 08:04:12.972            27.835                 Moscow          2338.750
       170   05 Jun 2027 09:36:55.283   05 Jun 2027 09:37:15.082            19.799              Murmansk2          1059.500
       171   05 Jun 2027 09:37:23.842   05 Jun 2027 09:38:17.315            53.473                 Moscow          4380.000
       172   06 Jun 2027 03:21:06.583   06 Jun 2027 03:21:29.676            23.093               Magadan1          1999.500
       173   06 Jun 2027 03:21:40.344   06 Jun 2027 03:22:39.971            59.627                Irkutsk          5334.000
       174   06 Jun 2027 03:22:42.061   06 Jun 2027 03:23:08.545            26.484               Magadan1          1045.000
       175   06 Jun 2027 03:23:22.455   06 Jun 2027 03:24:29.247            66.792                Novosib          6955.000
       176   06 Jun 2027 03:24:35.337   06 Jun 2027 03:25:14.967            39.630               Magadan1          3045.000
       177   06 Jun 2027 03:25:20.433   06 Jun 2027 03:25:30.212             9.779               Magadan1          1222.375
       178   06 Jun 2027 03:25:35.592   06 Jun 2027 03:26:15.411            39.819               Magadan2          4200.625
       179   06 Jun 2027 03:26:18.299   06 Jun 2027 03:26:57.870            39.571                Norilsk          1444.000
       180   06 Jun 2027 03:27:02.054   06 Jun 2027 03:27:43.514            41.460               Magadan2          2092.000
       181   06 Jun 2027 03:27:46.734   06 Jun 2027 03:28:09.861            23.127                Norilsk          1610.000
       182   06 Jun 2027 04:57:26.450   06 Jun 2027 04:58:07.082            40.632                Norilsk          1678.500
       183   06 Jun 2027 04:58:07.849   06 Jun 2027 04:58:42.628            34.779                Novosib           383.500
       184   06 Jun 2027 04:58:57.309   06 Jun 2027 05:00:41.101           103.792                Irkutsk          7340.500
       185   06 Jun 2027 05:00:47.621   06 Jun 2027 05:01:22.006            34.385                Norilsk          3260.000
       186   06 Jun 2027 05:01:22.135   06 Jun 2027 05:02:15.597            53.462                Novosib            64.500
       187   06 Jun 2027 05:02:20.087   06 Jun 2027 05:02:35.998            15.911              Murmansk1          1988.875
       188   06 Jun 2027 05:02:42.552   06 Jun 2027 05:03:17.265            34.713                Irkutsk          3533.125
       189   06 Jun 2027 05:03:35.336   06 Jun 2027 05:04:48.559            73.223              Murmansk1          9035.500
       190   06 Jun 2027 06:34:58.631   06 Jun 2027 06:35:12.487            13.856              Murmansk1           739.000
       191   06 Jun 2027 06:35:12.815   06 Jun 2027 06:35:17.104             4.289                Norilsk           164.000
       192   06 Jun 2027 06:35:19.887   06 Jun 2027 06:35:39.607            19.720                Norilsk          1391.500
       193   06 Jun 2027 06:35:39.634   06 Jun 2027 06:35:49.875            10.241                Norilsk            13.500
       194   06 Jun 2027 06:35:53.644   06 Jun 2027 06:36:49.258            55.614                Irkutsk          1884.500
       195   06 Jun 2027 06:36:58.904   06 Jun 2027 06:37:53.182            54.278                 Moscow          4823.000
       196   06 Jun 2027 06:37:53.522   06 Jun 2027 06:37:59.698             6.176                Irkutsk           170.000
       197   06 Jun 2027 06:38:03.522   06 Jun 2027 06:38:30.115            26.593                Norilsk          1912.000
       198   06 Jun 2027 06:38:31.719   06 Jun 2027 06:38:49.314            17.595                Novosib           802.000
       199   06 Jun 2027 06:39:00.872   06 Jun 2027 06:39:31.621            30.749                Norilsk          3843.625
       200   06 Jun 2027 06:39:35.607   06 Jun 2027 06:39:53.665            18.058                 Moscow          1935.375
       201   06 Jun 2027 08:11:13.685   06 Jun 2027 08:11:51.291            37.606                Norilsk          4700.750
       202   06 Jun 2027 08:12:10.545   06 Jun 2027 08:13:48.540            97.995                Norilsk         11516.250
       203   06 Jun 2027 08:13:51.479   06 Jun 2027 08:14:46.146            54.667              Murmansk1          1469.500
       204   06 Jun 2027 08:14:47.275   06 Jun 2027 08:15:27.873            40.598                Norilsk           564.500
       205   07 Jun 2027 03:33:19.266   07 Jun 2027 03:34:01.941            42.675               Magadan2          2349.000
       206   07 Jun 2027 03:34:03.325   07 Jun 2027 03:34:20.594            17.269               Magadan1           692.000
       207   07 Jun 2027 03:34:21.453   07 Jun 2027 03:34:44.845            23.392               Magadan1           429.500
       208   07 Jun 2027 03:34:49.403   07 Jun 2027 03:35:00.596            11.193                Novosib          1399.125
       209   07 Jun 2027 03:35:03.860   07 Jun 2027 03:35:33.285            29.425                Irkutsk          2511.875
       210   07 Jun 2027 03:35:42.028   07 Jun 2027 03:36:23.676            41.648                Novosib          4371.500
       211   07 Jun 2027 03:36:25.682   07 Jun 2027 03:36:34.907             9.225                Novosib          1003.000
       212   07 Jun 2027 03:36:37.445   07 Jun 2027 03:36:55.680            18.235               Magadan1          1269.000
       213   07 Jun 2027 03:37:01.407   07 Jun 2027 03:37:41.666            40.259               Magadan1          2863.500
       214   07 Jun 2027 03:37:47.914   07 Jun 2027 03:38:42.700            54.786               Magadan1          3124.000
       215   07 Jun 2027 03:38:42.993   07 Jun 2027 03:39:36.192            53.199               Magadan2           146.500
       216   07 Jun 2027 03:39:36.594   07 Jun 2027 03:39:43.752             7.158              Murmansk2           201.000
       217   07 Jun 2027 03:39:57.903   07 Jun 2027 03:40:34.676            36.773                Norilsk          3300.000
       218   07 Jun 2027 05:10:03.489   07 Jun 2027 05:11:55.671           112.182                Irkutsk         14022.750
       219   07 Jun 2027 05:12:14.834   07 Jun 2027 05:13:34.808            79.974                Norilsk          9996.750
       220   07 Jun 2027 05:13:40.138   07 Jun 2027 05:14:05.322            25.184                Novosib          3148.000
       221   07 Jun 2027 05:14:07.743   07 Jun 2027 05:14:25.717            17.974              Murmansk1          1618.500
       222   07 Jun 2027 05:14:28.563   07 Jun 2027 05:15:21.908            53.345              Murmansk2          1423.000
       223   07 Jun 2027 05:15:27.747   07 Jun 2027 05:15:35.469             7.722              Murmansk1           730.000
       224   07 Jun 2027 05:15:59.786   07 Jun 2027 05:16:29.392            29.606              Murmansk2          1060.500
       225   07 Jun 2027 06:47:03.594   07 Jun 2027 06:47:54.607            51.013                Irkutsk          1161.000
       226   07 Jun 2027 06:48:01.439   07 Jun 2027 06:48:36.034            34.595                 Moscow          3416.000
       227   07 Jun 2027 06:48:39.160   07 Jun 2027 06:49:19.593            40.433                Novosib          1563.000
       228   07 Jun 2027 06:49:19.954   07 Jun 2027 06:50:02.366            42.412                Novosib           180.500
       229   07 Jun 2027 06:50:03.967   07 Jun 2027 06:50:29.025            25.058                Novosib           800.500
       230   07 Jun 2027 06:50:32.032   07 Jun 2027 06:50:53.412            21.380                Norilsk          1503.500
       231   07 Jun 2027 06:50:54.113   07 Jun 2027 06:51:41.273            47.160              Murmansk1           350.500
       232   07 Jun 2027 08:23:14.627   07 Jun 2027 08:24:14.016            59.389                Novosib          4985.500
       233   07 Jun 2027 08:24:17.002   07 Jun 2027 08:24:56.327            39.325              Murmansk1          1493.000
       234   07 Jun 2027 08:24:58.284   07 Jun 2027 08:25:28.998            30.714              Murmansk2           978.500
       235   07 Jun 2027 08:25:35.526   07 Jun 2027 08:26:06.519            30.993                Novosib          3264.000
       236   07 Jun 2027 08:26:20.045   07 Jun 2027 08:27:09.359            49.314                 Moscow          6164.250
       237   07 Jun 2027 08:27:11.081   07 Jun 2027 08:27:27.668            16.587                Norilsk          1459.750
       238   07 Jun 2027 08:27:29.601   07 Jun 2027 08:27:43.363            13.762              Murmansk1           966.500
       239   07 Jun 2027 08:27:47.027   07 Jun 2027 08:27:57.338            10.311                Novosib          1288.875
       240   07 Jun 2027 08:28:00.652   07 Jun 2027 08:28:02.436             1.784                 Moscow           223.000
       241   07 Jun 2027 08:28:09.156   07 Jun 2027 08:28:13.051             3.895                Norilsk           442.625
       242   08 Jun 2027 03:44:45.645   08 Jun 2027 03:45:33.542            47.897                Novosib          1076.000
       243   08 Jun 2027 03:45:35.743   08 Jun 2027 03:45:41.421             5.678               Magadan2           709.750
       244   08 Jun 2027 03:45:41.421   08 Jun 2027 03:46:01.547            20.126               Magadan1           390.750
       245   08 Jun 2027 03:46:04.217   08 Jun 2027 03:46:33.910            29.693                Norilsk          1335.000
       246   08 Jun 2027 03:46:47.681   08 Jun 2027 03:48:12.950            85.269               Magadan2          6885.500
       247   08 Jun 2027 03:48:13.825   08 Jun 2027 03:48:21.885             8.060                Norilsk           437.500
       248   08 Jun 2027 03:48:29.397   08 Jun 2027 03:49:25.621            56.224                Novosib          3756.000
       249   08 Jun 2027 03:49:32.605   08 Jun 2027 03:50:12.019            39.414               Magadan1          3492.000
       250   08 Jun 2027 03:50:14.662   08 Jun 2027 03:50:28.679            14.017              Murmansk2          1321.500
       251   08 Jun 2027 03:50:43.347   08 Jun 2027 03:51:26.451            43.104               Magadan1          5388.000
       252   08 Jun 2027 03:51:32.159   08 Jun 2027 03:52:12.584            40.425              Murmansk2          4800.000
       253   08 Jun 2027 05:21:35.613   08 Jun 2027 05:22:56.950            81.337                Novosib         10167.125
       254   08 Jun 2027 05:23:02.421   08 Jun 2027 05:24:23.734            81.313                Novosib          3350.875
       255   08 Jun 2027 05:24:27.621   08 Jun 2027 05:25:02.720            35.099              Murmansk2          1943.500
       256   08 Jun 2027 05:25:18.952   08 Jun 2027 05:26:27.488            68.536              Murmansk2          8116.000
       257   08 Jun 2027 05:26:30.132   08 Jun 2027 05:27:16.996            46.864              Murmansk2          1322.000
       258   08 Jun 2027 05:27:32.187   08 Jun 2027 05:29:24.061           111.874              Murmansk2          7595.500
       259   08 Jun 2027 06:59:42.850   08 Jun 2027 07:00:17.606            34.756                Norilsk          4344.500
       260   08 Jun 2027 07:00:29.468   08 Jun 2027 07:01:23.481            54.013                Novosib          6751.625
       261   08 Jun 2027 07:01:31.493   08 Jun 2027 07:02:01.500            30.007                Norilsk          3750.875
       262   08 Jun 2027 07:02:01.917   08 Jun 2027 07:02:11.568             9.651              Murmansk1           567.000
       263   08 Jun 2027 07:02:17.142   08 Jun 2027 07:02:49.125            31.983                 Moscow          2787.000
       264   08 Jun 2027 07:02:54.027   08 Jun 2027 07:03:21.587            27.560                Norilsk          2451.000
       265   08 Jun 2027 08:35:07.887   08 Jun 2027 08:36:05.004            57.117              Murmansk2          5243.000
       266   08 Jun 2027 08:36:09.911   08 Jun 2027 08:36:34.019            24.108                 Moscow          2453.500
       267   08 Jun 2027 08:36:39.725   08 Jun 2027 08:38:13.669            93.944                 Moscow          2853.000
       268   08 Jun 2027 08:38:16.724   08 Jun 2027 08:38:32.753            16.029                 Moscow          1527.500
       269   08 Jun 2027 08:38:38.620   08 Jun 2027 08:39:16.899            38.279              Murmansk1          2933.500
       270   08 Jun 2027 08:39:24.945   08 Jun 2027 08:39:28.645             3.700                Novosib           462.500
       271   08 Jun 2027 08:39:31.833   08 Jun 2027 08:40:08.317            36.484              Murmansk2          2918.500
       272   08 Jun 2027 08:40:13.918   08 Jun 2027 08:40:52.666            38.748                Norilsk          2800.500
       273   09 Jun 2027 03:56:48.575   09 Jun 2027 03:58:34.919           106.344                Norilsk         10306.500
       274   09 Jun 2027 03:58:38.156   09 Jun 2027 03:58:41.194             3.038                Novosib           379.750
       275   09 Jun 2027 03:58:43.487   09 Jun 2027 03:59:06.572            23.085                Irkutsk          2385.250
       276   09 Jun 2027 03:59:11.688   09 Jun 2027 03:59:29.574            17.886                Norilsk          2235.750
       277   09 Jun 2027 03:59:39.040   09 Jun 2027 03:59:57.389            18.349                Norilsk          2293.625
       278   09 Jun 2027 04:00:03.907   09 Jun 2027 04:01:12.982            69.075                Novosib          6020.625
       279   09 Jun 2027 04:01:14.446   09 Jun 2027 04:01:35.567            21.121                Norilsk           732.000
       280   09 Jun 2027 04:01:39.096   09 Jun 2027 04:02:36.276            57.180                Irkutsk          1764.500
       281   09 Jun 2027 04:02:44.739   09 Jun 2027 04:03:13.347            28.608               Magadan1          3576.000
       282   09 Jun 2027 04:03:28.130   09 Jun 2027 04:04:35.186            67.056              Murmansk2          8047.000
       283   09 Jun 2027 05:33:52.130   09 Jun 2027 05:35:00.471            68.341                Novosib          8542.625
       284   09 Jun 2027 05:35:05.371   09 Jun 2027 05:36:43.077            97.706                Novosib          2982.375
       285   09 Jun 2027 05:36:44.510   09 Jun 2027 05:36:53.794             9.284              Murmansk2           716.500
       286   09 Jun 2027 05:36:53.986   09 Jun 2027 05:36:59.594             5.608                Novosib            96.000
       287   09 Jun 2027 05:37:02.892   09 Jun 2027 05:37:23.826            20.934                Novosib          1649.000
       288   09 Jun 2027 05:37:42.255   09 Jun 2027 05:39:06.892            84.637              Murmansk2          9214.500
       289   09 Jun 2027 05:39:18.227   09 Jun 2027 05:40:18.801            60.574                Novosib          5667.500
       290   09 Jun 2027 07:11:38.896   09 Jun 2027 07:12:36.935            58.039                Norilsk          4685.000
       291   09 Jun 2027 07:12:40.791   09 Jun 2027 07:13:02.304            21.513                Irkutsk          1928.000
       292   09 Jun 2027 07:13:04.028   09 Jun 2027 07:13:12.138             8.110              Murmansk1           862.000
       293   09 Jun 2027 07:13:23.018   09 Jun 2027 07:14:40.513            77.495                Norilsk          5440.000
       294   09 Jun 2027 07:14:41.853   09 Jun 2027 07:15:31.640            49.787              Murmansk2           670.000
       295   09 Jun 2027 08:45:02.793   09 Jun 2027 08:46:59.509           116.716                 Moscow         13686.500
       296   09 Jun 2027 08:47:15.886   09 Jun 2027 08:48:29.751            73.865                Novosib          8188.500
       297   09 Jun 2027 08:48:38.867   09 Jun 2027 08:49:52.700            73.833                Norilsk          4558.000
       298   09 Jun 2027 08:49:57.758   09 Jun 2027 08:50:36.890            39.132                Norilsk          2529.000
       299   09 Jun 2027 08:50:41.723   09 Jun 2027 08:51:04.092            22.369              Murmansk2          2416.500
       300   09 Jun 2027 08:51:39.136   09 Jun 2027 08:51:49.564            10.428                 Moscow          1015.000
       301   09 Jun 2027 08:52:05.601   09 Jun 2027 08:53:29.760            84.159                Norilsk          8018.500
       302   10 Jun 2027 04:08:56.957   10 Jun 2027 04:09:51.244            54.287               Magadan2          5927.500
       303   10 Jun 2027 04:09:53.429   10 Jun 2027 04:10:05.430            12.001               Magadan2          1092.500
       304   10 Jun 2027 04:10:35.633   10 Jun 2027 04:12:52.061           136.428                Norilsk         15101.500
       305   10 Jun 2027 04:12:55.757   10 Jun 2027 04:13:17.965            22.208                Novosib          1848.000
       306   10 Jun 2027 04:13:23.287   10 Jun 2027 04:14:03.676            40.389               Magadan1          2661.000
       307   10 Jun 2027 04:14:04.367   10 Jun 2027 04:14:23.311            18.944              Murmansk2           345.500
       308   10 Jun 2027 04:14:32.558   10 Jun 2027 04:15:18.900            46.342              Murmansk1          4623.500
       309   10 Jun 2027 04:15:19.474   10 Jun 2027 04:15:29.432             9.958                Irkutsk           287.000
       310   10 Jun 2027 04:15:37.015   10 Jun 2027 04:15:47.634            10.619                Norilsk          1327.375
       311   10 Jun 2027 04:15:56.975   10 Jun 2027 04:16:27.467            30.492                Novosib          3811.500
       312   10 Jun 2027 04:16:36.769   10 Jun 2027 04:17:28.034            51.265              Murmansk2          3323.125
       313   10 Jun 2027 05:45:30.004   10 Jun 2027 05:46:00.267            30.263                Novosib            34.000
       314   10 Jun 2027 05:46:06.842   10 Jun 2027 05:46:44.104            37.262                Norilsk          3287.500
       315   10 Jun 2027 05:47:14.907   10 Jun 2027 05:49:24.376           129.469                Novosib         15401.500
       316   10 Jun 2027 05:49:26.288   10 Jun 2027 05:49:36.869            10.581                 Moscow           956.000
       317   10 Jun 2027 05:49:41.661   10 Jun 2027 05:50:02.288            20.627                 Moscow          2396.000
       318   10 Jun 2027 05:50:07.733   10 Jun 2027 05:50:33.908            26.175              Murmansk2          2722.500
       319   10 Jun 2027 05:50:35.626   10 Jun 2027 05:51:12.289            36.663                 Moscow           859.000
       320   10 Jun 2027 05:51:19.823   10 Jun 2027 05:51:59.670            39.847                 Moscow          3767.000
       321   10 Jun 2027 05:52:03.267   10 Jun 2027 05:52:28.646            25.379                 Moscow          1798.500
       322   10 Jun 2027 07:23:33.951   10 Jun 2027 07:24:10.886            36.935                Norilsk          2600.500
       323   10 Jun 2027 07:24:13.425   10 Jun 2027 07:25:01.691            48.266                 Moscow          1269.500
       324   10 Jun 2027 07:25:04.363   10 Jun 2027 07:25:23.859            19.496              Murmansk1          1336.000
       325   10 Jun 2027 07:25:29.834   10 Jun 2027 07:26:20.023            50.189                Novosib          2987.500
       326   10 Jun 2027 07:26:22.718   10 Jun 2027 07:26:37.608            14.890                Novosib          1347.500
       327   10 Jun 2027 07:26:38.284   10 Jun 2027 07:27:56.724            78.440                 Moscow           338.000
       328   10 Jun 2027 08:57:14.695   10 Jun 2027 08:57:30.924            16.229                 Moscow          2028.625
       329   10 Jun 2027 08:57:38.665   10 Jun 2027 08:58:34.826            56.161              Murmansk2          6028.375
       330   10 Jun 2027 08:58:51.263   10 Jun 2027 09:00:16.781            85.518              Murmansk2          8218.500
       331   10 Jun 2027 09:00:25.275   10 Jun 2027 09:01:00.044            34.769              Murmansk1          4247.000
       332   10 Jun 2027 09:01:03.368   10 Jun 2027 09:01:28.014            24.646              Murmansk1          1662.000
       333   10 Jun 2027 09:01:54.383   10 Jun 2027 09:03:05.134            70.751                Norilsk          8843.875
       334   10 Jun 2027 09:03:07.724   10 Jun 2027 09:04:54.403           106.679                 Moscow          5635.625
       335   11 Jun 2027 04:20:41.791   11 Jun 2027 04:20:59.610            17.819               Magadan1          1287.000
       336   11 Jun 2027 04:21:08.819   11 Jun 2027 04:22:11.809            62.990                Irkutsk          4604.500
       337   11 Jun 2027 04:22:30.789   11 Jun 2027 04:23:16.054            45.265                Irkutsk          5658.125
       338   11 Jun 2027 04:23:18.108   11 Jun 2027 04:24:05.143            47.035               Magadan1          4858.875
       339   11 Jun 2027 04:24:09.945   11 Jun 2027 04:24:54.393            44.448                Irkutsk          2401.000
       340   11 Jun 2027 04:25:04.413   11 Jun 2027 04:26:25.389            80.976                Novosib          5010.000
       341   11 Jun 2027 04:26:25.413   11 Jun 2027 04:26:28.518             3.105               Magadan1            12.000
       342   11 Jun 2027 04:26:31.521   11 Jun 2027 04:26:44.125            12.604                Novosib          1501.500
       343   11 Jun 2027 04:26:45.318   11 Jun 2027 04:27:08.850            23.532              Murmansk1           596.500
       344   11 Jun 2027 04:27:33.166   11 Jun 2027 04:29:26.485           113.319                Norilsk         12158.000
       345   11 Jun 2027 05:57:36.123   11 Jun 2027 05:58:39.317            63.194                Norilsk          6149.000
       346   11 Jun 2027 05:58:40.450   11 Jun 2027 05:59:21.319            40.869                Irkutsk           566.500
       347   11 Jun 2027 05:59:25.946   11 Jun 2027 06:00:28.335            62.389                Novosib          2313.500
       348   11 Jun 2027 06:00:33.458   11 Jun 2027 06:01:16.006            42.548              Murmansk1          2561.500
       349   11 Jun 2027 06:01:16.478   11 Jun 2027 06:01:37.526            21.048              Murmansk1           236.000
       350   11 Jun 2027 06:01:53.391   11 Jun 2027 06:02:43.815            50.424                Norilsk          6303.000
       351   11 Jun 2027 06:02:47.142   11 Jun 2027 06:03:41.639            54.497                Irkutsk          3293.000
       352   11 Jun 2027 06:03:42.886   11 Jun 2027 06:03:59.324            16.438                Norilsk           623.500
       353   11 Jun 2027 06:04:00.644   11 Jun 2027 06:04:10.715            10.071                 Moscow           660.000
       354   11 Jun 2027 07:35:20.397   11 Jun 2027 07:35:38.198            17.801                Novosib          1828.000
       355   11 Jun 2027 07:35:52.143   11 Jun 2027 07:36:12.534            20.391              Murmansk2          2548.875
       356   11 Jun 2027 07:36:12.534   11 Jun 2027 07:36:55.839            43.305              Murmansk1          4423.625
       357   11 Jun 2027 07:37:00.231   11 Jun 2027 07:37:40.876            40.645                Norilsk          2196.000
       358   11 Jun 2027 07:37:50.766   11 Jun 2027 07:38:34.366            43.600              Murmansk1          4945.000
       359   11 Jun 2027 07:38:35.278   11 Jun 2027 07:39:17.114            41.836              Murmansk2           456.000
       360   11 Jun 2027 07:39:29.156   11 Jun 2027 07:40:19.685            50.529                 Moscow          6021.000
       361   11 Jun 2027 09:11:17.378   11 Jun 2027 09:12:16.773            59.395                 Moscow          1282.500
       362   11 Jun 2027 09:12:31.016   11 Jun 2027 09:13:28.321            57.305              Murmansk1          7121.500
       363   11 Jun 2027 09:13:40.119   11 Jun 2027 09:14:13.171            33.052                 Moscow          4131.500
       364   11 Jun 2027 09:14:24.528   11 Jun 2027 09:15:50.825            86.297              Murmansk2          7446.000
       365   12 Jun 2027 03:00:01.442   12 Jun 2027 03:00:36.604            35.162                Anadyr1           721.000
       366   12 Jun 2027 03:00:36.768   12 Jun 2027 03:01:26.259            49.491                Anadyr1            82.000
       367   12 Jun 2027 03:01:29.557   12 Jun 2027 03:01:49.634            20.077                Norilsk          1649.000
       368   12 Jun 2027 03:01:57.458   12 Jun 2027 03:02:31.774            34.316                Novosib          3912.000
       369   12 Jun 2027 03:02:37.866   12 Jun 2027 03:03:13.456            35.590                Anadyr1          3046.000
       370   12 Jun 2027 03:03:15.660   12 Jun 2027 03:03:39.863            24.203               Magadan1          1102.000
       371   12 Jun 2027 03:03:53.831   12 Jun 2027 03:04:49.867            56.036              Murmansk1          6984.000
       372   12 Jun 2027 04:33:11.538   12 Jun 2027 04:34:49.015            97.477                Novosib         11410.000
       373   12 Jun 2027 04:34:58.936   12 Jun 2027 04:35:47.113            48.177               Magadan1          4960.500
       374   12 Jun 2027 04:35:56.320   12 Jun 2027 04:36:51.160            54.840               Magadan1          4603.500
       375   12 Jun 2027 04:36:54.416   12 Jun 2027 04:37:20.375            25.959                Norilsk          1628.000
       376   12 Jun 2027 04:37:25.986   12 Jun 2027 04:37:42.013            16.027               Magadan2          2003.375
       377   12 Jun 2027 04:37:43.499   12 Jun 2027 04:38:36.104            52.605              Murmansk2          1545.125
       378   12 Jun 2027 04:38:36.592   12 Jun 2027 04:38:43.930             7.338              Murmansk1           244.000
       379   12 Jun 2027 04:38:49.339   12 Jun 2027 04:39:53.155            63.816              Murmansk1          2704.500
       380   12 Jun 2027 04:40:17.651   12 Jun 2027 04:41:19.700            62.049              Murmansk1          5362.500
       381   12 Jun 2027 06:10:34.277   12 Jun 2027 06:12:42.103           127.826                Novosib         15871.500
       382   12 Jun 2027 06:12:49.417   12 Jun 2027 06:13:34.440            45.023                Norilsk          3657.000
       383   12 Jun 2027 06:13:38.319   12 Jun 2027 06:14:21.895            43.576                Irkutsk          1939.500
       384   12 Jun 2027 06:14:32.965   12 Jun 2027 06:15:34.807            61.842              Murmansk1          5066.000
       385   12 Jun 2027 06:15:35.394   12 Jun 2027 06:15:54.974            19.580                Novosib           293.500
       386   12 Jun 2027 07:46:48.221   12 Jun 2027 07:47:13.932            25.711                Norilsk          2614.500
       387   12 Jun 2027 07:47:18.529   12 Jun 2027 07:48:13.285            54.756                Novosib          2298.500
       388   12 Jun 2027 07:48:23.930   12 Jun 2027 07:48:41.639            17.709                 Moscow          2213.625
       389   12 Jun 2027 07:48:44.443   12 Jun 2027 07:49:34.180            49.737                Novosib          4510.875
       390   12 Jun 2027 07:49:47.500   12 Jun 2027 07:51:10.963            83.463              Murmansk2          6660.000
       391   12 Jun 2027 07:51:27.105   12 Jun 2027 07:52:35.622            68.517              Murmansk1          8071.000
       392   12 Jun 2027 09:22:16.172   12 Jun 2027 09:23:14.450            58.278              Murmansk2          6785.500
       393   12 Jun 2027 09:23:55.877   12 Jun 2027 09:25:03.128            67.251              Murmansk1          6864.000
       394   12 Jun 2027 09:25:06.351   12 Jun 2027 09:25:19.307            12.956              Murmansk1          1611.500
       395   12 Jun 2027 09:25:22.351   12 Jun 2027 09:26:11.322            48.971                 Moscow          1522.000
       396   12 Jun 2027 09:26:12.533   12 Jun 2027 09:26:24.791            12.258              Murmansk1           605.500
       397   12 Jun 2027 09:26:26.258   12 Jun 2027 09:26:51.845            25.587              Murmansk1           733.500
       398   13 Jun 2027 03:06:32.492   13 Jun 2027 03:07:13.021            40.529               Magadan1          4100.000
       399   13 Jun 2027 03:08:21.988   13 Jun 2027 03:09:44.544            82.556               Magadan1          8315.500
       400   13 Jun 2027 03:09:47.331   13 Jun 2027 03:10:42.693            55.362                Irkutsk          1393.500
       401   13 Jun 2027 03:10:47.341   13 Jun 2027 03:11:06.820            19.479               Magadan2          2324.000
       402   13 Jun 2027 03:11:15.306   13 Jun 2027 03:11:59.456            44.150                Anadyr2          4243.000
       403   13 Jun 2027 03:12:01.668   13 Jun 2027 03:12:35.807            34.139                Anadyr2          1106.000
       404   13 Jun 2027 03:12:37.136   13 Jun 2027 03:13:10.817            33.681                Norilsk           664.500
       405   13 Jun 2027 03:13:14.589   13 Jun 2027 03:13:27.366            12.777               Magadan2          1597.125
       406   13 Jun 2027 03:13:36.273   13 Jun 2027 03:14:35.201            58.928               Magadan1          4742.375
       407   13 Jun 2027 03:14:47.349   13 Jun 2027 03:16:03.657            76.308               Magadan1          6074.000
       408   13 Jun 2027 03:16:07.887   13 Jun 2027 03:16:22.903            15.016              Murmansk1          1447.500
       409   13 Jun 2027 04:45:13.513   13 Jun 2027 04:45:19.931             6.418                Novosib           612.500
       410   13 Jun 2027 04:45:21.303   13 Jun 2027 04:45:49.797            28.494                Norilsk           686.000
       411   13 Jun 2027 04:46:34.006   13 Jun 2027 04:46:53.121            19.115                Norilsk          2389.375
       412   13 Jun 2027 04:46:54.647   13 Jun 2027 04:48:50.255           115.608                Novosib         14451.000
       413   13 Jun 2027 04:48:52.180   13 Jun 2027 04:50:13.534            81.354                Irkutsk          6989.625
       414   13 Jun 2027 04:50:25.289   13 Jun 2027 04:50:40.908            15.619                Irkutsk          1952.375
       415   13 Jun 2027 04:50:44.400   13 Jun 2027 04:51:53.972            69.572              Murmansk1          5671.125
       416   13 Jun 2027 04:52:05.375   13 Jun 2027 04:52:28.657            23.282                Novosib           215.500
       417   13 Jun 2027 06:22:18.879   13 Jun 2027 06:22:30.511            11.632                  Delhi          1454.000
       418   13 Jun 2027 06:22:59.952   13 Jun 2027 06:25:38.846           158.894                 Moscow         17719.500
       419   13 Jun 2027 06:25:46.731   13 Jun 2027 06:26:20.162            33.431                Norilsk          3942.500
       420   13 Jun 2027 06:26:24.091   13 Jun 2027 06:26:57.566            33.475                Norilsk          1964.500
       421   13 Jun 2027 06:26:58.351   13 Jun 2027 06:27:25.232            26.881              Murmansk2           392.500
       422   13 Jun 2027 07:59:08.576   13 Jun 2027 08:00:04.835            56.259                Norilsk          5465.000
       423   13 Jun 2027 08:00:06.660   13 Jun 2027 08:00:46.035            39.375              Murmansk2           912.500
       424   13 Jun 2027 08:00:51.287   13 Jun 2027 08:01:35.530            44.243                Novosib          2626.000
       425   13 Jun 2027 08:01:36.635   13 Jun 2027 08:01:46.225             9.590              Murmansk2           552.500
       426   13 Jun 2027 08:01:59.392   13 Jun 2027 08:03:49.553           110.161                Norilsk          6583.500
       427   13 Jun 2027 09:37:11.330   13 Jun 2027 09:37:29.710            18.380              Murmansk1          1770.500
       428   13 Jun 2027 09:37:43.640   13 Jun 2027 09:38:31.977            48.337                 Moscow          6042.125
       429   13 Jun 2027 09:38:43.627   13 Jun 2027 09:39:11.375            27.748              Murmansk1           922.875
