uniorb/output/strategy_2/Drop/Drop_KinoSat_110906.txt

KinoSat_110906
-------------------------
    Access    *     Start Time (UTCG)     *     Stop Time (UTCG)  *   Duration (s)        *       Station  *  Data (Mbytes)
         1   01 Jun 2027 03:22:38.003   01 Jun 2027 03:23:14.376            36.373                Anadyr2          1136.656
         2   01 Jun 2027 03:23:39.214   01 Jun 2027 03:23:43.468             4.254               Magadan1           132.938
         3   01 Jun 2027 03:24:06.441   01 Jun 2027 03:24:09.348             2.907               Magadan2            90.844
         4   01 Jun 2027 03:24:22.641   01 Jun 2027 03:26:06.802           104.161               Magadan2          3255.031
         5   01 Jun 2027 03:26:06.802   01 Jun 2027 03:26:30.673            23.871               Magadan1           745.969
         6   01 Jun 2027 03:26:30.673   01 Jun 2027 03:28:09.654            98.981               Magadan2          3093.156
         7   01 Jun 2027 03:28:29.002   01 Jun 2027 03:28:33.749             4.747                Anadyr2           148.344
         8   01 Jun 2027 03:34:38.761   01 Jun 2027 03:34:46.482             7.721                Norilsk           241.281
         9   01 Jun 2027 05:00:38.530   01 Jun 2027 05:04:18.701           220.171                Anadyr2          6880.344
        10   01 Jun 2027 05:47:02.818   01 Jun 2027 05:47:25.292            22.474            RioGallegos           702.313
        11   01 Jun 2027 06:34:20.227   01 Jun 2027 06:36:00.309           100.082               Magadan2          3127.563
        12   01 Jun 2027 06:36:13.232   01 Jun 2027 06:36:27.005            13.773               Magadan2           430.406
        13   01 Jun 2027 06:36:33.862   01 Jun 2027 06:38:29.649           115.787                Anadyr2          3618.344
        14   01 Jun 2027 06:38:35.736   01 Jun 2027 06:39:35.042            59.306                Irkutsk          1853.312
        15   01 Jun 2027 06:39:40.047   01 Jun 2027 06:39:54.207            14.160                Norilsk           442.500
        16   01 Jun 2027 06:40:30.696   01 Jun 2027 06:40:34.612             3.916                Novosib           122.375
        17   01 Jun 2027 08:11:48.758   01 Jun 2027 08:12:01.738            12.980                Irkutsk           405.625
        18   01 Jun 2027 08:12:35.621   01 Jun 2027 08:15:53.806           198.185                Irkutsk          6193.281
        19   01 Jun 2027 08:15:54.875   01 Jun 2027 08:17:10.491            75.616                Novosib          2363.000
        20   01 Jun 2027 08:17:52.988   01 Jun 2027 08:18:41.159            48.171              Murmansk1          1505.344
        21   01 Jun 2027 08:19:58.247   01 Jun 2027 08:20:50.722            52.475                Norilsk          1639.844
        22   01 Jun 2027 08:51:17.537   01 Jun 2027 08:52:11.926            54.389            RioGallegos          1699.656
        23   01 Jun 2027 08:55:56.055   01 Jun 2027 08:56:24.272            28.217            RioGallegos           881.781
        24   01 Jun 2027 08:57:57.736   01 Jun 2027 08:59:09.139            71.403            RioGallegos          2231.344
        25   01 Jun 2027 09:25:37.718   01 Jun 2027 09:27:20.423           102.705                Sumatra          3209.531
        26   01 Jun 2027 09:34:24.628   01 Jun 2027 09:36:27.689           123.061                  Delhi          3845.656
        27   01 Jun 2027 09:48:15.834   01 Jun 2027 09:48:37.147            21.313                 Moscow           666.031
        28   01 Jun 2027 09:48:53.022   01 Jun 2027 09:49:18.767            25.745                Norilsk           804.531
        29   01 Jun 2027 09:49:21.882   01 Jun 2027 09:49:41.449            19.567                 Moscow           611.469
        30   01 Jun 2027 09:49:46.139   01 Jun 2027 09:51:55.303           129.164              Murmansk2          4036.375
        31   01 Jun 2027 09:51:55.303   01 Jun 2027 09:52:48.355            53.052              Murmansk1          1657.875
        32   01 Jun 2027 09:52:54.072   01 Jun 2027 09:53:21.378            27.306                Novosib           853.313
        33   01 Jun 2027 09:55:10.466   01 Jun 2027 09:55:27.985            17.519                Norilsk           547.469
        34   01 Jun 2027 09:57:15.720   01 Jun 2027 09:57:32.702            16.982              Murmansk1           530.688
        35   01 Jun 2027 11:10:20.446   01 Jun 2027 11:15:10.345           289.899                  Delhi          9059.344
        36   01 Jun 2027 11:24:27.771   01 Jun 2027 11:28:56.624           268.853              Murmansk1          8401.656
        37   01 Jun 2027 11:29:01.634   01 Jun 2027 11:30:47.510           105.876                 Moscow          3308.625
        38   01 Jun 2027 12:54:03.751   01 Jun 2027 12:56:47.609           163.858                 Moscow          5120.563
        39   01 Jun 2027 12:57:35.207   01 Jun 2027 13:01:23.455           228.248              Murmansk2          7132.750
        40   01 Jun 2027 13:03:22.234   01 Jun 2027 13:04:29.106            66.872                Norilsk          2089.750
        41   01 Jun 2027 13:14:39.624   01 Jun 2027 13:15:21.803            42.179                Anadyr2          1318.094
        42   01 Jun 2027 13:16:15.991   01 Jun 2027 13:16:54.137            38.146                Anadyr1          1192.062
        43   01 Jun 2027 14:07:53.919   01 Jun 2027 14:09:20.734            86.815               CapeTown          2712.969
        44   01 Jun 2027 14:11:37.126   01 Jun 2027 14:11:38.206             1.080               CapeTown            33.750
        45   01 Jun 2027 14:35:14.562   01 Jun 2027 14:36:12.768            58.206              Murmansk2          1818.938
        46   01 Jun 2027 14:36:37.156   01 Jun 2027 14:37:02.434            25.278              Murmansk2           789.938
        47   01 Jun 2027 14:37:02.434   01 Jun 2027 14:38:27.269            84.835              Murmansk1          2651.094
        48   01 Jun 2027 14:48:19.703   01 Jun 2027 14:52:16.873           237.170                Anadyr2          7411.563
        49   01 Jun 2027 15:44:12.019   01 Jun 2027 15:44:42.716            30.697               CapeTown           959.281
        50   01 Jun 2027 16:15:29.945   01 Jun 2027 16:16:21.235            51.290              Murmansk2          1602.813
        51   01 Jun 2027 16:18:26.557   01 Jun 2027 16:19:04.203            37.646              Murmansk2          1176.438
        52   01 Jun 2027 16:24:02.944   01 Jun 2027 16:27:00.602           177.658                Anadyr1          5551.813
        53   01 Jun 2027 16:27:25.465   01 Jun 2027 16:30:18.580           173.115               Magadan1          5409.844
        54   01 Jun 2027 17:59:58.419   01 Jun 2027 18:01:40.296           101.877                Anadyr1          3183.656
        55   01 Jun 2027 18:02:06.241   01 Jun 2027 18:03:38.053            91.812                Anadyr2          2869.125
        56   01 Jun 2027 18:04:09.307   01 Jun 2027 18:05:35.178            85.871               Magadan2          2683.469
        57   01 Jun 2027 18:05:35.178   01 Jun 2027 18:06:37.053            61.875               Magadan1          1933.594
        58   01 Jun 2027 18:55:25.032   01 Jun 2027 18:58:32.286           187.254            RioGallegos          5851.687
        59   01 Jun 2027 19:02:15.258   01 Jun 2027 19:02:33.828            18.570            RioGallegos           580.313
        60   01 Jun 2027 19:35:44.245   01 Jun 2027 19:35:50.723             6.478                Anadyr2           202.437
        61   01 Jun 2027 19:37:01.941   01 Jun 2027 19:37:11.214             9.273                Anadyr2           289.781
        62   01 Jun 2027 19:37:19.929   01 Jun 2027 19:37:34.263            14.334                Anadyr2           447.937
        63   01 Jun 2027 19:37:54.230   01 Jun 2027 19:41:53.873           239.643                Norilsk          7488.844
        64   01 Jun 2027 19:42:31.840   01 Jun 2027 19:44:38.354           126.514                Irkutsk          3953.562
        65   01 Jun 2027 19:45:00.912   01 Jun 2027 19:46:05.392            64.480                Irkutsk          2015.000
        66   01 Jun 2027 19:56:56.163   01 Jun 2027 19:57:13.462            17.299                Sumatra           540.594
        67   01 Jun 2027 20:00:46.263   01 Jun 2027 20:01:10.107            23.844                Sumatra           745.125
        68   01 Jun 2027 20:02:29.083   01 Jun 2027 20:03:45.498            76.415                Sumatra          2387.969
        69   01 Jun 2027 21:13:43.737   01 Jun 2027 21:15:25.423           101.686                Norilsk          3177.687
        70   01 Jun 2027 21:17:36.149   01 Jun 2027 21:19:33.318           117.169                Irkutsk          3661.531
        71   01 Jun 2027 21:19:34.620   01 Jun 2027 21:21:11.619            96.999                Novosib          3031.219
        72   01 Jun 2027 21:27:02.748   01 Jun 2027 21:29:40.556           157.808                  Delhi          4931.500
        73   01 Jun 2027 21:32:42.171   01 Jun 2027 21:33:15.784            33.613                  Delhi          1050.406
        74   01 Jun 2027 22:50:12.235   01 Jun 2027 22:51:17.400            65.165               Magadan1          2036.406
        75   01 Jun 2027 22:51:17.400   01 Jun 2027 22:51:19.387             1.987               Magadan2            62.094
        76   01 Jun 2027 22:51:42.766   01 Jun 2027 22:52:44.374            61.608               Magadan1          1925.250
        77   01 Jun 2027 22:53:30.219   01 Jun 2027 22:54:52.035            81.816                Novosib          2556.750
        78   01 Jun 2027 22:54:55.531   01 Jun 2027 22:56:12.855            77.324              Murmansk1          2416.375
        79   01 Jun 2027 22:56:17.499   01 Jun 2027 22:58:31.011           133.512              Murmansk2          4172.250
        80   02 Jun 2027 00:18:05.895   02 Jun 2027 00:18:51.905            46.010                Anadyr1          1437.812
        81   02 Jun 2027 00:19:18.987   02 Jun 2027 00:19:48.280            29.293                Anadyr2           915.406
        82   02 Jun 2027 00:21:00.678   02 Jun 2027 00:21:11.081            10.403                Anadyr1           325.094
        83   02 Jun 2027 00:23:12.834   02 Jun 2027 00:23:17.530             4.696                Anadyr2           146.750
        84   02 Jun 2027 00:23:47.202   02 Jun 2027 00:24:05.923            18.721                Anadyr1           585.031
        85   02 Jun 2027 00:24:18.644   02 Jun 2027 00:24:33.233            14.589                Anadyr1           455.906
        86   02 Jun 2027 00:24:52.060   02 Jun 2027 00:26:28.245            96.185               Magadan2          3005.781
        87   02 Jun 2027 00:27:16.258   02 Jun 2027 00:27:36.671            20.413               Magadan2           637.906
        88   02 Jun 2027 00:27:53.095   02 Jun 2027 00:30:13.333           140.238              Murmansk1          4382.437
        89   02 Jun 2027 00:31:24.064   02 Jun 2027 00:32:04.155            40.091                Novosib          1252.844
        90   02 Jun 2027 00:32:39.017   02 Jun 2027 00:33:11.788            32.771                 Moscow          1024.094
        91   02 Jun 2027 00:33:58.604   02 Jun 2027 00:34:18.597            19.993                 Moscow           624.781
        92   02 Jun 2027 00:35:17.470   02 Jun 2027 00:36:09.049            51.579              Murmansk2          1611.844
        93   02 Jun 2027 00:37:22.684   02 Jun 2027 00:37:25.960             3.276                 Moscow           102.375
        94   02 Jun 2027 00:37:56.354   02 Jun 2027 00:38:28.677            32.323                 Moscow          1010.094
        95   02 Jun 2027 00:41:45.010   02 Jun 2027 00:41:50.224             5.214                 Moscow           162.937
        96   02 Jun 2027 00:42:36.766   02 Jun 2027 00:42:48.829            12.063                 Moscow           376.969
        97   02 Jun 2027 00:56:55.182   02 Jun 2027 00:58:02.823            67.641               CapeTown          2113.781
        98   02 Jun 2027 00:58:43.367   02 Jun 2027 00:59:40.739            57.372               CapeTown          1792.875
        99   02 Jun 2027 01:06:28.593   02 Jun 2027 01:07:01.148            32.555               CapeTown          1017.344
       100   02 Jun 2027 01:53:02.805   02 Jun 2027 01:53:44.235            41.430                Anadyr1          1294.687
       101   02 Jun 2027 01:55:33.205   02 Jun 2027 01:56:45.903            72.698               Magadan2          2271.813
       102   02 Jun 2027 01:56:45.903   02 Jun 2027 01:57:04.092            18.189               Magadan1           568.406
       103   02 Jun 2027 02:00:04.962   02 Jun 2027 02:00:25.270            20.308               Magadan1           634.625
       104   02 Jun 2027 02:01:19.399   02 Jun 2027 02:01:22.144             2.745               Magadan2            85.781
       105   02 Jun 2027 02:02:01.616   02 Jun 2027 02:02:06.498             4.882               Magadan1           152.562
       106   02 Jun 2027 02:02:51.250   02 Jun 2027 02:03:04.014            12.764                Norilsk           398.875
       107   02 Jun 2027 02:03:28.220   02 Jun 2027 02:03:58.429            30.209               Magadan2           944.031
       108   02 Jun 2027 02:04:29.512   02 Jun 2027 02:06:46.631           137.119              Murmansk2          4284.969
       109   02 Jun 2027 02:11:38.239   02 Jun 2027 02:12:12.743            34.504                 Moscow          1078.250
       110   02 Jun 2027 02:14:15.869   02 Jun 2027 02:14:32.408            16.539                 Moscow           516.844
       111   02 Jun 2027 02:16:54.901   02 Jun 2027 02:17:09.489            14.588                 Moscow           455.875
       112   02 Jun 2027 02:18:02.040   02 Jun 2027 02:19:54.153           112.113                 Moscow          3503.531
       113   02 Jun 2027 03:33:45.337   02 Jun 2027 03:34:39.091            53.754                Anadyr2          1679.812
       114   02 Jun 2027 03:35:06.281   02 Jun 2027 03:35:17.927            11.646               Magadan1           363.937
       115   02 Jun 2027 03:35:26.685   02 Jun 2027 03:35:40.113            13.428               Magadan1           419.625
       116   02 Jun 2027 03:36:08.687   02 Jun 2027 03:36:09.254             0.567               Magadan1            17.719
       117   02 Jun 2027 03:36:35.953   02 Jun 2027 03:40:29.782           233.829                Anadyr1          7307.156
       118   02 Jun 2027 05:11:00.354   02 Jun 2027 05:11:34.950            34.596                Irkutsk          1081.125
       119   02 Jun 2027 05:12:34.248   02 Jun 2027 05:12:40.253             6.005                Irkutsk           187.656
       120   02 Jun 2027 05:14:21.666   02 Jun 2027 05:14:40.851            19.185                Anadyr1           599.531
       121   02 Jun 2027 05:14:45.028   02 Jun 2027 05:15:20.114            35.086                Anadyr1          1096.438
       122   02 Jun 2027 05:15:57.270   02 Jun 2027 05:16:03.212             5.942               Magadan1           185.687
       123   02 Jun 2027 06:47:58.210   02 Jun 2027 06:48:05.290             7.080               Magadan2           221.250
       124   02 Jun 2027 06:48:08.479   02 Jun 2027 06:48:15.729             7.250                Irkutsk           226.563
       125   02 Jun 2027 06:48:15.868   02 Jun 2027 06:48:45.117            29.249               Magadan2           914.031
       126   02 Jun 2027 06:49:03.415   02 Jun 2027 06:51:03.772           120.357               Magadan2          3761.156
       127   02 Jun 2027 06:51:21.856   02 Jun 2027 06:51:42.515            20.659               Magadan1           645.594
       128   02 Jun 2027 06:51:48.141   02 Jun 2027 06:51:54.605             6.464                Norilsk           202.000
       129   02 Jun 2027 06:51:55.662   02 Jun 2027 06:52:45.363            49.701                Novosib          1553.156
       130   02 Jun 2027 06:53:11.134   02 Jun 2027 06:53:26.279            15.145                Norilsk           473.281
       131   02 Jun 2027 06:54:26.383   02 Jun 2027 06:54:43.921            17.538                Norilsk           548.062
       132   02 Jun 2027 06:56:12.969   02 Jun 2027 06:56:40.710            27.741              Murmansk2           866.906
       133   02 Jun 2027 07:00:43.295   02 Jun 2027 07:01:04.690            21.395              Murmansk1           668.594
       134   02 Jun 2027 07:26:40.242   02 Jun 2027 07:29:20.057           159.815            RioGallegos          4994.219
       135   02 Jun 2027 07:35:18.654   02 Jun 2027 07:35:43.910            25.256            RioGallegos           789.250
       136   02 Jun 2027 07:36:04.848   02 Jun 2027 07:36:12.158             7.310            RioGallegos           228.437
       137   02 Jun 2027 07:37:59.680   02 Jun 2027 07:38:09.947            10.267            RioGallegos           320.844
       138   02 Jun 2027 07:38:40.588   02 Jun 2027 07:39:28.234            47.646            RioGallegos          1488.937
       139   02 Jun 2027 08:02:39.403   02 Jun 2027 08:03:19.142            39.739                Sumatra          1241.844
       140   02 Jun 2027 08:07:33.177   02 Jun 2027 08:08:35.596            62.419                Sumatra          1950.594
       141   02 Jun 2027 08:23:16.476   02 Jun 2027 08:23:27.830            11.354                Norilsk           354.813
       142   02 Jun 2027 08:23:31.700   02 Jun 2027 08:24:55.208            83.508                Norilsk          2609.625
       143   02 Jun 2027 08:24:58.612   02 Jun 2027 08:25:58.514            59.902              Murmansk2          1871.937
       144   02 Jun 2027 08:26:03.997   02 Jun 2027 08:27:22.374            78.377              Murmansk2          2449.281
       145   02 Jun 2027 08:27:46.952   02 Jun 2027 08:27:54.430             7.478                Irkutsk           233.687
       146   02 Jun 2027 08:27:55.157   02 Jun 2027 08:28:39.488            44.331              Murmansk2          1385.344
       147   02 Jun 2027 08:29:45.949   02 Jun 2027 08:29:47.304             1.355              Murmansk2            42.344
       148   02 Jun 2027 08:30:14.699   02 Jun 2027 08:30:35.789            21.090                Norilsk           659.063
       149   02 Jun 2027 08:31:10.594   02 Jun 2027 08:31:22.411            11.817              Murmansk1           369.281
       150   02 Jun 2027 09:03:41.026   02 Jun 2027 09:04:17.437            36.411            RioGallegos          1137.844
       151   02 Jun 2027 09:05:25.213   02 Jun 2027 09:05:33.303             8.090            RioGallegos           252.813
       152   02 Jun 2027 09:08:23.556   02 Jun 2027 09:08:39.370            15.814            RioGallegos           494.188
       153   02 Jun 2027 09:11:34.989   02 Jun 2027 09:12:25.497            50.508            RioGallegos          1578.375
       154   02 Jun 2027 09:37:55.554   02 Jun 2027 09:39:11.733            76.179                Sumatra          2380.594
       155   02 Jun 2027 09:47:03.163   02 Jun 2027 09:47:26.678            23.515                  Delhi           734.844
       156   02 Jun 2027 09:48:40.864   02 Jun 2027 09:49:46.483            65.619                  Delhi          2050.594
       157   02 Jun 2027 09:59:16.127   02 Jun 2027 09:59:44.592            28.465                Novosib           889.531
       158   02 Jun 2027 09:59:46.823   02 Jun 2027 09:59:49.797             2.974                 Moscow            92.938
       159   02 Jun 2027 10:00:41.936   02 Jun 2027 10:00:51.305             9.369              Murmansk1           292.781
       160   02 Jun 2027 10:00:51.305   02 Jun 2027 10:01:12.407            21.102              Murmansk2           659.437
       161   02 Jun 2027 10:01:24.492   02 Jun 2027 10:02:15.390            50.898                Novosib          1590.562
       162   02 Jun 2027 10:02:21.209   02 Jun 2027 10:02:36.393            15.184                Novosib           474.500
       163   02 Jun 2027 10:02:50.257   02 Jun 2027 10:02:55.081             4.824                Irkutsk           150.750
       164   02 Jun 2027 10:03:06.289   02 Jun 2027 10:03:15.190             8.901              Murmansk1           278.156
       165   02 Jun 2027 10:03:16.325   02 Jun 2027 10:03:55.958            39.633              Murmansk1          1238.531
       166   02 Jun 2027 10:04:55.264   02 Jun 2027 10:05:03.019             7.755              Murmansk1           242.344
       167   02 Jun 2027 10:08:30.053   02 Jun 2027 10:09:11.469            41.416              Murmansk1          1294.250
       168   02 Jun 2027 11:22:50.673   02 Jun 2027 11:25:52.159           181.486                  Delhi          5671.437
       169   02 Jun 2027 11:35:33.573   02 Jun 2027 11:35:39.008             5.435              Murmansk1           169.844
       170   02 Jun 2027 11:35:45.937   02 Jun 2027 11:36:12.566            26.629                Novosib           832.156
       171   02 Jun 2027 11:36:19.358   02 Jun 2027 11:36:46.126            26.768              Murmansk2           836.500
       172   02 Jun 2027 11:36:51.981   02 Jun 2027 11:37:27.127            35.146                Novosib          1098.313
       173   02 Jun 2027 11:37:35.932   02 Jun 2027 11:38:17.503            41.571                Norilsk          1299.094
       174   02 Jun 2027 11:38:25.945   02 Jun 2027 11:38:39.949            14.004                 Moscow           437.625
       175   02 Jun 2027 11:38:40.587   02 Jun 2027 11:38:50.916            10.329              Murmansk2           322.781
       176   02 Jun 2027 11:38:50.916   02 Jun 2027 11:39:00.607             9.691              Murmansk1           302.844
       177   02 Jun 2027 11:39:05.980   02 Jun 2027 11:39:22.557            16.577                Novosib           518.031
       178   02 Jun 2027 11:39:44.877   02 Jun 2027 11:39:52.242             7.365              Murmansk1           230.156
       179   02 Jun 2027 11:40:09.434   02 Jun 2027 11:40:17.081             7.647                 Moscow           238.969
       180   02 Jun 2027 11:40:49.651   02 Jun 2027 11:40:53.955             4.304                Norilsk           134.500
       181   02 Jun 2027 11:41:45.047   02 Jun 2027 11:41:51.319             6.272              Murmansk2           196.000
       182   02 Jun 2027 13:06:11.592   02 Jun 2027 13:08:56.393           164.801                 Moscow          5150.031
       183   02 Jun 2027 13:09:42.936   02 Jun 2027 13:13:39.387           236.451              Murmansk2          7389.094
       184   02 Jun 2027 13:16:28.018   02 Jun 2027 13:16:54.601            26.583                Norilsk           830.719
       185   02 Jun 2027 13:18:33.204   02 Jun 2027 13:18:57.502            24.298                Norilsk           759.312
       186   02 Jun 2027 13:25:47.978   02 Jun 2027 13:27:19.751            91.773                Anadyr1          2867.906
       187   02 Jun 2027 13:28:42.566   02 Jun 2027 13:28:58.767            16.201                Anadyr1           506.281
       188   02 Jun 2027 13:29:34.069   02 Jun 2027 13:30:27.344            53.275                Anadyr2          1664.844
       189   02 Jun 2027 14:21:13.453   02 Jun 2027 14:21:38.220            24.767               CapeTown           773.969
       190   02 Jun 2027 14:45:22.786   02 Jun 2027 14:45:42.681            19.895                 Moscow           621.719
       191   02 Jun 2027 14:47:38.326   02 Jun 2027 14:48:50.656            72.330              Murmansk1          2260.313
       192   02 Jun 2027 14:49:01.794   02 Jun 2027 14:50:28.950            87.156              Murmansk2          2723.625
       193   02 Jun 2027 15:00:17.628   02 Jun 2027 15:04:03.567           225.939                Anadyr1          7060.594
       194   02 Jun 2027 16:28:23.002   02 Jun 2027 16:31:05.027           162.025              Murmansk1          5063.281
       195   02 Jun 2027 16:36:04.115   02 Jun 2027 16:37:57.580           113.465                Anadyr2          3545.781
       196   02 Jun 2027 16:38:48.708   02 Jun 2027 16:41:18.666           149.958               Magadan1          4686.187
       197   02 Jun 2027 16:41:38.379   02 Jun 2027 16:41:40.279             1.900               Magadan2            59.375
       198   02 Jun 2027 16:44:33.997   02 Jun 2027 16:45:23.355            49.358               Magadan2          1542.437
       199   02 Jun 2027 16:47:55.027   02 Jun 2027 16:48:18.377            23.350               Magadan1           729.687
       200   02 Jun 2027 18:11:59.482   02 Jun 2027 18:15:30.220           210.738                Anadyr1          6585.562
       201   02 Jun 2027 18:16:04.477   02 Jun 2027 18:17:12.149            67.672               Magadan2          2114.750
       202   02 Jun 2027 18:17:24.712   02 Jun 2027 18:18:23.892            59.180               Magadan2          1849.375
       203   02 Jun 2027 18:26:54.652   02 Jun 2027 18:27:09.765            15.113               Magadan1           472.281
       204   02 Jun 2027 19:07:00.207   02 Jun 2027 19:10:21.689           201.482            RioGallegos          6296.312
       205   02 Jun 2027 19:11:38.145   02 Jun 2027 19:11:57.365            19.220            RioGallegos           600.625
       206   02 Jun 2027 19:13:08.991   02 Jun 2027 19:13:35.484            26.493            RioGallegos           827.906
       207   02 Jun 2027 19:49:02.388   02 Jun 2027 19:49:43.252            40.864                Anadyr1          1277.000
       208   02 Jun 2027 19:49:53.005   02 Jun 2027 19:53:29.878           216.873                Norilsk          6777.281
       209   02 Jun 2027 19:54:19.430   02 Jun 2027 19:56:13.405           113.975                Irkutsk          3561.719
       210   02 Jun 2027 19:57:00.110   02 Jun 2027 19:57:53.782            53.672                Irkutsk          1677.250
       211   02 Jun 2027 20:08:25.143   02 Jun 2027 20:09:48.783            83.640                Sumatra          2613.750
       212   02 Jun 2027 20:11:41.258   02 Jun 2027 20:12:49.793            68.535                Sumatra          2141.719
       213   02 Jun 2027 20:14:07.515   02 Jun 2027 20:14:40.541            33.026                Sumatra          1032.063
       214   02 Jun 2027 21:29:50.353   02 Jun 2027 21:30:55.502            65.149                Irkutsk          2035.906
       215   02 Jun 2027 21:32:05.358   02 Jun 2027 21:33:00.040            54.682                Novosib          1708.813
       216   02 Jun 2027 21:36:06.421   02 Jun 2027 21:36:28.895            22.474                Novosib           702.313
       217   02 Jun 2027 21:38:16.747   02 Jun 2027 21:39:27.632            70.885                Novosib          2215.156
       218   02 Jun 2027 21:39:28.280   02 Jun 2027 21:41:25.345           117.065                  Delhi          3658.281
       219   02 Jun 2027 21:44:59.923   02 Jun 2027 21:45:12.806            12.883                  Delhi           402.594
       220   02 Jun 2027 23:02:08.691   02 Jun 2027 23:03:28.527            79.836               Magadan2          2494.875
       221   02 Jun 2027 23:04:19.203   02 Jun 2027 23:09:26.589           307.386              Murmansk1          9605.812
       222   03 Jun 2027 00:29:49.026   03 Jun 2027 00:30:10.019            20.993                Anadyr2           656.031
       223   03 Jun 2027 00:31:01.584   03 Jun 2027 00:31:46.940            45.356                Anadyr1          1417.375
       224   03 Jun 2027 00:35:11.762   03 Jun 2027 00:35:44.531            32.769                Anadyr2          1024.031
       225   03 Jun 2027 00:36:29.066   03 Jun 2027 00:37:56.220            87.154               Magadan1          2723.563
       226   03 Jun 2027 00:38:03.357   03 Jun 2027 00:38:50.980            47.623               Magadan2          1488.219
       227   03 Jun 2027 00:39:53.958   03 Jun 2027 00:41:53.185           119.227              Murmansk1          3725.844
       228   03 Jun 2027 00:42:33.311   03 Jun 2027 00:44:33.046           119.735                Novosib          3741.719
       229   03 Jun 2027 00:45:03.469   03 Jun 2027 00:45:19.188            15.719                 Moscow           491.219
       230   03 Jun 2027 00:50:10.891   03 Jun 2027 00:50:35.279            24.388                 Moscow           762.125
       231   03 Jun 2027 00:54:40.304   03 Jun 2027 00:55:11.165            30.861                 Moscow           964.406
       232   03 Jun 2027 01:08:22.312   03 Jun 2027 01:08:54.608            32.296               CapeTown          1009.250
       233   03 Jun 2027 01:09:30.727   03 Jun 2027 01:09:56.542            25.815               CapeTown           806.719
       234   03 Jun 2027 01:13:46.769   03 Jun 2027 01:14:10.194            23.425               CapeTown           732.031
       235   03 Jun 2027 01:16:38.442   03 Jun 2027 01:17:35.611            57.169               CapeTown          1786.531
       236   03 Jun 2027 02:06:20.345   03 Jun 2027 02:06:35.033            14.688                Anadyr1           459.000
       237   03 Jun 2027 02:07:05.391   03 Jun 2027 02:07:08.592             3.201               Magadan1           100.031
       238   03 Jun 2027 02:08:12.146   03 Jun 2027 02:08:39.575            27.429               Magadan2           857.156
       239   03 Jun 2027 02:09:05.560   03 Jun 2027 02:09:49.811            44.251               Magadan1          1382.844
       240   03 Jun 2027 02:10:43.467   03 Jun 2027 02:10:59.401            15.934               Magadan2           497.938
       241   03 Jun 2027 02:12:26.647   03 Jun 2027 02:12:58.261            31.614               Magadan2           987.938
       242   03 Jun 2027 02:15:21.739   03 Jun 2027 02:15:57.631            35.892               Magadan2          1121.625
       243   03 Jun 2027 02:16:17.126   03 Jun 2027 02:17:31.452            74.326              Murmansk1          2322.687
       244   03 Jun 2027 02:17:50.917   03 Jun 2027 02:18:33.721            42.804              Murmansk2          1337.625
       245   03 Jun 2027 02:22:37.374   03 Jun 2027 02:22:51.149            13.775                Novosib           430.469
       246   03 Jun 2027 02:25:54.948   03 Jun 2027 02:26:00.149             5.201                 Moscow           162.531
       247   03 Jun 2027 02:26:01.309   03 Jun 2027 02:27:08.739            67.430                 Moscow          2107.188
       248   03 Jun 2027 02:47:47.212   03 Jun 2027 02:48:16.396            29.184               CapeTown           912.000
       249   03 Jun 2027 02:53:19.144   03 Jun 2027 02:53:59.945            40.801               CapeTown          1275.031
       250   03 Jun 2027 03:45:42.415   03 Jun 2027 03:46:30.014            47.599                Anadyr2          1487.469
       251   03 Jun 2027 03:46:46.168   03 Jun 2027 03:46:58.041            11.873               Magadan2           371.031
       252   03 Jun 2027 03:47:20.065   03 Jun 2027 03:47:39.097            19.032               Magadan1           594.750
       253   03 Jun 2027 03:47:39.097   03 Jun 2027 03:48:09.128            30.031               Magadan2           938.469
       254   03 Jun 2027 03:48:42.146   03 Jun 2027 03:49:33.125            50.979               Magadan1          1593.094
       255   03 Jun 2027 03:49:42.594   03 Jun 2027 03:50:27.792            45.198                Anadyr2          1412.437
       256   03 Jun 2027 03:51:54.174   03 Jun 2027 03:52:05.423            11.249               Magadan2           351.531
       257   03 Jun 2027 05:22:50.103   03 Jun 2027 05:22:54.919             4.816                Irkutsk           150.500
       258   03 Jun 2027 05:25:48.439   03 Jun 2027 05:26:30.546            42.107                Irkutsk          1315.844
       259   03 Jun 2027 05:26:30.711   03 Jun 2027 05:27:03.672            32.961                Norilsk          1030.031
       260   03 Jun 2027 05:27:16.696   03 Jun 2027 05:28:12.563            55.867                Anadyr1          1745.844
       261   03 Jun 2027 06:04:45.109   03 Jun 2027 06:05:39.251            54.142            RioGallegos          1691.938
       262   03 Jun 2027 06:57:39.231   03 Jun 2027 06:58:26.845            47.614               Magadan2          1487.938
       263   03 Jun 2027 06:58:35.954   03 Jun 2027 06:59:08.351            32.397                Irkutsk          1012.406
       264   03 Jun 2027 06:59:23.985   03 Jun 2027 06:59:44.681            20.696                Irkutsk           646.750
       265   03 Jun 2027 06:59:55.131   03 Jun 2027 07:00:08.482            13.351               Magadan1           417.219
       266   03 Jun 2027 07:00:08.482   03 Jun 2027 07:01:58.911           110.429               Magadan2          3450.906
       267   03 Jun 2027 07:02:08.441   03 Jun 2027 07:02:47.127            38.686                Novosib          1208.938
       268   03 Jun 2027 07:02:54.280   03 Jun 2027 07:03:48.388            54.108                Irkutsk          1690.875
       269   03 Jun 2027 07:03:50.144   03 Jun 2027 07:04:46.242            56.098              Murmansk2          1753.062
       270   03 Jun 2027 07:38:37.330   03 Jun 2027 07:39:19.980            42.650            RioGallegos          1332.813
       271   03 Jun 2027 08:14:13.056   03 Jun 2027 08:15:15.266            62.210                Sumatra          1944.063
       272   03 Jun 2027 08:16:02.310   03 Jun 2027 08:17:27.237            84.927                Sumatra          2653.969
       273   03 Jun 2027 08:29:14.411   03 Jun 2027 08:29:35.175            20.764                  Delhi           648.875
       274   03 Jun 2027 08:34:16.654   03 Jun 2027 08:35:05.646            48.992                Irkutsk          1531.000
       275   03 Jun 2027 08:35:17.838   03 Jun 2027 08:35:25.807             7.969                Norilsk           249.031
       276   03 Jun 2027 08:35:37.451   03 Jun 2027 08:35:57.397            19.946                Novosib           623.312
       277   03 Jun 2027 08:36:01.860   03 Jun 2027 08:36:51.496            49.636                Irkutsk          1551.125
       278   03 Jun 2027 08:36:58.761   03 Jun 2027 08:37:01.189             2.428                Norilsk            75.875
       279   03 Jun 2027 08:37:02.829   03 Jun 2027 08:37:17.858            15.029                Novosib           469.656
       280   03 Jun 2027 08:37:39.475   03 Jun 2027 08:38:06.788            27.313                Irkutsk           853.531
       281   03 Jun 2027 08:38:19.499   03 Jun 2027 08:39:04.889            45.390                Norilsk          1418.438
       282   03 Jun 2027 08:39:08.500   03 Jun 2027 08:39:16.273             7.773                Norilsk           242.906
       283   03 Jun 2027 08:39:20.382   03 Jun 2027 08:39:54.111            33.729                Irkutsk          1054.031
       284   03 Jun 2027 08:39:57.328   03 Jun 2027 08:40:12.551            15.223              Murmansk1           475.719
       285   03 Jun 2027 08:40:12.551   03 Jun 2027 08:40:21.637             9.086              Murmansk2           283.938
       286   03 Jun 2027 08:42:58.381   03 Jun 2027 08:43:10.110            11.729              Murmansk1           366.531
       287   03 Jun 2027 09:16:09.800   03 Jun 2027 09:16:26.521            16.721            RioGallegos           522.531
       288   03 Jun 2027 09:17:16.724   03 Jun 2027 09:18:06.305            49.581            RioGallegos          1549.406
       289   03 Jun 2027 09:50:21.532   03 Jun 2027 09:51:08.796            47.264                Sumatra          1477.000
       290   03 Jun 2027 09:57:54.097   03 Jun 2027 09:59:18.611            84.514                  Delhi          2641.062
       291   03 Jun 2027 10:11:04.916   03 Jun 2027 10:11:47.211            42.295                 Moscow          1321.719
       292   03 Jun 2027 10:12:05.284   03 Jun 2027 10:12:39.168            33.884              Murmansk1          1058.875
       293   03 Jun 2027 10:12:41.652   03 Jun 2027 10:13:23.280            41.628              Murmansk1          1300.875
       294   03 Jun 2027 10:13:34.658   03 Jun 2027 10:13:51.984            17.326                 Moscow           541.437
       295   03 Jun 2027 10:13:56.427   03 Jun 2027 10:14:14.164            17.737                Norilsk           554.281
       296   03 Jun 2027 10:14:21.254   03 Jun 2027 10:15:07.564            46.310              Murmansk1          1447.188
       297   03 Jun 2027 10:15:10.768   03 Jun 2027 10:15:17.958             7.190              Murmansk1           224.687
       298   03 Jun 2027 10:15:17.958   03 Jun 2027 10:15:56.834            38.876              Murmansk2          1214.875
       299   03 Jun 2027 11:35:31.564   03 Jun 2027 11:37:07.887            96.323                  Delhi          3010.094
       300   03 Jun 2027 11:37:36.603   03 Jun 2027 11:38:28.497            51.894                  Delhi          1621.688
       301   03 Jun 2027 11:47:25.541   03 Jun 2027 11:47:55.205            29.664                Norilsk           927.000
       302   03 Jun 2027 11:48:09.459   03 Jun 2027 11:48:52.404            42.945                Norilsk          1342.031
       303   03 Jun 2027 11:48:54.628   03 Jun 2027 11:48:55.788             1.160              Murmansk2            36.250
       304   03 Jun 2027 11:48:55.788   03 Jun 2027 11:49:10.701            14.913              Murmansk1           466.031
       305   03 Jun 2027 11:49:29.970   03 Jun 2027 11:49:32.478             2.508                 Moscow            78.375
       306   03 Jun 2027 11:49:33.600   03 Jun 2027 11:50:02.383            28.783                 Moscow           899.469
       307   03 Jun 2027 11:50:25.668   03 Jun 2027 11:50:49.761            24.093                 Moscow           752.906
       308   03 Jun 2027 11:50:52.275   03 Jun 2027 11:51:59.671            67.396                 Moscow          2106.125
       309   03 Jun 2027 13:00:43.655   03 Jun 2027 13:02:21.334            97.679               CapeTown          3052.469
       310   03 Jun 2027 13:18:22.653   03 Jun 2027 13:19:45.255            82.602                 Moscow          2581.312
       311   03 Jun 2027 13:21:52.428   03 Jun 2027 13:25:34.717           222.289              Murmansk1          6946.531
       312   03 Jun 2027 13:27:48.066   03 Jun 2027 13:28:16.263            28.197              Murmansk1           881.156
       313   03 Jun 2027 13:29:56.254   03 Jun 2027 13:30:27.375            31.121              Murmansk1           972.531
       314   03 Jun 2027 13:32:17.108   03 Jun 2027 13:32:52.645            35.537              Murmansk1          1110.531
       315   03 Jun 2027 13:34:21.123   03 Jun 2027 13:34:27.612             6.489              Murmansk1           202.781
       316   03 Jun 2027 13:37:22.890   03 Jun 2027 13:41:06.030           223.140                Anadyr2          6973.125
       317   03 Jun 2027 14:40:09.196   03 Jun 2027 14:41:09.443            60.247               CapeTown          1882.719
       318   03 Jun 2027 15:00:04.527   03 Jun 2027 15:00:40.797            36.270              Murmansk2          1133.438
       319   03 Jun 2027 15:04:44.987   03 Jun 2027 15:05:20.968            35.981              Murmansk2          1124.406
       320   03 Jun 2027 15:08:36.439   03 Jun 2027 15:08:38.886             2.447              Murmansk1            76.469
       321   03 Jun 2027 15:08:40.267   03 Jun 2027 15:10:02.364            82.097              Murmansk2          2565.531
       322   03 Jun 2027 15:12:16.319   03 Jun 2027 15:13:15.357            59.038                Anadyr2          1844.937
       323   03 Jun 2027 15:13:36.914   03 Jun 2027 15:13:53.859            16.945                Anadyr2           529.531
       324   03 Jun 2027 15:18:12.599   03 Jun 2027 15:18:27.516            14.917                Anadyr2           466.156
       325   03 Jun 2027 15:18:48.252   03 Jun 2027 15:19:04.436            16.184                Anadyr1           505.750
       326   03 Jun 2027 15:19:26.385   03 Jun 2027 15:20:25.867            59.482                Anadyr2          1858.812
       327   03 Jun 2027 15:23:40.620   03 Jun 2027 15:23:52.938            12.318                Anadyr2           384.937
       328   03 Jun 2027 16:41:26.817   03 Jun 2027 16:44:06.539           159.722              Murmansk1          4991.313
       329   03 Jun 2027 16:48:05.396   03 Jun 2027 16:49:26.532            81.136                Anadyr1          2535.500
       330   03 Jun 2027 16:50:42.825   03 Jun 2027 16:53:16.074           153.249               Magadan1          4789.031
       331   03 Jun 2027 16:56:19.706   03 Jun 2027 16:56:34.247            14.541               Magadan1           454.406
       332   03 Jun 2027 16:57:26.030   03 Jun 2027 16:57:35.391             9.361               Magadan2           292.531
       333   03 Jun 2027 18:24:00.363   03 Jun 2027 18:28:02.458           242.095                Anadyr1          7565.469
       334   03 Jun 2027 18:28:05.146   03 Jun 2027 18:29:44.497            99.351                Norilsk          3104.719
       335   03 Jun 2027 18:30:41.541   03 Jun 2027 18:31:10.561            29.020               Magadan1           906.875
       336   03 Jun 2027 19:18:42.283   03 Jun 2027 19:24:02.591           320.308            RioGallegos         10009.625
       337   03 Jun 2027 19:24:05.557   03 Jun 2027 19:25:00.410            54.853            RioGallegos          1714.156
       338   03 Jun 2027 20:02:55.876   03 Jun 2027 20:03:22.059            26.183               Magadan1           818.219
       339   03 Jun 2027 20:04:40.900   03 Jun 2027 20:05:08.644            27.744               Magadan1           867.000
       340   03 Jun 2027 20:06:10.091   03 Jun 2027 20:09:20.554           190.463                Irkutsk          5951.969
       341   03 Jun 2027 20:10:11.884   03 Jun 2027 20:11:24.429            72.545                Novosib          2267.031
       342   03 Jun 2027 20:20:02.924   03 Jun 2027 20:21:11.186            68.262                Sumatra          2133.188
       343   03 Jun 2027 20:22:13.618   03 Jun 2027 20:23:37.098            83.480                Sumatra          2608.750
       344   03 Jun 2027 21:40:06.564   03 Jun 2027 21:40:21.803            15.239                Norilsk           476.219
       345   03 Jun 2027 21:40:45.708   03 Jun 2027 21:41:27.843            42.135                Norilsk          1316.719
       346   03 Jun 2027 21:41:48.027   03 Jun 2027 21:42:39.570            51.543                Irkutsk          1610.719
       347   03 Jun 2027 21:43:33.831   03 Jun 2027 21:44:00.385            26.554                Novosib           829.813
       348   03 Jun 2027 21:44:10.198   03 Jun 2027 21:44:39.603            29.405                Novosib           918.906
       349   03 Jun 2027 21:49:56.209   03 Jun 2027 21:53:14.898           198.689                  Delhi          6209.031
       350   03 Jun 2027 23:09:21.587   03 Jun 2027 23:09:33.764            12.177                Anadyr2           380.531
       351   03 Jun 2027 23:10:27.019   03 Jun 2027 23:10:41.190            14.171                Anadyr1           442.844
       352   03 Jun 2027 23:10:53.355   03 Jun 2027 23:10:54.929             1.574                Anadyr1            49.187
       353   03 Jun 2027 23:14:02.797   03 Jun 2027 23:15:40.315            97.518               Magadan2          3047.438
       354   03 Jun 2027 23:15:40.315   03 Jun 2027 23:16:03.140            22.825               Magadan1           713.281
       355   03 Jun 2027 23:16:14.327   03 Jun 2027 23:21:24.830           310.503              Murmansk1          9703.219
       356   03 Jun 2027 23:21:42.213   03 Jun 2027 23:22:22.632            40.419                 Moscow          1263.094
       357   03 Jun 2027 23:23:09.879   03 Jun 2027 23:23:29.275            19.396                 Moscow           606.125
       358   04 Jun 2027 00:46:08.687   04 Jun 2027 00:47:12.544            63.857                Anadyr1          1995.531
       359   04 Jun 2027 00:48:03.712   04 Jun 2027 00:48:30.230            26.518               Magadan1           828.687
       360   04 Jun 2027 00:48:43.620   04 Jun 2027 00:48:54.361            10.741               Magadan1           335.656
       361   04 Jun 2027 00:49:24.450   04 Jun 2027 00:50:06.039            41.589               Magadan1          1299.656
       362   04 Jun 2027 00:50:39.325   04 Jun 2027 00:51:14.909            35.584               Magadan2          1112.000
       363   04 Jun 2027 00:51:55.089   04 Jun 2027 00:53:30.244            95.155              Murmansk1          2973.594
       364   04 Jun 2027 00:53:51.709   04 Jun 2027 00:53:55.023             3.314              Murmansk1           103.563
       365   04 Jun 2027 00:54:15.007   04 Jun 2027 00:56:00.314           105.307              Murmansk1          3290.844
       366   04 Jun 2027 01:06:43.616   04 Jun 2027 01:07:06.903            23.287                 Moscow           727.719
       367   04 Jun 2027 01:19:56.376   04 Jun 2027 01:20:55.676            59.300               CapeTown          1853.125
       368   04 Jun 2027 01:21:47.936   04 Jun 2027 01:22:31.910            43.974               CapeTown          1374.188
       369   04 Jun 2027 02:15:55.039   04 Jun 2027 02:16:47.123            52.084                Anadyr1          1627.625
       370   04 Jun 2027 02:17:42.954   04 Jun 2027 02:18:11.934            28.980                Anadyr1           905.625
       371   04 Jun 2027 02:18:39.010   04 Jun 2027 02:18:57.148            18.138               Magadan1           566.813
       372   04 Jun 2027 02:19:42.153   04 Jun 2027 02:20:07.452            25.299               Magadan2           790.594
       373   04 Jun 2027 02:20:41.471   04 Jun 2027 02:21:06.714            25.243               Magadan1           788.844
       374   04 Jun 2027 02:23:55.550   04 Jun 2027 02:24:08.672            13.122               Magadan1           410.062
       375   04 Jun 2027 02:25:01.290   04 Jun 2027 02:25:05.525             4.235                Norilsk           132.344
       376   04 Jun 2027 02:26:23.493   04 Jun 2027 02:26:58.359            34.866               Magadan1          1089.563
       377   04 Jun 2027 02:27:53.000   04 Jun 2027 02:28:44.543            51.543              Murmansk2          1610.719
       378   04 Jun 2027 02:28:44.543   04 Jun 2027 02:28:56.537            11.994              Murmansk1           374.812
       379   04 Jun 2027 02:29:48.653   04 Jun 2027 02:29:59.063            10.410              Murmansk1           325.312
       380   04 Jun 2027 02:31:06.169   04 Jun 2027 02:31:47.406            41.237                 Moscow          1288.656
       381   04 Jun 2027 02:32:35.558   04 Jun 2027 02:33:25.343            49.785                Novosib          1555.781
       382   04 Jun 2027 02:41:50.967   04 Jun 2027 02:42:18.788            27.821                 Moscow           869.406
       383   04 Jun 2027 02:55:27.458   04 Jun 2027 02:55:47.089            19.631               CapeTown           613.469
       384   04 Jun 2027 02:57:27.444   04 Jun 2027 02:57:52.890            25.446               CapeTown           795.188
       385   04 Jun 2027 03:03:44.006   04 Jun 2027 03:04:47.315            63.309               CapeTown          1978.406
       386   04 Jun 2027 03:59:16.433   04 Jun 2027 04:00:38.520            82.087                Anadyr1          2565.219
       387   04 Jun 2027 04:00:43.590   04 Jun 2027 04:01:23.142            39.552               Magadan2          1236.000
       388   04 Jun 2027 04:01:30.850   04 Jun 2027 04:01:36.851             6.001                Anadyr1           187.531
       389   04 Jun 2027 04:01:49.295   04 Jun 2027 04:02:01.565            12.270                Anadyr1           383.437
       390   04 Jun 2027 04:03:56.445   04 Jun 2027 04:04:11.793            15.348               Magadan1           479.625
       391   04 Jun 2027 05:34:36.829   04 Jun 2027 05:34:42.898             6.069                Irkutsk           189.656
       392   04 Jun 2027 05:37:03.357   04 Jun 2027 05:37:19.281            15.924                Irkutsk           497.625
       393   04 Jun 2027 05:37:52.619   04 Jun 2027 05:40:12.954           140.335               Magadan2          4385.469
       394   04 Jun 2027 05:41:41.380   04 Jun 2027 05:41:45.532             4.152              Murmansk1           129.750
       395   04 Jun 2027 05:42:16.946   04 Jun 2027 05:42:35.679            18.733              Murmansk2           585.406
       396   04 Jun 2027 05:43:52.903   04 Jun 2027 05:44:00.021             7.118                Norilsk           222.437
       397   04 Jun 2027 06:16:19.422   04 Jun 2027 06:17:39.951            80.529            RioGallegos          2516.531
       398   04 Jun 2027 06:22:26.891   04 Jun 2027 06:22:50.014            23.123            RioGallegos           722.594
       399   04 Jun 2027 06:23:04.251   04 Jun 2027 06:23:27.325            23.074            RioGallegos           721.063
       400   04 Jun 2027 06:26:14.333   04 Jun 2027 06:27:15.209            60.876            RioGallegos          1902.375
       401   04 Jun 2027 07:06:15.037   04 Jun 2027 07:07:25.555            70.518                Irkutsk          2203.687
       402   04 Jun 2027 07:10:14.599   04 Jun 2027 07:10:30.118            15.519               Magadan1           484.969
       403   04 Jun 2027 07:11:09.957   04 Jun 2027 07:11:50.847            40.890               Magadan1          1277.812
       404   04 Jun 2027 07:11:55.482   04 Jun 2027 07:12:11.787            16.305               Magadan2           509.531
       405   04 Jun 2027 07:12:17.688   04 Jun 2027 07:12:41.706            24.018                Norilsk           750.562
       406   04 Jun 2027 07:12:46.141   04 Jun 2027 07:13:58.560            72.419               Magadan2          2263.094
       407   04 Jun 2027 07:14:14.164   04 Jun 2027 07:14:42.361            28.197                Irkutsk           881.156
       408   04 Jun 2027 07:14:44.151   04 Jun 2027 07:15:21.805            37.654                Novosib          1176.687
       409   04 Jun 2027 07:15:29.569   04 Jun 2027 07:15:37.997             8.428                Norilsk           263.375
       410   04 Jun 2027 07:15:38.747   04 Jun 2027 07:16:18.477            39.730                Norilsk          1241.562
       411   04 Jun 2027 07:16:45.564   04 Jun 2027 07:17:02.618            17.054                Novosib           532.937
       412   04 Jun 2027 07:18:47.234   04 Jun 2027 07:19:12.979            25.745              Murmansk1           804.531
       413   04 Jun 2027 07:50:37.673   04 Jun 2027 07:51:28.008            50.335            RioGallegos          1572.969
       414   04 Jun 2027 08:25:54.567   04 Jun 2027 08:28:22.964           148.397                Sumatra          4637.406
       415   04 Jun 2027 08:38:22.827   04 Jun 2027 08:39:42.967            80.140                  Delhi          2504.375
       416   04 Jun 2027 08:45:47.511   04 Jun 2027 08:45:51.730             4.219                Irkutsk           131.844
       417   04 Jun 2027 08:46:01.934   04 Jun 2027 08:46:12.076            10.142                Norilsk           316.937
       418   04 Jun 2027 08:46:46.992   04 Jun 2027 08:46:51.937             4.945                Novosib           154.531
       419   04 Jun 2027 08:47:25.879   04 Jun 2027 08:47:28.998             3.119                Irkutsk            97.469
       420   04 Jun 2027 08:47:58.494   04 Jun 2027 08:48:29.510            31.016                Irkutsk           969.250
       421   04 Jun 2027 08:48:33.158   04 Jun 2027 08:49:32.292            59.134              Murmansk1          1847.937
       422   04 Jun 2027 08:49:41.557   04 Jun 2027 08:50:21.318            39.761                Norilsk          1242.531
       423   04 Jun 2027 08:50:24.339   04 Jun 2027 08:51:28.864            64.525                Irkutsk          2016.406
       424   04 Jun 2027 08:51:32.535   04 Jun 2027 08:51:41.253             8.718              Murmansk1           272.437
       425   04 Jun 2027 08:52:11.164   04 Jun 2027 08:52:12.105             0.941              Murmansk1            29.406
       426   04 Jun 2027 08:53:06.523   04 Jun 2027 08:53:30.597            24.074              Murmansk1           752.313
       427   04 Jun 2027 08:57:57.329   04 Jun 2027 08:58:15.826            18.497              Murmansk1           578.031
       428   04 Jun 2027 09:28:44.816   04 Jun 2027 09:29:05.406            20.590            RioGallegos           643.438
       429   04 Jun 2027 09:29:42.697   04 Jun 2027 09:29:44.715             2.018            RioGallegos            63.063
       430   04 Jun 2027 09:30:46.559   04 Jun 2027 09:31:25.570            39.011            RioGallegos          1219.094
       431   04 Jun 2027 10:02:58.470   04 Jun 2027 10:03:06.237             7.767                Sumatra           242.719
       432   04 Jun 2027 10:03:45.098   04 Jun 2027 10:05:40.226           115.128                Sumatra          3597.750
       433   04 Jun 2027 10:24:06.460   04 Jun 2027 10:24:11.326             4.866                Novosib           152.062
       434   04 Jun 2027 10:24:13.066   04 Jun 2027 10:24:37.748            24.682              Murmansk1           771.313
       435   04 Jun 2027 10:24:58.815   04 Jun 2027 10:25:09.158            10.343              Murmansk2           323.219
       436   04 Jun 2027 10:25:11.143   04 Jun 2027 10:26:04.287            53.144              Murmansk2          1660.750
       437   04 Jun 2027 10:26:08.252   04 Jun 2027 10:26:54.763            46.511                Norilsk          1453.469
       438   04 Jun 2027 10:26:58.674   04 Jun 2027 10:27:16.672            17.998                Novosib           562.438
       439   04 Jun 2027 10:27:19.454   04 Jun 2027 10:27:30.425            10.971                Novosib           342.844
       440   04 Jun 2027 10:27:49.522   04 Jun 2027 10:27:55.758             6.236                Novosib           194.875
       441   04 Jun 2027 10:27:57.914   04 Jun 2027 10:28:29.933            32.019              Murmansk1          1000.594
       442   04 Jun 2027 11:48:28.325   04 Jun 2027 11:50:22.363           114.038                  Delhi          3563.687
       443   04 Jun 2027 11:50:49.260   04 Jun 2027 11:52:29.134            99.874                  Delhi          3121.062
       444   04 Jun 2027 11:59:15.666   04 Jun 2027 12:00:04.830            49.164              Murmansk2          1536.375
       445   04 Jun 2027 12:00:31.751   04 Jun 2027 12:00:45.727            13.976                Novosib           436.750
       446   04 Jun 2027 12:00:59.154   04 Jun 2027 12:01:32.059            32.905                Novosib          1028.281
       447   04 Jun 2027 12:02:56.486   04 Jun 2027 12:03:18.252            21.766                 Moscow           680.187
       448   04 Jun 2027 12:03:52.598   04 Jun 2027 12:04:19.907            27.309                 Moscow           853.406
       449   04 Jun 2027 12:05:00.725   04 Jun 2027 12:05:01.708             0.983              Murmansk1            30.719
       450   04 Jun 2027 12:05:04.887   04 Jun 2027 12:05:44.012            39.125                Norilsk          1222.656
       451   04 Jun 2027 12:06:07.148   04 Jun 2027 12:06:32.832            25.684                 Moscow           802.625
       452   04 Jun 2027 12:07:31.921   04 Jun 2027 12:08:44.150            72.229                Norilsk          2257.156
       453   04 Jun 2027 13:10:37.540   04 Jun 2027 13:12:46.086           128.546               CapeTown          4017.062
       454   04 Jun 2027 13:16:09.211   04 Jun 2027 13:16:45.916            36.705               CapeTown          1147.031
       455   04 Jun 2027 13:30:37.142   04 Jun 2027 13:30:54.923            17.781                 Moscow           555.656
       456   04 Jun 2027 13:31:26.455   04 Jun 2027 13:31:45.769            19.314                 Moscow           603.562
       457   04 Jun 2027 13:34:03.732   04 Jun 2027 13:35:18.073            74.341              Murmansk2          2323.156
       458   04 Jun 2027 13:35:33.650   04 Jun 2027 13:35:48.594            14.944              Murmansk2           467.000
       459   04 Jun 2027 13:36:46.910   04 Jun 2027 13:37:12.885            25.975              Murmansk1           811.719
       460   04 Jun 2027 13:39:05.749   04 Jun 2027 13:39:22.769            17.020              Murmansk1           531.875
       461   04 Jun 2027 13:40:58.766   04 Jun 2027 13:41:10.908            12.142              Murmansk2           379.437
       462   04 Jun 2027 13:42:23.807   04 Jun 2027 13:42:29.143             5.336              Murmansk2           166.750
       463   04 Jun 2027 13:42:29.143   04 Jun 2027 13:42:39.382            10.239              Murmansk1           319.969
       464   04 Jun 2027 13:43:09.445   04 Jun 2027 13:43:21.358            11.913              Murmansk2           372.281
       465   04 Jun 2027 13:44:51.436   04 Jun 2027 13:45:08.716            17.280              Murmansk1           540.000
       466   04 Jun 2027 13:46:21.993   04 Jun 2027 13:46:29.272             7.279              Murmansk1           227.469
       467   04 Jun 2027 13:49:06.861   04 Jun 2027 13:52:44.017           217.156                Anadyr1          6786.125
       468   04 Jun 2027 13:55:11.120   04 Jun 2027 13:55:38.694            27.574                Anadyr2           861.687
       469   04 Jun 2027 15:11:31.624   04 Jun 2027 15:11:45.088            13.464                 Moscow           420.750
       470   04 Jun 2027 15:12:33.311   04 Jun 2027 15:13:01.741            28.430              Murmansk2           888.437
       471   04 Jun 2027 15:14:19.067   04 Jun 2027 15:14:31.930            12.863              Murmansk1           401.969
       472   04 Jun 2027 15:14:31.930   04 Jun 2027 15:14:48.113            16.183              Murmansk2           505.719
       473   04 Jun 2027 15:16:50.637   04 Jun 2027 15:17:19.921            29.284              Murmansk2           915.125
       474   04 Jun 2027 15:20:31.933   04 Jun 2027 15:22:18.650           106.717              Murmansk1          3334.906
       475   04 Jun 2027 15:24:15.624   04 Jun 2027 15:25:12.984            57.360                Anadyr2          1792.500
       476   04 Jun 2027 15:29:22.745   04 Jun 2027 15:29:40.229            17.484               Magadan2           546.375
       477   04 Jun 2027 15:31:22.412   04 Jun 2027 15:32:10.680            48.268               Magadan2          1508.375
       478   04 Jun 2027 16:55:06.891   04 Jun 2027 16:56:14.534            67.643              Murmansk2          2113.844
       479   04 Jun 2027 17:00:06.763   04 Jun 2027 17:02:42.306           155.543                Anadyr1          4860.719
       480   04 Jun 2027 17:03:02.941   04 Jun 2027 17:03:51.691            48.750                Anadyr1          1523.437
       481   04 Jun 2027 17:04:12.327   04 Jun 2027 17:05:00.441            48.114               Magadan2          1503.562
       482   04 Jun 2027 17:05:20.643   04 Jun 2027 17:07:17.110           116.467               Magadan1          3639.594
