uniorb/output/strategy_2/Drop/Drop_KinoSat_111107.txt

KinoSat_111107
-------------------------
    Access    *     Start Time (UTCG)     *     Stop Time (UTCG)  *   Duration (s)        *       Station  *  Data (Mbytes)
         1   01 Jun 2027 03:17:47.456   01 Jun 2027 03:17:52.818             5.362                Norilsk           167.563
         2   01 Jun 2027 03:20:56.005   01 Jun 2027 03:21:27.459            31.454              Murmansk1           982.937
         3   01 Jun 2027 03:21:46.557   01 Jun 2027 03:22:14.639            28.082              Murmansk1           877.563
         4   01 Jun 2027 04:40:40.623   01 Jun 2027 04:41:37.131            56.508               Magadan2          1765.875
         5   01 Jun 2027 04:41:41.809   01 Jun 2027 04:42:44.381            62.572               Magadan2          1955.375
         6   01 Jun 2027 04:42:44.381   01 Jun 2027 04:42:54.243             9.862               Magadan1           308.187
         7   01 Jun 2027 04:43:09.770   01 Jun 2027 04:45:12.037           122.267                Anadyr2          3820.844
         8   01 Jun 2027 04:45:35.310   01 Jun 2027 04:45:37.121             1.811                Anadyr2            56.594
         9   01 Jun 2027 04:45:39.123   01 Jun 2027 04:46:11.351            32.228               Magadan2          1007.125
        10   01 Jun 2027 06:16:30.910   01 Jun 2027 06:16:39.829             8.919                Irkutsk           278.719
        11   01 Jun 2027 06:19:20.342   01 Jun 2027 06:19:46.890            26.548                Irkutsk           829.625
        12   01 Jun 2027 06:19:54.458   01 Jun 2027 06:20:44.539            50.081               Magadan1          1565.031
        13   01 Jun 2027 06:21:06.628   01 Jun 2027 06:22:34.509            87.881                Anadyr2          2746.281
        14   01 Jun 2027 07:54:06.698   01 Jun 2027 07:56:00.622           113.924                Irkutsk          3560.125
        15   01 Jun 2027 07:56:15.169   01 Jun 2027 07:56:42.065            26.896                Irkutsk           840.500
        16   01 Jun 2027 07:56:42.725   01 Jun 2027 07:58:00.238            77.513               Magadan2          2422.281
        17   01 Jun 2027 07:58:54.564   01 Jun 2027 07:59:19.288            24.724              Murmansk2           772.625
        18   01 Jun 2027 07:59:54.332   01 Jun 2027 08:00:12.703            18.371                Norilsk           574.094
        19   01 Jun 2027 08:33:01.250   01 Jun 2027 08:34:06.767            65.517            RioGallegos          2047.406
        20   01 Jun 2027 08:35:34.035   01 Jun 2027 08:35:37.602             3.567            RioGallegos           111.469
        21   01 Jun 2027 09:08:38.591   01 Jun 2027 09:09:20.661            42.070                Sumatra          1314.687
        22   01 Jun 2027 09:10:23.972   01 Jun 2027 09:10:52.623            28.651                Sumatra           895.344
        23   01 Jun 2027 09:30:11.848   01 Jun 2027 09:30:31.285            19.437                Norilsk           607.406
        24   01 Jun 2027 09:30:52.332   01 Jun 2027 09:34:11.268           198.936                Novosib          6216.750
        25   01 Jun 2027 09:34:11.450   01 Jun 2027 09:34:18.042             6.592                Irkutsk           206.000
        26   01 Jun 2027 09:34:37.688   01 Jun 2027 09:35:24.728            47.040              Murmansk2          1470.000
        27   01 Jun 2027 09:36:42.672   01 Jun 2027 09:37:07.766            25.094              Murmansk2           784.187
        28   01 Jun 2027 10:10:30.890   01 Jun 2027 10:11:08.759            37.869            RioGallegos          1183.406
        29   01 Jun 2027 10:44:42.973   01 Jun 2027 10:45:47.950            64.977                Sumatra          2030.531
        30   01 Jun 2027 10:48:06.844   01 Jun 2027 10:48:37.330            30.486                Sumatra           952.688
        31   01 Jun 2027 10:54:16.396   01 Jun 2027 10:55:13.205            56.809                  Delhi          1775.281
        32   01 Jun 2027 11:06:47.803   01 Jun 2027 11:07:16.241            28.438                Irkutsk           888.688
        33   01 Jun 2027 11:07:23.878   01 Jun 2027 11:08:20.758            56.880                 Moscow          1777.500
        34   01 Jun 2027 11:08:35.497   01 Jun 2027 11:09:27.529            52.032                Novosib          1626.000
        35   01 Jun 2027 11:09:36.818   01 Jun 2027 11:09:58.668            21.850                Norilsk           682.813
        36   01 Jun 2027 11:10:03.767   01 Jun 2027 11:11:10.485            66.718              Murmansk1          2084.938
        37   01 Jun 2027 11:11:22.635   01 Jun 2027 11:11:40.727            18.092              Murmansk1           565.375
        38   01 Jun 2027 12:29:51.508   01 Jun 2027 12:30:08.148            16.640                  Delhi           520.000
        39   01 Jun 2027 12:30:40.765   01 Jun 2027 12:31:01.072            20.307                  Delhi           634.594
        40   01 Jun 2027 12:31:52.838   01 Jun 2027 12:33:06.162            73.324                  Delhi          2291.375
        41   01 Jun 2027 12:34:11.129   01 Jun 2027 12:34:37.914            26.785                  Delhi           837.031
        42   01 Jun 2027 12:36:57.484   01 Jun 2027 12:38:07.512            70.028                 Moscow          2188.375
        43   01 Jun 2027 12:39:03.431   01 Jun 2027 12:39:05.871             2.440                 Moscow            76.250
        44   01 Jun 2027 12:39:48.513   01 Jun 2027 12:40:23.554            35.041                Novosib          1095.031
        45   01 Jun 2027 12:40:59.981   01 Jun 2027 12:42:00.817            60.836                Novosib          1901.125
        46   01 Jun 2027 12:42:27.653   01 Jun 2027 12:42:46.432            18.779              Murmansk2           586.844
        47   01 Jun 2027 12:42:50.189   01 Jun 2027 12:43:10.264            20.075                Norilsk           627.344
        48   01 Jun 2027 12:44:31.013   01 Jun 2027 12:45:25.161            54.148                Norilsk          1692.125
        49   01 Jun 2027 12:46:15.444   01 Jun 2027 12:47:07.897            52.453                Norilsk          1639.156
        50   01 Jun 2027 14:12:45.381   01 Jun 2027 14:14:24.092            98.711                 Moscow          3084.719
        51   01 Jun 2027 14:16:15.317   01 Jun 2027 14:17:51.063            95.746              Murmansk2          2992.062
        52   01 Jun 2027 14:17:55.940   01 Jun 2027 14:20:36.116           160.176              Murmansk1          5005.500
        53   01 Jun 2027 14:24:37.583   01 Jun 2027 14:24:58.650            21.067                Norilsk           658.344
        54   01 Jun 2027 14:31:47.369   01 Jun 2027 14:33:09.464            82.095                Anadyr2          2565.469
        55   01 Jun 2027 14:34:33.573   01 Jun 2027 14:35:46.370            72.797                Anadyr1          2274.906
        56   01 Jun 2027 15:26:02.646   01 Jun 2027 15:26:37.439            34.793               CapeTown          1087.281
        57   01 Jun 2027 15:33:51.825   01 Jun 2027 15:34:04.782            12.957               CapeTown           404.906
        58   01 Jun 2027 15:52:36.666   01 Jun 2027 15:52:44.049             7.383                 Moscow           230.719
        59   01 Jun 2027 15:54:25.850   01 Jun 2027 15:56:16.124           110.274              Murmansk2          3446.063
        60   01 Jun 2027 15:56:56.542   01 Jun 2027 15:57:10.203            13.661              Murmansk2           426.906
        61   01 Jun 2027 16:03:43.545   01 Jun 2027 16:04:44.922            61.377              Murmansk2          1918.031
        62   01 Jun 2027 16:06:39.945   01 Jun 2027 16:09:17.127           157.182                Anadyr2          4911.937
        63   01 Jun 2027 17:02:46.683   01 Jun 2027 17:03:54.810            68.127               CapeTown          2128.969
        64   01 Jun 2027 17:35:43.433   01 Jun 2027 17:39:37.702           234.269              Murmansk2          7320.906
        65   01 Jun 2027 17:42:29.066   01 Jun 2027 17:44:27.643           118.577                Anadyr1          3705.531
        66   01 Jun 2027 17:45:06.735   01 Jun 2027 17:47:49.592           162.857               Magadan1          5089.281
        67   01 Jun 2027 19:18:24.264   01 Jun 2027 19:20:22.737           118.473                Anadyr1          3702.281
        68   01 Jun 2027 19:20:33.931   01 Jun 2027 19:22:27.877           113.946                Anadyr2          3560.812
        69   01 Jun 2027 19:22:48.127   01 Jun 2027 19:24:25.420            97.293               Magadan2          3040.406
        70   01 Jun 2027 19:24:25.420   01 Jun 2027 19:25:04.831            39.411               Magadan1          1231.594
        71   01 Jun 2027 20:13:06.943   01 Jun 2027 20:16:29.634           202.691            RioGallegos          6334.094
        72   01 Jun 2027 20:17:48.080   01 Jun 2027 20:17:56.593             8.513            RioGallegos           266.031
        73   01 Jun 2027 20:54:04.390   01 Jun 2027 20:56:28.422           144.032                Anadyr2          4501.000
        74   01 Jun 2027 20:56:35.381   01 Jun 2027 20:59:18.425           163.044                Norilsk          5095.125
        75   01 Jun 2027 21:00:34.292   01 Jun 2027 21:02:29.365           115.073                Irkutsk          3596.031
        76   01 Jun 2027 21:03:39.175   01 Jun 2027 21:03:41.574             2.399                Irkutsk            74.969
        77   01 Jun 2027 21:04:26.290   01 Jun 2027 21:05:25.634            59.344                Novosib          1854.500
        78   01 Jun 2027 21:14:28.175   01 Jun 2027 21:15:18.320            50.145                Sumatra          1567.031
        79   01 Jun 2027 21:16:35.679   01 Jun 2027 21:17:51.586            75.907                Sumatra          2372.094
        80   01 Jun 2027 22:32:10.910   01 Jun 2027 22:33:29.677            78.767                Norilsk          2461.469
        81   01 Jun 2027 22:34:17.056   01 Jun 2027 22:34:59.272            42.216               Magadan2          1319.250
        82   01 Jun 2027 22:36:02.341   01 Jun 2027 22:37:17.540            75.199                Irkutsk          2349.969
        83   01 Jun 2027 22:37:32.612   01 Jun 2027 22:38:56.281            83.669                Novosib          2614.656
        84   01 Jun 2027 22:39:43.039   01 Jun 2027 22:40:00.609            17.570                Novosib           549.063
        85   01 Jun 2027 22:44:21.684   01 Jun 2027 22:47:31.487           189.803                  Delhi          5931.344
        86   02 Jun 2027 00:02:55.811   02 Jun 2027 00:03:41.370            45.559                Anadyr2          1423.719
        87   02 Jun 2027 00:05:01.888   02 Jun 2027 00:05:17.250            15.362                Anadyr2           480.062
        88   02 Jun 2027 00:05:26.294   02 Jun 2027 00:05:39.501            13.207                Anadyr2           412.719
        89   02 Jun 2027 00:08:28.470   02 Jun 2027 00:09:09.443            40.973               Magadan2          1280.406
        90   02 Jun 2027 00:10:04.717   02 Jun 2027 00:10:07.500             2.783               Magadan2            86.969
        91   02 Jun 2027 00:10:37.849   02 Jun 2027 00:13:38.411           180.562              Murmansk1          5642.562
        92   02 Jun 2027 00:13:50.006   02 Jun 2027 00:14:39.159            49.153                Novosib          1536.031
        93   02 Jun 2027 00:16:09.406   02 Jun 2027 00:16:16.136             6.730                 Moscow           210.313
        94   02 Jun 2027 00:18:10.613   02 Jun 2027 00:18:39.906            29.293                 Moscow           915.406
        95   02 Jun 2027 00:19:25.926   02 Jun 2027 00:21:19.259           113.333                  Delhi          3541.656
        96   02 Jun 2027 01:35:58.307   02 Jun 2027 01:36:17.318            19.011                Anadyr2           594.094
        97   02 Jun 2027 01:36:35.451   02 Jun 2027 01:37:31.358            55.907                Anadyr2          1747.094
        98   02 Jun 2027 01:38:07.876   02 Jun 2027 01:38:24.479            16.603                Anadyr1           518.844
        99   02 Jun 2027 01:38:42.675   02 Jun 2027 01:38:50.753             8.078                Anadyr2           252.438
       100   02 Jun 2027 01:38:50.753   02 Jun 2027 01:38:56.370             5.617                Anadyr1           175.531
       101   02 Jun 2027 01:41:20.872   02 Jun 2027 01:42:31.423            70.551               Magadan2          2204.719
       102   02 Jun 2027 01:42:31.423   02 Jun 2027 01:42:53.741            22.318               Magadan1           697.437
       103   02 Jun 2027 01:44:53.705   02 Jun 2027 01:45:09.142            15.437               Magadan2           482.406
       104   02 Jun 2027 01:46:18.579   02 Jun 2027 01:47:07.730            49.151              Murmansk2          1535.969
       105   02 Jun 2027 01:47:16.580   02 Jun 2027 01:48:18.616            62.036              Murmansk1          1938.625
       106   02 Jun 2027 01:49:44.782   02 Jun 2027 01:52:03.044           138.262                 Moscow          4320.687
       107   02 Jun 2027 01:52:06.615   02 Jun 2027 01:52:16.630            10.015                 Moscow           312.969
       108   02 Jun 2027 02:14:22.111   02 Jun 2027 02:15:47.490            85.379               CapeTown          2668.094
       109   02 Jun 2027 03:31:28.247   02 Jun 2027 03:31:44.383            16.136              Murmansk1           504.250
       110   02 Jun 2027 03:33:38.254   02 Jun 2027 03:34:12.800            34.546              Murmansk1          1079.562
       111   02 Jun 2027 04:52:58.931   02 Jun 2027 04:53:28.884            29.953                Anadyr2           936.031
       112   02 Jun 2027 04:53:45.871   02 Jun 2027 04:55:11.070            85.199                Anadyr1          2662.469
       113   02 Jun 2027 04:55:11.070   02 Jun 2027 04:57:10.788           119.718                Anadyr2          3741.188
       114   02 Jun 2027 06:28:44.515   02 Jun 2027 06:29:05.756            21.241                Irkutsk           663.781
       115   02 Jun 2027 06:29:24.775   02 Jun 2027 06:30:32.799            68.024                Irkutsk          2125.750
       116   02 Jun 2027 06:32:21.287   02 Jun 2027 06:32:33.304            12.017                Irkutsk           375.531
       117   02 Jun 2027 08:05:51.147   02 Jun 2027 08:09:51.089           239.942               Magadan1          7498.188
       118   02 Jun 2027 08:10:12.562   02 Jun 2027 08:10:17.020             4.458                Irkutsk           139.312
       119   02 Jun 2027 08:10:21.306   02 Jun 2027 08:10:38.033            16.727                Norilsk           522.719
       120   02 Jun 2027 08:10:38.355   02 Jun 2027 08:11:25.422            47.067                Novosib          1470.844
       121   02 Jun 2027 08:11:35.981   02 Jun 2027 08:12:20.036            44.055              Murmansk2          1376.719
       122   02 Jun 2027 08:45:01.370   02 Jun 2027 08:45:11.564            10.194            RioGallegos           318.563
       123   02 Jun 2027 08:45:59.985   02 Jun 2027 08:47:24.647            84.662            RioGallegos          2645.688
       124   02 Jun 2027 09:20:19.570   02 Jun 2027 09:21:14.549            54.979                Sumatra          1718.094
       125   02 Jun 2027 09:22:45.380   02 Jun 2027 09:23:20.676            35.296                Sumatra          1103.000
       126   02 Jun 2027 09:34:00.934   02 Jun 2027 09:34:09.478             8.544                  Delhi           267.000
       127   02 Jun 2027 09:37:55.885   02 Jun 2027 09:38:20.132            24.247                  Delhi           757.719
       128   02 Jun 2027 09:40:28.072   02 Jun 2027 09:40:36.714             8.642                Irkutsk           270.062
       129   02 Jun 2027 09:40:37.881   02 Jun 2027 09:41:33.605            55.724                Irkutsk          1741.375
       130   02 Jun 2027 09:41:43.105   02 Jun 2027 09:41:58.785            15.680                Norilsk           490.000
       131   02 Jun 2027 09:42:00.932   02 Jun 2027 09:42:16.209            15.277                Irkutsk           477.406
       132   02 Jun 2027 09:42:24.733   02 Jun 2027 09:42:55.647            30.914                Norilsk           966.063
       133   02 Jun 2027 09:43:02.381   02 Jun 2027 09:44:38.004            95.623                Novosib          2988.219
       134   02 Jun 2027 09:44:44.038   02 Jun 2027 09:45:02.711            18.673                Irkutsk           583.531
       135   02 Jun 2027 09:45:37.814   02 Jun 2027 09:46:25.193            47.379              Murmansk1          1480.594
       136   02 Jun 2027 09:51:10.535   02 Jun 2027 09:51:39.763            29.228              Murmansk2           913.375
       137   02 Jun 2027 10:23:05.408   02 Jun 2027 10:23:22.833            17.425            RioGallegos           544.531
       138   02 Jun 2027 10:24:19.706   02 Jun 2027 10:24:31.608            11.902            RioGallegos           371.937
       139   02 Jun 2027 10:26:18.313   02 Jun 2027 10:26:32.032            13.719            RioGallegos           428.719
       140   02 Jun 2027 10:57:19.011   02 Jun 2027 10:57:52.377            33.366                Sumatra          1042.687
       141   02 Jun 2027 10:58:42.645   02 Jun 2027 11:00:18.420            95.775                Sumatra          2992.969
       142   02 Jun 2027 11:18:11.852   02 Jun 2027 11:19:32.933            81.081              Murmansk1          2533.781
       143   02 Jun 2027 11:19:38.412   02 Jun 2027 11:19:57.815            19.403                Norilsk           606.344
       144   02 Jun 2027 11:20:00.772   02 Jun 2027 11:20:04.350             3.578                Norilsk           111.812
       145   02 Jun 2027 11:20:05.325   02 Jun 2027 11:21:03.460            58.135                Novosib          1816.719
       146   02 Jun 2027 11:21:09.413   02 Jun 2027 11:21:28.848            19.435                Novosib           607.344
       147   02 Jun 2027 11:21:35.809   02 Jun 2027 11:21:37.572             1.763                Novosib            55.094
       148   02 Jun 2027 11:21:38.472   02 Jun 2027 11:21:42.159             3.687                Norilsk           115.219
       149   02 Jun 2027 11:21:44.760   02 Jun 2027 11:22:14.661            29.901              Murmansk1           934.406
       150   02 Jun 2027 11:24:31.537   02 Jun 2027 11:24:44.399            12.862                 Moscow           401.938
       151   02 Jun 2027 12:42:46.740   02 Jun 2027 12:44:59.010           132.270                  Delhi          4133.438
       152   02 Jun 2027 12:46:53.543   02 Jun 2027 12:47:10.534            16.991                  Delhi           530.969
       153   02 Jun 2027 12:48:48.070   02 Jun 2027 12:48:57.716             9.646                 Moscow           301.438
       154   02 Jun 2027 12:49:37.698   02 Jun 2027 12:51:17.663            99.965                 Moscow          3123.906
       155   02 Jun 2027 12:51:42.684   02 Jun 2027 12:52:28.598            45.914                Novosib          1434.812
       156   02 Jun 2027 12:53:25.602   02 Jun 2027 12:54:46.877            81.275              Murmansk1          2539.844
       157   02 Jun 2027 13:04:21.593   02 Jun 2027 13:04:30.582             8.989              Murmansk2           280.906
       158   02 Jun 2027 14:05:06.536   02 Jun 2027 14:07:07.514           120.978               CapeTown          3780.563
       159   02 Jun 2027 14:09:04.718   02 Jun 2027 14:10:17.205            72.487               CapeTown          2265.219
       160   02 Jun 2027 14:24:59.636   02 Jun 2027 14:25:25.152            25.516                 Moscow           797.375
       161   02 Jun 2027 14:28:26.528   02 Jun 2027 14:29:55.288            88.760              Murmansk1          2773.750
       162   02 Jun 2027 14:31:17.317   02 Jun 2027 14:32:55.069            97.752              Murmansk2          3054.750
       163   02 Jun 2027 14:43:31.045   02 Jun 2027 14:43:55.605            24.560                Anadyr1           767.500
       164   02 Jun 2027 14:44:21.191   02 Jun 2027 14:45:08.269            47.078                Anadyr2          1471.188
       165   02 Jun 2027 14:46:17.709   02 Jun 2027 14:46:59.224            41.515                Anadyr1          1297.344
       166   02 Jun 2027 14:47:45.181   02 Jun 2027 14:48:19.737            34.556                Anadyr2          1079.875
       167   02 Jun 2027 14:49:03.758   02 Jun 2027 14:49:50.125            46.367                Anadyr2          1448.969
       168   02 Jun 2027 15:46:51.561   02 Jun 2027 15:47:02.533            10.972               CapeTown           342.875
       169   02 Jun 2027 16:05:47.837   02 Jun 2027 16:06:32.192            44.355                 Moscow          1386.094
       170   02 Jun 2027 16:06:54.478   02 Jun 2027 16:07:16.396            21.918              Murmansk2           684.937
       171   02 Jun 2027 16:07:31.040   02 Jun 2027 16:07:52.561            21.521              Murmansk1           672.531
       172   02 Jun 2027 16:08:11.345   02 Jun 2027 16:08:25.299            13.954              Murmansk2           436.062
       173   02 Jun 2027 16:10:57.703   02 Jun 2027 16:11:16.716            19.013              Murmansk2           594.156
       174   02 Jun 2027 16:11:55.934   02 Jun 2027 16:12:12.382            16.448              Murmansk1           514.000
       175   02 Jun 2027 16:18:39.295   02 Jun 2027 16:20:49.489           130.194                Anadyr1          4068.562
       176   02 Jun 2027 16:23:36.393   02 Jun 2027 16:24:14.008            37.615                Anadyr2          1175.469
       177   02 Jun 2027 16:24:39.400   02 Jun 2027 16:26:25.399           105.999               Magadan1          3312.469
       178   02 Jun 2027 17:49:13.822   02 Jun 2027 17:50:51.866            98.044              Murmansk1          3063.875
       179   02 Jun 2027 17:54:30.508   02 Jun 2027 17:56:28.589           118.081                Anadyr2          3690.031
       180   02 Jun 2027 17:56:50.272   02 Jun 2027 17:57:03.224            12.952                Anadyr2           404.750
       181   02 Jun 2027 17:57:27.650   02 Jun 2027 18:00:57.370           209.720               Magadan2          6553.750
       182   02 Jun 2027 19:30:25.020   02 Jun 2027 19:32:24.233           119.213                Anadyr1          3725.406
       183   02 Jun 2027 19:32:31.309   02 Jun 2027 19:34:16.331           105.022                Anadyr2          3281.938
       184   02 Jun 2027 19:34:24.321   02 Jun 2027 19:36:26.277           121.956               Magadan1          3811.125
       185   02 Jun 2027 19:39:48.283   02 Jun 2027 19:39:56.757             8.474               Magadan2           264.812
       186   02 Jun 2027 19:43:49.258   02 Jun 2027 19:44:47.667            58.409               Magadan2          1825.281
       187   02 Jun 2027 20:24:53.396   02 Jun 2027 20:28:10.612           197.216            RioGallegos          6163.000
       188   02 Jun 2027 21:07:11.964   02 Jun 2027 21:07:21.456             9.492                Anadyr2           296.625
       189   02 Jun 2027 21:08:06.035   02 Jun 2027 21:08:13.268             7.233                Anadyr2           226.031
       190   02 Jun 2027 21:08:16.153   02 Jun 2027 21:10:39.964           143.811                Norilsk          4494.094
       191   02 Jun 2027 21:11:09.577   02 Jun 2027 21:12:09.630            60.053                Norilsk          1876.656
       192   02 Jun 2027 21:12:27.243   02 Jun 2027 21:12:52.091            24.848                Irkutsk           776.500
       193   02 Jun 2027 21:14:23.159   02 Jun 2027 21:14:31.187             8.028                Irkutsk           250.875
       194   02 Jun 2027 21:14:44.460   02 Jun 2027 21:16:40.646           116.186                Novosib          3630.813
       195   02 Jun 2027 21:17:40.362   02 Jun 2027 21:17:48.610             8.248                Novosib           257.750
       196   02 Jun 2027 21:26:12.634   02 Jun 2027 21:28:37.551           144.917                Sumatra          4528.656
       197   02 Jun 2027 22:44:12.924   02 Jun 2027 22:44:32.558            19.634                Norilsk           613.563
       198   02 Jun 2027 22:44:50.724   02 Jun 2027 22:46:21.880            91.156               Magadan2          2848.625
       199   02 Jun 2027 22:47:34.112   02 Jun 2027 22:48:18.975            44.863               Magadan2          1401.969
       200   02 Jun 2027 22:48:34.729   02 Jun 2027 22:49:00.651            25.922                Irkutsk           810.062
       201   02 Jun 2027 22:49:30.985   02 Jun 2027 22:49:38.123             7.138                Novosib           223.063
       202   02 Jun 2027 22:50:09.544   02 Jun 2027 22:50:44.431            34.887                Novosib          1090.219
       203   02 Jun 2027 22:53:38.965   02 Jun 2027 22:54:08.073            29.108                Novosib           909.625
       204   02 Jun 2027 22:56:01.285   02 Jun 2027 22:59:07.145           185.860                  Delhi          5808.125
       205   03 Jun 2027 00:14:18.610   03 Jun 2027 00:14:31.755            13.145                Anadyr2           410.781
       206   03 Jun 2027 00:15:49.553   03 Jun 2027 00:16:05.261            15.708                Anadyr1           490.875
       207   03 Jun 2027 00:16:50.759   03 Jun 2027 00:17:08.221            17.462                Anadyr1           545.688
       208   03 Jun 2027 00:18:54.806   03 Jun 2027 00:19:20.802            25.996                Anadyr1           812.375
       209   03 Jun 2027 00:19:51.792   03 Jun 2027 00:20:09.281            17.489                Anadyr2           546.531
       210   03 Jun 2027 00:20:12.162   03 Jun 2027 00:21:04.092            51.930                Norilsk          1622.813
       211   03 Jun 2027 00:21:16.768   03 Jun 2027 00:22:10.846            54.078               Magadan1          1689.938
       212   03 Jun 2027 00:22:10.846   03 Jun 2027 00:23:19.905            69.059               Magadan2          2158.094
       213   03 Jun 2027 00:23:41.943   03 Jun 2027 00:25:04.431            82.488              Murmansk1          2577.750
       214   03 Jun 2027 00:27:26.699   03 Jun 2027 00:28:12.242            45.543                 Moscow          1423.219
       215   03 Jun 2027 00:28:45.386   03 Jun 2027 00:29:55.553            70.167                 Moscow          2192.719
       216   03 Jun 2027 00:32:08.587   03 Jun 2027 00:32:19.271            10.684                 Moscow           333.875
       217   03 Jun 2027 01:47:43.258   03 Jun 2027 01:50:47.618           184.360                Anadyr1          5761.250
       218   03 Jun 2027 01:52:48.845   03 Jun 2027 01:54:24.807            95.962               Magadan2          2998.813
       219   03 Jun 2027 01:55:59.731   03 Jun 2027 01:56:11.512            11.781                Norilsk           368.156
       220   03 Jun 2027 01:56:38.195   03 Jun 2027 01:56:55.726            17.531               Magadan1           547.844
       221   03 Jun 2027 01:58:19.988   03 Jun 2027 01:59:38.092            78.104              Murmansk2          2440.750
       222   03 Jun 2027 02:00:22.304   03 Jun 2027 02:01:00.660            38.356                Novosib          1198.625
       223   03 Jun 2027 02:01:41.888   03 Jun 2027 02:02:58.413            76.525                 Moscow          2391.406
       224   03 Jun 2027 02:14:06.432   03 Jun 2027 02:14:07.029             0.597                 Moscow            18.656
       225   03 Jun 2027 02:26:01.763   03 Jun 2027 02:26:48.976            47.213               CapeTown          1475.406
       226   03 Jun 2027 02:29:20.929   03 Jun 2027 02:29:24.874             3.945               CapeTown           123.281
       227   03 Jun 2027 02:30:11.858   03 Jun 2027 02:30:42.634            30.776               CapeTown           961.750
       228   03 Jun 2027 03:30:13.548   03 Jun 2027 03:30:53.283            39.735                Anadyr2          1241.719
       229   03 Jun 2027 03:31:13.736   03 Jun 2027 03:31:16.616             2.880                Anadyr1            90.000
       230   03 Jun 2027 03:31:29.358   03 Jun 2027 03:31:48.466            19.108                Anadyr1           597.125
       231   03 Jun 2027 03:32:01.143   03 Jun 2027 03:33:20.548            79.405                Anadyr1          2481.406
       232   03 Jun 2027 05:04:08.119   03 Jun 2027 05:07:10.748           182.629                Anadyr2          5707.156
       233   03 Jun 2027 05:07:10.748   03 Jun 2027 05:08:26.345            75.597                Anadyr1          2362.406
       234   03 Jun 2027 05:09:18.646   03 Jun 2027 05:10:06.087            47.441               Magadan1          1482.531
       235   03 Jun 2027 06:40:13.976   03 Jun 2027 06:41:25.534            71.558                Anadyr1          2236.187
       236   03 Jun 2027 06:41:25.534   03 Jun 2027 06:41:31.796             6.262                Anadyr2           195.688
       237   03 Jun 2027 06:41:37.908   03 Jun 2027 06:42:11.004            33.096               Magadan2          1034.250
       238   03 Jun 2027 06:42:11.004   03 Jun 2027 06:42:49.498            38.494               Magadan1          1202.938
       239   03 Jun 2027 06:42:56.484   03 Jun 2027 06:43:36.338            39.854                Anadyr2          1245.438
       240   03 Jun 2027 06:43:46.409   03 Jun 2027 06:44:19.807            33.398               Magadan1          1043.687
       241   03 Jun 2027 06:44:30.086   03 Jun 2027 06:45:01.681            31.595                Irkutsk           987.344
       242   03 Jun 2027 06:45:07.154   03 Jun 2027 06:46:25.736            78.582                Anadyr1          2455.687
       243   03 Jun 2027 07:22:22.882   03 Jun 2027 07:22:41.013            18.131            RioGallegos           566.594
       244   03 Jun 2027 07:31:37.959   03 Jun 2027 07:31:46.524             8.565            RioGallegos           267.656
       245   03 Jun 2027 08:15:19.560   03 Jun 2027 08:15:49.492            29.932               Magadan2           935.375
       246   03 Jun 2027 08:16:06.756   03 Jun 2027 08:16:15.386             8.630                Norilsk           269.687
       247   03 Jun 2027 08:16:22.102   03 Jun 2027 08:16:44.600            22.498                Irkutsk           703.063
       248   03 Jun 2027 08:16:50.945   03 Jun 2027 08:17:09.889            18.944                Norilsk           592.000
       249   03 Jun 2027 08:17:27.619   03 Jun 2027 08:17:54.302            26.683                Irkutsk           833.844
       250   03 Jun 2027 08:18:08.247   03 Jun 2027 08:19:40.753            92.506               Magadan2          2890.813
       251   03 Jun 2027 08:19:47.644   03 Jun 2027 08:19:56.698             9.054                Novosib           282.938
       252   03 Jun 2027 08:19:57.835   03 Jun 2027 08:20:11.756            13.921                Norilsk           435.031
       253   03 Jun 2027 08:20:17.080   03 Jun 2027 08:20:48.816            31.736                Norilsk           991.750
       254   03 Jun 2027 08:20:52.729   03 Jun 2027 08:21:06.690            13.961              Murmansk2           436.281
       255   03 Jun 2027 08:21:14.000   03 Jun 2027 08:21:18.829             4.829                Norilsk           150.906
       256   03 Jun 2027 08:21:23.519   03 Jun 2027 08:21:43.780            20.261                Norilsk           633.156
       257   03 Jun 2027 08:21:51.063   03 Jun 2027 08:22:21.735            30.672                Irkutsk           958.500
       258   03 Jun 2027 08:22:41.576   03 Jun 2027 08:22:42.211             0.635              Murmansk2            19.844
       259   03 Jun 2027 08:24:45.295   03 Jun 2027 08:24:48.966             3.671              Murmansk1           114.719
       260   03 Jun 2027 08:25:21.694   03 Jun 2027 08:26:14.333            52.639              Murmansk1          1644.969
       261   03 Jun 2027 08:57:04.839   03 Jun 2027 08:58:10.440            65.601            RioGallegos          2050.031
       262   03 Jun 2027 09:32:07.265   03 Jun 2027 09:33:02.488            55.223                Sumatra          1725.719
       263   03 Jun 2027 09:34:59.527   03 Jun 2027 09:35:08.432             8.905                Sumatra           278.281
       264   03 Jun 2027 09:45:33.466   03 Jun 2027 09:45:48.689            15.223                  Delhi           475.719
       265   03 Jun 2027 09:46:28.815   03 Jun 2027 09:46:59.933            31.118                  Delhi           972.438
       266   03 Jun 2027 09:51:08.531   03 Jun 2027 09:51:15.385             6.854                  Delhi           214.187
       267   03 Jun 2027 09:52:23.449   03 Jun 2027 09:52:43.525            20.076                Norilsk           627.375
       268   03 Jun 2027 09:53:33.525   03 Jun 2027 09:54:26.061            52.536                Irkutsk          1641.750
       269   03 Jun 2027 09:54:31.303   03 Jun 2027 09:55:32.854            61.551                Irkutsk          1923.469
       270   03 Jun 2027 09:55:42.175   03 Jun 2027 09:56:07.793            25.618                Norilsk           800.563
       271   03 Jun 2027 09:56:09.230   03 Jun 2027 09:56:46.464            37.234              Murmansk1          1163.563
       272   03 Jun 2027 09:57:02.489   03 Jun 2027 09:58:14.514            72.025                Irkutsk          2250.781
       273   03 Jun 2027 10:35:47.534   03 Jun 2027 10:36:02.824            15.290            RioGallegos           477.813
       274   03 Jun 2027 10:37:56.520   03 Jun 2027 10:38:25.102            28.582            RioGallegos           893.188
       275   03 Jun 2027 11:10:11.803   03 Jun 2027 11:10:32.518            20.715                Sumatra           647.344
       276   03 Jun 2027 11:12:46.330   03 Jun 2027 11:14:40.791           114.461                Sumatra          3576.906
       277   03 Jun 2027 11:30:04.958   03 Jun 2027 11:30:07.675             2.717                Irkutsk            84.906
       278   03 Jun 2027 11:30:08.354   03 Jun 2027 11:30:15.415             7.061                Novosib           220.656
       279   03 Jun 2027 11:30:16.596   03 Jun 2027 11:30:46.068            29.472                Novosib           921.000
       280   03 Jun 2027 11:31:32.025   03 Jun 2027 11:31:58.579            26.554              Murmansk1           829.813
       281   03 Jun 2027 11:32:01.536   03 Jun 2027 11:32:03.792             2.256                Norilsk            70.500
       282   03 Jun 2027 11:32:04.079   03 Jun 2027 11:32:22.753            18.674              Murmansk2           583.562
       283   03 Jun 2027 11:32:22.753   03 Jun 2027 11:32:40.062            17.309              Murmansk1           540.906
       284   03 Jun 2027 11:32:42.172   03 Jun 2027 11:33:41.875            59.703              Murmansk2          1865.719
       285   03 Jun 2027 11:33:46.368   03 Jun 2027 11:33:49.859             3.491                Novosib           109.094
       286   03 Jun 2027 11:33:54.017   03 Jun 2027 11:34:03.731             9.714                Novosib           303.563
       287   03 Jun 2027 11:34:16.901   03 Jun 2027 11:34:30.345            13.444                 Moscow           420.125
       288   03 Jun 2027 11:34:39.661   03 Jun 2027 11:34:55.949            16.288              Murmansk2           509.000
       289   03 Jun 2027 12:56:11.541   03 Jun 2027 12:59:21.224           189.683                  Delhi          5927.594
       290   03 Jun 2027 13:02:19.879   03 Jun 2027 13:03:32.918            73.039                 Moscow          2282.469
       291   03 Jun 2027 13:03:59.583   03 Jun 2027 13:06:33.984           154.401              Murmansk2          4825.031
       292   03 Jun 2027 14:16:09.493   03 Jun 2027 14:18:45.635           156.142               CapeTown          4879.437
       293   03 Jun 2027 14:20:44.344   03 Jun 2027 14:21:32.772            48.428               CapeTown          1513.375
       294   03 Jun 2027 14:23:36.853   03 Jun 2027 14:24:02.293            25.440               CapeTown           795.000
       295   03 Jun 2027 14:40:39.631   03 Jun 2027 14:41:18.546            38.915              Murmansk1          1216.094
       296   03 Jun 2027 14:41:18.546   03 Jun 2027 14:41:53.655            35.109              Murmansk2          1097.156
       297   03 Jun 2027 14:43:19.046   03 Jun 2027 14:43:35.596            16.550              Murmansk2           517.188
       298   03 Jun 2027 14:44:04.444   03 Jun 2027 14:45:15.315            70.871              Murmansk2          2214.719
       299   03 Jun 2027 14:55:19.776   03 Jun 2027 14:55:56.639            36.863                Anadyr2          1151.969
       300   03 Jun 2027 14:57:03.175   03 Jun 2027 14:58:27.625            84.450                Anadyr1          2639.063
       301   03 Jun 2027 14:58:54.064   03 Jun 2027 14:58:54.305             0.241                Anadyr1             7.531
       302   03 Jun 2027 14:59:10.720   03 Jun 2027 14:59:17.230             6.510                Anadyr2           203.438
       303   03 Jun 2027 14:59:54.560   03 Jun 2027 15:00:21.065            26.505                Anadyr2           828.281
       304   03 Jun 2027 15:00:46.385   03 Jun 2027 15:01:03.413            17.028                Anadyr1           532.125
       305   03 Jun 2027 15:53:06.495   03 Jun 2027 15:53:33.140            26.645               CapeTown           832.656
       306   03 Jun 2027 15:53:50.319   03 Jun 2027 15:54:02.692            12.373               CapeTown           386.656
       307   03 Jun 2027 16:19:25.862   03 Jun 2027 16:20:38.548            72.686              Murmansk1          2271.437
       308   03 Jun 2027 16:21:12.906   03 Jun 2027 16:22:08.616            55.710              Murmansk2          1740.938
       309   03 Jun 2027 16:23:55.904   03 Jun 2027 16:24:57.954            62.050              Murmansk1          1939.063
       310   03 Jun 2027 16:30:39.150   03 Jun 2027 16:32:08.897            89.747                Anadyr1          2804.594
       311   03 Jun 2027 16:34:44.162   03 Jun 2027 16:35:33.867            49.705                Anadyr1          1553.281
       312   03 Jun 2027 16:36:08.467   03 Jun 2027 16:37:55.284           106.817               Magadan2          3338.031
       313   03 Jun 2027 16:38:22.863   03 Jun 2027 16:38:32.840             9.977               Magadan2           311.781
       314   03 Jun 2027 18:06:31.988   03 Jun 2027 18:08:53.112           141.124                Anadyr1          4410.125
       315   03 Jun 2027 18:08:59.222   03 Jun 2027 18:12:46.983           227.761               Magadan2          7117.531
       316   03 Jun 2027 18:14:09.815   03 Jun 2027 18:14:18.470             8.655               Magadan2           270.469
       317   03 Jun 2027 18:14:30.509   03 Jun 2027 18:14:52.502            21.993               Magadan2           687.281
       318   03 Jun 2027 18:19:32.778   03 Jun 2027 18:19:57.903            25.125               Magadan1           785.156
       319   03 Jun 2027 19:42:25.509   03 Jun 2027 19:46:15.854           230.345                Anadyr1          7198.281
       320   03 Jun 2027 19:46:21.418   03 Jun 2027 19:48:07.881           106.463               Magadan2          3326.969
       321   03 Jun 2027 19:48:14.511   03 Jun 2027 19:48:27.662            13.151                Norilsk           410.969
       322   03 Jun 2027 19:49:55.816   03 Jun 2027 19:50:40.398            44.582               Magadan1          1393.188
       323   03 Jun 2027 19:51:26.317   03 Jun 2027 19:51:41.327            15.010                Irkutsk           469.062
       324   03 Jun 2027 19:52:47.409   03 Jun 2027 19:53:28.206            40.797                Irkutsk          1274.906
       325   03 Jun 2027 19:53:56.763   03 Jun 2027 19:54:37.081            40.318                Irkutsk          1259.938
       326   03 Jun 2027 20:36:43.240   03 Jun 2027 20:37:40.372            57.132            RioGallegos          1785.375
       327   03 Jun 2027 20:37:56.432   03 Jun 2027 20:38:04.347             7.915            RioGallegos           247.344
       328   03 Jun 2027 20:38:36.795   03 Jun 2027 20:39:55.195            78.400            RioGallegos          2450.000
       329   03 Jun 2027 21:20:16.846   03 Jun 2027 21:22:20.424           123.578                Norilsk          3861.813
       330   03 Jun 2027 21:22:45.269   03 Jun 2027 21:23:15.602            30.333               Magadan1           947.906
       331   03 Jun 2027 21:24:57.828   03 Jun 2027 21:25:30.191            32.363                Norilsk          1011.344
       332   03 Jun 2027 21:25:45.051   03 Jun 2027 21:26:44.873            59.822                Irkutsk          1869.438
       333   03 Jun 2027 21:27:11.488   03 Jun 2027 21:28:33.728            82.240                Novosib          2570.000
       334   03 Jun 2027 21:30:52.861   03 Jun 2027 21:32:22.951            90.090                Novosib          2815.312
       335   03 Jun 2027 21:38:54.025   03 Jun 2027 21:40:12.285            78.260                Sumatra          2445.625
       336   03 Jun 2027 21:48:11.258   03 Jun 2027 21:48:40.317            29.059                Sumatra           908.094
       337   03 Jun 2027 22:56:14.967   03 Jun 2027 22:56:32.311            17.344                Norilsk           542.000
       338   03 Jun 2027 22:56:52.490   03 Jun 2027 22:58:08.590            76.100               Magadan1          2378.125
       339   03 Jun 2027 22:58:08.590   03 Jun 2027 22:58:42.887            34.297               Magadan2          1071.781
       340   03 Jun 2027 23:00:08.108   03 Jun 2027 23:00:53.979            45.871                Irkutsk          1433.469
       341   03 Jun 2027 23:01:15.693   03 Jun 2027 23:02:53.489            97.796                Novosib          3056.125
       342   03 Jun 2027 23:07:46.723   03 Jun 2027 23:08:51.590            64.867                  Delhi          2027.094
       343   03 Jun 2027 23:09:03.508   03 Jun 2027 23:10:03.694            60.186                  Delhi          1880.812
       344   04 Jun 2027 00:25:59.625   04 Jun 2027 00:25:59.756             0.131                Anadyr1             4.094
       345   04 Jun 2027 00:26:01.948   04 Jun 2027 00:26:18.161            16.213                Anadyr2           506.656
       346   04 Jun 2027 00:26:57.709   04 Jun 2027 00:27:59.936            62.227                Anadyr1          1944.594
       347   04 Jun 2027 00:27:59.936   04 Jun 2027 00:28:24.548            24.612                Anadyr2           769.125
       348   04 Jun 2027 00:30:55.601   04 Jun 2027 00:31:22.124            26.523                Anadyr2           828.844
       349   04 Jun 2027 00:31:50.333   04 Jun 2027 00:32:00.678            10.345                Anadyr1           323.281
       350   04 Jun 2027 00:32:07.546   04 Jun 2027 00:33:02.146            54.600               Magadan2          1706.250
       351   04 Jun 2027 00:33:02.146   04 Jun 2027 00:33:39.961            37.815               Magadan1          1181.719
       352   04 Jun 2027 00:34:32.647   04 Jun 2027 00:37:19.994           167.347              Murmansk1          5229.594
       353   04 Jun 2027 00:38:22.067   04 Jun 2027 00:38:22.188             0.121              Murmansk1             3.781
       354   04 Jun 2027 00:39:00.122   04 Jun 2027 00:40:09.576            69.454                 Moscow          2170.437
       355   04 Jun 2027 00:42:53.617   04 Jun 2027 00:43:22.322            28.705                 Moscow           897.031
       356   04 Jun 2027 00:51:54.931   04 Jun 2027 00:53:43.563           108.632                  Delhi          3394.750
       357   04 Jun 2027 01:59:29.332   04 Jun 2027 01:59:55.469            26.137                Anadyr1           816.781
       358   04 Jun 2027 02:00:09.198   04 Jun 2027 02:00:25.780            16.582                Anadyr1           518.187
       359   04 Jun 2027 02:00:42.984   04 Jun 2027 02:01:13.667            30.683                Anadyr1           958.844
       360   04 Jun 2027 02:02:06.671   04 Jun 2027 02:02:36.453            29.782                Anadyr1           930.687
       361   04 Jun 2027 02:04:16.709   04 Jun 2027 02:05:35.823            79.114               Magadan2          2472.313
       362   04 Jun 2027 02:07:45.035   04 Jun 2027 02:08:06.394            21.359               Magadan2           667.469
       363   04 Jun 2027 02:08:57.170   04 Jun 2027 02:09:25.440            28.270               Magadan2           883.437
       364   04 Jun 2027 02:10:21.558   04 Jun 2027 02:11:38.710            77.152              Murmansk1          2411.000
       365   04 Jun 2027 02:12:29.820   04 Jun 2027 02:13:02.378            32.558                Novosib          1017.437
       366   04 Jun 2027 02:15:28.288   04 Jun 2027 02:15:54.033            25.745                Novosib           804.531
       367   04 Jun 2027 02:19:10.707   04 Jun 2027 02:19:54.425            43.718                 Moscow          1366.187
       368   04 Jun 2027 02:37:46.941   04 Jun 2027 02:38:54.962            68.021               CapeTown          2125.656
       369   04 Jun 2027 02:46:02.531   04 Jun 2027 02:46:25.768            23.237               CapeTown           726.156
       370   04 Jun 2027 03:41:01.434   04 Jun 2027 03:41:52.366            50.932               Magadan2          1591.625
       371   04 Jun 2027 03:42:02.163   04 Jun 2027 03:42:31.082            28.919               Magadan2           903.719
       372   04 Jun 2027 05:17:51.359   04 Jun 2027 05:18:52.606            61.247               Magadan2          1913.969
       373   04 Jun 2027 05:18:52.606   04 Jun 2027 05:19:00.769             8.163               Magadan1           255.094
       374   04 Jun 2027 05:19:13.159   04 Jun 2027 05:20:43.201            90.042                Anadyr1          2813.812
       375   04 Jun 2027 05:20:49.776   04 Jun 2027 05:20:55.005             5.229               Magadan1           163.406
       376   04 Jun 2027 05:21:03.587   04 Jun 2027 05:22:14.866            71.279               Magadan2          2227.469
       377   04 Jun 2027 06:50:51.972   04 Jun 2027 06:51:04.181            12.209               Magadan1           381.531
       378   04 Jun 2027 06:51:12.052   04 Jun 2027 06:51:45.338            33.286                Anadyr1          1040.187
       379   04 Jun 2027 06:51:45.338   04 Jun 2027 06:52:05.669            20.331                Anadyr2           635.344
       380   04 Jun 2027 06:52:20.223   04 Jun 2027 06:53:26.166            65.943                Anadyr1          2060.719
       381   04 Jun 2027 06:53:33.538   04 Jun 2027 06:54:48.101            74.563                Anadyr1          2330.094
       382   04 Jun 2027 06:55:08.400   04 Jun 2027 06:56:01.275            52.875               Magadan1          1652.344
       383   04 Jun 2027 06:56:09.039   04 Jun 2027 06:56:14.948             5.909               Magadan2           184.656
       384   04 Jun 2027 06:56:25.495   04 Jun 2027 06:57:06.725            41.230                Anadyr1          1288.437
       385   04 Jun 2027 06:57:06.725   04 Jun 2027 06:57:29.325            22.600                Anadyr2           706.250
       386   04 Jun 2027 06:57:40.255   04 Jun 2027 06:58:16.253            35.998                Novosib          1124.937
       387   04 Jun 2027 06:59:54.598   04 Jun 2027 07:00:01.848             7.250              Murmansk1           226.563
       388   04 Jun 2027 07:00:32.137   04 Jun 2027 07:00:55.419            23.282              Murmansk1           727.563
       389   04 Jun 2027 07:34:03.780   04 Jun 2027 07:34:43.857            40.077            RioGallegos          1252.406
       390   04 Jun 2027 08:27:22.232   04 Jun 2027 08:27:51.701            29.469               Magadan2           920.906
       391   04 Jun 2027 08:27:59.206   04 Jun 2027 08:28:05.284             6.078                Irkutsk           189.938
       392   04 Jun 2027 08:28:08.007   04 Jun 2027 08:28:18.197            10.190                Norilsk           318.438
       393   04 Jun 2027 08:28:46.801   04 Jun 2027 08:30:05.926            79.125                Novosib          2472.656
       394   04 Jun 2027 08:30:25.710   04 Jun 2027 08:30:36.133            10.423               Magadan1           325.719
       395   04 Jun 2027 08:30:42.315   04 Jun 2027 08:31:05.762            23.447                Norilsk           732.719
       396   04 Jun 2027 08:31:09.315   04 Jun 2027 08:31:56.608            47.293                Norilsk          1477.906
       397   04 Jun 2027 08:32:06.045   04 Jun 2027 08:32:45.417            39.372                Irkutsk          1230.375
       398   04 Jun 2027 08:32:55.780   04 Jun 2027 08:32:59.656             3.876                Novosib           121.125
       399   04 Jun 2027 08:33:04.532   04 Jun 2027 08:34:33.465            88.933              Murmansk1          2779.156
       400   04 Jun 2027 09:10:13.072   04 Jun 2027 09:11:08.325            55.253            RioGallegos          1726.656
       401   04 Jun 2027 09:44:00.948   04 Jun 2027 09:44:43.778            42.830                Sumatra          1338.437
       402   04 Jun 2027 09:57:05.542   04 Jun 2027 09:57:21.693            16.151                  Delhi           504.719
       403   04 Jun 2027 09:57:50.326   04 Jun 2027 09:58:49.494            59.168                  Delhi          1849.000
       404   04 Jun 2027 10:04:16.239   04 Jun 2027 10:04:47.138            30.899                Irkutsk           965.594
       405   04 Jun 2027 10:05:00.370   04 Jun 2027 10:05:09.579             9.209                Irkutsk           287.781
       406   04 Jun 2027 10:05:22.053   04 Jun 2027 10:05:28.024             5.971                Novosib           186.594
       407   04 Jun 2027 10:05:58.051   04 Jun 2027 10:06:16.010            17.959                Novosib           561.219
       408   04 Jun 2027 10:06:26.496   04 Jun 2027 10:06:47.233            20.737              Murmansk1           648.031
       409   04 Jun 2027 10:07:09.122   04 Jun 2027 10:07:17.308             8.186              Murmansk2           255.812
       410   04 Jun 2027 10:07:33.107   04 Jun 2027 10:08:02.968            29.861                Novosib           933.156
       411   04 Jun 2027 10:08:04.404   04 Jun 2027 10:08:47.213            42.809              Murmansk1          1337.781
       412   04 Jun 2027 10:09:05.511   04 Jun 2027 10:10:10.801            65.290                Irkutsk          2040.312
       413   04 Jun 2027 10:10:16.923   04 Jun 2027 10:10:29.735            12.812                Norilsk           400.375
       414   04 Jun 2027 10:11:02.660   04 Jun 2027 10:11:45.924            43.264              Murmansk1          1352.000
       415   04 Jun 2027 10:48:39.955   04 Jun 2027 10:49:11.021            31.066            RioGallegos           970.812
       416   04 Jun 2027 10:51:06.157   04 Jun 2027 10:51:13.889             7.732            RioGallegos           241.625
       417   04 Jun 2027 10:52:19.133   04 Jun 2027 10:53:05.479            46.346            RioGallegos          1448.312
       418   04 Jun 2027 11:23:43.044   04 Jun 2027 11:24:00.161            17.117                Sumatra           534.906
       419   04 Jun 2027 11:24:31.623   04 Jun 2027 11:25:20.318            48.695                Sumatra          1521.719
       420   04 Jun 2027 11:42:19.607   04 Jun 2027 11:42:44.293            24.686                 Moscow           771.438
       421   04 Jun 2027 11:42:46.508   04 Jun 2027 11:43:56.474            69.966                Novosib          2186.437
       422   04 Jun 2027 11:44:02.423   04 Jun 2027 11:44:29.149            26.726                Norilsk           835.188
       423   04 Jun 2027 11:44:33.732   04 Jun 2027 11:44:43.843            10.111              Murmansk1           315.969
       424   04 Jun 2027 11:44:44.494   04 Jun 2027 11:45:11.790            27.296                Norilsk           853.000
       425   04 Jun 2027 11:45:18.192   04 Jun 2027 11:45:39.556            21.364              Murmansk1           667.625
       426   04 Jun 2027 11:45:39.556   04 Jun 2027 11:46:42.120            62.564              Murmansk2          1955.125
       427   04 Jun 2027 13:12:37.388   04 Jun 2027 13:15:51.920           194.532                 Moscow          6079.125
       428   04 Jun 2027 13:16:00.831   04 Jun 2027 13:18:08.253           127.422              Murmansk2          3981.937
       429   04 Jun 2027 13:18:28.891   04 Jun 2027 13:19:12.178            43.287              Murmansk1          1352.719
       430   04 Jun 2027 13:20:00.200   04 Jun 2027 13:21:11.441            71.241                Norilsk          2226.281
       431   04 Jun 2027 14:27:32.484   04 Jun 2027 14:28:28.130            55.646               CapeTown          1738.937
       432   04 Jun 2027 14:29:09.876   04 Jun 2027 14:30:29.724            79.848               CapeTown          2495.250
       433   04 Jun 2027 14:32:24.431   04 Jun 2027 14:32:53.268            28.837               CapeTown           901.156
       434   04 Jun 2027 14:34:03.248   04 Jun 2027 14:34:25.759            22.511               CapeTown           703.469
       435   04 Jun 2027 14:52:54.683   04 Jun 2027 14:55:20.689           146.006              Murmansk2          4562.687
       436   04 Jun 2027 15:01:34.813   04 Jun 2027 15:02:35.634            60.821              Murmansk1          1900.656
       437   04 Jun 2027 15:07:11.707   04 Jun 2027 15:08:48.466            96.759                Anadyr2          3023.719
       438   04 Jun 2027 15:11:16.160   04 Jun 2027 15:11:26.331            10.171                Anadyr1           317.844
       439   04 Jun 2027 15:11:41.024   04 Jun 2027 15:11:55.153            14.129                Anadyr1           441.531
       440   04 Jun 2027 15:14:22.972   04 Jun 2027 15:14:45.211            22.239                Anadyr2           694.969
       441   04 Jun 2027 16:10:49.388   04 Jun 2027 16:10:54.721             5.333               CapeTown           166.656
       442   04 Jun 2027 16:10:59.317   04 Jun 2027 16:11:20.205            20.888               CapeTown           652.750
       443   04 Jun 2027 16:12:07.882   04 Jun 2027 16:12:59.103            51.221               CapeTown          1600.656
       444   04 Jun 2027 16:32:00.257   04 Jun 2027 16:32:53.751            53.494              Murmansk2          1671.687
       445   04 Jun 2027 16:33:13.860   04 Jun 2027 16:33:35.159            21.299              Murmansk2           665.594
       446   04 Jun 2027 16:34:16.653   04 Jun 2027 16:34:49.648            32.995              Murmansk1          1031.094
       447   04 Jun 2027 16:37:17.983   04 Jun 2027 16:37:24.283             6.300              Murmansk1           196.875
       448   04 Jun 2027 16:39:54.734   04 Jun 2027 16:40:41.008            46.274              Murmansk2          1446.062
       449   04 Jun 2027 16:42:39.414   04 Jun 2027 16:43:51.046            71.632                Anadyr1          2238.500
       450   04 Jun 2027 16:43:52.858   04 Jun 2027 16:44:13.645            20.787                Anadyr2           649.594
       451   04 Jun 2027 16:44:29.974   04 Jun 2027 16:45:00.491            30.517                Anadyr2           953.656
       452   04 Jun 2027 16:46:20.650   04 Jun 2027 16:47:26.859            66.209               Magadan1          2069.031
       453   04 Jun 2027 16:48:25.431   04 Jun 2027 16:49:37.045            71.614               Magadan2          2237.938
       454   04 Jun 2027 16:50:25.152   04 Jun 2027 16:51:30.201            65.049               Magadan2          2032.781
       455   04 Jun 2027 18:18:33.471   04 Jun 2027 18:21:51.030           197.559                Anadyr2          6173.719
       456   04 Jun 2027 18:21:53.337   04 Jun 2027 18:23:16.286            82.949               Magadan1          2592.156
       457   04 Jun 2027 18:23:22.547   04 Jun 2027 18:23:42.309            19.762               Magadan2           617.562
       458   04 Jun 2027 18:24:49.028   04 Jun 2027 18:24:53.681             4.653               Magadan1           145.406
       459   04 Jun 2027 18:27:32.060   04 Jun 2027 18:27:49.145            17.085               Magadan1           533.906
       460   04 Jun 2027 19:54:25.682   04 Jun 2027 19:56:26.901           121.219                Anadyr2          3788.094
       461   04 Jun 2027 19:56:28.516   04 Jun 2027 19:58:32.918           124.402                Anadyr1          3887.563
       462   04 Jun 2027 19:58:35.267   04 Jun 2027 20:00:49.717           134.450               Magadan1          4201.562
       463   04 Jun 2027 20:02:25.366   04 Jun 2027 20:02:49.210            23.844                Irkutsk           745.125
       464   04 Jun 2027 20:03:03.322   04 Jun 2027 20:04:33.525            90.203                Irkutsk          2818.844
       465   04 Jun 2027 20:06:00.519   04 Jun 2027 20:06:50.217            49.698                Irkutsk          1553.062
       466   04 Jun 2027 20:08:20.777   04 Jun 2027 20:08:34.010            13.233                Irkutsk           413.531
       467   04 Jun 2027 20:19:21.637   04 Jun 2027 20:20:47.778            86.141                Sumatra          2691.906
       468   04 Jun 2027 20:22:24.840   04 Jun 2027 20:22:27.461             2.621                Sumatra            81.906
       469   04 Jun 2027 20:58:05.585   04 Jun 2027 20:58:07.151             1.566            RioGallegos            48.937
       470   04 Jun 2027 21:30:03.727   04 Jun 2027 21:30:11.291             7.564                Anadyr2           236.375
       471   04 Jun 2027 21:30:55.733   04 Jun 2027 21:32:10.778            75.045                Anadyr1          2345.156
       472   04 Jun 2027 21:32:17.908   04 Jun 2027 21:34:19.316           121.408                Norilsk          3794.000
       473   04 Jun 2027 21:36:18.561   04 Jun 2027 21:37:46.397            87.836                Irkutsk          2744.875
       474   04 Jun 2027 21:38:54.812   04 Jun 2027 21:39:06.006            11.194                Novosib           349.812
       475   04 Jun 2027 21:39:25.408   04 Jun 2027 21:40:05.943            40.535                Irkutsk          1266.719
       476   04 Jun 2027 21:41:12.255   04 Jun 2027 21:41:52.982            40.727                Novosib          1272.719
       477   04 Jun 2027 21:49:59.922   04 Jun 2027 21:50:52.691            52.769                Sumatra          1649.031
       478   04 Jun 2027 21:56:46.820   04 Jun 2027 21:58:45.022           118.202                Sumatra          3693.812
       479   04 Jun 2027 23:08:17.001   04 Jun 2027 23:08:32.700            15.699                Norilsk           490.594
       480   04 Jun 2027 23:08:53.768   04 Jun 2027 23:09:02.890             9.122               Magadan2           285.063
       481   04 Jun 2027 23:09:29.568   04 Jun 2027 23:11:06.932            97.364               Magadan1          3042.625
       482   04 Jun 2027 23:12:09.120   04 Jun 2027 23:14:26.383           137.263                Novosib          4289.469
