uniorb/output/strategy_2/Drop/Drop_KinoSat_110104.txt

KinoSat_110104
-------------------------
    Access    *     Start Time (UTCG)     *     Stop Time (UTCG)  *   Duration (s)        *       Station  *  Data (Mbytes)
         1   01 Jun 2027 04:16:36.407   01 Jun 2027 04:16:43.470             7.063                Novosib           636.000
         2   01 Jun 2027 04:16:51.538   01 Jun 2027 04:17:26.964            35.426                Norilsk          4034.000
         3   01 Jun 2027 04:17:29.633   01 Jun 2027 04:17:58.971            29.338                Irkutsk          1334.500
         4   01 Jun 2027 04:18:04.840   01 Jun 2027 04:18:43.249            38.409                Irkutsk          2934.500
         5   01 Jun 2027 04:18:53.987   01 Jun 2027 04:19:46.389            52.402                Norilsk          5369.000
         6   01 Jun 2027 04:19:50.768   01 Jun 2027 04:20:21.658            30.890                Irkutsk          2189.500
         7   01 Jun 2027 04:20:27.990   01 Jun 2027 04:21:08.546            40.556                Norilsk          3166.000
         8   01 Jun 2027 04:21:20.732   01 Jun 2027 04:21:32.252            11.520                Novosib          1440.000
         9   01 Jun 2027 04:21:34.867   01 Jun 2027 04:22:42.073            67.206              Murmansk2          5960.500
        10   01 Jun 2027 04:22:47.586   01 Jun 2027 04:23:17.387            29.801                 Moscow           819.000
        11   01 Jun 2027 05:54:39.370   01 Jun 2027 05:55:14.903            35.533              Murmansk2          3967.500
        12   01 Jun 2027 05:55:31.632   01 Jun 2027 05:57:00.319            88.687              Murmansk1          8364.500
        13   01 Jun 2027 05:57:11.795   01 Jun 2027 05:58:12.720            60.925                Novosib          5738.000
        14   01 Jun 2027 05:58:14.394   01 Jun 2027 05:58:32.519            18.125                Novosib           837.000
        15   01 Jun 2027 07:28:12.219   01 Jun 2027 07:29:54.026           101.807                 Moscow          9602.500
        16   01 Jun 2027 07:30:01.164   01 Jun 2027 07:30:30.049            28.885                 Moscow          3569.000
        17   01 Jun 2027 07:30:30.507   01 Jun 2027 07:31:03.934            33.427              Murmansk1           229.000
        18   01 Jun 2027 07:31:06.625   01 Jun 2027 07:32:10.264            63.639                 Moscow          1345.500
        19   01 Jun 2027 07:32:11.264   01 Jun 2027 07:32:33.763            22.499              Murmansk2           500.000
        20   01 Jun 2027 07:32:46.441   01 Jun 2027 07:34:14.224            87.783              Murmansk2          6339.000
        21   01 Jun 2027 07:34:34.633   01 Jun 2027 07:35:59.923            85.290                Norilsk         10204.500
        22   02 Jun 2027 04:28:31.096   02 Jun 2027 04:30:10.643            99.547                Irkutsk          2575.500
        23   02 Jun 2027 04:30:24.889   02 Jun 2027 04:31:47.667            82.778                Norilsk          7123.000
        24   02 Jun 2027 04:31:47.918   02 Jun 2027 04:32:01.170            13.252                Novosib           125.500
        25   02 Jun 2027 04:32:15.367   02 Jun 2027 04:34:05.056           109.689                 Moscow          7098.500
        26   02 Jun 2027 04:34:23.336   02 Jun 2027 04:34:36.610            13.274                Norilsk          1659.250
        27   02 Jun 2027 04:34:36.719   02 Jun 2027 04:34:45.950             9.231                Irkutsk          1153.875
        28   02 Jun 2027 04:34:47.585   02 Jun 2027 04:36:09.514            81.929                Novosib          6665.375
        29   02 Jun 2027 06:06:37.393   02 Jun 2027 06:07:14.898            37.505              Murmansk1          4429.500
        30   02 Jun 2027 06:07:20.700   02 Jun 2027 06:07:41.001            20.301              Murmansk1          2537.625
        31   02 Jun 2027 06:07:41.001   02 Jun 2027 06:08:03.276            22.275              Murmansk2           363.375
        32   02 Jun 2027 06:08:09.241   02 Jun 2027 06:08:45.309            36.068                 Moscow          2982.500
        33   02 Jun 2027 06:08:45.392   02 Jun 2027 06:09:10.475            25.083                Norilsk            41.500
        34   02 Jun 2027 06:09:12.636   02 Jun 2027 06:10:26.260            73.624                Novosib          1080.500
        35   02 Jun 2027 06:10:30.254   02 Jun 2027 06:10:48.776            18.522                Norilsk          1997.000
        36   02 Jun 2027 07:40:40.687   02 Jun 2027 07:42:21.849           101.162              Murmansk2         10681.500
        37   02 Jun 2027 07:43:02.345   02 Jun 2027 07:46:07.770           185.425              Murmansk1         20248.000
        38   02 Jun 2027 07:46:25.260   02 Jun 2027 07:48:13.378           108.118              Murmansk1          8745.000
        39   03 Jun 2027 03:03:47.974   03 Jun 2027 03:04:27.743            39.769                Irkutsk          3409.500
        40   03 Jun 2027 03:04:27.802   03 Jun 2027 03:05:07.086            39.284                Irkutsk            29.500
        41   03 Jun 2027 03:05:22.851   03 Jun 2027 03:06:28.580            65.729               Magadan2          7882.500
        42   03 Jun 2027 03:06:31.326   03 Jun 2027 03:06:46.507            15.181                Norilsk          1373.000
        43   03 Jun 2027 03:06:49.283   03 Jun 2027 03:07:26.784            37.501                Irkutsk          1388.000
        44   03 Jun 2027 03:07:30.785   03 Jun 2027 03:08:25.058            54.273                Novosib          2000.500
        45   03 Jun 2027 03:08:27.922   03 Jun 2027 03:08:59.246            31.324               Magadan1          1432.000
        46   03 Jun 2027 03:08:59.746   03 Jun 2027 03:09:24.199            24.453                Novosib           250.000
        47   03 Jun 2027 03:09:25.208   03 Jun 2027 03:10:05.589            40.381                Norilsk           504.500
        48   03 Jun 2027 03:10:16.165   03 Jun 2027 03:10:54.069            37.904                Norilsk          4738.000
        49   03 Jun 2027 03:11:05.185   03 Jun 2027 03:12:47.212           102.027              Murmansk1          6108.000
        50   03 Jun 2027 04:40:43.328   03 Jun 2027 04:41:27.058            43.730                Norilsk          3569.500
        51   03 Jun 2027 04:41:42.532   03 Jun 2027 04:43:02.511            79.979                Novosib          7737.000
        52   03 Jun 2027 04:43:04.428   03 Jun 2027 04:43:32.931            28.503                 Moscow           958.500
        53   03 Jun 2027 04:43:39.765   03 Jun 2027 04:45:07.091            87.326                Irkutsk          3417.000
        54   03 Jun 2027 04:45:09.051   03 Jun 2027 04:45:50.506            41.455                Norilsk           980.000
        55   03 Jun 2027 04:45:55.019   03 Jun 2027 04:46:39.401            44.382                Irkutsk          1240.500
        56   03 Jun 2027 04:46:42.843   03 Jun 2027 04:47:09.126            26.283                 Moscow          1721.000
        57   03 Jun 2027 06:17:43.680   03 Jun 2027 06:18:19.004            35.324                 Moscow           124.500
        58   03 Jun 2027 06:18:31.458   03 Jun 2027 06:19:43.094            71.636              Murmansk2          6227.000
        59   03 Jun 2027 06:19:43.621   03 Jun 2027 06:20:02.639            19.018                Norilsk           263.500
        60   03 Jun 2027 06:20:09.859   03 Jun 2027 06:20:46.520            36.661              Murmansk2          3610.000
        61   03 Jun 2027 06:20:52.416   03 Jun 2027 06:21:16.392            23.976                Novosib          2948.000
        62   03 Jun 2027 06:21:19.843   03 Jun 2027 06:21:54.462            34.619                Norilsk          1725.500
        63   03 Jun 2027 06:21:55.291   03 Jun 2027 06:22:23.359            28.068              Murmansk2           414.500
        64   03 Jun 2027 06:22:28.459   03 Jun 2027 06:22:55.710            27.251              Murmansk2          2550.000
        65   03 Jun 2027 07:52:44.353   03 Jun 2027 07:53:13.578            29.225              Murmansk2          3313.500
        66   03 Jun 2027 07:53:25.713   03 Jun 2027 07:55:12.978           107.265                 Moscow          6067.500
        67   03 Jun 2027 07:55:17.668   03 Jun 2027 07:56:13.275            55.607                 Moscow          2345.000
        68   03 Jun 2027 07:56:34.981   03 Jun 2027 07:58:02.042            87.061              Murmansk1         10853.000
        69   04 Jun 2027 03:16:09.620   04 Jun 2027 03:16:14.699             5.079                Irkutsk           634.875
        70   04 Jun 2027 03:16:15.646   04 Jun 2027 03:16:50.318            34.672                Novosib           547.625
        71   04 Jun 2027 03:17:00.906   04 Jun 2027 03:18:21.360            80.454                Norilsk          5294.000
        72   04 Jun 2027 03:18:27.381   04 Jun 2027 03:19:08.080            40.699                Novosib          3010.500
        73   04 Jun 2027 03:19:16.852   04 Jun 2027 03:19:57.986            41.134                Norilsk          4386.000
        74   04 Jun 2027 03:20:13.929   04 Jun 2027 03:20:59.773            45.844                Norilsk          5730.500
        75   04 Jun 2027 03:21:05.285   04 Jun 2027 03:22:16.278            70.993              Murmansk2          4997.000
        76   04 Jun 2027 03:22:18.338   04 Jun 2027 03:22:50.810            32.472              Murmansk2          1030.000
        77   04 Jun 2027 03:22:54.919   04 Jun 2027 03:23:17.082            22.163              Murmansk1          1077.500
        78   04 Jun 2027 04:53:20.195   04 Jun 2027 04:53:26.527             6.332                Norilsk           791.500
        79   04 Jun 2027 04:53:33.803   04 Jun 2027 04:55:10.622            96.819                Novosib         11557.500
        80   04 Jun 2027 04:55:13.251   04 Jun 2027 04:55:26.733            13.482              Murmansk1          1314.500
        81   04 Jun 2027 04:55:27.296   04 Jun 2027 04:55:56.260            28.964                 Moscow           281.500
        82   04 Jun 2027 04:56:08.922   04 Jun 2027 04:56:13.119             4.197                Norilsk           524.625
        83   04 Jun 2027 04:56:21.826   04 Jun 2027 04:57:53.669            91.843                 Moscow         10159.875
        84   04 Jun 2027 04:57:58.485   04 Jun 2027 04:58:30.227            31.742                Norilsk          2408.000
        85   04 Jun 2027 04:58:32.796   04 Jun 2027 04:58:46.632            13.836              Murmansk2          1284.500
        86   04 Jun 2027 04:58:47.082   04 Jun 2027 04:59:06.970            19.888                 Moscow           225.000
        87   04 Jun 2027 06:29:57.649   04 Jun 2027 06:30:26.295            28.646                 Moscow           715.500
        88   04 Jun 2027 06:30:28.501   04 Jun 2027 06:30:40.034            11.533                Norilsk          1103.000
        89   04 Jun 2027 06:30:48.091   04 Jun 2027 06:31:37.800            49.709                Norilsk          4028.500
        90   04 Jun 2027 06:31:38.470   04 Jun 2027 06:31:45.102             6.632              Murmansk2           335.000
        91   04 Jun 2027 06:31:48.462   04 Jun 2027 06:32:10.811            22.349                 Moscow          1680.000
        92   04 Jun 2027 06:32:16.244   04 Jun 2027 06:32:40.127            23.883                Norilsk          2716.500
        93   04 Jun 2027 06:32:57.504   04 Jun 2027 06:34:14.288            76.784              Murmansk2          8688.500
        94   04 Jun 2027 06:34:15.656   04 Jun 2027 06:35:06.481            50.825              Murmansk2           684.000
        95   04 Jun 2027 08:07:24.055   04 Jun 2027 08:09:14.123           110.068                 Moscow          8759.000
        96   04 Jun 2027 08:09:57.029   04 Jun 2027 08:11:20.414            83.385              Murmansk1          9540.000
        97   05 Jun 2027 03:28:16.159   05 Jun 2027 03:28:59.816            43.657                Irkutsk          1705.500
        98   05 Jun 2027 03:29:10.935   05 Jun 2027 03:30:33.269            82.334                Norilsk          5559.500
        99   05 Jun 2027 03:30:37.070   05 Jun 2027 03:31:14.298            37.228                Norilsk          1900.500
       100   05 Jun 2027 03:31:16.441   05 Jun 2027 03:31:27.958            11.517                Norilsk          1071.500
       101   05 Jun 2027 03:31:28.715   05 Jun 2027 03:31:46.542            17.827                Norilsk           378.500
       102   05 Jun 2027 03:31:54.461   05 Jun 2027 03:32:51.668            57.207                Irkutsk          3959.500
       103   05 Jun 2027 03:32:54.576   05 Jun 2027 03:33:24.739            30.163              Murmansk1          1454.000
       104   05 Jun 2027 03:33:28.970   05 Jun 2027 03:34:06.609            37.639              Murmansk1          2115.500
       105   05 Jun 2027 03:34:11.872   05 Jun 2027 03:34:53.433            41.561                Novosib          2631.500
       106   05 Jun 2027 03:34:54.572   05 Jun 2027 03:35:11.661            17.089                Norilsk           569.500
       107   05 Jun 2027 05:05:48.441   05 Jun 2027 05:06:14.293            25.852                Norilsk          1805.500
       108   05 Jun 2027 05:06:15.289   05 Jun 2027 05:06:24.426             9.137                Novosib           498.000
       109   05 Jun 2027 05:06:24.877   05 Jun 2027 05:06:30.592             5.715                 Moscow           225.500
       110   05 Jun 2027 05:06:31.884   05 Jun 2027 05:06:39.400             7.516                Norilsk           646.000
       111   05 Jun 2027 05:06:45.706   05 Jun 2027 05:07:53.936            68.230                Irkutsk          3153.000
       112   05 Jun 2027 05:07:55.176   05 Jun 2027 05:08:09.722            14.546                 Moscow           620.000
       113   05 Jun 2027 05:08:22.576   05 Jun 2027 05:09:21.798            59.222              Murmansk2          6427.000
       114   05 Jun 2027 05:09:27.067   05 Jun 2027 05:09:50.718            23.651                Novosib          2634.500
       115   05 Jun 2027 05:09:52.553   05 Jun 2027 05:10:25.327            32.774                Norilsk           917.500
       116   05 Jun 2027 06:42:10.213   05 Jun 2027 06:42:57.804            47.591                Novosib          3755.500
       117   05 Jun 2027 06:43:08.592   05 Jun 2027 06:43:53.969            45.377                 Moscow          5394.000
       118   05 Jun 2027 06:43:56.873   05 Jun 2027 06:44:26.966            30.093                Novosib          1452.000
       119   05 Jun 2027 06:44:27.991   05 Jun 2027 06:44:49.791            21.800                 Moscow           512.500
       120   05 Jun 2027 06:44:53.856   05 Jun 2027 06:45:18.227            24.371              Murmansk1          2032.500
       121   05 Jun 2027 06:45:23.158   05 Jun 2027 06:45:53.178            30.020                Novosib          2465.500
       122   05 Jun 2027 06:46:02.770   05 Jun 2027 06:46:51.302            48.532              Murmansk2          4796.000
       123   05 Jun 2027 08:20:38.467   05 Jun 2027 08:22:18.746           100.279              Murmansk2         11030.500
       124   06 Jun 2027 03:40:50.005   06 Jun 2027 03:41:00.505            10.500                Novosib          1310.500
       125   06 Jun 2027 03:41:10.105   06 Jun 2027 03:41:41.926            31.821                Norilsk          3977.625
       126   06 Jun 2027 03:42:00.053   06 Jun 2027 03:43:00.196            60.143                Novosib          7517.875
       127   06 Jun 2027 03:43:03.562   06 Jun 2027 03:44:05.246            61.684                Norilsk          4051.000
       128   06 Jun 2027 03:44:05.489   06 Jun 2027 03:44:43.227            37.738              Murmansk2           121.500
       129   06 Jun 2027 03:44:53.745   06 Jun 2027 03:45:28.077            34.332                Norilsk          4291.500
       130   06 Jun 2027 03:45:36.609   06 Jun 2027 03:46:30.707            54.098              Murmansk2          5233.500
       131   06 Jun 2027 03:46:39.243   06 Jun 2027 03:47:11.722            32.479                Irkutsk          4059.875
       132   06 Jun 2027 03:47:19.653   06 Jun 2027 03:47:26.704             7.051                Norilsk           208.125
       133   06 Jun 2027 05:18:13.209   06 Jun 2027 05:18:48.018            34.809              Murmansk2          1713.500
       134   06 Jun 2027 05:18:51.842   06 Jun 2027 05:18:55.485             3.643                Irkutsk           455.375
       135   06 Jun 2027 05:18:57.652   06 Jun 2027 05:19:23.441            25.789                Norilsk          2540.125
       136   06 Jun 2027 05:19:24.590   06 Jun 2027 05:19:49.956            25.366              Murmansk2           574.500
       137   06 Jun 2027 05:19:56.487   06 Jun 2027 05:20:54.370            57.883                Novosib          3265.500
       138   06 Jun 2027 05:21:02.460   06 Jun 2027 05:21:23.630            21.170                Norilsk          2646.250
       139   06 Jun 2027 05:21:31.425   06 Jun 2027 05:22:57.052            85.627                 Moscow          5296.250
       140   06 Jun 2027 06:54:21.049   06 Jun 2027 06:55:23.231            62.182                Novosib           730.500
       141   06 Jun 2027 06:55:28.124   06 Jun 2027 06:56:26.523            58.399                Norilsk          2446.500
       142   06 Jun 2027 06:56:31.044   06 Jun 2027 06:56:54.856            23.812                Novosib          2260.500
       143   06 Jun 2027 06:57:10.774   06 Jun 2027 06:59:06.475           115.701                Norilsk          7959.000
       144   07 Jun 2027 03:52:50.289   07 Jun 2027 03:56:02.444           192.155                Irkutsk         13131.500
       145   07 Jun 2027 03:56:02.641   07 Jun 2027 03:56:47.108            44.467                Norilsk            98.500
       146   07 Jun 2027 03:56:54.439   07 Jun 2027 03:57:28.446            34.007                Norilsk          3665.500
       147   07 Jun 2027 03:57:31.210   07 Jun 2027 03:57:56.434            25.224              Murmansk1          1382.000
       148   07 Jun 2027 03:58:08.938   07 Jun 2027 03:59:20.463            71.525                Norilsk          6252.000
       149   07 Jun 2027 05:30:26.208   07 Jun 2027 05:31:51.750            85.542                Novosib          1617.000
       150   07 Jun 2027 05:31:52.113   07 Jun 2027 05:32:06.438            14.325              Murmansk2           181.500
       151   07 Jun 2027 05:32:06.862   07 Jun 2027 05:32:16.450             9.588                Norilsk           212.000
       152   07 Jun 2027 05:32:18.461   07 Jun 2027 05:32:45.428            26.967                Novosib          1005.500
       153   07 Jun 2027 05:32:53.414   07 Jun 2027 05:33:29.397            35.983                 Moscow          3993.000
       154   07 Jun 2027 05:33:33.175   07 Jun 2027 05:33:51.344            18.169                Novosib          1889.000
       155   07 Jun 2027 05:34:12.714   07 Jun 2027 05:35:14.653            61.939                 Moscow          7742.375
       156   07 Jun 2027 05:35:31.401   07 Jun 2027 05:36:25.496            54.095              Murmansk1          2942.625
       157   07 Jun 2027 07:06:19.198   07 Jun 2027 07:07:04.644            45.446              Murmansk2          2708.000
       158   07 Jun 2027 07:07:08.657   07 Jun 2027 07:07:50.333            41.676              Murmansk2          2006.500
       159   07 Jun 2027 07:07:53.996   07 Jun 2027 07:08:52.104            58.108                 Moscow          1831.500
       160   07 Jun 2027 07:09:08.315   07 Jun 2027 07:10:43.987            95.672              Murmansk2          8105.500
       161   07 Jun 2027 07:10:44.595   07 Jun 2027 07:11:07.916            23.321              Murmansk2           304.000
       162   07 Jun 2027 07:11:12.792   07 Jun 2027 07:12:11.225            58.433                 Moscow          2438.000
       163   08 Jun 2027 04:04:48.499   08 Jun 2027 04:05:43.885            55.386                Norilsk          6761.500
       164   08 Jun 2027 04:06:03.955   08 Jun 2027 04:07:12.168            68.213                Irkutsk          8526.625
       165   08 Jun 2027 04:07:12.642   08 Jun 2027 04:07:13.869             1.227                Norilsk           153.375
       166   08 Jun 2027 04:07:18.474   08 Jun 2027 04:08:01.283            42.809                Norilsk          3894.500
       167   08 Jun 2027 04:08:05.528   08 Jun 2027 04:08:31.158            25.630                Novosib          2122.500
       168   08 Jun 2027 04:08:41.134   08 Jun 2027 04:09:28.463            47.329                Norilsk          4988.000
       169   08 Jun 2027 04:09:40.420   08 Jun 2027 04:10:31.763            51.343              Murmansk1          5978.500
       170   08 Jun 2027 04:10:33.274   08 Jun 2027 04:10:52.024            18.750                Novosib           755.500
       171   08 Jun 2027 04:10:53.665   08 Jun 2027 04:11:24.077            30.412              Murmansk2           798.500
       172   08 Jun 2027 05:42:45.134   08 Jun 2027 05:43:01.782            16.648              Murmansk2            13.000
       173   08 Jun 2027 05:43:13.569   08 Jun 2027 05:44:36.059            82.490                 Moscow          5893.500
       174   08 Jun 2027 05:44:41.704   08 Jun 2027 05:44:58.488            16.784                 Moscow          2098.000
       175   08 Jun 2027 05:45:09.386   08 Jun 2027 05:46:24.394            75.008                 Moscow          6173.500
       176   08 Jun 2027 05:46:33.205   08 Jun 2027 05:47:20.087            46.882              Murmansk2          4405.500
       177   08 Jun 2027 07:16:21.088   08 Jun 2027 07:17:38.884            77.796                 Moscow          9503.000
       178   08 Jun 2027 07:17:45.935   08 Jun 2027 07:18:54.576            68.641              Murmansk1          3525.500
       179   08 Jun 2027 07:18:58.809   08 Jun 2027 07:19:57.948            59.139                Novosib          2116.500
       180   08 Jun 2027 07:20:05.437   08 Jun 2027 07:20:50.931            45.494                Norilsk          3744.500
       181   08 Jun 2027 07:21:01.370   08 Jun 2027 07:21:52.340            50.970                 Moscow          5219.500
       182   08 Jun 2027 07:21:52.366   08 Jun 2027 07:23:07.210            74.844                 Moscow            13.000
       183   08 Jun 2027 07:23:17.491   08 Jun 2027 07:23:46.848            29.357                Norilsk          3669.625
       184   08 Jun 2027 07:23:48.183   08 Jun 2027 07:24:15.380            27.197              Murmansk1          2138.375
       185   09 Jun 2027 04:16:53.729   09 Jun 2027 04:17:24.291            30.562                Novosib          1828.000
       186   09 Jun 2027 04:17:43.475   09 Jun 2027 04:19:02.614            79.139                Irkutsk          9592.000
       187   09 Jun 2027 04:19:10.399   09 Jun 2027 04:19:16.366             5.967                Norilsk           745.875
       188   09 Jun 2027 04:19:24.462   09 Jun 2027 04:20:33.245            68.783              Murmansk2          7194.625
       189   09 Jun 2027 04:20:35.818   09 Jun 2027 04:21:11.026            35.208                Norilsk          1286.500
       190   09 Jun 2027 04:21:14.810   09 Jun 2027 04:21:54.685            39.875                 Moscow          1892.000
       191   09 Jun 2027 04:21:58.290   09 Jun 2027 04:22:22.029            23.739              Murmansk1          1802.500
       192   09 Jun 2027 04:22:22.842   09 Jun 2027 04:22:51.936            29.094                 Moscow           406.500
       193   09 Jun 2027 04:22:56.553   09 Jun 2027 04:23:05.602             9.049                Irkutsk          1131.125
       194   09 Jun 2027 04:23:11.983   09 Jun 2027 04:23:24.683            12.700                Novosib          1177.375
       195   09 Jun 2027 05:54:55.226   09 Jun 2027 05:55:47.694            52.468                Novosib          4579.000
       196   09 Jun 2027 05:55:49.027   09 Jun 2027 05:56:19.522            30.495                Irkutsk           666.500
       197   09 Jun 2027 05:56:20.174   09 Jun 2027 05:56:23.483             3.309                Novosib           326.000
       198   09 Jun 2027 05:56:25.194   09 Jun 2027 05:56:48.185            22.991              Murmansk1           855.500
       199   09 Jun 2027 05:56:50.623   09 Jun 2027 05:57:04.357            13.734                Norilsk          1219.000
       200   09 Jun 2027 05:57:13.234   09 Jun 2027 05:57:52.222            38.988                 Moscow          4438.500
       201   09 Jun 2027 05:57:56.048   09 Jun 2027 05:58:33.649            37.601                Norilsk          1913.000
       202   09 Jun 2027 05:58:51.409   09 Jun 2027 05:59:30.187            38.778                Novosib          4847.250
       203   09 Jun 2027 05:59:45.405   09 Jun 2027 06:00:00.660            15.255              Murmansk2           934.250
       204   09 Jun 2027 07:28:08.670   09 Jun 2027 07:28:09.752             1.082                 Moscow           135.250
       205   09 Jun 2027 07:28:27.006   09 Jun 2027 07:29:45.897            78.891                 Moscow          8705.750
       206   09 Jun 2027 07:29:53.533   09 Jun 2027 07:30:45.202            51.669              Murmansk2          3818.000
       207   09 Jun 2027 07:30:53.558   09 Jun 2027 07:31:41.052            47.494                Novosib          4178.000
       208   09 Jun 2027 07:31:46.226   09 Jun 2027 07:32:40.418            54.192                Novosib          2587.000
       209   09 Jun 2027 07:32:49.197   09 Jun 2027 07:33:24.447            35.250              Murmansk2          4389.500
       210   09 Jun 2027 07:33:24.659   09 Jun 2027 07:33:38.115            13.456                 Moscow           106.000
       211   09 Jun 2027 07:33:40.916   09 Jun 2027 07:33:54.489            13.573                Norilsk          1400.500
       212   09 Jun 2027 07:34:13.048   09 Jun 2027 07:35:14.111            61.063                Norilsk          7632.875
       213   09 Jun 2027 07:35:25.505   09 Jun 2027 07:36:26.173            60.668                 Moscow          7343.625
       214   10 Jun 2027 04:28:45.870   10 Jun 2027 04:29:11.471            25.601                Novosib          2348.500
       215   10 Jun 2027 04:29:44.628   10 Jun 2027 04:31:38.068           113.440                Norilsk         14180.000
       216   10 Jun 2027 04:31:39.718   10 Jun 2027 04:32:47.139            67.421              Murmansk1          3223.500
       217   10 Jun 2027 04:32:53.973   10 Jun 2027 04:33:44.444            50.471              Murmansk2          3417.000
       218   10 Jun 2027 04:33:48.788   10 Jun 2027 04:34:11.530            22.742              Murmansk2          2172.000
       219   10 Jun 2027 04:34:21.176   10 Jun 2027 04:35:29.642            68.466                 Moscow          4823.000
       220   10 Jun 2027 06:06:53.393   10 Jun 2027 06:07:35.789            42.396              Murmansk2          5028.500
       221   10 Jun 2027 06:07:38.969   10 Jun 2027 06:08:14.822            35.853                 Moscow          1590.000
       222   10 Jun 2027 06:08:17.901   10 Jun 2027 06:08:44.408            26.507              Murmansk2          1539.500
       223   10 Jun 2027 06:08:53.594   10 Jun 2027 06:09:32.308            38.714                Norilsk          4593.000
       224   10 Jun 2027 06:09:41.238   10 Jun 2027 06:10:19.333            38.095              Murmansk1          4465.000
       225   10 Jun 2027 06:10:22.179   10 Jun 2027 06:10:46.066            23.887                Norilsk          1423.000
       226   10 Jun 2027 06:10:47.930   10 Jun 2027 06:10:55.944             8.014              Murmansk1           932.000
       227   10 Jun 2027 07:40:47.630   10 Jun 2027 07:41:41.109            53.479                 Moscow          6499.500
       228   10 Jun 2027 07:41:45.245   10 Jun 2027 07:42:36.556            51.311              Murmansk2          2068.000
       229   10 Jun 2027 07:43:19.833   10 Jun 2027 07:46:22.410           182.577              Murmansk2         21638.500
       230   10 Jun 2027 07:46:39.786   10 Jun 2027 07:47:49.685            69.899              Murmansk2          8688.000
       231   11 Jun 2027 03:03:56.572   11 Jun 2027 03:04:19.855            23.283                Novosib            78.000
       232   11 Jun 2027 03:04:28.198   11 Jun 2027 03:05:03.255            35.057                Norilsk          4171.500
       233   11 Jun 2027 03:05:06.566   11 Jun 2027 03:05:37.483            30.917               Magadan2          1655.500
       234   11 Jun 2027 03:05:46.245   11 Jun 2027 03:06:23.105            36.860                Irkutsk          4381.000
       235   11 Jun 2027 03:06:26.437   11 Jun 2027 03:06:44.874            18.437               Magadan1          1666.000
       236   11 Jun 2027 03:06:49.116   11 Jun 2027 03:07:32.913            43.797               Magadan2          2121.000
       237   11 Jun 2027 03:07:33.459   11 Jun 2027 03:07:42.153             8.694                Norilsk           273.000
       238   11 Jun 2027 03:07:47.962   11 Jun 2027 03:08:41.030            53.068                Novosib          2904.500
       239   11 Jun 2027 03:08:42.614   11 Jun 2027 03:09:13.840            31.226               Magadan1           792.000
       240   11 Jun 2027 03:09:14.317   11 Jun 2027 03:09:41.862            27.545                Novosib           238.500
       241   11 Jun 2027 03:09:42.469   11 Jun 2027 03:10:32.384            49.915                Norilsk           303.500
       242   11 Jun 2027 03:10:42.777   11 Jun 2027 03:11:23.785            41.008                Irkutsk          5126.000
       243   11 Jun 2027 03:11:31.004   11 Jun 2027 03:11:49.572            18.568              Murmansk2            70.500
       244   11 Jun 2027 04:41:00.566   11 Jun 2027 04:41:44.456            43.890                Norilsk          4453.500
       245   11 Jun 2027 04:42:00.696   11 Jun 2027 04:43:16.822            76.126                Novosib          8120.000
       246   11 Jun 2027 04:43:18.518   11 Jun 2027 04:43:50.075            31.557                 Moscow           848.000
       247   11 Jun 2027 04:43:58.057   11 Jun 2027 04:44:29.482            31.425                Novosib          3928.125
       248   11 Jun 2027 04:44:29.850   11 Jun 2027 04:45:08.401            38.551                 Moscow           246.875
       249   11 Jun 2027 04:45:14.813   11 Jun 2027 04:46:16.714            61.901                 Moscow          3206.000
       250   11 Jun 2027 04:46:21.774   11 Jun 2027 04:46:58.994            37.220                 Moscow          2530.000
       251   11 Jun 2027 04:47:02.619   11 Jun 2027 04:47:19.355            16.736              Murmansk1          1812.500
       252   11 Jun 2027 06:17:59.804   11 Jun 2027 06:18:37.726            37.922                 Moscow           725.000
       253   11 Jun 2027 06:18:47.398   11 Jun 2027 06:19:30.477            43.079              Murmansk2          4836.000
       254   11 Jun 2027 06:19:32.451   11 Jun 2027 06:19:48.898            16.447                 Moscow           987.000
       255   11 Jun 2027 06:19:50.031   11 Jun 2027 06:20:07.747            17.716                Novosib           566.500
       256   11 Jun 2027 06:20:16.600   11 Jun 2027 06:20:58.944            42.344                 Moscow          4426.500
       257   11 Jun 2027 06:21:00.600   11 Jun 2027 06:21:07.463             6.863                Novosib           828.000
       258   11 Jun 2027 06:21:07.835   11 Jun 2027 06:21:22.412            14.577                 Moscow           186.000
       259   11 Jun 2027 06:21:29.965   11 Jun 2027 06:22:10.802            40.837                Norilsk          3776.500
       260   11 Jun 2027 06:22:10.878   11 Jun 2027 06:22:38.026            27.148              Murmansk2            38.000
       261   11 Jun 2027 06:22:43.341   11 Jun 2027 06:23:11.329            27.988              Murmansk2          2657.500
       262   11 Jun 2027 07:52:59.428   11 Jun 2027 07:53:28.647            29.219              Murmansk2          2501.000
       263   11 Jun 2027 07:53:39.919   11 Jun 2027 07:54:25.908            45.989                 Moscow          5636.000
       264   11 Jun 2027 07:54:53.797   11 Jun 2027 07:55:54.391            60.594              Murmansk1          6449.000
       265   11 Jun 2027 07:56:08.537   11 Jun 2027 07:57:20.595            72.058              Murmansk2          7073.000
       266   11 Jun 2027 07:57:31.175   11 Jun 2027 07:59:07.232            96.057                 Moscow          5290.000
       267   12 Jun 2027 03:16:23.603   12 Jun 2027 03:16:31.233             7.630                Irkutsk           183.000
       268   12 Jun 2027 03:16:31.788   12 Jun 2027 03:17:08.976            37.188                Novosib           277.500
       269   12 Jun 2027 03:17:16.779   12 Jun 2027 03:17:56.559            39.780                Norilsk          3901.500
       270   12 Jun 2027 03:17:59.220   12 Jun 2027 03:18:17.689            18.469                Irkutsk          1330.500
       271   12 Jun 2027 03:18:27.544   12 Jun 2027 03:19:12.875            45.331               Magadan2          4927.500
       272   12 Jun 2027 03:19:22.446   12 Jun 2027 03:20:41.063            78.617                Novosib          4785.500
       273   12 Jun 2027 03:20:42.448   12 Jun 2027 03:21:05.828            23.380              Murmansk1           692.500
       274   12 Jun 2027 03:21:09.842   12 Jun 2027 03:21:44.971            35.129                Novosib          2007.000
       275   12 Jun 2027 03:21:47.643   12 Jun 2027 03:22:33.165            45.522              Murmansk1          1336.000
       276   12 Jun 2027 03:22:34.875   12 Jun 2027 03:23:05.384            30.509              Murmansk2           855.000
       277   12 Jun 2027 03:23:05.608   12 Jun 2027 03:23:25.607            19.999                Irkutsk           112.000
       278   12 Jun 2027 04:53:36.357   12 Jun 2027 04:53:43.889             7.532                Norilsk           941.500
       279   12 Jun 2027 04:53:47.948   12 Jun 2027 04:55:26.439            98.491                Novosib         10320.000
       280   12 Jun 2027 04:55:27.739   12 Jun 2027 04:55:46.292            18.553              Murmansk2           650.000
       281   12 Jun 2027 04:55:48.445   12 Jun 2027 04:55:53.514             5.069                Novosib           633.625
       282   12 Jun 2027 04:56:00.974   12 Jun 2027 04:56:42.409            41.435                Novosib          4172.875
       283   12 Jun 2027 04:56:44.347   12 Jun 2027 04:57:09.234            24.887              Murmansk1           969.000
       284   12 Jun 2027 04:57:12.872   12 Jun 2027 04:57:20.108             7.236                Irkutsk           904.500
       285   12 Jun 2027 04:57:21.149   12 Jun 2027 04:57:35.523            14.374                 Moscow          1435.000
       286   12 Jun 2027 04:57:48.430   12 Jun 2027 04:58:53.167            64.737              Murmansk2          5569.000
       287   12 Jun 2027 04:59:02.581   12 Jun 2027 04:59:52.284            49.703              Murmansk2          4707.000
       288   12 Jun 2027 06:30:13.883   12 Jun 2027 06:30:44.724            30.841                 Moscow          1732.500
       289   12 Jun 2027 06:30:47.351   12 Jun 2027 06:31:12.194            24.843              Murmansk1          1313.500
       290   12 Jun 2027 06:31:16.542   12 Jun 2027 06:31:47.331            30.789                Novosib          2174.000
       291   12 Jun 2027 06:31:53.112   12 Jun 2027 06:32:25.139            32.027              Murmansk2          2890.500
       292   12 Jun 2027 06:32:25.705   12 Jun 2027 06:32:32.327             6.622                 Moscow           283.000
       293   12 Jun 2027 06:32:32.868   12 Jun 2027 06:32:54.752            21.884                Norilsk           270.500
       294   12 Jun 2027 06:32:57.016   12 Jun 2027 06:33:14.177            17.161              Murmansk1          1132.000
       295   12 Jun 2027 06:33:14.605   12 Jun 2027 06:33:27.762            13.157                 Moscow           214.000
       296   12 Jun 2027 06:33:38.008   12 Jun 2027 06:33:44.189             6.181                Novosib           772.625
       297   12 Jun 2027 06:33:50.194   12 Jun 2027 06:35:09.369            79.175              Murmansk1          7352.875
       298   12 Jun 2027 08:07:54.674   12 Jun 2027 08:08:54.332            59.658              Murmansk1          6627.500
       299   12 Jun 2027 08:09:17.837   12 Jun 2027 08:10:23.372            65.535              Murmansk2          8191.875
       300   12 Jun 2027 08:10:23.372   12 Jun 2027 08:11:11.671            48.299              Murmansk1          3560.625
       301   13 Jun 2027 03:28:32.328   13 Jun 2027 03:29:18.424            46.096                Irkutsk          2082.000
       302   13 Jun 2027 03:29:28.812   13 Jun 2027 03:30:48.277            79.465                Norilsk          5194.000
       303   13 Jun 2027 03:30:53.558   13 Jun 2027 03:31:29.814            36.256                Norilsk          2640.500
       304   13 Jun 2027 03:31:32.972   13 Jun 2027 03:31:46.837            13.865                Norilsk          1579.000
       305   13 Jun 2027 03:31:58.365   13 Jun 2027 03:33:08.549            70.184                Novosib          5764.000
       306   13 Jun 2027 03:33:09.083   13 Jun 2027 03:33:39.548            30.465              Murmansk1           267.000
       307   13 Jun 2027 03:33:44.203   13 Jun 2027 03:34:23.883            39.680              Murmansk1          2327.500
       308   13 Jun 2027 03:34:42.158   13 Jun 2027 03:35:26.607            44.449                Irkutsk          5556.125
       309   13 Jun 2027 03:35:27.585   13 Jun 2027 03:35:59.178            31.593                Norilsk          3581.375
       310   13 Jun 2027 05:06:13.230   13 Jun 2027 05:06:36.774            23.544                Novosib          2943.000
       311   13 Jun 2027 05:06:41.987   13 Jun 2027 05:08:08.751            86.764                Irkutsk          5462.000
       312   13 Jun 2027 05:08:10.373   13 Jun 2027 05:08:24.990            14.617                 Moscow           811.000
       313   13 Jun 2027 05:08:37.791   13 Jun 2027 05:09:36.429            58.638              Murmansk1          6400.500
       314   13 Jun 2027 05:09:41.982   13 Jun 2027 05:10:05.266            23.284                Novosib          2776.500
       315   13 Jun 2027 05:10:07.448   13 Jun 2027 05:10:42.728            35.280                Norilsk          1091.000
       316   13 Jun 2027 06:42:24.656   13 Jun 2027 06:43:11.954            47.298                Novosib          3040.500
       317   13 Jun 2027 06:43:26.540   13 Jun 2027 06:44:42.817            76.277                 Moscow          7293.000
       318   13 Jun 2027 06:44:54.011   13 Jun 2027 06:45:47.610            53.599                Norilsk          5597.000
       319   13 Jun 2027 06:45:48.705   13 Jun 2027 06:46:21.043            32.338                Norilsk           547.500
       320   13 Jun 2027 06:46:25.541   13 Jun 2027 06:46:54.687            29.146                Norilsk          2249.000
       321   13 Jun 2027 06:46:55.153   13 Jun 2027 06:47:22.325            27.172                 Moscow           233.000
       322   13 Jun 2027 08:21:14.462   13 Jun 2027 08:22:07.355            52.893              Murmansk2          3755.500
