uniorb/output/strategy_2/Drop/Drop_KinoSat_112008.txt

KinoSat_112008
-------------------------
    Access    *     Start Time (UTCG)     *     Stop Time (UTCG)  *   Duration (s)        *       Station  *  Data (Mbytes)
         1   01 Jun 2027 04:04:54.676   01 Jun 2027 04:05:17.205            22.529                Irkutsk           704.031
         2   01 Jun 2027 04:07:19.259   01 Jun 2027 04:07:52.285            33.026                Norilsk          1032.062
         3   01 Jun 2027 04:08:18.008   01 Jun 2027 04:08:31.735            13.727                Irkutsk           428.969
         4   01 Jun 2027 04:08:46.990   01 Jun 2027 04:08:54.936             7.946                Irkutsk           248.313
         5   01 Jun 2027 04:09:02.507   01 Jun 2027 04:10:57.540           115.033              Murmansk1          3594.781
         6   01 Jun 2027 04:10:57.935   01 Jun 2027 04:11:36.993            39.058                Norilsk          1220.563
         7   01 Jun 2027 04:12:41.173   01 Jun 2027 04:12:45.212             4.039                Irkutsk           126.219
         8   01 Jun 2027 04:15:52.090   01 Jun 2027 04:16:23.747            31.657                Novosib           989.281
         9   01 Jun 2027 04:16:38.396   01 Jun 2027 04:21:10.899           272.503                  Delhi          8515.719
        10   01 Jun 2027 05:44:54.895   01 Jun 2027 05:45:10.669            15.774              Murmansk2           492.937
        11   01 Jun 2027 05:45:40.273   01 Jun 2027 05:46:02.863            22.590              Murmansk2           705.937
        12   01 Jun 2027 05:46:09.831   01 Jun 2027 05:46:20.594            10.763                Novosib           336.344
        13   01 Jun 2027 05:46:36.279   01 Jun 2027 05:47:24.560            48.281              Murmansk2          1508.781
        14   01 Jun 2027 05:47:24.560   01 Jun 2027 05:47:49.572            25.012              Murmansk1           781.625
        15   01 Jun 2027 05:48:19.342   01 Jun 2027 05:49:52.216            92.874              Murmansk2          2902.312
        16   01 Jun 2027 05:49:52.216   01 Jun 2027 05:50:10.677            18.461              Murmansk1           576.906
        17   01 Jun 2027 05:50:12.439   01 Jun 2027 05:52:23.517           131.078                 Moscow          4096.187
        18   01 Jun 2027 05:52:34.955   01 Jun 2027 05:53:54.527            79.572                 Moscow          2486.625
        19   01 Jun 2027 06:12:09.159   01 Jun 2027 06:15:29.639           200.480               CapeTown          6265.000
        20   01 Jun 2027 07:22:24.522   01 Jun 2027 07:23:09.211            44.689              Murmansk1          1396.531
        21   01 Jun 2027 07:23:13.804   01 Jun 2027 07:23:48.157            34.353                 Moscow          1073.531
        22   01 Jun 2027 07:23:49.007   01 Jun 2027 07:25:08.526            79.519              Murmansk1          2484.969
        23   01 Jun 2027 07:25:17.005   01 Jun 2027 07:25:28.521            11.516                 Moscow           359.875
        24   01 Jun 2027 07:25:38.555   01 Jun 2027 07:27:52.501           133.946                 Moscow          4185.813
        25   01 Jun 2027 07:47:09.462   01 Jun 2027 07:51:47.485           278.023               CapeTown          8688.219
        26   01 Jun 2027 08:45:15.477   01 Jun 2027 08:47:35.088           139.611                Anadyr1          4362.844
        27   01 Jun 2027 10:17:14.365   01 Jun 2027 10:26:29.093           554.728                Anadyr1         17335.250
        28   01 Jun 2027 11:52:34.621   01 Jun 2027 11:55:23.936           169.315               Magadan1          5291.094
        29   01 Jun 2027 11:55:35.712   01 Jun 2027 12:01:45.907           370.195               Magadan2         11568.594
        30   01 Jun 2027 14:18:21.117   01 Jun 2027 14:21:29.915           188.798            RioGallegos          5899.937
        31   01 Jun 2027 14:49:45.586   01 Jun 2027 14:58:11.148           505.562                Sumatra         15798.812
        32   01 Jun 2027 15:05:17.197   01 Jun 2027 15:12:27.680           430.483                Irkutsk         13452.594
        33   01 Jun 2027 16:35:08.703   01 Jun 2027 16:42:04.809           416.106                  Delhi         13003.312
        34   01 Jun 2027 16:43:37.096   01 Jun 2027 16:49:45.094           367.998                Novosib         11499.938
        35   01 Jun 2027 19:58:12.951   01 Jun 2027 20:02:38.112           265.161                 Moscow          8286.281
        36   01 Jun 2027 20:02:57.108   01 Jun 2027 20:04:21.641            84.533              Murmansk2          2641.656
        37   01 Jun 2027 21:07:24.041   01 Jun 2027 21:15:24.173           480.132               CapeTown         15004.125
        38   01 Jun 2027 21:41:50.190   01 Jun 2027 21:42:25.992            35.802              Murmansk2          1118.812
        39   02 Jun 2027 02:56:01.386   02 Jun 2027 03:03:40.646           459.260                Sumatra         14351.875
        40   02 Jun 2027 04:21:13.210   02 Jun 2027 04:21:37.523            24.313                Irkutsk           759.781
        41   02 Jun 2027 05:57:53.645   02 Jun 2027 05:58:03.040             9.395                Novosib           293.594
        42   02 Jun 2027 05:58:32.219   02 Jun 2027 05:58:56.424            24.205                Novosib           756.406
        43   02 Jun 2027 05:59:18.586   02 Jun 2027 06:01:07.208           108.622              Murmansk1          3394.437
        44   02 Jun 2027 06:01:16.395   02 Jun 2027 06:02:26.964            70.569              Murmansk1          2205.281
        45   02 Jun 2027 06:03:03.288   02 Jun 2027 06:03:10.029             6.741                 Moscow           210.656
        46   02 Jun 2027 06:03:53.177   02 Jun 2027 06:04:35.440            42.263                 Moscow          1320.719
        47   02 Jun 2027 06:05:32.260   02 Jun 2027 06:06:08.474            36.214                 Moscow          1131.688
        48   02 Jun 2027 06:24:32.817   02 Jun 2027 06:29:45.671           312.854               CapeTown          9776.687
        49   02 Jun 2027 07:22:04.431   02 Jun 2027 07:23:11.457            67.026                Anadyr2          2094.562
        50   02 Jun 2027 07:33:33.442   02 Jun 2027 07:35:36.000           122.558                 Moscow          3829.937
        51   02 Jun 2027 07:35:57.408   02 Jun 2027 07:36:58.273            60.865                 Moscow          1902.031
        52   02 Jun 2027 07:37:34.646   02 Jun 2027 07:38:33.260            58.614                 Moscow          1831.688
        53   02 Jun 2027 07:39:08.450   02 Jun 2027 07:40:04.618            56.168                 Moscow          1755.250
        54   02 Jun 2027 07:40:17.566   02 Jun 2027 07:40:32.614            15.048                 Moscow           470.250
        55   02 Jun 2027 07:41:35.960   02 Jun 2027 07:41:51.402            15.442                 Moscow           482.563
        56   02 Jun 2027 07:55:58.361   02 Jun 2027 08:04:20.243           501.882               CapeTown         15683.812
        57   02 Jun 2027 08:57:15.532   02 Jun 2027 09:00:29.177           193.645                Anadyr2          6051.406
        58   02 Jun 2027 09:12:37.593   02 Jun 2027 09:13:08.866            31.273                 Moscow           977.281
        59   02 Jun 2027 09:14:22.582   02 Jun 2027 09:14:39.761            17.179                 Moscow           536.844
        60   02 Jun 2027 10:29:53.299   02 Jun 2027 10:38:22.396           509.097                Anadyr2         15909.281
        61   02 Jun 2027 12:05:18.095   02 Jun 2027 12:12:37.271           439.176               Magadan1         13724.250
        62   02 Jun 2027 12:12:37.271   02 Jun 2027 12:13:32.846            55.575               Magadan2          1736.719
        63   02 Jun 2027 14:29:39.836   02 Jun 2027 14:35:15.300           335.464            RioGallegos         10483.250
        64   02 Jun 2027 15:02:37.098   02 Jun 2027 15:09:02.279           385.181                Sumatra         12036.906
        65   02 Jun 2027 15:18:30.727   02 Jun 2027 15:23:46.095           315.368                Irkutsk          9855.250
        66   02 Jun 2027 16:48:57.559   02 Jun 2027 16:52:31.007           213.448                  Delhi          6670.250
        67   02 Jun 2027 16:57:05.075   02 Jun 2027 17:00:52.871           227.796                Novosib          7118.625
        68   02 Jun 2027 20:12:03.288   02 Jun 2027 20:12:36.746            33.458              Murmansk2          1045.562
        69   02 Jun 2027 20:14:54.095   02 Jun 2027 20:17:03.117           129.022              Murmansk1          4031.938
        70   02 Jun 2027 20:18:23.687   02 Jun 2027 20:19:42.411            78.724              Murmansk2          2460.125
        71   02 Jun 2027 21:20:08.206   02 Jun 2027 21:26:18.356           370.150               CapeTown         11567.188
        72   03 Jun 2027 01:12:53.092   03 Jun 2027 01:13:02.168             9.076               Magadan1           283.625
        73   03 Jun 2027 01:14:11.376   03 Jun 2027 01:14:14.403             3.027                Norilsk            94.594
        74   03 Jun 2027 01:14:38.274   03 Jun 2027 01:15:49.173            70.899               Magadan1          2215.594
        75   03 Jun 2027 01:16:16.225   03 Jun 2027 01:17:00.124            43.899                Irkutsk          1371.844
        76   03 Jun 2027 01:17:31.875   03 Jun 2027 01:17:47.233            15.358                Novosib           479.937
        77   03 Jun 2027 01:19:15.444   03 Jun 2027 01:19:57.074            41.630                Novosib          1300.938
        78   03 Jun 2027 01:23:49.051   03 Jun 2027 01:23:53.032             3.981                Irkutsk           124.406
        79   03 Jun 2027 01:29:57.874   03 Jun 2027 01:33:03.334           185.460                Sumatra          5795.625
        80   03 Jun 2027 01:42:04.055   03 Jun 2027 01:42:40.599            36.544                Sumatra          1142.000
        81   03 Jun 2027 02:13:30.577   03 Jun 2027 02:13:44.840            14.263            RioGallegos           445.719
        82   03 Jun 2027 02:44:26.531   03 Jun 2027 02:44:44.625            18.094                Anadyr2           565.438
        83   03 Jun 2027 02:46:48.425   03 Jun 2027 02:47:03.751            15.326                Anadyr2           478.938
        84   03 Jun 2027 02:48:11.694   03 Jun 2027 02:49:22.292            70.598                Norilsk          2206.188
        85   03 Jun 2027 02:49:46.160   03 Jun 2027 02:50:14.249            28.089                Norilsk           877.781
        86   03 Jun 2027 02:52:05.846   03 Jun 2027 02:54:13.272           127.426                Novosib          3982.062
        87   03 Jun 2027 02:54:20.003   03 Jun 2027 02:54:39.475            19.472                Irkutsk           608.500
        88   03 Jun 2027 02:55:44.429   03 Jun 2027 02:56:29.264            44.835                Irkutsk          1401.094
        89   03 Jun 2027 02:59:38.354   03 Jun 2027 03:00:40.546            62.192                  Delhi          1943.500
        90   03 Jun 2027 03:09:26.482   03 Jun 2027 03:14:09.950           283.468                Sumatra          8858.375
        91   03 Jun 2027 03:44:47.267   03 Jun 2027 03:45:15.912            28.645            RioGallegos           895.156
        92   03 Jun 2027 04:28:55.557   03 Jun 2027 04:29:26.286            30.729                Irkutsk           960.281
        93   03 Jun 2027 04:33:49.857   03 Jun 2027 04:33:52.434             2.577                Novosib            80.531
        94   03 Jun 2027 04:33:58.158   03 Jun 2027 04:35:17.158            79.000                 Moscow          2468.750
        95   03 Jun 2027 04:35:18.653   03 Jun 2027 04:35:43.792            25.139                Novosib           785.594
        96   03 Jun 2027 04:35:53.812   03 Jun 2027 04:35:57.856             4.044              Murmansk2           126.375
        97   03 Jun 2027 04:35:58.189   03 Jun 2027 04:41:11.360           313.171                  Delhi          9786.594
        98   03 Jun 2027 06:08:51.555   03 Jun 2027 06:10:02.111            70.556                Novosib          2204.875
        99   03 Jun 2027 06:10:33.312   03 Jun 2027 06:11:12.394            39.082                 Moscow          1221.312
       100   03 Jun 2027 06:11:26.409   03 Jun 2027 06:12:27.658            61.249              Murmansk2          1914.031
       101   03 Jun 2027 06:12:46.537   03 Jun 2027 06:12:56.165             9.628                 Moscow           300.875
       102   03 Jun 2027 06:12:56.696   03 Jun 2027 06:13:24.766            28.070              Murmansk2           877.187
       103   03 Jun 2027 06:13:35.373   03 Jun 2027 06:14:42.281            66.908                 Moscow          2090.875
       104   03 Jun 2027 06:15:09.809   03 Jun 2027 06:16:48.633            98.824                 Moscow          3088.250
       105   03 Jun 2027 06:29:39.424   03 Jun 2027 06:32:16.956           157.532               CapeTown          4922.875
       106   03 Jun 2027 07:32:32.675   03 Jun 2027 07:33:05.194            32.519                Anadyr1          1016.219
       107   03 Jun 2027 07:33:26.011   03 Jun 2027 07:34:13.655            47.644                Anadyr2          1488.875
       108   03 Jun 2027 07:34:14.776   03 Jun 2027 07:34:19.266             4.490               Magadan1           140.313
       109   03 Jun 2027 07:34:56.542   03 Jun 2027 07:35:22.245            25.703               Magadan1           803.219
       110   03 Jun 2027 07:41:10.306   03 Jun 2027 07:41:34.290            23.984              Murmansk2           749.500
       111   03 Jun 2027 07:44:45.676   03 Jun 2027 07:45:07.428            21.752              Murmansk1           679.750
       112   03 Jun 2027 07:45:09.740   03 Jun 2027 07:45:25.518            15.778                Norilsk           493.062
       113   03 Jun 2027 07:45:27.610   03 Jun 2027 07:46:02.189            34.579              Murmansk2          1080.594
       114   03 Jun 2027 07:46:09.388   03 Jun 2027 07:46:58.895            49.507                 Moscow          1547.094
       115   03 Jun 2027 08:06:54.134   03 Jun 2027 08:13:25.845           391.711               CapeTown         12240.969
       116   03 Jun 2027 09:07:04.842   03 Jun 2027 09:08:17.873            73.031               Magadan2          2282.219
       117   03 Jun 2027 09:08:54.009   03 Jun 2027 09:09:03.270             9.261               Magadan2           289.406
       118   03 Jun 2027 09:09:15.039   03 Jun 2027 09:10:21.242            66.203                Anadyr2          2068.844
       119   03 Jun 2027 09:10:25.997   03 Jun 2027 09:10:43.269            17.272                Norilsk           539.750
       120   03 Jun 2027 09:10:45.262   03 Jun 2027 09:11:29.412            44.150               Magadan1          1379.688
       121   03 Jun 2027 09:11:32.468   03 Jun 2027 09:11:38.374             5.906                Norilsk           184.562
       122   03 Jun 2027 09:11:55.494   03 Jun 2027 09:12:39.910            44.416                Anadyr1          1388.000
       123   03 Jun 2027 09:12:54.099   03 Jun 2027 09:12:56.529             2.430               Magadan1            75.938
       124   03 Jun 2027 09:13:49.343   03 Jun 2027 09:14:42.546            53.203               Magadan2          1662.594
       125   03 Jun 2027 09:14:53.865   03 Jun 2027 09:14:58.848             4.983                Anadyr2           155.719
       126   03 Jun 2027 09:20:08.746   03 Jun 2027 09:20:38.855            30.109                 Moscow           940.906
       127   03 Jun 2027 10:38:24.882   03 Jun 2027 10:38:39.926            15.044               Magadan1           470.125
       128   03 Jun 2027 10:41:56.976   03 Jun 2027 10:42:13.756            16.780                Irkutsk           524.375
       129   03 Jun 2027 10:42:17.276   03 Jun 2027 10:44:46.025           148.749               Magadan1          4648.406
       130   03 Jun 2027 10:45:04.643   03 Jun 2027 10:45:40.889            36.246                Irkutsk          1132.688
       131   03 Jun 2027 10:45:41.571   03 Jun 2027 10:48:21.614           160.043               Magadan2          5001.344
       132   03 Jun 2027 10:48:33.593   03 Jun 2027 10:48:48.325            14.732                Irkutsk           460.375
       133   03 Jun 2027 10:49:33.669   03 Jun 2027 10:50:32.831            59.162               Magadan1          1848.812
       134   03 Jun 2027 11:26:34.194   03 Jun 2027 11:27:07.258            33.064            RioGallegos          1033.250
       135   03 Jun 2027 11:30:22.205   03 Jun 2027 11:30:29.874             7.669            RioGallegos           239.656
       136   03 Jun 2027 11:34:33.571   03 Jun 2027 11:35:17.088            43.517            RioGallegos          1359.906
       137   03 Jun 2027 12:05:45.174   03 Jun 2027 12:05:46.403             1.229                Sumatra            38.406
       138   03 Jun 2027 12:13:49.806   03 Jun 2027 12:15:50.079           120.273                Irkutsk          3758.531
       139   03 Jun 2027 12:16:14.287   03 Jun 2027 12:16:45.861            31.574                Irkutsk           986.688
       140   03 Jun 2027 12:17:16.422   03 Jun 2027 12:17:57.031            40.609                Novosib          1269.031
       141   03 Jun 2027 12:18:09.752   03 Jun 2027 12:25:14.414           424.662               Magadan1         13270.688
       142   03 Jun 2027 13:50:04.729   03 Jun 2027 13:52:35.802           151.073                Irkutsk          4721.031
       143   03 Jun 2027 13:59:28.596   03 Jun 2027 13:59:54.943            26.347                Irkutsk           823.344
       144   03 Jun 2027 14:40:58.317   03 Jun 2027 14:47:56.922           418.605            RioGallegos         13081.406
       145   03 Jun 2027 15:17:05.664   03 Jun 2027 15:18:27.534            81.870                Sumatra          2558.437
       146   03 Jun 2027 15:32:51.019   03 Jun 2027 15:34:01.046            70.027                Irkutsk          2188.344
       147   03 Jun 2027 17:07:00.306   03 Jun 2027 17:07:04.651             4.345                 Moscow           135.781
       148   03 Jun 2027 17:07:58.489   03 Jun 2027 17:09:06.172            67.683              Murmansk1          2115.094
       149   03 Jun 2027 17:11:43.323   03 Jun 2027 17:13:48.057           124.734                Norilsk          3897.937
       150   03 Jun 2027 17:16:09.008   03 Jun 2027 17:16:43.193            34.185                Norilsk          1068.281
       151   03 Jun 2027 17:17:18.372   03 Jun 2027 17:17:38.339            19.967                Norilsk           623.969
       152   03 Jun 2027 18:41:45.163   03 Jun 2027 18:42:33.638            48.475                 Moscow          1514.844
       153   03 Jun 2027 18:43:27.764   03 Jun 2027 18:46:25.203           177.439                 Moscow          5544.969
       154   03 Jun 2027 18:49:35.488   03 Jun 2027 18:51:19.837           104.349                 Moscow          3260.906
       155   03 Jun 2027 19:02:13.555   03 Jun 2027 19:02:17.622             4.067                Anadyr2           127.094
       156   03 Jun 2027 19:54:01.121   03 Jun 2027 19:54:28.617            27.496               CapeTown           859.250
       157   03 Jun 2027 19:55:51.775   03 Jun 2027 19:57:05.982            74.207               CapeTown          2318.969
       158   03 Jun 2027 20:01:41.222   03 Jun 2027 20:02:12.912            31.690               CapeTown           990.312
       159   03 Jun 2027 20:24:08.808   03 Jun 2027 20:32:40.049           511.241              Murmansk2         15976.281
       160   03 Jun 2027 21:33:29.169   03 Jun 2027 21:36:32.592           183.423               CapeTown          5731.969
       161   03 Jun 2027 22:12:52.364   03 Jun 2027 22:14:07.354            74.990               Magadan1          2343.438
       162   03 Jun 2027 22:15:07.103   03 Jun 2027 22:15:19.420            12.317               Magadan1           384.906
       163   03 Jun 2027 22:15:30.507   03 Jun 2027 22:16:04.204            33.697               Magadan1          1053.031
       164   03 Jun 2027 23:46:23.899   03 Jun 2027 23:50:13.983           230.084                Anadyr2          7190.125
       165   03 Jun 2027 23:50:15.944   03 Jun 2027 23:53:10.991           175.047               Magadan1          5470.219
       166   03 Jun 2027 23:53:59.948   03 Jun 2027 23:54:16.879            16.931               Magadan1           529.094
       167   03 Jun 2027 23:54:23.076   03 Jun 2027 23:55:16.593            53.517                Irkutsk          1672.406
       168   03 Jun 2027 23:56:21.842   03 Jun 2027 23:56:49.225            27.383                Irkutsk           855.719
       169   03 Jun 2027 23:59:05.909   03 Jun 2027 23:59:21.934            16.025                Irkutsk           500.781
       170   04 Jun 2027 00:10:19.049   04 Jun 2027 00:12:58.968           159.919                Sumatra          4997.469
       171   04 Jun 2027 00:40:29.011   04 Jun 2027 00:41:30.619            61.608            RioGallegos          1925.250
       172   04 Jun 2027 00:42:37.920   04 Jun 2027 00:42:41.783             3.863            RioGallegos           120.719
       173   04 Jun 2027 00:43:23.053   04 Jun 2027 00:44:12.092            49.039            RioGallegos          1532.469
       174   04 Jun 2027 01:21:49.973   04 Jun 2027 01:22:19.791            29.818                Anadyr1           931.812
       175   04 Jun 2027 01:22:40.926   04 Jun 2027 01:23:19.573            38.647                Anadyr1          1207.719
       176   04 Jun 2027 01:23:49.602   04 Jun 2027 01:24:31.071            41.469                Anadyr1          1295.906
       177   04 Jun 2027 01:24:50.556   04 Jun 2027 01:27:17.006           146.450               Magadan1          4576.563
       178   04 Jun 2027 01:28:13.729   04 Jun 2027 01:30:03.449           109.720                Irkutsk          3428.750
       179   04 Jun 2027 01:31:24.772   04 Jun 2027 01:32:12.619            47.847                Novosib          1495.219
       180   04 Jun 2027 01:39:20.596   04 Jun 2027 01:40:49.388            88.792                Irkutsk          2774.750
       181   04 Jun 2027 01:44:16.772   04 Jun 2027 01:46:12.567           115.795                Sumatra          3618.594
       182   04 Jun 2027 02:20:15.515   04 Jun 2027 02:21:28.558            73.043            RioGallegos          2282.594
       183   04 Jun 2027 02:58:59.263   04 Jun 2027 02:59:10.701            11.438                Anadyr1           357.437
       184   04 Jun 2027 03:04:37.102   04 Jun 2027 03:04:39.652             2.550                Anadyr1            79.687
       185   04 Jun 2027 03:05:02.681   04 Jun 2027 03:05:08.194             5.513               Magadan2           172.281
       186   04 Jun 2027 03:05:29.983   04 Jun 2027 03:05:55.364            25.381                Novosib           793.156
       187   04 Jun 2027 03:06:37.775   04 Jun 2027 03:06:58.849            21.074               Magadan1           658.562
       188   04 Jun 2027 03:07:02.769   04 Jun 2027 03:07:06.259             3.490              Murmansk1           109.063
       189   04 Jun 2027 03:07:08.613   04 Jun 2027 03:07:57.860            49.247                Novosib          1538.969
       190   04 Jun 2027 03:08:18.803   04 Jun 2027 03:09:07.292            48.489                Irkutsk          1515.281
       191   04 Jun 2027 03:09:07.352   04 Jun 2027 03:09:42.563            35.211                Norilsk          1100.344
       192   04 Jun 2027 03:09:43.237   04 Jun 2027 03:10:54.605            71.368                Novosib          2230.250
       193   04 Jun 2027 03:11:30.526   04 Jun 2027 03:17:54.786           384.260                  Delhi         12008.125
       194   04 Jun 2027 03:52:58.604   04 Jun 2027 03:57:39.440           280.836            RioGallegos          8776.125
       195   04 Jun 2027 04:42:07.517   04 Jun 2027 04:44:32.809           145.292                Irkutsk          4540.375
       196   04 Jun 2027 04:44:46.979   04 Jun 2027 04:44:55.926             8.947                Irkutsk           279.594
       197   04 Jun 2027 04:46:11.629   04 Jun 2027 04:47:37.199            85.570                Irkutsk          2674.063
       198   04 Jun 2027 04:48:22.640   04 Jun 2027 04:54:17.055           354.415                  Delhi         11075.469
       199   04 Jun 2027 06:21:27.568   04 Jun 2027 06:21:32.307             4.739              Murmansk1           148.094
       200   04 Jun 2027 06:21:40.008   04 Jun 2027 06:22:09.265            29.257              Murmansk2           914.281
       201   04 Jun 2027 06:22:09.265   04 Jun 2027 06:22:13.699             4.434              Murmansk1           138.563
       202   04 Jun 2027 06:22:29.249   04 Jun 2027 06:22:47.208            17.959                Norilsk           561.219
       203   04 Jun 2027 06:22:51.473   04 Jun 2027 06:23:25.156            33.683              Murmansk2          1052.594
       204   04 Jun 2027 06:23:25.156   04 Jun 2027 06:23:51.370            26.214              Murmansk1           819.187
       205   04 Jun 2027 06:23:55.047   04 Jun 2027 06:24:19.051            24.004              Murmansk2           750.125
       206   04 Jun 2027 06:24:44.627   04 Jun 2027 06:25:44.634            60.007                 Moscow          1875.219
       207   04 Jun 2027 06:25:57.871   04 Jun 2027 06:26:53.588            55.717              Murmansk2          1741.156
       208   04 Jun 2027 06:28:14.618   04 Jun 2027 06:28:26.459            11.841                 Moscow           370.031
       209   04 Jun 2027 06:41:31.947   04 Jun 2027 06:44:39.473           187.526               CapeTown          5860.187
       210   04 Jun 2027 07:44:49.210   04 Jun 2027 07:45:06.982            17.772                Anadyr2           555.375
       211   04 Jun 2027 07:45:06.982   04 Jun 2027 07:45:26.699            19.717                Anadyr1           616.156
       212   04 Jun 2027 07:45:55.412   04 Jun 2027 07:46:58.624            63.212               Magadan2          1975.375
       213   04 Jun 2027 07:47:11.218   04 Jun 2027 07:47:47.600            36.382                Anadyr1          1136.938
       214   04 Jun 2027 07:57:44.715   04 Jun 2027 07:58:33.934            49.219                 Moscow          1538.094
       215   04 Jun 2027 07:59:42.339   04 Jun 2027 08:00:20.863            38.524                 Moscow          1203.875
       216   04 Jun 2027 08:19:40.368   04 Jun 2027 08:28:24.216           523.848               CapeTown         16370.250
       217   04 Jun 2027 09:18:53.314   04 Jun 2027 09:21:13.853           140.539                Anadyr2          4391.844
       218   04 Jun 2027 09:21:35.242   04 Jun 2027 09:21:42.578             7.336                Norilsk           229.250
       219   04 Jun 2027 09:21:48.727   04 Jun 2027 09:22:23.443            34.716               Magadan1          1084.875
       220   04 Jun 2027 09:22:43.246   04 Jun 2027 09:23:27.084            43.838               Magadan1          1369.938
       221   04 Jun 2027 09:24:53.569   04 Jun 2027 09:26:58.835           125.266                Anadyr2          3914.563
       222   04 Jun 2027 10:50:33.624   04 Jun 2027 10:50:45.908            12.284               Magadan2           383.875
       223   04 Jun 2027 10:52:58.363   04 Jun 2027 10:54:04.291            65.928               Magadan1          2060.250
       224   04 Jun 2027 10:55:24.201   04 Jun 2027 10:56:00.424            36.223               Magadan2          1131.969
       225   04 Jun 2027 10:56:27.710   04 Jun 2027 10:56:31.432             3.722                Irkutsk           116.313
       226   04 Jun 2027 10:56:42.535   04 Jun 2027 11:00:35.532           232.997               Magadan2          7281.156
       227   04 Jun 2027 11:01:12.034   04 Jun 2027 11:01:20.218             8.184                Novosib           255.750
       228   04 Jun 2027 11:01:26.907   04 Jun 2027 11:01:35.460             8.553              Murmansk2           267.281
       229   04 Jun 2027 11:01:38.378   04 Jun 2027 11:01:50.985            12.607                Novosib           393.969
       230   04 Jun 2027 11:01:52.356   04 Jun 2027 11:02:04.386            12.030                Novosib           375.938
       231   04 Jun 2027 11:02:04.959   04 Jun 2027 11:02:45.548            40.589                Norilsk          1268.406
       232   04 Jun 2027 11:37:40.117   04 Jun 2027 11:38:09.770            29.653            RioGallegos           926.656
       233   04 Jun 2027 11:39:04.956   04 Jun 2027 11:39:14.741             9.785            RioGallegos           305.781
       234   04 Jun 2027 11:39:57.251   04 Jun 2027 11:40:16.543            19.292            RioGallegos           602.875
       235   04 Jun 2027 12:15:29.337   04 Jun 2027 12:17:07.319            97.982                Sumatra          3061.938
       236   04 Jun 2027 12:25:42.562   04 Jun 2027 12:27:36.608           114.046                Irkutsk          3563.937
       237   04 Jun 2027 12:30:36.300   04 Jun 2027 12:30:57.650            21.350                Norilsk           667.187
       238   04 Jun 2027 12:31:13.732   04 Jun 2027 12:36:46.536           332.804               Magadan2         10400.125
       239   04 Jun 2027 13:49:39.882   04 Jun 2027 13:51:06.091            86.209                Sumatra          2694.031
       240   04 Jun 2027 14:02:25.446   04 Jun 2027 14:03:00.454            35.008                Irkutsk          1094.000
       241   04 Jun 2027 14:04:19.771   04 Jun 2027 14:05:07.903            48.132                Irkutsk          1504.125
       242   04 Jun 2027 14:06:38.303   04 Jun 2027 14:07:32.749            54.446                Irkutsk          1701.438
       243   04 Jun 2027 14:19:19.273   04 Jun 2027 14:19:21.343             2.070                Norilsk            64.687
       244   04 Jun 2027 14:54:16.790   04 Jun 2027 14:59:10.170           293.380            RioGallegos          9168.125
       245   04 Jun 2027 15:40:20.332   04 Jun 2027 15:41:15.411            55.079                Novosib          1721.219
       246   04 Jun 2027 15:44:20.974   04 Jun 2027 15:44:54.810            33.836                Norilsk          1057.375
       247   04 Jun 2027 15:45:08.969   04 Jun 2027 15:45:38.671            29.702                Novosib           928.188
       248   04 Jun 2027 15:47:25.765   04 Jun 2027 15:48:31.684            65.919                Norilsk          2059.969
       249   04 Jun 2027 17:16:33.673   04 Jun 2027 17:17:57.540            83.867                 Moscow          2620.844
       250   04 Jun 2027 17:18:46.865   04 Jun 2027 17:19:43.643            56.778                 Moscow          1774.312
       251   04 Jun 2027 17:20:02.139   04 Jun 2027 17:21:04.989            62.850              Murmansk2          1964.062
       252   04 Jun 2027 17:24:27.552   04 Jun 2027 17:27:11.951           164.399                Norilsk          5137.469
       253   04 Jun 2027 17:28:08.329   04 Jun 2027 17:29:41.319            92.990                Norilsk          2905.937
       254   04 Jun 2027 18:54:13.695   04 Jun 2027 18:55:38.088            84.393                 Moscow          2637.281
       255   04 Jun 2027 18:57:15.343   04 Jun 2027 18:58:42.119            86.776              Murmansk1          2711.750
       256   04 Jun 2027 18:58:45.602   04 Jun 2027 18:59:28.124            42.522                 Moscow          1328.813
       257   04 Jun 2027 19:01:21.463   04 Jun 2027 19:01:36.813            15.350              Murmansk1           479.687
       258   04 Jun 2027 19:01:50.875   04 Jun 2027 19:02:04.486            13.611              Murmansk2           425.344
       259   04 Jun 2027 19:06:26.670   04 Jun 2027 19:07:04.199            37.529              Murmansk2          1172.781
       260   04 Jun 2027 19:08:07.084   04 Jun 2027 19:08:56.842            49.758              Murmansk1          1554.938
       261   04 Jun 2027 20:06:08.258   04 Jun 2027 20:06:56.212            47.954               CapeTown          1498.562
       262   04 Jun 2027 20:08:57.254   04 Jun 2027 20:10:32.444            95.190               CapeTown          2974.687
       263   04 Jun 2027 20:36:48.116   04 Jun 2027 20:38:47.204           119.088              Murmansk2          3721.500
       264   04 Jun 2027 20:39:12.935   04 Jun 2027 20:42:41.004           208.069              Murmansk1          6502.156
       265   04 Jun 2027 20:42:55.125   04 Jun 2027 20:44:36.750           101.625              Murmansk2          3175.781
       266   04 Jun 2027 22:22:33.096   04 Jun 2027 22:24:28.888           115.792                Anadyr2          3618.500
       267   04 Jun 2027 22:24:51.844   04 Jun 2027 22:26:19.239            87.395               Magadan2          2731.094
       268   04 Jun 2027 22:26:28.715   04 Jun 2027 22:27:42.197            73.482               Magadan2          2296.312
       269   04 Jun 2027 22:28:06.032   04 Jun 2027 22:28:39.941            33.909               Magadan2          1059.656
       270   04 Jun 2027 22:33:00.354   04 Jun 2027 22:33:23.045            22.691               Magadan2           709.094
       271   04 Jun 2027 23:19:08.671   04 Jun 2027 23:21:26.789           138.118            RioGallegos          4316.187
       272   04 Jun 2027 23:23:14.534   04 Jun 2027 23:23:43.573            29.039            RioGallegos           907.469
       273   04 Jun 2027 23:58:23.992   04 Jun 2027 23:59:56.186            92.194                Anadyr2          2881.062
       274   04 Jun 2027 23:59:57.131   05 Jun 2027 00:00:37.526            40.395                Anadyr1          1262.344
       275   05 Jun 2027 00:00:46.368   05 Jun 2027 00:02:54.529           128.161               Magadan2          4005.031
       276   05 Jun 2027 00:02:58.969   05 Jun 2027 00:03:49.544            50.575               Magadan1          1580.469
       277   05 Jun 2027 00:05:35.106   05 Jun 2027 00:06:20.028            44.922                Irkutsk          1403.812
       278   05 Jun 2027 00:07:26.017   05 Jun 2027 00:07:54.274            28.257                Irkutsk           883.031
       279   05 Jun 2027 00:10:57.364   05 Jun 2027 00:11:01.479             4.115                Irkutsk           128.594
       280   05 Jun 2027 00:20:52.276   05 Jun 2027 00:23:11.731           139.455                Sumatra          4357.969
       281   05 Jun 2027 00:24:00.572   05 Jun 2027 00:24:14.128            13.556                Sumatra           423.625
       282   05 Jun 2027 00:26:42.385   05 Jun 2027 00:28:35.035           112.650                Sumatra          3520.313
       283   05 Jun 2027 01:33:44.178   05 Jun 2027 01:34:20.853            36.675                Anadyr1          1146.094
       284   05 Jun 2027 01:34:34.090   05 Jun 2027 01:35:14.480            40.390                Anadyr2          1262.187
       285   05 Jun 2027 01:35:49.752   05 Jun 2027 01:35:58.814             9.062                Anadyr1           283.188
       286   05 Jun 2027 01:36:15.525   05 Jun 2027 01:37:55.983           100.458                Norilsk          3139.313
       287   05 Jun 2027 01:38:01.537   05 Jun 2027 01:38:19.119            17.582                Norilsk           549.438
       288   05 Jun 2027 01:38:36.537   05 Jun 2027 01:39:08.963            32.426               Magadan1          1013.313
       289   05 Jun 2027 01:40:12.501   05 Jun 2027 01:43:17.422           184.921                Irkutsk          5778.781
       290   05 Jun 2027 01:51:40.847   05 Jun 2027 01:52:20.712            39.865                  Delhi          1245.781
       291   05 Jun 2027 01:54:01.888   05 Jun 2027 01:54:50.545            48.657                Sumatra          1520.531
       292   05 Jun 2027 01:57:04.157   05 Jun 2027 01:58:34.336            90.179                Sumatra          2818.094
       293   05 Jun 2027 02:02:41.928   05 Jun 2027 02:03:44.156            62.228                Sumatra          1944.625
       294   05 Jun 2027 02:37:54.292   05 Jun 2027 02:39:22.102            87.810            RioGallegos          2744.063
       295   05 Jun 2027 03:16:41.353   05 Jun 2027 03:16:44.525             3.172               Magadan1            99.125
       296   05 Jun 2027 03:17:25.786   05 Jun 2027 03:18:24.200            58.414               Magadan2          1825.437
       297   05 Jun 2027 03:18:24.200   05 Jun 2027 03:18:30.543             6.343               Magadan1           198.219
       298   05 Jun 2027 03:20:12.241   05 Jun 2027 03:20:26.820            14.579                Irkutsk           455.594
       299   05 Jun 2027 03:21:05.937   05 Jun 2027 03:21:42.457            36.520                Norilsk          1141.250
       300   05 Jun 2027 03:21:52.691   05 Jun 2027 03:21:56.823             4.132                Norilsk           129.125
       301   05 Jun 2027 03:22:38.338   05 Jun 2027 03:23:03.162            24.824                Norilsk           775.750
       302   05 Jun 2027 03:23:17.916   05 Jun 2027 03:23:20.475             2.559                Novosib            79.969
       303   05 Jun 2027 03:23:25.521   05 Jun 2027 03:24:33.731            68.210                Norilsk          2131.563
       304   05 Jun 2027 03:24:38.939   05 Jun 2027 03:24:39.953             1.014                Irkutsk            31.687
       305   05 Jun 2027 03:24:49.697   05 Jun 2027 03:24:54.396             4.699                Novosib           146.844
       306   05 Jun 2027 03:25:06.464   05 Jun 2027 03:25:09.375             2.911                Norilsk            90.969
       307   05 Jun 2027 03:25:17.645   05 Jun 2027 03:25:56.699            39.054                Irkutsk          1220.438
       308   05 Jun 2027 03:25:56.859   05 Jun 2027 03:27:54.446           117.587                Novosib          3674.594
       309   05 Jun 2027 03:28:30.327   05 Jun 2027 03:28:56.945            26.618                Novosib           831.813
       310   05 Jun 2027 03:29:01.182   05 Jun 2027 03:33:38.684           277.502                  Delhi          8671.938
       311   05 Jun 2027 04:05:14.616   05 Jun 2027 04:10:14.119           299.503            RioGallegos          9359.469
       312   05 Jun 2027 04:49:11.970   05 Jun 2027 04:50:01.981            50.011               Magadan2          1562.844
       313   05 Jun 2027 04:53:32.350   05 Jun 2027 04:56:05.917           153.567                Irkutsk          4798.969
       314   05 Jun 2027 04:57:28.484   05 Jun 2027 04:57:36.139             7.655              Murmansk1           239.219
       315   05 Jun 2027 04:57:36.139   05 Jun 2027 04:57:52.607            16.468              Murmansk2           514.625
       316   05 Jun 2027 04:57:56.237   05 Jun 2027 04:58:24.245            28.008                 Moscow           875.250
       317   05 Jun 2027 04:58:49.490   05 Jun 2027 04:59:25.122            35.632                 Moscow          1113.500
       318   05 Jun 2027 04:59:32.432   05 Jun 2027 04:59:46.580            14.148                 Moscow           442.125
       319   05 Jun 2027 04:59:48.916   05 Jun 2027 05:00:16.560            27.644                Novosib           863.875
       320   05 Jun 2027 05:00:55.968   05 Jun 2027 05:09:03.255           487.287                  Delhi         15227.719
       321   05 Jun 2027 06:30:57.632   05 Jun 2027 06:31:03.963             6.331                Novosib           197.844
       322   05 Jun 2027 06:31:37.555   05 Jun 2027 06:32:48.903            71.348                Novosib          2229.625
       323   05 Jun 2027 06:33:34.863   05 Jun 2027 06:34:01.537            26.674              Murmansk1           833.562
       324   05 Jun 2027 06:34:11.249   05 Jun 2027 06:34:48.983            37.734              Murmansk1          1179.187
       325   05 Jun 2027 06:35:05.337   05 Jun 2027 06:35:33.017            27.680                Norilsk           865.000
       326   05 Jun 2027 06:35:37.383   05 Jun 2027 06:36:47.393            70.010                 Moscow          2187.813
       327   05 Jun 2027 06:37:14.102   05 Jun 2027 06:38:50.392            96.290                 Moscow          3009.062
       328   05 Jun 2027 06:53:29.535   05 Jun 2027 06:54:28.673            59.138               CapeTown          1848.062
       329   05 Jun 2027 06:56:43.062   05 Jun 2027 06:57:29.031            45.969               CapeTown          1436.531
       330   05 Jun 2027 07:56:43.722   05 Jun 2027 07:57:29.317            45.595                Anadyr1          1424.844
       331   05 Jun 2027 07:57:45.683   05 Jun 2027 07:58:39.022            53.339                Anadyr2          1666.844
       332   05 Jun 2027 08:01:19.235   05 Jun 2027 08:02:37.732            78.497                Anadyr2          2453.031
       333   05 Jun 2027 08:32:44.494   05 Jun 2027 08:39:36.623           412.129               CapeTown         12879.031
       334   05 Jun 2027 09:33:06.504   05 Jun 2027 09:33:06.929             0.425               Magadan1            13.281
       335   05 Jun 2027 09:33:06.929   05 Jun 2027 09:33:10.220             3.291               Magadan2           102.844
       336   05 Jun 2027 09:33:11.809   05 Jun 2027 09:33:19.510             7.701                Anadyr2           240.656
       337   05 Jun 2027 09:33:40.464   05 Jun 2027 09:34:51.595            71.131                Anadyr2          2222.844
       338   05 Jun 2027 09:34:51.595   05 Jun 2027 09:36:48.140           116.545                Anadyr1          3642.031
       339   05 Jun 2027 11:05:32.823   05 Jun 2027 11:05:46.071            13.248               Magadan2           414.000
       340   05 Jun 2027 11:07:24.704   05 Jun 2027 11:08:29.797            65.093                Irkutsk          2034.156
       341   05 Jun 2027 11:08:32.443   05 Jun 2027 11:12:03.088           210.645               Magadan2          6582.656
       342   05 Jun 2027 11:12:03.088   05 Jun 2027 11:13:19.803            76.715               Magadan1          2397.344
       343   05 Jun 2027 11:13:43.782   05 Jun 2027 11:13:56.135            12.353                Norilsk           386.031
       344   05 Jun 2027 11:14:03.811   05 Jun 2027 11:14:35.366            31.555              Murmansk2           986.094
       345   05 Jun 2027 11:21:51.913   05 Jun 2027 11:21:56.690             4.777              Murmansk1           149.281
       346   05 Jun 2027 11:49:28.883   05 Jun 2027 11:50:37.868            68.985            RioGallegos          2155.781
       347   05 Jun 2027 12:26:22.618   05 Jun 2027 12:28:17.948           115.330                Sumatra          3604.063
       348   05 Jun 2027 12:37:38.449   05 Jun 2027 12:39:50.752           132.303                Irkutsk          4134.469
       349   05 Jun 2027 12:42:33.848   05 Jun 2027 12:43:11.134            37.286                Norilsk          1165.187
       350   05 Jun 2027 12:44:44.454   05 Jun 2027 12:47:54.920           190.466               Magadan1          5952.063
       351   05 Jun 2027 14:00:06.534   05 Jun 2027 14:03:00.767           174.233                Sumatra          5444.781
       352   05 Jun 2027 14:14:50.895   05 Jun 2027 14:16:00.552            69.657                Irkutsk          2176.781
       353   05 Jun 2027 14:16:25.763   05 Jun 2027 14:19:49.402           203.639                Irkutsk          6363.719
       354   05 Jun 2027 15:44:41.771   05 Jun 2027 15:45:57.861            76.090                  Delhi          2377.812
       355   05 Jun 2027 15:52:03.011   05 Jun 2027 15:54:35.298           152.287                  Delhi          4758.969
       356   05 Jun 2027 15:56:45.385   05 Jun 2027 15:57:45.613            60.228                Norilsk          1882.125
       357   05 Jun 2027 15:58:08.577   05 Jun 2027 15:58:25.164            16.587                Novosib           518.344
       358   05 Jun 2027 16:00:13.437   05 Jun 2027 16:01:43.532            90.095                Norilsk          2815.469
       359   05 Jun 2027 17:28:36.776   05 Jun 2027 17:29:55.401            78.625                 Moscow          2457.031
       360   05 Jun 2027 17:30:28.449   05 Jun 2027 17:31:54.178            85.729                 Moscow          2679.031
       361   05 Jun 2027 17:33:37.116   05 Jun 2027 17:34:13.854            36.738              Murmansk1          1148.063
       362   05 Jun 2027 17:37:16.620   05 Jun 2027 17:39:48.189           151.569                Norilsk          4736.531
       363   05 Jun 2027 17:40:09.820   05 Jun 2027 17:40:39.501            29.681                Norilsk           927.531
       364   05 Jun 2027 17:42:02.146   05 Jun 2027 17:42:53.110            50.964                Norilsk          1592.625
       365   05 Jun 2027 19:06:47.599   05 Jun 2027 19:09:11.884           144.285                 Moscow          4508.906
       366   05 Jun 2027 19:09:35.733   05 Jun 2027 19:09:57.976            22.243              Murmansk2           695.094
       367   05 Jun 2027 19:10:29.652   05 Jun 2027 19:13:10.441           160.789              Murmansk1          5024.656
       368   05 Jun 2027 20:18:18.474   05 Jun 2027 20:19:23.030            64.556               CapeTown          2017.375
       369   05 Jun 2027 20:20:43.277   05 Jun 2027 20:22:53.218           129.941               CapeTown          4060.656
       370   05 Jun 2027 20:49:31.461   05 Jun 2027 20:56:31.530           420.069              Murmansk1         13127.156
       371   05 Jun 2027 22:34:34.912   05 Jun 2027 22:37:37.194           182.282                Anadyr1          5696.312
       372   05 Jun 2027 22:37:57.195   05 Jun 2027 22:38:30.987            33.792               Magadan2          1056.000
       373   05 Jun 2027 22:38:43.718   05 Jun 2027 22:39:37.192            53.474               Magadan2          1671.062
       374   05 Jun 2027 22:40:44.870   05 Jun 2027 22:40:46.743             1.873               Magadan1            58.531
       375   05 Jun 2027 22:41:09.803   05 Jun 2027 22:41:48.090            38.287               Magadan1          1196.469
       376   05 Jun 2027 22:42:29.950   05 Jun 2027 22:43:42.445            72.495               Magadan1          2265.469
       377   05 Jun 2027 23:30:18.611   05 Jun 2027 23:32:25.336           126.725            RioGallegos          3960.156
       378   05 Jun 2027 23:32:58.121   05 Jun 2027 23:33:09.246            11.125            RioGallegos           347.656
       379   05 Jun 2027 23:35:49.886   05 Jun 2027 23:36:30.397            40.511            RioGallegos          1265.969
       380   06 Jun 2027 00:10:23.624   06 Jun 2027 00:11:50.587            86.963                Anadyr1          2717.594
       381   06 Jun 2027 00:11:58.473   06 Jun 2027 00:12:04.321             5.848                Anadyr2           182.750
       382   06 Jun 2027 00:12:28.122   06 Jun 2027 00:14:03.190            95.068                Norilsk          2970.875
       383   06 Jun 2027 00:14:28.494   06 Jun 2027 00:15:38.328            69.834               Magadan1          2182.312
       384   06 Jun 2027 00:17:15.650   06 Jun 2027 00:19:25.782           130.132                Irkutsk          4066.625
       385   06 Jun 2027 00:31:58.105   06 Jun 2027 00:33:45.071           106.966                Sumatra          3342.688
       386   06 Jun 2027 00:37:13.580   06 Jun 2027 00:37:53.242            39.662                Sumatra          1239.438
       387   06 Jun 2027 01:04:22.023   06 Jun 2027 01:04:32.081            10.058            RioGallegos           314.312
       388   06 Jun 2027 01:06:48.985   06 Jun 2027 01:07:14.294            25.309            RioGallegos           790.906
       389   06 Jun 2027 01:11:28.433   06 Jun 2027 01:12:03.905            35.472            RioGallegos          1108.500
       390   06 Jun 2027 01:16:41.493   06 Jun 2027 01:16:58.306            16.813            RioGallegos           525.406
       391   06 Jun 2027 01:45:37.227   06 Jun 2027 01:46:05.384            28.157                Anadyr2           879.906
       392   06 Jun 2027 01:46:28.890   06 Jun 2027 01:47:49.495            80.605                Anadyr2          2518.906
       393   06 Jun 2027 01:48:17.682   06 Jun 2027 01:49:24.824            67.142                Norilsk          2098.188
       394   06 Jun 2027 01:49:45.406   06 Jun 2027 01:50:12.275            26.869               Magadan1           839.656
       395   06 Jun 2027 01:50:35.545   06 Jun 2027 01:50:37.158             1.613               Magadan1            50.406
       396   06 Jun 2027 01:51:52.945   06 Jun 2027 01:52:10.650            17.705               Magadan1           553.281
       397   06 Jun 2027 01:52:12.377   06 Jun 2027 01:54:45.619           153.242                Irkutsk          4788.813
       398   06 Jun 2027 01:58:59.084   06 Jun 2027 01:59:23.203            24.119                Irkutsk           753.719
       399   06 Jun 2027 02:00:03.917   06 Jun 2027 02:01:08.821            64.904                Irkutsk          2028.250
       400   06 Jun 2027 02:06:12.740   06 Jun 2027 02:06:44.658            31.918                Sumatra           997.437
       401   06 Jun 2027 02:08:55.873   06 Jun 2027 02:11:05.391           129.518                Sumatra          4047.437
       402   06 Jun 2027 02:47:21.545   06 Jun 2027 02:47:38.111            16.566            RioGallegos           517.688
       403   06 Jun 2027 02:51:02.171   06 Jun 2027 02:51:07.864             5.693            RioGallegos           177.906
       404   06 Jun 2027 02:52:16.706   06 Jun 2027 02:52:18.634             1.928            RioGallegos            60.250
       405   06 Jun 2027 03:28:57.992   06 Jun 2027 03:29:12.818            14.826               Magadan1           463.313
       406   06 Jun 2027 03:29:28.522   06 Jun 2027 03:30:05.342            36.820               Magadan1          1150.625
       407   06 Jun 2027 03:31:00.019   06 Jun 2027 03:31:29.809            29.790                Irkutsk           930.938
       408   06 Jun 2027 03:31:37.139   06 Jun 2027 03:31:42.858             5.719                Norilsk           178.719
       409   06 Jun 2027 03:31:47.737   06 Jun 2027 03:32:02.167            14.430                Novosib           450.937
       410   06 Jun 2027 03:33:13.250   06 Jun 2027 03:35:13.639           120.389                Irkutsk          3762.156
       411   06 Jun 2027 03:35:53.282   06 Jun 2027 03:36:26.018            32.736                Norilsk          1023.000
       412   06 Jun 2027 03:38:03.981   06 Jun 2027 03:38:40.917            36.936                Irkutsk          1154.250
       413   06 Jun 2027 03:39:02.835   06 Jun 2027 03:39:20.472            17.637                Novosib           551.156
       414   06 Jun 2027 04:17:34.798   06 Jun 2027 04:23:55.600           380.802            RioGallegos         11900.062
       415   06 Jun 2027 05:07:06.661   06 Jun 2027 05:08:22.180            75.519                Novosib          2359.969
       416   06 Jun 2027 05:09:26.124   06 Jun 2027 05:10:38.353            72.229                 Moscow          2257.156
       417   06 Jun 2027 05:10:46.664   06 Jun 2027 05:10:55.787             9.123              Murmansk1           285.094
       418   06 Jun 2027 05:10:55.787   06 Jun 2027 05:11:27.409            31.622              Murmansk2           988.187
       419   06 Jun 2027 05:11:34.171   06 Jun 2027 05:11:44.777            10.606              Murmansk2           331.438
       420   06 Jun 2027 05:11:59.684   06 Jun 2027 05:12:02.476             2.792              Murmansk2            87.250
       421   06 Jun 2027 05:12:07.183   06 Jun 2027 05:12:08.688             1.505                 Moscow            47.031
       422   06 Jun 2027 05:12:53.173   06 Jun 2027 05:13:04.520            11.347              Murmansk1           354.594
       423   06 Jun 2027 05:13:44.829   06 Jun 2027 05:19:54.824           369.995                  Delhi         11562.344
       424   06 Jun 2027 06:45:07.710   06 Jun 2027 06:45:37.846            30.136              Murmansk2           941.750
       425   06 Jun 2027 06:45:40.463   06 Jun 2027 06:46:36.368            55.905              Murmansk1          1747.031
       426   06 Jun 2027 06:46:47.011   06 Jun 2027 06:47:52.311            65.300              Murmansk2          2040.625
       427   06 Jun 2027 06:47:59.274   06 Jun 2027 06:48:00.601             1.327              Murmansk2            41.469
       428   06 Jun 2027 06:48:25.683   06 Jun 2027 06:48:30.110             4.427              Murmansk2           138.344
       429   06 Jun 2027 06:48:30.110   06 Jun 2027 06:49:25.605            55.495              Murmansk1          1734.219
       430   06 Jun 2027 06:49:55.116   06 Jun 2027 06:50:08.365            13.249                 Moscow           414.031
       431   06 Jun 2027 06:51:33.859   06 Jun 2027 06:51:40.396             6.537                 Moscow           204.281
       432   06 Jun 2027 07:05:32.197   06 Jun 2027 07:07:41.129           128.932               CapeTown          4029.125
       433   06 Jun 2027 08:08:36.093   06 Jun 2027 08:10:18.780           102.687                Anadyr1          3208.969
       434   06 Jun 2027 08:10:29.652   06 Jun 2027 08:10:55.368            25.716                Anadyr2           803.625
       435   06 Jun 2027 08:11:41.955   06 Jun 2027 08:12:27.738            45.783               Magadan2          1430.719
       436   06 Jun 2027 08:13:19.866   06 Jun 2027 08:14:40.671            80.805                Anadyr2          2525.156
       437   06 Jun 2027 08:46:30.766   06 Jun 2027 08:50:09.362           218.596               CapeTown          6831.125
       438   06 Jun 2027 09:42:30.173   06 Jun 2027 09:42:38.365             8.192                Anadyr2           256.000
       439   06 Jun 2027 09:44:47.832   06 Jun 2027 09:48:40.500           232.668                Anadyr1          7270.875
       440   06 Jun 2027 09:48:40.500   06 Jun 2027 09:49:57.900            77.400                Anadyr2          2418.750
       441   06 Jun 2027 11:16:53.842   06 Jun 2027 11:18:29.802            95.960               Magadan2          2998.750
       442   06 Jun 2027 11:18:57.711   06 Jun 2027 11:19:27.087            29.376                Irkutsk           918.000
       443   06 Jun 2027 11:20:14.143   06 Jun 2027 11:21:11.441            57.298                Novosib          1790.563
       444   06 Jun 2027 11:21:46.086   06 Jun 2027 11:21:50.504             4.418                Norilsk           138.062
       445   06 Jun 2027 11:22:20.562   06 Jun 2027 11:25:14.045           173.483               Magadan1          5421.344
       446   06 Jun 2027 11:25:30.644   06 Jun 2027 11:26:05.215            34.571              Murmansk2          1080.344
       447   06 Jun 2027 11:26:12.609   06 Jun 2027 11:26:24.982            12.373               Magadan1           386.656
       448   06 Jun 2027 11:26:35.900   06 Jun 2027 11:26:59.959            24.059              Murmansk2           751.844
       449   06 Jun 2027 11:27:26.156   06 Jun 2027 11:27:36.007             9.851              Murmansk2           307.844
       450   06 Jun 2027 11:27:41.430   06 Jun 2027 11:27:50.756             9.326              Murmansk2           291.438
       451   06 Jun 2027 12:01:20.897   06 Jun 2027 12:02:38.236            77.339            RioGallegos          2416.844
       452   06 Jun 2027 12:39:02.959   06 Jun 2027 12:40:23.730            80.771                Sumatra          2524.094
       453   06 Jun 2027 12:49:37.515   06 Jun 2027 12:50:59.052            81.537                Irkutsk          2548.031
       454   06 Jun 2027 12:51:32.450   06 Jun 2027 12:52:48.565            76.115                Irkutsk          2378.594
       455   06 Jun 2027 12:54:32.662   06 Jun 2027 12:55:26.470            53.808                Norilsk          1681.500
       456   06 Jun 2027 12:57:51.009   06 Jun 2027 12:58:26.652            35.643                Norilsk          1113.844
       457   06 Jun 2027 13:38:01.591   06 Jun 2027 13:39:44.443           102.852            RioGallegos          3214.125
       458   06 Jun 2027 14:12:20.612   06 Jun 2027 14:14:49.404           148.792                Sumatra          4649.750
       459   06 Jun 2027 14:18:52.237   06 Jun 2027 14:22:11.024           198.787                Sumatra          6212.094
       460   06 Jun 2027 14:27:21.751   06 Jun 2027 14:29:24.269           122.518                Irkutsk          3828.687
       461   06 Jun 2027 14:31:31.481   06 Jun 2027 14:33:05.353            93.872                Irkutsk          2933.500
       462   06 Jun 2027 15:57:07.054   06 Jun 2027 16:02:52.434           345.380                  Delhi         10793.125
       463   06 Jun 2027 16:05:41.085   06 Jun 2027 16:08:12.184           151.099                Novosib          4721.844
       464   06 Jun 2027 16:10:40.668   06 Jun 2027 16:11:22.510            41.842                Novosib          1307.562
       465   06 Jun 2027 17:50:12.587   06 Jun 2027 17:54:20.929           248.342                Norilsk          7760.688
       466   06 Jun 2027 19:05:25.405   06 Jun 2027 19:06:04.096            38.691               CapeTown          1209.094
       467   06 Jun 2027 19:19:27.943   06 Jun 2027 19:25:50.548           382.605                 Moscow         11956.406
       468   06 Jun 2027 20:30:32.193   06 Jun 2027 20:30:48.273            16.080               CapeTown           502.500
       469   06 Jun 2027 20:32:21.417   06 Jun 2027 20:34:09.815           108.398               CapeTown          3387.438
       470   06 Jun 2027 20:38:44.736   06 Jun 2027 20:40:20.205            95.469               CapeTown          2983.406
       471   06 Jun 2027 21:02:19.800   06 Jun 2027 21:08:23.418           363.618              Murmansk2         11363.063
       472   06 Jun 2027 22:46:36.600   06 Jun 2027 22:47:17.607            41.007                Anadyr1          1281.469
       473   06 Jun 2027 22:47:34.987   06 Jun 2027 22:48:04.961            29.974                Anadyr1           936.688
       474   06 Jun 2027 22:48:52.633   06 Jun 2027 22:49:54.180            61.547               Magadan1          1923.344
       475   06 Jun 2027 22:49:54.180   06 Jun 2027 22:50:42.622            48.442               Magadan2          1513.812
       476   06 Jun 2027 22:50:50.676   06 Jun 2027 22:51:08.929            18.253               Magadan2           570.406
       477   06 Jun 2027 22:52:04.086   06 Jun 2027 22:52:35.865            31.779               Magadan1           993.094
       478   06 Jun 2027 22:53:19.362   06 Jun 2027 22:53:48.394            29.032               Magadan2           907.250
       479   06 Jun 2027 22:55:33.257   06 Jun 2027 22:55:56.671            23.414               Magadan2           731.687
       480   06 Jun 2027 22:56:07.018   06 Jun 2027 22:56:26.978            19.960               Magadan2           623.750
       481   06 Jun 2027 23:41:48.244   06 Jun 2027 23:44:56.332           188.088            RioGallegos          5877.750
       482   06 Jun 2027 23:49:21.325   06 Jun 2027 23:49:51.549            30.224            RioGallegos           944.500
