uniorb/output/strategy_2/Drop/Drop_KinoSat_111306.txt

KinoSat_111306
-------------------------
    Access    *     Start Time (UTCG)     *     Stop Time (UTCG)  *   Duration (s)        *       Station  *  Data (Mbytes)
         1   01 Jun 2027 03:21:13.979   01 Jun 2027 03:23:21.395           127.416              Murmansk2          3981.750
         2   01 Jun 2027 03:23:45.783   01 Jun 2027 03:24:38.181            52.398              Murmansk1          1637.437
         3   01 Jun 2027 03:24:51.034   01 Jun 2027 03:25:01.310            10.276                 Moscow           321.125
         4   01 Jun 2027 03:39:26.034   01 Jun 2027 03:42:47.775           201.741               CapeTown          6304.406
         5   01 Jun 2027 04:36:01.518   01 Jun 2027 04:37:24.342            82.824                Anadyr1          2588.250
         6   01 Jun 2027 04:37:24.342   01 Jun 2027 04:37:43.005            18.663                Anadyr2           583.219
         7   01 Jun 2027 04:37:45.323   01 Jun 2027 04:38:23.644            38.321                Anadyr1          1197.531
         8   01 Jun 2027 04:38:53.158   01 Jun 2027 04:39:29.390            36.232               Magadan2          1132.250
         9   01 Jun 2027 04:42:21.012   01 Jun 2027 04:42:44.381            23.369               Magadan1           730.281
        10   01 Jun 2027 04:42:54.243   01 Jun 2027 04:44:13.122            78.879               Magadan1          2464.969
        11   01 Jun 2027 04:44:13.122   01 Jun 2027 04:45:39.123            86.001               Magadan2          2687.531
        12   01 Jun 2027 06:19:25.482   01 Jun 2027 06:22:36.700           191.218               Magadan2          5975.563
        13   01 Jun 2027 06:22:36.700   01 Jun 2027 06:22:48.587            11.887               Magadan1           371.469
        14   01 Jun 2027 07:53:25.008   01 Jun 2027 07:55:21.117           116.109                Anadyr2          3628.406
        15   01 Jun 2027 07:55:32.070   01 Jun 2027 07:58:51.927           199.857               Magadan1          6245.531
        16   01 Jun 2027 07:59:42.887   01 Jun 2027 07:59:54.365            11.478                Anadyr1           358.687
        17   01 Jun 2027 08:00:07.084   01 Jun 2027 08:00:25.705            18.621                Novosib           581.906
        18   01 Jun 2027 08:01:14.218   01 Jun 2027 08:02:11.641            57.423              Murmansk1          1794.469
        19   01 Jun 2027 08:35:37.602   01 Jun 2027 08:36:39.088            61.486            RioGallegos          1921.437
        20   01 Jun 2027 09:30:55.302   01 Jun 2027 09:34:49.445           234.143               Magadan1          7316.969
        21   01 Jun 2027 09:35:24.728   01 Jun 2027 09:37:07.766           103.038              Murmansk1          3219.937
        22   01 Jun 2027 09:37:07.766   01 Jun 2027 09:37:35.512            27.746              Murmansk2           867.063
        23   01 Jun 2027 09:37:37.395   01 Jun 2027 09:38:00.437            23.042                Norilsk           720.062
        24   01 Jun 2027 10:11:08.759   01 Jun 2027 10:13:00.144           111.385            RioGallegos          3480.781
        25   01 Jun 2027 10:45:47.950   01 Jun 2027 10:48:06.844           138.894                Sumatra          4340.437
        26   01 Jun 2027 11:07:16.241   01 Jun 2027 11:11:07.685           231.444                Irkutsk          7232.625
        27   01 Jun 2027 11:11:22.392   01 Jun 2027 11:11:54.350            31.958                Irkutsk           998.687
        28   01 Jun 2027 11:12:14.157   01 Jun 2027 11:12:39.477            25.320              Murmansk2           791.250
        29   01 Jun 2027 11:13:00.284   01 Jun 2027 11:13:37.524            37.240                Novosib          1163.750
        30   01 Jun 2027 11:15:47.198   01 Jun 2027 11:16:03.929            16.731              Murmansk2           522.844
        31   01 Jun 2027 11:51:26.766   01 Jun 2027 11:52:57.032            90.266            RioGallegos          2820.813
        32   01 Jun 2027 11:54:12.306   01 Jun 2027 11:55:40.938            88.632            RioGallegos          2769.750
        33   01 Jun 2027 12:30:08.148   01 Jun 2027 12:30:40.765            32.617                  Delhi          1019.281
        34   01 Jun 2027 12:31:01.072   01 Jun 2027 12:31:52.838            51.766                  Delhi          1617.688
        35   01 Jun 2027 12:33:06.162   01 Jun 2027 12:34:11.129            64.967                  Delhi          2030.219
        36   01 Jun 2027 12:37:58.707   01 Jun 2027 12:39:04.506            65.799                Novosib          2056.219
        37   01 Jun 2027 12:39:42.253   01 Jun 2027 12:39:48.513             6.260                Novosib           195.625
        38   01 Jun 2027 12:40:23.554   01 Jun 2027 12:40:59.981            36.427                Novosib          1138.344
        39   01 Jun 2027 12:42:00.817   01 Jun 2027 12:42:55.974            55.157                Novosib          1723.656
        40   01 Jun 2027 12:43:10.264   01 Jun 2027 12:43:36.504            26.240                Norilsk           820.000
        41   01 Jun 2027 12:43:53.450   01 Jun 2027 12:44:31.013            37.563                Norilsk          1173.844
        42   01 Jun 2027 12:45:25.161   01 Jun 2027 12:46:15.444            50.283                Norilsk          1571.344
        43   01 Jun 2027 14:14:24.092   01 Jun 2027 14:17:20.465           176.373                 Moscow          5511.656
        44   01 Jun 2027 14:17:51.063   01 Jun 2027 14:21:11.667           200.604              Murmansk2          6268.875
        45   01 Jun 2027 14:21:58.437   01 Jun 2027 14:23:43.555           105.118                Norilsk          3284.938
        46   01 Jun 2027 14:24:30.294   01 Jun 2027 14:24:37.583             7.289                Norilsk           227.781
        47   01 Jun 2027 14:24:58.650   01 Jun 2027 14:25:16.330            17.680                Norilsk           552.500
        48   01 Jun 2027 14:25:35.682   01 Jun 2027 14:26:51.919            76.237                Norilsk          2382.406
        49   01 Jun 2027 15:28:56.401   01 Jun 2027 15:29:24.733            28.332               CapeTown           885.375
        50   01 Jun 2027 15:51:50.188   01 Jun 2027 15:52:36.666            46.478                 Moscow          1452.437
        51   01 Jun 2027 15:54:57.383   01 Jun 2027 15:56:13.955            76.572              Murmansk1          2392.875
        52   01 Jun 2027 15:57:10.203   01 Jun 2027 15:57:29.386            19.183              Murmansk2           599.469
        53   01 Jun 2027 16:08:53.734   01 Jun 2027 16:08:56.495             2.761                Anadyr1            86.281
        54   01 Jun 2027 16:09:17.127   01 Jun 2027 16:10:30.208            73.081                Anadyr2          2283.781
        55   01 Jun 2027 16:10:39.786   01 Jun 2027 16:11:38.277            58.491                Anadyr1          1827.844
        56   01 Jun 2027 17:03:54.810   01 Jun 2027 17:06:01.335           126.525               CapeTown          3953.906
        57   01 Jun 2027 17:34:20.721   01 Jun 2027 17:35:43.433            82.712              Murmansk2          2584.750
        58   01 Jun 2027 17:36:10.340   01 Jun 2027 17:38:50.499           160.159              Murmansk1          5004.969
        59   01 Jun 2027 17:44:27.643   01 Jun 2027 17:46:38.152           130.509                Anadyr1          4078.406
        60   01 Jun 2027 17:47:49.592   01 Jun 2027 17:50:11.938           142.346               Magadan2          4448.312
        61   01 Jun 2027 19:20:22.737   01 Jun 2027 19:22:16.401           113.664                Anadyr1          3552.000
        62   01 Jun 2027 19:22:27.877   01 Jun 2027 19:24:10.028           102.151                Anadyr2          3192.219
        63   01 Jun 2027 19:24:25.420   01 Jun 2027 19:26:11.969           106.549               Magadan2          3329.656
        64   01 Jun 2027 19:29:37.036   01 Jun 2027 19:30:17.511            40.475               Magadan2          1264.844
        65   01 Jun 2027 20:17:56.593   01 Jun 2027 20:19:28.535            91.942            RioGallegos          2873.187
        66   01 Jun 2027 20:56:13.743   01 Jun 2027 20:59:50.408           216.665                Anadyr1          6770.781
        67   01 Jun 2027 20:59:57.339   01 Jun 2027 21:00:08.446            11.107                Norilsk           347.094
        68   01 Jun 2027 21:00:24.489   01 Jun 2027 21:00:39.815            15.326               Magadan2           478.938
        69   01 Jun 2027 21:00:45.310   01 Jun 2027 21:01:43.639            58.329               Magadan1          1822.781
        70   01 Jun 2027 21:02:07.149   01 Jun 2027 21:02:16.452             9.303               Magadan1           290.719
        71   01 Jun 2027 21:02:50.897   01 Jun 2027 21:03:26.384            35.487                Norilsk          1108.969
        72   01 Jun 2027 21:03:41.574   01 Jun 2027 21:06:39.121           177.547                Irkutsk          5548.344
        73   01 Jun 2027 21:19:21.518   01 Jun 2027 21:20:58.846            97.328                Sumatra          3041.500
        74   01 Jun 2027 21:23:49.272   01 Jun 2027 21:23:49.714             0.442                Sumatra            13.812
        75   01 Jun 2027 22:31:36.165   01 Jun 2027 22:32:15.048            38.883                Anadyr2          1215.094
        76   01 Jun 2027 22:32:24.250   01 Jun 2027 22:32:35.448            11.198                Anadyr2           349.937
        77   01 Jun 2027 22:34:06.621   01 Jun 2027 22:36:07.040           120.419                Norilsk          3763.094
        78   01 Jun 2027 22:36:27.437   01 Jun 2027 22:36:43.789            16.352               Magadan2           511.000
        79   01 Jun 2027 22:38:04.301   01 Jun 2027 22:39:56.665           112.364                Irkutsk          3511.375
        80   01 Jun 2027 22:42:03.673   01 Jun 2027 22:42:14.656            10.983                Novosib           343.219
        81   01 Jun 2027 22:51:49.452   01 Jun 2027 22:53:30.610           101.158                Sumatra          3161.187
        82   02 Jun 2027 00:05:53.032   02 Jun 2027 00:08:15.590           142.558                Anadyr2          4454.938
        83   02 Jun 2027 00:08:21.596   02 Jun 2027 00:08:45.400            23.804                Anadyr2           743.875
        84   02 Jun 2027 00:10:06.568   02 Jun 2027 00:12:09.366           122.798                Norilsk          3837.437
        85   02 Jun 2027 00:13:23.041   02 Jun 2027 00:16:57.454           214.413              Murmansk2          6700.406
        86   02 Jun 2027 00:21:19.259   02 Jun 2027 00:22:03.494            44.235                  Delhi          1382.344
        87   02 Jun 2027 00:23:54.837   02 Jun 2027 00:24:20.033            25.196                  Delhi           787.375
        88   02 Jun 2027 01:02:54.461   02 Jun 2027 01:04:13.157            78.696            RioGallegos          2459.250
        89   02 Jun 2027 01:39:12.450   02 Jun 2027 01:40:48.746            96.296                Anadyr2          3009.250
        90   02 Jun 2027 01:41:26.001   02 Jun 2027 01:41:40.058            14.057                Anadyr2           439.281
        91   02 Jun 2027 01:41:51.001   02 Jun 2027 01:42:19.233            28.232                Anadyr1           882.250
        92   02 Jun 2027 01:45:22.161   02 Jun 2027 01:46:38.428            76.267               Magadan1          2383.344
        93   02 Jun 2027 01:47:12.254   02 Jun 2027 01:47:28.191            15.937               Magadan1           498.031
        94   02 Jun 2027 01:47:38.239   02 Jun 2027 01:48:01.657            23.418               Magadan1           731.812
        95   02 Jun 2027 01:48:18.616   02 Jun 2027 01:50:54.439           155.823              Murmansk1          4869.469
        96   02 Jun 2027 01:51:19.237   02 Jun 2027 01:51:54.000            34.763              Murmansk1          1086.344
        97   02 Jun 2027 01:52:16.630   02 Jun 2027 01:53:00.674            44.044                 Moscow          1376.375
        98   02 Jun 2027 01:55:39.505   02 Jun 2027 01:56:05.439            25.934                 Moscow           810.437
        99   02 Jun 2027 02:19:07.396   02 Jun 2027 02:20:29.036            81.640               CapeTown          2551.250
       100   02 Jun 2027 03:33:10.051   02 Jun 2027 03:35:10.550           120.499              Murmansk2          3765.594
       101   02 Jun 2027 03:35:13.080   02 Jun 2027 03:35:41.285            28.205              Murmansk1           881.406
       102   02 Jun 2027 04:54:40.362   02 Jun 2027 04:56:55.826           135.464               Magadan1          4233.250
       103   02 Jun 2027 04:56:55.826   02 Jun 2027 04:57:01.613             5.787               Magadan2           180.844
       104   02 Jun 2027 04:57:34.882   02 Jun 2027 04:57:40.391             5.509                Anadyr1           172.156
       105   02 Jun 2027 04:57:50.572   02 Jun 2027 04:57:56.271             5.699               Magadan1           178.094
       106   02 Jun 2027 04:57:56.271   02 Jun 2027 04:58:09.149            12.878               Magadan2           402.438
       107   02 Jun 2027 04:58:40.536   02 Jun 2027 04:59:00.355            19.819                Anadyr2           619.344
       108   02 Jun 2027 06:32:36.304   02 Jun 2027 06:32:44.999             8.695               Magadan2           271.719
       109   02 Jun 2027 06:32:49.310   02 Jun 2027 06:34:05.881            76.571                Norilsk          2392.844
       110   02 Jun 2027 06:36:27.398   02 Jun 2027 06:36:55.536            28.138                Norilsk           879.312
       111   02 Jun 2027 08:06:14.611   02 Jun 2027 08:08:13.214           118.603                Irkutsk          3706.344
       112   02 Jun 2027 08:08:28.214   02 Jun 2027 08:09:21.812            53.598                Anadyr1          1674.937
       113   02 Jun 2027 08:09:43.146   02 Jun 2027 08:10:21.306            38.160                Norilsk          1192.500
       114   02 Jun 2027 08:10:25.905   02 Jun 2027 08:12:19.823           113.918               Magadan1          3559.938
       115   02 Jun 2027 08:47:24.647   02 Jun 2027 08:48:19.354            54.707            RioGallegos          1709.594
       116   02 Jun 2027 08:53:24.084   02 Jun 2027 08:53:38.665            14.581            RioGallegos           455.656
       117   02 Jun 2027 09:24:44.370   02 Jun 2027 09:25:58.295            73.925                Sumatra          2310.156
       118   02 Jun 2027 09:41:33.605   02 Jun 2027 09:42:00.932            27.327                Irkutsk           853.969
       119   02 Jun 2027 09:42:53.695   02 Jun 2027 09:44:58.651           124.956               Magadan1          3904.875
       120   02 Jun 2027 09:45:25.558   02 Jun 2027 09:45:51.977            26.419               Magadan2           825.594
       121   02 Jun 2027 09:46:02.331   02 Jun 2027 09:46:09.969             7.638              Murmansk2           238.687
       122   02 Jun 2027 09:46:12.160   02 Jun 2027 09:47:19.671            67.511                Novosib          2109.719
       123   02 Jun 2027 09:47:24.250   02 Jun 2027 09:47:31.241             6.991                Irkutsk           218.469
       124   02 Jun 2027 09:47:44.515   02 Jun 2027 09:47:46.564             2.049                Irkutsk            64.031
       125   02 Jun 2027 09:47:50.451   02 Jun 2027 09:48:02.237            11.786                Novosib           368.313
       126   02 Jun 2027 09:48:04.767   02 Jun 2027 09:48:22.001            17.234                Norilsk           538.563
       127   02 Jun 2027 09:48:44.348   02 Jun 2027 09:49:22.928            38.580              Murmansk1          1205.625
       128   02 Jun 2027 10:23:22.833   02 Jun 2027 10:24:19.706            56.873            RioGallegos          1777.281
       129   02 Jun 2027 10:57:52.377   02 Jun 2027 10:58:42.645            50.268                Sumatra          1570.875
       130   02 Jun 2027 11:04:07.698   02 Jun 2027 11:04:38.274            30.576                Sumatra           955.500
       131   02 Jun 2027 11:18:13.054   02 Jun 2027 11:18:48.480            35.426                Novosib          1107.062
       132   02 Jun 2027 11:18:49.014   02 Jun 2027 11:19:18.513            29.499                Irkutsk           921.844
       133   02 Jun 2027 11:19:50.972   02 Jun 2027 11:20:02.811            11.839              Murmansk2           369.969
       134   02 Jun 2027 11:20:03.170   02 Jun 2027 11:20:06.289             3.119                 Moscow            97.469
       135   02 Jun 2027 11:20:10.038   02 Jun 2027 11:20:29.782            19.744              Murmansk1           617.000
       136   02 Jun 2027 11:20:31.205   02 Jun 2027 11:20:42.099            10.894                Norilsk           340.438
       137   02 Jun 2027 11:20:47.159   02 Jun 2027 11:21:44.760            57.601              Murmansk1          1800.031
       138   02 Jun 2027 11:21:57.146   02 Jun 2027 11:22:12.472            15.326                Norilsk           478.938
       139   02 Jun 2027 11:22:14.661   02 Jun 2027 11:23:06.683            52.022              Murmansk1          1625.688
       140   02 Jun 2027 11:23:17.896   02 Jun 2027 11:23:26.388             8.492                Irkutsk           265.375
       141   02 Jun 2027 11:23:27.345   02 Jun 2027 11:23:47.220            19.875                Norilsk           621.094
       142   02 Jun 2027 11:23:59.856   02 Jun 2027 11:24:44.297            44.441                Novosib          1388.781
       143   02 Jun 2027 12:05:09.311   02 Jun 2027 12:06:09.778            60.467            RioGallegos          1889.594
       144   02 Jun 2027 12:42:22.437   02 Jun 2027 12:42:46.740            24.303                  Delhi           759.469
       145   02 Jun 2027 12:44:59.010   02 Jun 2027 12:46:53.543           114.533                  Delhi          3579.156
       146   02 Jun 2027 12:50:25.537   02 Jun 2027 12:51:42.684            77.147                Novosib          2410.844
       147   02 Jun 2027 12:54:18.042   02 Jun 2027 12:54:57.316            39.274              Murmansk2          1227.312
       148   02 Jun 2027 12:55:17.684   02 Jun 2027 12:55:55.612            37.928                Norilsk          1185.250
       149   02 Jun 2027 12:57:22.473   02 Jun 2027 12:58:17.675            55.202                Norilsk          1725.062
       150   02 Jun 2027 14:26:25.499   02 Jun 2027 14:29:41.175           195.676                 Moscow          6114.875
       151   02 Jun 2027 14:29:55.288   02 Jun 2027 14:33:02.858           187.570              Murmansk1          5861.563
       152   02 Jun 2027 14:34:45.020   02 Jun 2027 14:35:45.310            60.290                Norilsk          1884.063
       153   02 Jun 2027 14:37:40.080   02 Jun 2027 14:38:18.546            38.466                Norilsk          1202.062
       154   02 Jun 2027 15:40:36.768   02 Jun 2027 15:41:55.722            78.954               CapeTown          2467.312
       155   02 Jun 2027 15:43:19.239   02 Jun 2027 15:43:53.823            34.584               CapeTown          1080.750
       156   02 Jun 2027 16:04:20.996   02 Jun 2027 16:04:58.443            37.447                 Moscow          1170.219
       157   02 Jun 2027 16:07:16.396   02 Jun 2027 16:08:11.345            54.949              Murmansk2          1717.156
       158   02 Jun 2027 16:09:11.663   02 Jun 2027 16:09:31.186            19.523              Murmansk2           610.094
       159   02 Jun 2027 16:11:16.716   02 Jun 2027 16:11:55.934            39.218              Murmansk1          1225.562
       160   02 Jun 2027 16:20:49.489   02 Jun 2027 16:22:53.452           123.963                Anadyr1          3873.844
       161   02 Jun 2027 16:24:17.871   02 Jun 2027 16:24:37.825            19.954                Anadyr2           623.562
       162   02 Jun 2027 16:26:45.045   02 Jun 2027 16:28:03.094            78.049                Anadyr2          2439.031
       163   02 Jun 2027 17:16:44.049   02 Jun 2027 17:16:54.324            10.275               CapeTown           321.094
       164   02 Jun 2027 17:21:36.104   02 Jun 2027 17:21:44.029             7.925               CapeTown           247.656
       165   02 Jun 2027 17:47:01.849   02 Jun 2027 17:50:21.382           199.533              Murmansk2          6235.406
       166   02 Jun 2027 17:50:51.866   02 Jun 2027 17:51:14.019            22.153              Murmansk2           692.281
       167   02 Jun 2027 17:56:28.589   02 Jun 2027 17:56:50.272            21.683                Anadyr2           677.594
       168   02 Jun 2027 17:56:50.272   02 Jun 2027 17:56:52.537             2.265                Anadyr1            70.781
       169   02 Jun 2027 17:57:03.224   02 Jun 2027 17:57:20.943            17.719                Anadyr2           553.719
       170   02 Jun 2027 17:59:34.969   02 Jun 2027 18:00:47.152            72.183               Magadan1          2255.719
       171   02 Jun 2027 18:00:57.370   02 Jun 2027 18:02:13.231            75.861               Magadan2          2370.656
       172   02 Jun 2027 18:02:16.282   02 Jun 2027 18:02:28.807            12.525               Magadan2           391.406
       173   02 Jun 2027 18:02:49.338   02 Jun 2027 18:02:57.826             8.488               Magadan2           265.250
       174   02 Jun 2027 18:03:23.024   02 Jun 2027 18:03:39.365            16.341               Magadan1           510.656
       175   02 Jun 2027 19:32:24.233   02 Jun 2027 19:34:29.532           125.299                Anadyr1          3915.594
       176   02 Jun 2027 19:34:42.986   02 Jun 2027 19:37:00.706           137.720               Magadan2          4303.750
       177   02 Jun 2027 19:37:15.855   02 Jun 2027 19:38:27.786            71.931               Magadan1          2247.844
       178   02 Jun 2027 19:39:26.075   02 Jun 2027 19:39:48.283            22.208               Magadan2           694.000
       179   02 Jun 2027 19:39:56.757   02 Jun 2027 19:40:23.195            26.438               Magadan2           826.187
       180   02 Jun 2027 20:28:35.191   02 Jun 2027 20:31:05.895           150.704            RioGallegos          4709.500
       181   02 Jun 2027 20:33:55.082   02 Jun 2027 20:34:15.354            20.272            RioGallegos           633.500
       182   02 Jun 2027 21:08:13.268   02 Jun 2027 21:08:42.535            29.267                Anadyr2           914.594
       183   02 Jun 2027 21:09:28.029   02 Jun 2027 21:09:47.814            19.785                Anadyr2           618.281
       184   02 Jun 2027 21:09:58.140   02 Jun 2027 21:10:24.541            26.401                Anadyr2           825.031
       185   02 Jun 2027 21:10:37.855   02 Jun 2027 21:11:14.736            36.881               Magadan2          1152.531
       186   02 Jun 2027 21:11:14.736   02 Jun 2027 21:12:07.921            53.185               Magadan1          1662.031
       187   02 Jun 2027 21:12:09.630   02 Jun 2027 21:12:50.032            40.402                Norilsk          1262.562
       188   02 Jun 2027 21:13:10.616   02 Jun 2027 21:13:17.002             6.386                Norilsk           199.562
       189   02 Jun 2027 21:13:26.929   02 Jun 2027 21:13:31.104             4.175                Norilsk           130.469
       190   02 Jun 2027 21:13:46.859   02 Jun 2027 21:13:57.672            10.813               Magadan2           337.906
       191   02 Jun 2027 21:14:01.334   02 Jun 2027 21:14:03.311             1.977                Norilsk            61.781
       192   02 Jun 2027 21:14:08.028   02 Jun 2027 21:15:23.495            75.467               Magadan2          2358.344
       193   02 Jun 2027 21:15:34.655   02 Jun 2027 21:16:08.041            33.386                Irkutsk          1043.313
       194   02 Jun 2027 21:17:46.209   02 Jun 2027 21:18:26.551            40.342                Irkutsk          1260.687
       195   02 Jun 2027 21:20:54.411   02 Jun 2027 21:21:31.457            37.046                Irkutsk          1157.688
       196   02 Jun 2027 21:30:14.591   02 Jun 2027 21:32:30.193           135.602                Sumatra          4237.563
       197   02 Jun 2027 22:44:00.064   02 Jun 2027 22:44:10.433            10.369                Anadyr1           324.031
       198   02 Jun 2027 22:44:23.971   02 Jun 2027 22:44:36.097            12.126                Anadyr1           378.937
       199   02 Jun 2027 22:46:08.289   02 Jun 2027 22:48:09.017           120.728                Norilsk          3772.750
       200   02 Jun 2027 22:48:18.975   02 Jun 2027 22:48:44.686            25.711               Magadan2           803.469
       201   02 Jun 2027 22:50:03.230   02 Jun 2027 22:51:14.529            71.299                Irkutsk          2228.094
       202   02 Jun 2027 22:51:26.200   02 Jun 2027 22:53:38.965           132.765                Novosib          4148.906
       203   02 Jun 2027 23:00:41.852   02 Jun 2027 23:02:19.804            97.952                  Delhi          3061.000
       204   03 Jun 2027 00:17:36.692   03 Jun 2027 00:17:48.424            11.732                Anadyr1           366.625
       205   03 Jun 2027 00:17:54.842   03 Jun 2027 00:18:44.741            49.899                Anadyr1          1559.344
       206   03 Jun 2027 00:19:20.802   03 Jun 2027 00:19:51.792            30.990                Anadyr1           968.437
       207   03 Jun 2027 00:20:27.921   03 Jun 2027 00:20:32.721             4.800                Anadyr2           150.000
       208   03 Jun 2027 00:22:08.619   03 Jun 2027 00:23:08.945            60.326                Norilsk          1885.187
       209   03 Jun 2027 00:23:19.905   03 Jun 2027 00:23:29.457             9.552               Magadan2           298.500
       210   03 Jun 2027 00:23:33.442   03 Jun 2027 00:23:50.662            17.220                Norilsk           538.125
       211   03 Jun 2027 00:23:58.455   03 Jun 2027 00:24:13.565            15.110               Magadan1           472.187
       212   03 Jun 2027 00:25:04.431   03 Jun 2027 00:26:22.296            77.865              Murmansk1          2433.281
       213   03 Jun 2027 00:26:23.601   03 Jun 2027 00:28:28.015           124.414              Murmansk2          3887.938
       214   03 Jun 2027 00:29:36.627   03 Jun 2027 00:30:27.236            50.609              Murmansk1          1581.531
       215   03 Jun 2027 00:37:07.903   03 Jun 2027 00:37:37.071            29.168                  Delhi           911.500
       216   03 Jun 2027 00:43:14.388   03 Jun 2027 00:45:22.386           127.998                  Delhi          3999.938
       217   03 Jun 2027 01:50:54.167   03 Jun 2027 01:51:21.155            26.988                Anadyr2           843.375
       218   03 Jun 2027 01:52:28.122   03 Jun 2027 01:52:48.566            20.444                Anadyr1           638.875
       219   03 Jun 2027 01:52:48.566   03 Jun 2027 01:52:49.140             0.574                Anadyr2            17.937
       220   03 Jun 2027 01:53:31.632   03 Jun 2027 01:53:56.699            25.067                Anadyr2           783.344
       221   03 Jun 2027 01:56:39.059   03 Jun 2027 01:57:15.422            36.363                Anadyr1          1136.344
       222   03 Jun 2027 01:57:42.928   03 Jun 2027 01:57:52.972            10.044               Magadan1           313.875
       223   03 Jun 2027 01:58:04.013   03 Jun 2027 01:58:25.258            21.245                Norilsk           663.906
       224   03 Jun 2027 01:58:37.589   03 Jun 2027 01:59:05.796            28.207               Magadan1           881.469
       225   03 Jun 2027 01:59:40.648   03 Jun 2027 01:59:52.581            11.933                Norilsk           372.906
       226   03 Jun 2027 01:59:58.419   03 Jun 2027 02:00:10.909            12.490                Norilsk           390.312
       227   03 Jun 2027 02:00:18.846   03 Jun 2027 02:00:45.429            26.583              Murmansk1           830.719
       228   03 Jun 2027 02:01:11.094   03 Jun 2027 02:02:32.234            81.140              Murmansk1          2535.625
       229   03 Jun 2027 02:03:31.110   03 Jun 2027 02:04:04.219            33.109                Irkutsk          1034.656
       230   03 Jun 2027 02:07:21.918   03 Jun 2027 02:08:01.199            39.281                Irkutsk          1227.531
       231   03 Jun 2027 02:11:36.742   03 Jun 2027 02:11:42.779             6.037                  Delhi           188.656
       232   03 Jun 2027 02:13:22.671   03 Jun 2027 02:13:55.432            32.761                  Delhi          1023.781
       233   03 Jun 2027 02:17:13.850   03 Jun 2027 02:17:33.575            19.725                  Delhi           616.406
       234   03 Jun 2027 02:33:55.782   03 Jun 2027 02:34:12.320            16.538               CapeTown           516.812
       235   03 Jun 2027 02:37:39.009   03 Jun 2027 02:38:06.513            27.504               CapeTown           859.500
       236   03 Jun 2027 03:45:45.408   03 Jun 2027 03:47:43.759           118.351              Murmansk1          3698.469
       237   03 Jun 2027 03:47:54.290   03 Jun 2027 03:48:16.442            22.152              Murmansk2           692.250
       238   03 Jun 2027 05:06:58.192   03 Jun 2027 05:08:46.733           108.541               Magadan1          3391.906
       239   03 Jun 2027 05:09:08.787   03 Jun 2027 05:09:45.683            36.896                Anadyr2          1153.000
       240   03 Jun 2027 05:10:06.087   03 Jun 2027 05:10:21.600            15.513               Magadan1           484.781
       241   03 Jun 2027 06:43:30.864   03 Jun 2027 06:43:46.409            15.545               Magadan1           485.781
       242   03 Jun 2027 06:44:03.097   03 Jun 2027 06:44:36.628            33.531                Norilsk          1047.844
       243   03 Jun 2027 06:44:38.377   03 Jun 2027 06:44:52.211            13.834               Magadan1           432.313
       244   03 Jun 2027 06:44:54.446   03 Jun 2027 06:45:18.617            24.171               Magadan2           755.344
       245   03 Jun 2027 06:45:18.617   03 Jun 2027 06:45:47.634            29.017               Magadan1           906.781
       246   03 Jun 2027 06:45:58.345   03 Jun 2027 06:46:25.736            27.391                Anadyr2           855.969
       247   03 Jun 2027 06:56:48.482   03 Jun 2027 06:57:09.293            20.811                 Moscow           650.344
       248   03 Jun 2027 07:26:21.649   03 Jun 2027 07:26:47.812            26.163            RioGallegos           817.594
       249   03 Jun 2027 07:28:12.107   03 Jun 2027 07:28:50.191            38.084            RioGallegos          1190.125
       250   03 Jun 2027 08:16:44.600   03 Jun 2027 08:16:50.396             5.796                Irkutsk           181.125
       251   03 Jun 2027 08:17:01.854   03 Jun 2027 08:17:48.957            47.103               Magadan1          1471.969
       252   03 Jun 2027 08:18:08.247   03 Jun 2027 08:19:25.810            77.563               Magadan1          2423.844
       253   03 Jun 2027 08:19:48.178   03 Jun 2027 08:19:55.325             7.147                Irkutsk           223.344
       254   03 Jun 2027 08:20:41.040   03 Jun 2027 08:21:38.768            57.728               Magadan1          1804.000
       255   03 Jun 2027 08:22:33.335   03 Jun 2027 08:23:06.448            33.113                Norilsk          1034.781
       256   03 Jun 2027 08:23:07.239   03 Jun 2027 08:23:30.106            22.867              Murmansk2           714.594
       257   03 Jun 2027 08:23:32.973   03 Jun 2027 08:23:33.722             0.749                Norilsk            23.406
       258   03 Jun 2027 08:23:39.567   03 Jun 2027 08:23:51.845            12.278                Norilsk           383.687
       259   03 Jun 2027 08:24:06.745   03 Jun 2027 08:24:58.169            51.424                Novosib          1607.000
       260   03 Jun 2027 08:25:21.694   03 Jun 2027 08:26:14.333            52.639              Murmansk2          1644.969
       261   03 Jun 2027 08:59:39.238   03 Jun 2027 09:00:00.824            21.586            RioGallegos           674.562
       262   03 Jun 2027 09:35:49.932   03 Jun 2027 09:36:00.655            10.723                Sumatra           335.094
       263   03 Jun 2027 09:38:39.243   03 Jun 2027 09:38:59.130            19.887                Sumatra           621.469
       264   03 Jun 2027 09:44:40.759   03 Jun 2027 09:44:52.797            12.038                Sumatra           376.188
       265   03 Jun 2027 09:54:07.938   03 Jun 2027 09:54:14.653             6.715                Novosib           209.844
       266   03 Jun 2027 09:55:01.333   03 Jun 2027 09:55:19.606            18.273                Novosib           571.031
       267   03 Jun 2027 09:55:32.854   03 Jun 2027 09:56:24.523            51.669                Irkutsk          1614.656
       268   03 Jun 2027 09:56:32.959   03 Jun 2027 09:56:36.593             3.634                Novosib           113.563
       269   03 Jun 2027 09:57:34.664   03 Jun 2027 09:57:54.035            19.371              Murmansk2           605.344
       270   03 Jun 2027 09:58:01.022   03 Jun 2027 09:58:13.003            11.981              Murmansk2           374.406
       271   03 Jun 2027 09:58:13.003   03 Jun 2027 09:58:39.560            26.557              Murmansk1           829.906
       272   03 Jun 2027 09:58:57.183   03 Jun 2027 09:59:32.287            35.104                Irkutsk          1097.000
       273   03 Jun 2027 09:59:37.770   03 Jun 2027 09:59:49.118            11.348              Murmansk1           354.625
       274   03 Jun 2027 09:59:54.418   03 Jun 2027 10:00:17.006            22.588                Novosib           705.875
       275   03 Jun 2027 10:00:46.031   03 Jun 2027 10:00:46.796             0.765              Murmansk1            23.906
       276   03 Jun 2027 10:01:09.971   03 Jun 2027 10:01:27.626            17.655              Murmansk2           551.719
       277   03 Jun 2027 10:01:41.306   03 Jun 2027 10:01:57.152            15.846                Norilsk           495.188
       278   03 Jun 2027 10:35:41.070   03 Jun 2027 10:35:47.534             6.464            RioGallegos           202.000
       279   03 Jun 2027 10:36:34.697   03 Jun 2027 10:37:03.944            29.247            RioGallegos           913.969
       280   03 Jun 2027 10:40:19.272   03 Jun 2027 10:40:28.675             9.403            RioGallegos           293.844
       281   03 Jun 2027 11:10:02.704   03 Jun 2027 11:10:11.803             9.099                Sumatra           284.344
       282   03 Jun 2027 11:10:32.518   03 Jun 2027 11:12:06.274            93.756                Sumatra          2929.875
       283   03 Jun 2027 11:30:51.571   03 Jun 2027 11:31:24.115            32.544                Irkutsk          1017.000
       284   03 Jun 2027 11:31:35.574   03 Jun 2027 11:33:03.356            87.782                 Moscow          2743.188
       285   03 Jun 2027 11:33:16.956   03 Jun 2027 11:33:21.403             4.447                Novosib           138.969
       286   03 Jun 2027 11:33:22.908   03 Jun 2027 11:33:46.368            23.460                Novosib           733.125
       287   03 Jun 2027 11:33:48.069   03 Jun 2027 11:34:27.424            39.355              Murmansk2          1229.844
       288   03 Jun 2027 11:34:33.628   03 Jun 2027 11:35:39.431            65.803                Novosib          2056.344
       289   03 Jun 2027 11:35:43.522   03 Jun 2027 11:36:18.507            34.985                 Moscow          1093.281
       290   03 Jun 2027 12:54:43.432   03 Jun 2027 12:56:11.541            88.109                  Delhi          2753.406
       291   03 Jun 2027 12:59:21.224   03 Jun 2027 12:59:54.730            33.506                  Delhi          1047.062
       292   03 Jun 2027 13:02:55.972   03 Jun 2027 13:03:36.425            40.453                  Delhi          1264.156
       293   03 Jun 2027 13:03:50.658   03 Jun 2027 13:04:27.619            36.961                 Moscow          1155.031
       294   03 Jun 2027 13:04:31.475   03 Jun 2027 13:06:46.891           135.416                Novosib          4231.750
       295   03 Jun 2027 13:06:49.553   03 Jun 2027 13:08:37.878           108.325                Norilsk          3385.156
       296   03 Jun 2027 14:38:29.868   03 Jun 2027 14:42:13.857           223.989                 Moscow          6999.656
       297   03 Jun 2027 14:43:19.046   03 Jun 2027 14:45:13.309           114.263              Murmansk1          3570.719
       298   03 Jun 2027 14:45:37.906   03 Jun 2027 14:45:40.405             2.499              Murmansk2            78.094
       299   03 Jun 2027 14:45:50.635   03 Jun 2027 14:46:06.180            15.545              Murmansk2           485.781
       300   03 Jun 2027 14:47:37.550   03 Jun 2027 14:49:10.781            93.231                Norilsk          2913.469
       301   03 Jun 2027 14:51:30.484   03 Jun 2027 14:51:52.477            21.993                Norilsk           687.281
       302   03 Jun 2027 14:59:17.230   03 Jun 2027 14:59:54.560            37.330                Anadyr2          1166.562
       303   03 Jun 2027 15:00:21.065   03 Jun 2027 15:00:46.385            25.320                Anadyr2           791.250
       304   03 Jun 2027 15:52:22.602   03 Jun 2027 15:53:06.495            43.893               CapeTown          1371.656
       305   03 Jun 2027 15:58:33.365   03 Jun 2027 15:58:39.151             5.786               CapeTown           180.812
       306   03 Jun 2027 15:59:51.555   03 Jun 2027 16:01:48.849           117.294               CapeTown          3665.438
       307   03 Jun 2027 16:20:12.059   03 Jun 2027 16:20:41.479            29.420              Murmansk2           919.375
       308   03 Jun 2027 16:27:03.493   03 Jun 2027 16:27:49.399            45.906              Murmansk1          1434.562
       309   03 Jun 2027 16:32:46.511   03 Jun 2027 16:32:59.115            12.604                Anadyr1           393.875
       310   03 Jun 2027 16:33:03.407   03 Jun 2027 16:34:31.338            87.931                Anadyr2          2747.844
       311   03 Jun 2027 16:37:52.308   03 Jun 2027 16:38:18.417            26.109                Anadyr1           815.906
       312   03 Jun 2027 16:39:57.359   03 Jun 2027 16:40:13.786            16.427                Anadyr1           513.344
       313   03 Jun 2027 16:42:09.605   03 Jun 2027 16:42:19.251             9.646                Anadyr2           301.437
       314   03 Jun 2027 17:28:14.217   03 Jun 2027 17:29:16.012            61.795               CapeTown          1931.094
       315   03 Jun 2027 17:36:41.301   03 Jun 2027 17:38:00.231            78.930               CapeTown          2466.562
       316   03 Jun 2027 17:59:47.517   03 Jun 2027 18:02:46.433           178.916              Murmansk2          5591.125
       317   03 Jun 2027 18:02:46.433   03 Jun 2027 18:03:16.179            29.746              Murmansk1           929.563
       318   03 Jun 2027 18:08:29.747   03 Jun 2027 18:09:15.010            45.263                Anadyr2          1414.469
       319   03 Jun 2027 18:11:24.260   03 Jun 2027 18:12:46.983            82.723               Magadan1          2585.094
       320   03 Jun 2027 18:14:18.470   03 Jun 2027 18:14:30.509            12.039               Magadan2           376.219
       321   03 Jun 2027 18:18:46.637   03 Jun 2027 18:19:03.547            16.910               Magadan1           528.438
       322   03 Jun 2027 18:20:06.482   03 Jun 2027 18:20:53.288            46.806               Magadan2          1462.687
       323   03 Jun 2027 19:44:25.635   03 Jun 2027 19:46:43.577           137.942                Anadyr2          4310.687
       324   03 Jun 2027 19:47:25.976   03 Jun 2027 19:48:07.046            41.070                Anadyr2          1283.437
       325   03 Jun 2027 19:48:07.881   03 Jun 2027 19:50:28.849           140.968               Magadan2          4405.250
       326   03 Jun 2027 19:50:40.398   03 Jun 2027 19:51:02.548            22.150               Magadan1           692.187
       327   03 Jun 2027 19:53:48.161   03 Jun 2027 19:54:08.507            20.346               Magadan1           635.813
       328   03 Jun 2027 20:39:55.752   03 Jun 2027 20:42:49.424           173.672            RioGallegos          5427.250
       329   03 Jun 2027 20:45:26.241   03 Jun 2027 20:46:11.486            45.245            RioGallegos          1413.906
       330   03 Jun 2027 21:20:12.308   03 Jun 2027 21:20:44.372            32.064                Anadyr2          1002.000
       331   03 Jun 2027 21:22:20.424   03 Jun 2027 21:24:57.828           157.404                Norilsk          4918.875
       332   03 Jun 2027 21:25:30.191   03 Jun 2027 21:26:03.199            33.008                Norilsk          1031.500
       333   03 Jun 2027 21:27:00.492   03 Jun 2027 21:28:06.456            65.964                Irkutsk          2061.375
       334   03 Jun 2027 21:29:41.826   03 Jun 2027 21:30:19.133            37.307                Irkutsk          1165.844
       335   03 Jun 2027 21:35:20.882   03 Jun 2027 21:36:08.091            47.209                Irkutsk          1475.281
       336   03 Jun 2027 21:41:29.159   03 Jun 2027 21:44:09.895           160.736                Sumatra          5023.000
       337   03 Jun 2027 22:56:25.577   03 Jun 2027 22:56:37.298            11.721                Anadyr2           366.281
       338   03 Jun 2027 22:58:10.131   03 Jun 2027 23:00:10.946           120.815                Norilsk          3775.469
       339   03 Jun 2027 23:02:03.193   03 Jun 2027 23:03:00.758            57.565                Irkutsk          1798.906
       340   03 Jun 2027 23:03:06.724   03 Jun 2027 23:05:33.537           146.813                Novosib          4587.906
       341   03 Jun 2027 23:11:36.885   03 Jun 2027 23:12:18.873            41.988                  Delhi          1312.125
       342   03 Jun 2027 23:14:54.710   03 Jun 2027 23:15:02.874             8.164                  Delhi           255.125
       343   03 Jun 2027 23:15:21.768   03 Jun 2027 23:15:25.513             3.745                  Delhi           117.031
       344   03 Jun 2027 23:26:36.982   03 Jun 2027 23:27:33.796            56.814                Sumatra          1775.437
       345   04 Jun 2027 00:29:19.457   04 Jun 2027 00:29:37.361            17.904                Anadyr1           559.500
       346   04 Jun 2027 00:29:51.882   04 Jun 2027 00:30:42.077            50.195                Anadyr2          1568.594
       347   04 Jun 2027 00:30:55.601   04 Jun 2027 00:31:22.124            26.523                Anadyr1           828.844
       348   04 Jun 2027 00:31:37.066   04 Jun 2027 00:31:50.333            13.267                Anadyr2           414.594
       349   04 Jun 2027 00:32:16.494   04 Jun 2027 00:32:19.148             2.654                Anadyr2            82.938
       350   04 Jun 2027 00:34:10.591   04 Jun 2027 00:34:27.096            16.505                Norilsk           515.781
       351   04 Jun 2027 00:34:42.105   04 Jun 2027 00:35:06.100            23.995               Magadan2           749.844
       352   04 Jun 2027 00:35:23.301   04 Jun 2027 00:37:02.780            99.479               Magadan1          3108.719
       353   04 Jun 2027 00:37:19.994   04 Jun 2027 00:39:40.428           140.434              Murmansk2          4388.562
       354   04 Jun 2027 00:40:08.964   04 Jun 2027 00:41:00.664            51.700              Murmansk2          1615.625
       355   04 Jun 2027 00:49:16.730   04 Jun 2027 00:49:26.654             9.924                  Delhi           310.125
       356   04 Jun 2027 00:50:03.060   04 Jun 2027 00:51:10.101            67.041                  Delhi          2095.031
       357   04 Jun 2027 01:27:33.217   04 Jun 2027 01:28:11.538            38.321            RioGallegos          1197.531
       358   04 Jun 2027 01:30:52.186   04 Jun 2027 01:31:20.202            28.016            RioGallegos           875.500
       359   04 Jun 2027 02:02:36.453   04 Jun 2027 02:03:45.794            69.341                Anadyr1          2166.906
       360   04 Jun 2027 02:04:00.171   04 Jun 2027 02:04:42.574            42.403                Anadyr1          1325.094
       361   04 Jun 2027 02:08:29.610   04 Jun 2027 02:10:33.309           123.699               Magadan1          3865.594
       362   04 Jun 2027 02:12:19.515   04 Jun 2027 02:12:46.967            27.452              Murmansk1           857.875
       363   04 Jun 2027 02:13:12.882   04 Jun 2027 02:13:22.987            10.105              Murmansk2           315.781
       364   04 Jun 2027 02:13:36.568   04 Jun 2027 02:13:45.062             8.494              Murmansk2           265.438
       365   04 Jun 2027 02:14:07.410   04 Jun 2027 02:15:28.288            80.878                Novosib          2527.438
       366   04 Jun 2027 02:19:33.058   04 Jun 2027 02:19:42.631             9.573                Irkutsk           299.156
       367   04 Jun 2027 02:21:20.433   04 Jun 2027 02:21:23.430             2.997                Novosib            93.656
       368   04 Jun 2027 02:22:03.828   04 Jun 2027 02:22:17.001            13.173                 Moscow           411.656
       369   04 Jun 2027 02:24:06.108   04 Jun 2027 02:24:40.325            34.217                  Delhi          1069.281
       370   04 Jun 2027 02:42:29.847   04 Jun 2027 02:44:02.449            92.602               CapeTown          2893.812
       371   04 Jun 2027 03:57:48.127   04 Jun 2027 03:58:24.733            36.606                 Moscow          1143.937
       372   04 Jun 2027 03:58:28.841   04 Jun 2027 04:00:35.278           126.437              Murmansk1          3951.156
       373   04 Jun 2027 04:00:35.278   04 Jun 2027 04:01:06.323            31.045              Murmansk2           970.156
       374   04 Jun 2027 05:18:52.606   04 Jun 2027 05:20:55.005           122.399               Magadan2          3824.969
       375   04 Jun 2027 05:20:55.005   04 Jun 2027 05:24:38.700           223.695               Magadan1          6990.469
       376   04 Jun 2027 05:24:50.659   04 Jun 2027 05:25:02.097            11.438                Anadyr2           357.437
       377   04 Jun 2027 06:55:05.825   04 Jun 2027 06:55:19.954            14.129                Anadyr2           441.531
       378   04 Jun 2027 06:55:33.500   04 Jun 2027 06:56:25.495            51.995                Anadyr1          1624.844
       379   04 Jun 2027 06:56:30.876   04 Jun 2027 06:56:57.779            26.903               Magadan1           840.719
       380   04 Jun 2027 06:57:06.725   04 Jun 2027 06:58:01.336            54.611                Anadyr1          1706.594
       381   04 Jun 2027 06:58:35.611   04 Jun 2027 06:58:57.499            21.888               Magadan1           684.000
       382   04 Jun 2027 06:59:18.514   04 Jun 2027 06:59:57.839            39.325                Anadyr2          1228.906
       383   04 Jun 2027 07:44:20.004   04 Jun 2027 07:44:35.279            15.275            RioGallegos           477.344
       384   04 Jun 2027 08:29:25.469   04 Jun 2027 08:29:32.412             6.943                Irkutsk           216.969
       385   04 Jun 2027 08:29:34.124   04 Jun 2027 08:29:43.192             9.068                Norilsk           283.375
       386   04 Jun 2027 08:30:00.843   04 Jun 2027 08:30:09.067             8.224               Magadan2           257.000
       387   04 Jun 2027 08:30:25.710   04 Jun 2027 08:30:36.133            10.423               Magadan2           325.719
       388   04 Jun 2027 08:31:10.882   04 Jun 2027 08:31:49.069            38.187               Magadan1          1193.344
       389   04 Jun 2027 08:32:39.011   04 Jun 2027 08:33:21.775            42.764               Magadan2          1336.375
       390   04 Jun 2027 08:33:23.835   04 Jun 2027 08:33:34.939            11.104                Anadyr2           347.000
       391   04 Jun 2027 08:33:39.511   04 Jun 2027 08:34:55.160            75.649               Magadan1          2364.031
       392   04 Jun 2027 08:35:00.079   04 Jun 2027 08:35:40.759            40.680              Murmansk1          1271.250
       393   04 Jun 2027 08:35:56.968   04 Jun 2027 08:36:32.923            35.955              Murmansk1          1123.594
       394   04 Jun 2027 08:37:21.011   04 Jun 2027 08:38:17.651            56.640              Murmansk1          1770.000
       395   04 Jun 2027 09:11:08.325   04 Jun 2027 09:11:32.639            24.314            RioGallegos           759.813
       396   04 Jun 2027 09:47:11.532   04 Jun 2027 09:48:01.455            49.923                Sumatra          1560.094
       397   04 Jun 2027 09:50:52.406   04 Jun 2027 09:52:26.172            93.766                Sumatra          2930.187
       398   04 Jun 2027 10:06:30.681   04 Jun 2027 10:07:39.492            68.811                Irkutsk          2150.344
       399   04 Jun 2027 10:07:50.677   04 Jun 2027 10:07:52.275             1.598                Irkutsk            49.937
       400   04 Jun 2027 10:08:08.186   04 Jun 2027 10:08:25.759            17.573                Irkutsk           549.156
       401   04 Jun 2027 10:08:36.189   04 Jun 2027 10:09:05.511            29.322                Irkutsk           916.313
       402   04 Jun 2027 10:09:21.300   04 Jun 2027 10:09:42.441            21.141                Norilsk           660.656
       403   04 Jun 2027 10:09:51.058   04 Jun 2027 10:10:16.923            25.865                Norilsk           808.281
       404   04 Jun 2027 10:10:32.708   04 Jun 2027 10:11:23.135            50.427                Irkutsk          1575.844
       405   04 Jun 2027 10:11:31.184   04 Jun 2027 10:12:02.395            31.211                Norilsk           975.344
       406   04 Jun 2027 10:12:03.821   04 Jun 2027 10:12:47.142            43.321              Murmansk1          1353.781
       407   04 Jun 2027 10:48:03.898   04 Jun 2027 10:48:36.896            32.998            RioGallegos          1031.187
       408   04 Jun 2027 10:50:30.921   04 Jun 2027 10:51:06.157            35.236            RioGallegos          1101.125
       409   04 Jun 2027 11:22:19.615   04 Jun 2027 11:23:43.044            83.429                Sumatra          2607.156
       410   04 Jun 2027 11:30:50.211   04 Jun 2027 11:31:21.516            31.305                  Delhi           978.281
       411   04 Jun 2027 11:43:27.332   04 Jun 2027 11:43:47.667            20.335              Murmansk1           635.469
       412   04 Jun 2027 11:43:56.474   04 Jun 2027 11:44:16.046            19.572                Novosib           611.625
       413   04 Jun 2027 11:44:33.732   04 Jun 2027 11:44:43.843            10.111              Murmansk2           315.969
       414   04 Jun 2027 11:44:56.165   04 Jun 2027 11:46:31.312            95.147                 Moscow          2973.344
       415   04 Jun 2027 11:46:35.665   04 Jun 2027 11:47:25.623            49.958                Irkutsk          1561.188
       416   04 Jun 2027 11:47:31.411   04 Jun 2027 11:47:57.086            25.675                Norilsk           802.344
       417   04 Jun 2027 11:48:02.474   04 Jun 2027 11:48:29.595            27.121              Murmansk2           847.531
       418   04 Jun 2027 13:07:12.384   04 Jun 2027 13:11:04.066           231.682                  Delhi          7240.063
       419   04 Jun 2027 13:11:20.912   04 Jun 2027 13:12:23.421            62.509                  Delhi          1953.406
       420   04 Jun 2027 13:15:35.482   04 Jun 2027 13:15:50.200            14.718                Novosib           459.938
       421   04 Jun 2027 13:16:33.805   04 Jun 2027 13:17:08.153            34.348                Novosib          1073.375
       422   04 Jun 2027 13:18:08.253   04 Jun 2027 13:18:28.891            20.638              Murmansk2           644.938
       423   04 Jun 2027 13:19:17.142   04 Jun 2027 13:20:00.200            43.058                Norilsk          1345.562
       424   04 Jun 2027 13:21:11.441   04 Jun 2027 13:21:46.790            35.349                Norilsk          1104.656
       425   04 Jun 2027 13:24:13.829   04 Jun 2027 13:24:17.744             3.915                Norilsk           122.344
       426   04 Jun 2027 14:50:37.306   04 Jun 2027 14:52:36.736           119.430                 Moscow          3732.187
       427   04 Jun 2027 14:54:08.719   04 Jun 2027 14:57:33.711           204.992              Murmansk1          6406.000
       428   04 Jun 2027 14:59:14.829   04 Jun 2027 14:59:37.465            22.636              Murmansk1           707.375
       429   04 Jun 2027 15:00:39.874   04 Jun 2027 15:03:30.318           170.444                Norilsk          5326.375
       430   04 Jun 2027 15:11:36.356   04 Jun 2027 15:11:41.024             4.668                Anadyr1           145.875
       431   04 Jun 2027 15:11:55.153   04 Jun 2027 15:12:22.400            27.247                Anadyr1           851.469
       432   04 Jun 2027 16:04:12.749   04 Jun 2027 16:05:11.313            58.564               CapeTown          1830.125
       433   04 Jun 2027 16:29:41.471   04 Jun 2027 16:30:05.780            24.309                 Moscow           759.656
       434   04 Jun 2027 16:31:49.984   04 Jun 2027 16:32:34.094            44.110                 Moscow          1378.438
       435   04 Jun 2027 16:33:13.860   04 Jun 2027 16:33:35.159            21.299              Murmansk1           665.594
       436   04 Jun 2027 16:33:35.159   04 Jun 2027 16:33:38.082             2.923              Murmansk2            91.344
       437   04 Jun 2027 16:33:51.569   04 Jun 2027 16:34:28.943            37.374                 Moscow          1167.937
       438   04 Jun 2027 16:36:58.055   04 Jun 2027 16:37:17.983            19.928              Murmansk1           622.750
       439   04 Jun 2027 16:40:41.008   04 Jun 2027 16:41:11.115            30.107              Murmansk1           940.844
       440   04 Jun 2027 16:44:44.514   04 Jun 2027 16:46:33.599           109.085                Anadyr1          3408.906
       441   04 Jun 2027 16:47:30.601   04 Jun 2027 16:48:01.164            30.563                Anadyr2           955.094
       442   04 Jun 2027 16:50:14.507   04 Jun 2027 16:50:38.794            24.287                Anadyr2           758.969
       443   04 Jun 2027 17:40:29.242   04 Jun 2027 17:41:01.504            32.262               CapeTown          1008.187
       444   04 Jun 2027 17:41:26.206   04 Jun 2027 17:42:01.633            35.427               CapeTown          1107.094
       445   04 Jun 2027 17:48:27.607   04 Jun 2027 17:50:04.147            96.540               CapeTown          3016.875
       446   04 Jun 2027 18:12:39.161   04 Jun 2027 18:14:42.372           123.211              Murmansk2          3850.344
       447   04 Jun 2027 18:15:00.269   04 Jun 2027 18:15:18.256            17.987              Murmansk2           562.094
       448   04 Jun 2027 18:16:06.034   04 Jun 2027 18:17:04.061            58.027              Murmansk2          1813.344
       449   04 Jun 2027 18:21:51.030   04 Jun 2027 18:22:13.304            22.274                Anadyr2           696.063
       450   04 Jun 2027 18:23:16.286   04 Jun 2027 18:24:49.028            92.742               Magadan1          2898.188
       451   04 Jun 2027 18:27:49.145   04 Jun 2027 18:27:59.734            10.589               Magadan1           330.906
       452   04 Jun 2027 18:28:34.840   04 Jun 2027 18:29:21.958            47.118               Magadan2          1472.437
       453   04 Jun 2027 19:56:26.901   04 Jun 2027 19:59:39.888           192.987                Anadyr2          6030.844
       454   04 Jun 2027 19:59:48.427   04 Jun 2027 20:00:10.716            22.289                Anadyr2           696.531
       455   04 Jun 2027 20:00:15.303   04 Jun 2027 20:02:41.505           146.202               Magadan2          4568.813
       456   04 Jun 2027 20:08:44.197   04 Jun 2027 20:08:53.111             8.914               Magadan2           278.563
       457   04 Jun 2027 20:09:19.986   04 Jun 2027 20:09:30.734            10.748               Magadan2           335.875
       458   04 Jun 2027 20:09:30.734   04 Jun 2027 20:10:08.585            37.851               Magadan1          1182.844
       459   04 Jun 2027 20:51:29.806   04 Jun 2027 20:53:52.713           142.907            RioGallegos          4465.844
       460   04 Jun 2027 20:54:31.372   04 Jun 2027 20:54:37.145             5.773            RioGallegos           180.406
       461   04 Jun 2027 20:56:38.725   04 Jun 2027 20:57:35.819            57.094            RioGallegos          1784.188
       462   04 Jun 2027 21:32:10.778   04 Jun 2027 21:32:58.108            47.330                Anadyr1          1479.063
       463   04 Jun 2027 21:34:19.316   04 Jun 2027 21:34:43.810            24.494                Norilsk           765.437
       464   04 Jun 2027 21:35:17.026   04 Jun 2027 21:36:48.485            91.459               Magadan2          2858.094
       465   04 Jun 2027 21:38:22.704   04 Jun 2027 21:39:27.222            64.518               Magadan2          2016.188
       466   04 Jun 2027 21:41:27.363   04 Jun 2027 21:42:12.804            45.441                Irkutsk          1420.031
       467   04 Jun 2027 21:45:01.529   04 Jun 2027 21:45:01.535             0.006                Irkutsk             0.187
       468   04 Jun 2027 21:47:19.697   04 Jun 2027 21:48:03.253            43.556                Irkutsk          1361.125
       469   04 Jun 2027 21:52:56.544   04 Jun 2027 21:55:46.103           169.559                Sumatra          5298.719
       470   04 Jun 2027 23:08:29.149   04 Jun 2027 23:09:53.438            84.289                Anadyr2          2634.031
       471   04 Jun 2027 23:10:40.579   04 Jun 2027 23:10:42.922             2.343                Norilsk            73.219
       472   04 Jun 2027 23:10:50.108   04 Jun 2027 23:12:10.117            80.009               Magadan2          2500.281
       473   04 Jun 2027 23:12:43.606   04 Jun 2027 23:12:46.285             2.679               Magadan2            83.719
       474   04 Jun 2027 23:12:59.784   04 Jun 2027 23:13:24.499            24.715               Magadan2           772.344
       475   04 Jun 2027 23:14:26.383   04 Jun 2027 23:15:51.622            85.239                Novosib          2663.719
       476   04 Jun 2027 23:19:17.456   04 Jun 2027 23:19:29.357            11.901                Novosib           371.906
       477   04 Jun 2027 23:19:48.486   04 Jun 2027 23:20:29.917            41.431                Novosib          1294.719
       478   04 Jun 2027 23:22:55.714   04 Jun 2027 23:23:55.552            59.838                  Delhi          1869.937
       479   04 Jun 2027 23:25:43.445   04 Jun 2027 23:26:04.510            21.065                  Delhi           658.281
       480   04 Jun 2027 23:26:32.230   04 Jun 2027 23:27:30.275            58.045                  Delhi          1813.906
       481   05 Jun 2027 00:10:28.393   05 Jun 2027 00:10:39.023            10.630            RioGallegos           332.187
       482   05 Jun 2027 00:11:44.459   05 Jun 2027 00:12:00.124            15.665            RioGallegos           489.531
