uniorb/output/strategy_2/Drop/Drop_KinoSat_111501.txt

KinoSat_111501
-------------------------
    Access    *     Start Time (UTCG)     *     Stop Time (UTCG)  *   Duration (s)        *       Station  *  Data (Mbytes)
         1   01 Jun 2027 03:59:42.843   01 Jun 2027 03:59:48.571             5.728                Norilsk           179.000
         2   01 Jun 2027 04:00:07.273   01 Jun 2027 04:00:38.103            30.830                Norilsk           963.437
         3   01 Jun 2027 04:00:52.364   01 Jun 2027 04:01:02.858            10.494              Murmansk2           327.937
         4   01 Jun 2027 04:01:18.655   01 Jun 2027 04:01:34.439            15.784              Murmansk2           493.250
         5   01 Jun 2027 04:01:44.472   01 Jun 2027 04:02:07.385            22.913              Murmansk2           716.031
         6   01 Jun 2027 04:03:28.501   01 Jun 2027 04:04:24.982            56.481                 Moscow          1765.031
         7   01 Jun 2027 04:04:41.480   01 Jun 2027 04:04:58.196            16.716              Murmansk1           522.375
         8   01 Jun 2027 04:05:30.076   01 Jun 2027 04:08:37.026           186.950                 Moscow          5842.187
         9   01 Jun 2027 04:20:01.511   01 Jun 2027 04:21:50.062           108.551               CapeTown          3392.219
        10   01 Jun 2027 04:22:05.670   01 Jun 2027 04:26:18.114           252.444               CapeTown          7888.875
        11   01 Jun 2027 04:28:28.579   01 Jun 2027 04:29:28.595            60.016               CapeTown          1875.500
        12   01 Jun 2027 04:30:21.464   01 Jun 2027 04:32:00.777            99.313               CapeTown          3103.531
        13   01 Jun 2027 05:23:52.377   01 Jun 2027 05:26:04.842           132.465                Anadyr2          4139.531
        14   01 Jun 2027 05:26:28.945   01 Jun 2027 05:28:54.730           145.785               Magadan2          4555.781
        15   01 Jun 2027 05:28:54.730   01 Jun 2027 05:28:56.243             1.513               Magadan1            47.281
        16   01 Jun 2027 05:35:38.367   01 Jun 2027 05:36:26.877            48.510              Murmansk1          1515.938
        17   01 Jun 2027 05:40:22.118   01 Jun 2027 05:41:33.219            71.101              Murmansk1          2221.906
        18   01 Jun 2027 06:59:40.769   01 Jun 2027 07:00:53.178            72.409               Magadan2          2262.781
        19   01 Jun 2027 07:01:15.223   01 Jun 2027 07:01:26.062            10.839               Magadan2           338.719
        20   01 Jun 2027 07:01:35.936   01 Jun 2027 07:05:18.145           222.209                Anadyr1          6944.031
        21   01 Jun 2027 07:11:23.961   01 Jun 2027 07:11:43.686            19.725                 Moscow           616.406
        22   01 Jun 2027 08:33:35.773   01 Jun 2027 08:34:16.345            40.572                Anadyr2          1267.875
        23   01 Jun 2027 08:35:03.357   01 Jun 2027 08:35:43.279            39.922                Irkutsk          1247.562
        24   01 Jun 2027 08:35:56.487   01 Jun 2027 08:36:24.606            28.119               Magadan1           878.719
        25   01 Jun 2027 08:36:50.229   01 Jun 2027 08:38:20.708            90.479               Magadan1          2827.469
        26   01 Jun 2027 08:38:27.755   01 Jun 2027 08:40:33.069           125.314                Anadyr2          3916.062
        27   01 Jun 2027 10:08:56.126   01 Jun 2027 10:12:29.390           213.264               Magadan2          6664.500
        28   01 Jun 2027 10:13:00.084   01 Jun 2027 10:15:06.322           126.238               Magadan2          3944.938
        29   01 Jun 2027 11:47:01.677   01 Jun 2027 11:47:41.800            40.123                Irkutsk          1253.844
        30   01 Jun 2027 11:48:41.445   01 Jun 2027 11:50:53.650           132.205              Murmansk1          4131.406
        31   01 Jun 2027 11:50:57.338   01 Jun 2027 11:53:01.009           123.671                 Moscow          3864.719
        32   01 Jun 2027 12:35:32.688   01 Jun 2027 12:35:40.540             7.852            RioGallegos           245.375
        33   01 Jun 2027 13:06:29.419   01 Jun 2027 13:09:16.122           166.703                Sumatra          5209.469
        34   01 Jun 2027 13:13:13.394   01 Jun 2027 13:13:37.876            24.482                  Delhi           765.062
        35   01 Jun 2027 13:18:11.300   01 Jun 2027 13:18:51.161            39.861                Novosib          1245.656
        36   01 Jun 2027 13:19:26.562   01 Jun 2027 13:20:20.774            54.212                Novosib          1694.125
        37   01 Jun 2027 13:21:22.553   01 Jun 2027 13:22:54.740            92.187                Novosib          2880.844
        38   01 Jun 2027 13:23:20.521   01 Jun 2027 13:24:54.765            94.244                Irkutsk          2945.125
        39   01 Jun 2027 14:54:53.713   01 Jun 2027 14:58:10.055           196.342                 Moscow          6135.687
        40   01 Jun 2027 14:58:17.901   01 Jun 2027 15:00:29.035           131.134              Murmansk2          4097.938
        41   01 Jun 2027 15:01:56.528   01 Jun 2027 15:03:10.573            74.045                Norilsk          2313.906
        42   01 Jun 2027 15:05:47.486   01 Jun 2027 15:07:53.581           126.095                Norilsk          3940.469
        43   01 Jun 2027 16:09:42.844   01 Jun 2027 16:12:37.198           174.354               CapeTown          5448.562
        44   01 Jun 2027 16:16:34.515   01 Jun 2027 16:16:56.812            22.297               CapeTown           696.781
        45   01 Jun 2027 16:18:18.451   01 Jun 2027 16:18:56.521            38.070               CapeTown          1189.688
        46   01 Jun 2027 16:32:00.276   01 Jun 2027 16:32:07.981             7.705                 Moscow           240.781
        47   01 Jun 2027 16:35:13.998   01 Jun 2027 16:35:52.533            38.535              Murmansk2          1204.219
        48   01 Jun 2027 16:35:52.533   01 Jun 2027 16:37:06.427            73.894              Murmansk1          2309.188
        49   01 Jun 2027 16:39:39.280   01 Jun 2027 16:39:41.782             2.502              Murmansk1            78.187
        50   01 Jun 2027 16:39:47.215   01 Jun 2027 16:40:18.765            31.550                 Moscow           985.938
        51   01 Jun 2027 16:41:55.930   01 Jun 2027 16:42:25.706            29.776                 Moscow           930.500
        52   01 Jun 2027 16:42:58.310   01 Jun 2027 16:43:28.711            30.401              Murmansk1           950.031
        53   01 Jun 2027 16:44:29.616   01 Jun 2027 16:45:02.155            32.539              Murmansk1          1016.844
        54   01 Jun 2027 16:46:17.487   01 Jun 2027 16:46:41.106            23.619              Murmansk2           738.094
        55   01 Jun 2027 16:49:25.846   01 Jun 2027 16:50:15.629            49.783                Anadyr2          1555.719
        56   01 Jun 2027 16:52:26.833   01 Jun 2027 16:52:49.428            22.595                Anadyr1           706.094
        57   01 Jun 2027 16:52:57.228   01 Jun 2027 16:53:14.430            17.202                Anadyr1           537.563
        58   01 Jun 2027 16:53:32.587   01 Jun 2027 16:53:44.755            12.168                Anadyr1           380.250
        59   01 Jun 2027 16:54:32.274   01 Jun 2027 16:54:56.474            24.200                Anadyr1           756.250
        60   01 Jun 2027 16:55:30.878   01 Jun 2027 16:56:07.522            36.644                Anadyr2          1145.125
        61   01 Jun 2027 16:56:35.320   01 Jun 2027 16:56:54.428            19.108                Anadyr2           597.125
        62   01 Jun 2027 16:57:23.755   01 Jun 2027 16:58:14.370            50.615                Anadyr1          1581.719
        63   01 Jun 2027 16:58:17.244   01 Jun 2027 16:58:20.619             3.375                Anadyr2           105.469
        64   01 Jun 2027 16:58:25.802   01 Jun 2027 16:58:34.678             8.876                Anadyr2           277.375
        65   01 Jun 2027 17:52:42.523   01 Jun 2027 17:53:22.542            40.019               CapeTown          1250.594
        66   01 Jun 2027 17:54:37.252   01 Jun 2027 17:55:26.940            49.688               CapeTown          1552.750
        67   01 Jun 2027 17:56:03.561   01 Jun 2027 17:56:34.758            31.197               CapeTown           974.906
        68   01 Jun 2027 18:14:22.462   01 Jun 2027 18:16:58.958           156.496              Murmansk2          4890.500
        69   01 Jun 2027 18:17:35.519   01 Jun 2027 18:18:32.694            57.175              Murmansk2          1786.719
        70   01 Jun 2027 18:21:01.688   01 Jun 2027 18:22:58.725           117.037              Murmansk2          3657.406
        71   01 Jun 2027 18:33:20.855   01 Jun 2027 18:33:33.675            12.820               Magadan2           400.625
        72   01 Jun 2027 18:33:40.485   01 Jun 2027 18:34:21.349            40.864                Anadyr2          1277.000
        73   01 Jun 2027 18:34:45.251   01 Jun 2027 18:35:18.680            33.429                Anadyr2          1044.656
        74   01 Jun 2027 18:35:30.933   01 Jun 2027 18:35:39.486             8.553               Magadan2           267.281
        75   01 Jun 2027 18:35:43.884   01 Jun 2027 18:36:12.172            28.288                Anadyr1           884.000
        76   01 Jun 2027 18:36:40.447   01 Jun 2027 18:36:56.848            16.401                Anadyr2           512.531
        77   01 Jun 2027 18:37:16.268   01 Jun 2027 18:37:23.960             7.692                Anadyr2           240.375
        78   01 Jun 2027 20:00:50.587   01 Jun 2027 20:04:35.193           224.606                Anadyr2          7018.937
        79   01 Jun 2027 20:04:52.233   01 Jun 2027 20:07:09.693           137.460                Anadyr1          4295.625
        80   01 Jun 2027 20:07:29.081   01 Jun 2027 20:07:56.035            26.954               Magadan2           842.312
        81   01 Jun 2027 20:08:06.452   01 Jun 2027 20:08:10.791             4.339                Anadyr1           135.594
        82   01 Jun 2027 20:08:26.632   01 Jun 2027 20:08:56.554            29.922               Magadan1           935.062
        83   01 Jun 2027 20:09:45.733   01 Jun 2027 20:10:01.794            16.061                Anadyr2           501.906
        84   01 Jun 2027 20:10:05.870   01 Jun 2027 20:10:34.200            28.330                Anadyr2           885.312
        85   01 Jun 2027 20:11:01.338   01 Jun 2027 20:11:15.465            14.127                Anadyr2           441.469
        86   01 Jun 2027 20:11:23.048   01 Jun 2027 20:11:51.582            28.534                Anadyr2           891.687
        87   01 Jun 2027 20:11:56.738   01 Jun 2027 20:12:01.215             4.477                Anadyr2           139.906
        88   01 Jun 2027 20:12:05.444   01 Jun 2027 20:12:30.695            25.251                Anadyr2           789.094
        89   01 Jun 2027 20:13:26.197   01 Jun 2027 20:14:14.655            48.458               Magadan1          1514.313
        90   01 Jun 2027 20:14:34.643   01 Jun 2027 20:15:06.695            32.052               Magadan2          1001.625
        91   01 Jun 2027 21:36:43.021   01 Jun 2027 21:38:51.326           128.305                Anadyr1          4009.531
        92   01 Jun 2027 21:38:57.731   01 Jun 2027 21:42:28.926           211.195                Norilsk          6599.844
        93   01 Jun 2027 21:44:11.506   01 Jun 2027 21:44:50.139            38.633                Norilsk          1207.281
        94   01 Jun 2027 21:45:39.003   01 Jun 2027 21:46:23.037            44.034                Irkutsk          1376.062
        95   01 Jun 2027 21:47:06.400   01 Jun 2027 21:47:33.878            27.478               Magadan2           858.687
        96   01 Jun 2027 21:48:12.122   01 Jun 2027 21:48:19.729             7.607               Magadan1           237.719
        97   01 Jun 2027 21:48:28.249   01 Jun 2027 21:48:43.459            15.210               Magadan2           475.313
        98   01 Jun 2027 21:48:55.878   01 Jun 2027 21:49:12.068            16.190               Magadan1           505.938
        99   01 Jun 2027 21:49:48.035   01 Jun 2027 21:50:00.879            12.844               Magadan2           401.375
       100   01 Jun 2027 21:50:28.606   01 Jun 2027 21:50:46.017            17.411               Magadan1           544.094
       101   01 Jun 2027 21:51:08.710   01 Jun 2027 21:51:46.323            37.613               Magadan2          1175.406
       102   01 Jun 2027 22:01:25.100   01 Jun 2027 22:01:53.130            28.030                Sumatra           875.937
       103   01 Jun 2027 22:02:44.662   01 Jun 2027 22:04:25.611           100.949                Sumatra          3154.656
       104   01 Jun 2027 22:40:20.956   01 Jun 2027 22:40:53.478            32.522            RioGallegos          1016.312
       105   01 Jun 2027 22:42:24.664   01 Jun 2027 22:42:44.213            19.549            RioGallegos           610.906
       106   01 Jun 2027 23:12:09.624   01 Jun 2027 23:14:05.628           116.004                Anadyr2          3625.125
       107   01 Jun 2027 23:14:34.044   01 Jun 2027 23:14:40.098             6.054                Norilsk           189.187
       108   01 Jun 2027 23:14:51.991   01 Jun 2027 23:15:17.780            25.789                Norilsk           805.906
       109   01 Jun 2027 23:15:30.148   01 Jun 2027 23:15:44.383            14.235                Norilsk           444.844
       110   01 Jun 2027 23:16:03.798   01 Jun 2027 23:16:18.645            14.847                Norilsk           463.969
       111   01 Jun 2027 23:17:36.454   01 Jun 2027 23:18:22.148            45.694               Magadan2          1427.938
       112   01 Jun 2027 23:18:26.938   01 Jun 2027 23:18:36.443             9.505               Magadan2           297.031
       113   01 Jun 2027 23:18:59.885   01 Jun 2027 23:19:08.751             8.866               Magadan1           277.062
       114   01 Jun 2027 23:20:11.313   01 Jun 2027 23:20:46.674            35.361               Magadan2          1105.031
       115   01 Jun 2027 23:21:21.598   01 Jun 2027 23:21:52.719            31.121                Norilsk           972.531
       116   01 Jun 2027 23:22:42.420   01 Jun 2027 23:22:48.086             5.666               Magadan2           177.063
       117   01 Jun 2027 23:23:17.143   01 Jun 2027 23:23:46.031            28.888               Magadan1           902.750
       118   01 Jun 2027 23:24:33.523   01 Jun 2027 23:24:45.604            12.081               Magadan1           377.531
       119   01 Jun 2027 23:24:53.922   01 Jun 2027 23:25:29.946            36.024                Norilsk          1125.750
       120   01 Jun 2027 23:27:22.052   01 Jun 2027 23:28:07.294            45.242                Irkutsk          1413.813
       121   01 Jun 2027 23:28:08.855   01 Jun 2027 23:28:09.074             0.219                Novosib             6.844
       122   01 Jun 2027 23:29:14.431   01 Jun 2027 23:29:43.530            29.099                Irkutsk           909.344
       123   01 Jun 2027 23:31:02.535   01 Jun 2027 23:31:06.755             4.220                Irkutsk           131.875
       124   01 Jun 2027 23:41:34.731   01 Jun 2027 23:43:39.887           125.156                Sumatra          3911.125
       125   02 Jun 2027 00:15:56.309   02 Jun 2027 00:16:07.741            11.432            RioGallegos           357.250
       126   02 Jun 2027 00:16:43.738   02 Jun 2027 00:17:21.272            37.534            RioGallegos          1172.937
       127   02 Jun 2027 00:17:56.137   02 Jun 2027 00:18:08.857            12.720            RioGallegos           397.500
       128   02 Jun 2027 00:46:33.414   02 Jun 2027 00:47:03.214            29.800                Anadyr2           931.250
       129   02 Jun 2027 00:47:38.589   02 Jun 2027 00:48:00.022            21.433                Anadyr1           669.781
       130   02 Jun 2027 00:48:25.964   02 Jun 2027 00:48:47.132            21.168                Anadyr2           661.500
       131   02 Jun 2027 00:49:00.919   02 Jun 2027 00:49:33.606            32.687                Anadyr1          1021.469
       132   02 Jun 2027 00:50:33.853   02 Jun 2027 00:52:18.121           104.268                Norilsk          3258.375
       133   02 Jun 2027 00:53:55.613   02 Jun 2027 00:54:31.780            36.167               Magadan1          1130.219
       134   02 Jun 2027 00:55:20.779   02 Jun 2027 00:55:28.237             7.458              Murmansk2           233.062
       135   02 Jun 2027 00:55:34.676   02 Jun 2027 00:56:17.409            42.733                Novosib          1335.406
       136   02 Jun 2027 00:59:09.099   02 Jun 2027 00:59:32.579            23.480                Novosib           733.750
       137   02 Jun 2027 01:00:02.411   02 Jun 2027 01:00:20.774            18.363                Novosib           573.844
       138   02 Jun 2027 01:01:25.842   02 Jun 2027 01:01:50.798            24.956                Novosib           779.875
       139   02 Jun 2027 01:03:08.193   02 Jun 2027 01:03:21.035            12.842                Irkutsk           401.312
       140   02 Jun 2027 01:03:26.846   02 Jun 2027 01:03:34.468             7.622                Novosib           238.188
       141   02 Jun 2027 01:04:02.825   02 Jun 2027 01:05:07.331            64.506                Novosib          2015.813
       142   02 Jun 2027 01:09:37.337   02 Jun 2027 01:10:05.438            28.101                  Delhi           878.156
       143   02 Jun 2027 01:12:01.639   02 Jun 2027 01:13:38.522            96.883                  Delhi          3027.594
       144   02 Jun 2027 01:48:49.575   02 Jun 2027 01:49:10.986            21.411            RioGallegos           669.094
       145   02 Jun 2027 01:49:27.358   02 Jun 2027 01:49:59.819            32.461            RioGallegos          1014.406
       146   02 Jun 2027 01:50:26.346   02 Jun 2027 01:51:15.120            48.774            RioGallegos          1524.187
       147   02 Jun 2027 02:22:51.920   02 Jun 2027 02:22:57.693             5.773                Anadyr2           180.406
       148   02 Jun 2027 02:23:15.306   02 Jun 2027 02:23:50.482            35.176                Anadyr1          1099.250
       149   02 Jun 2027 02:25:33.300   02 Jun 2027 02:25:55.572            22.272                Anadyr1           696.000
       150   02 Jun 2027 02:26:08.047   02 Jun 2027 02:26:27.803            19.756               Magadan2           617.375
       151   02 Jun 2027 02:27:15.294   02 Jun 2027 02:27:43.206            27.912                Norilsk           872.250
       152   02 Jun 2027 02:28:58.757   02 Jun 2027 02:29:26.527            27.770              Murmansk2           867.812
       153   02 Jun 2027 02:30:24.073   02 Jun 2027 02:30:35.532            11.459                Novosib           358.094
       154   02 Jun 2027 02:31:24.599   02 Jun 2027 02:31:50.406            25.807                Novosib           806.469
       155   02 Jun 2027 02:32:51.613   02 Jun 2027 02:33:21.471            29.858                Irkutsk           933.063
       156   02 Jun 2027 02:35:31.809   02 Jun 2027 02:35:57.100            25.291              Murmansk2           790.344
       157   02 Jun 2027 02:36:57.882   02 Jun 2027 02:37:02.262             4.380                Irkutsk           136.875
       158   02 Jun 2027 02:37:03.624   02 Jun 2027 02:37:22.798            19.174                Novosib           599.187
       159   02 Jun 2027 02:38:45.642   02 Jun 2027 02:38:49.609             3.967              Murmansk2           123.969
       160   02 Jun 2027 02:39:12.423   02 Jun 2027 02:39:45.668            33.245                Novosib          1038.906
       161   02 Jun 2027 02:41:05.991   02 Jun 2027 02:41:28.521            22.530                Novosib           704.063
       162   02 Jun 2027 02:43:49.667   02 Jun 2027 02:44:38.138            48.471                  Delhi          1514.719
       163   02 Jun 2027 02:47:50.509   02 Jun 2027 02:48:22.164            31.655                  Delhi           989.219
       164   02 Jun 2027 04:12:37.242   02 Jun 2027 04:13:22.639            45.397                Norilsk          1418.656
       165   02 Jun 2027 04:13:31.152   02 Jun 2027 04:13:38.885             7.733              Murmansk1           241.656
       166   02 Jun 2027 04:13:44.915   02 Jun 2027 04:14:40.680            55.765              Murmansk2          1742.656
       167   02 Jun 2027 04:15:04.227   02 Jun 2027 04:15:30.729            26.502              Murmansk2           828.187
       168   02 Jun 2027 04:16:00.089   02 Jun 2027 04:16:28.567            28.478              Murmansk2           889.938
       169   02 Jun 2027 04:16:40.659   02 Jun 2027 04:20:44.819           244.160                 Moscow          7630.000
       170   02 Jun 2027 04:44:34.396   02 Jun 2027 04:44:36.024             1.628               CapeTown            50.875
       171   02 Jun 2027 05:35:24.469   02 Jun 2027 05:36:22.258            57.789                Anadyr2          1805.906
       172   02 Jun 2027 05:36:22.258   02 Jun 2027 05:36:51.552            29.294                Anadyr1           915.438
       173   02 Jun 2027 05:37:18.341   02 Jun 2027 05:40:39.795           201.454                Anadyr1          6295.437
       174   02 Jun 2027 05:40:54.326   02 Jun 2027 05:40:59.360             5.034               Magadan1           157.313
       175   02 Jun 2027 05:41:05.000   02 Jun 2027 05:41:27.249            22.249                Anadyr2           695.281
       176   02 Jun 2027 05:48:08.373   02 Jun 2027 05:48:20.536            12.163                Norilsk           380.094
       177   02 Jun 2027 07:12:18.637   02 Jun 2027 07:14:11.278           112.641                Anadyr1          3520.031
       178   02 Jun 2027 07:14:21.492   02 Jun 2027 07:17:17.961           176.469                Anadyr1          5514.656
       179   02 Jun 2027 08:45:10.172   02 Jun 2027 08:46:34.260            84.088                Irkutsk          2627.750
       180   02 Jun 2027 08:46:52.802   02 Jun 2027 08:49:12.515           139.713               Magadan1          4366.031
       181   02 Jun 2027 08:49:12.515   02 Jun 2027 08:50:17.534            65.019               Magadan2          2031.844
       182   02 Jun 2027 08:50:19.077   02 Jun 2027 08:52:19.812           120.735                Anadyr2          3772.969
       183   02 Jun 2027 08:52:42.770   02 Jun 2027 08:52:46.032             3.262              Murmansk2           101.938
       184   02 Jun 2027 08:52:46.032   02 Jun 2027 08:53:11.285            25.253              Murmansk1           789.156
       185   02 Jun 2027 08:54:17.270   02 Jun 2027 08:54:31.953            14.683              Murmansk2           458.844
       186   02 Jun 2027 08:54:31.953   02 Jun 2027 08:55:27.544            55.591              Murmansk1          1737.219
       187   02 Jun 2027 09:28:02.407   02 Jun 2027 09:28:21.390            18.983            RioGallegos           593.219
       188   02 Jun 2027 09:29:03.281   02 Jun 2027 09:29:13.186             9.905            RioGallegos           309.531
       189   02 Jun 2027 09:30:35.635   02 Jun 2027 09:31:20.444            44.809            RioGallegos          1400.281
       190   02 Jun 2027 09:37:47.644   02 Jun 2027 09:37:55.460             7.816            RioGallegos           244.250
       191   02 Jun 2027 10:06:08.086   02 Jun 2027 10:07:33.308            85.222                Sumatra          2663.187
       192   02 Jun 2027 10:22:03.168   02 Jun 2027 10:22:11.348             8.180                Novosib           255.625
       193   02 Jun 2027 10:22:32.945   02 Jun 2027 10:22:36.440             3.495                Norilsk           109.219
       194   02 Jun 2027 10:22:49.191   02 Jun 2027 10:22:56.133             6.942                Irkutsk           216.938
       195   02 Jun 2027 10:22:57.872   02 Jun 2027 10:22:58.686             0.814                Novosib            25.437
       196   02 Jun 2027 10:23:15.319   02 Jun 2027 10:25:28.269           132.950               Magadan1          4154.687
       197   02 Jun 2027 10:25:43.167   02 Jun 2027 10:25:46.636             3.469                Norilsk           108.406
       198   02 Jun 2027 10:25:48.287   02 Jun 2027 10:25:49.574             1.287                Novosib            40.219
       199   02 Jun 2027 10:25:51.058   02 Jun 2027 10:26:10.432            19.374                Norilsk           605.437
       200   02 Jun 2027 10:26:16.770   02 Jun 2027 10:26:41.925            25.155                Novosib           786.094
       201   02 Jun 2027 10:26:43.782   02 Jun 2027 10:26:56.503            12.721                Norilsk           397.531
       202   02 Jun 2027 10:26:56.550   02 Jun 2027 10:27:10.420            13.870               Magadan1           433.437
       203   02 Jun 2027 10:27:16.406   02 Jun 2027 10:28:11.809            55.403              Murmansk1          1731.344
       204   02 Jun 2027 10:28:17.228   02 Jun 2027 10:29:25.547            68.319                Norilsk          2134.969
       205   02 Jun 2027 10:33:38.800   02 Jun 2027 10:33:44.428             5.628                Norilsk           175.875
       206   02 Jun 2027 11:03:41.426   02 Jun 2027 11:04:22.552            41.126            RioGallegos          1285.187
       207   02 Jun 2027 11:04:53.588   02 Jun 2027 11:05:28.293            34.705            RioGallegos          1084.531
       208   02 Jun 2027 11:38:17.623   02 Jun 2027 11:38:30.330            12.707                Sumatra           397.094
       209   02 Jun 2027 11:40:25.321   02 Jun 2027 11:40:59.263            33.942                Sumatra          1060.687
       210   02 Jun 2027 11:50:52.727   02 Jun 2027 11:51:27.494            34.767                  Delhi          1086.469
       211   02 Jun 2027 11:59:21.456   02 Jun 2027 12:00:19.270            57.814                Novosib          1806.688
       212   02 Jun 2027 12:00:50.847   02 Jun 2027 12:02:00.174            69.327                Irkutsk          2166.469
       213   02 Jun 2027 12:02:34.051   02 Jun 2027 12:02:51.032            16.981                Irkutsk           530.656
       214   02 Jun 2027 12:02:59.864   02 Jun 2027 12:04:21.748            81.884                Irkutsk          2558.875
       215   02 Jun 2027 12:07:56.616   02 Jun 2027 12:08:23.819            27.203                Norilsk           850.094
       216   02 Jun 2027 12:09:34.945   02 Jun 2027 12:09:40.961             6.016                Norilsk           188.000
       217   02 Jun 2027 12:10:39.128   02 Jun 2027 12:10:46.099             6.971              Murmansk2           217.844
       218   02 Jun 2027 12:11:10.210   02 Jun 2027 12:11:16.462             6.252              Murmansk1           195.375
       219   02 Jun 2027 12:44:19.632   02 Jun 2027 12:46:32.188           132.556            RioGallegos          4142.375
       220   02 Jun 2027 13:26:29.802   02 Jun 2027 13:27:10.555            40.753                  Delhi          1273.531
       221   02 Jun 2027 13:30:35.022   02 Jun 2027 13:30:47.999            12.977                Novosib           405.531
       222   02 Jun 2027 13:31:35.972   02 Jun 2027 13:32:16.230            40.258                Novosib          1258.062
       223   02 Jun 2027 13:32:37.767   02 Jun 2027 13:33:19.778            42.011                Novosib          1312.844
       224   02 Jun 2027 13:34:36.617   02 Jun 2027 13:35:16.116            39.499                Norilsk          1234.344
       225   02 Jun 2027 13:36:00.648   02 Jun 2027 13:37:40.365            99.717                Norilsk          3116.156
       226   02 Jun 2027 13:43:32.820   02 Jun 2027 13:43:44.871            12.051                Norilsk           376.594
       227   02 Jun 2027 13:43:56.186   02 Jun 2027 13:44:29.648            33.462                Norilsk          1045.687
       228   02 Jun 2027 15:06:53.157   02 Jun 2027 15:10:44.165           231.008                 Moscow          7219.000
       229   02 Jun 2027 15:11:52.697   02 Jun 2027 15:12:52.252            59.555              Murmansk2          1861.094
       230   02 Jun 2027 15:14:39.914   02 Jun 2027 15:17:46.347           186.433                Norilsk          5826.031
       231   02 Jun 2027 15:19:15.249   02 Jun 2027 15:19:22.823             7.574                Norilsk           236.688
       232   02 Jun 2027 16:25:13.668   02 Jun 2027 16:25:47.875            34.207               CapeTown          1068.969
       233   02 Jun 2027 16:30:36.176   02 Jun 2027 16:31:05.358            29.182               CapeTown           911.938
       234   02 Jun 2027 16:44:27.622   02 Jun 2027 16:45:03.813            36.191                 Moscow          1130.969
       235   02 Jun 2027 16:45:42.075   02 Jun 2027 16:46:11.096            29.021                 Moscow           906.906
       236   02 Jun 2027 16:47:31.614   02 Jun 2027 16:47:54.658            23.044              Murmansk1           720.125
       237   02 Jun 2027 16:49:39.917   02 Jun 2027 16:50:17.925            38.008              Murmansk2          1187.750
       238   02 Jun 2027 16:53:38.214   02 Jun 2027 16:54:20.127            41.913              Murmansk1          1309.781
       239   02 Jun 2027 17:01:20.648   02 Jun 2027 17:02:44.421            83.773                Anadyr2          2617.906
       240   02 Jun 2027 17:03:30.909   02 Jun 2027 17:04:06.721            35.812                Anadyr1          1119.125
       241   02 Jun 2027 17:06:54.341   02 Jun 2027 17:07:22.303            27.962                Anadyr2           873.813
       242   02 Jun 2027 17:09:36.044   02 Jun 2027 17:10:01.257            25.213                Anadyr1           787.906
       243   02 Jun 2027 17:58:28.547   02 Jun 2027 17:58:48.924            20.377               CapeTown           636.781
       244   02 Jun 2027 18:00:33.332   02 Jun 2027 18:01:15.147            41.815               CapeTown          1306.719
       245   02 Jun 2027 18:27:00.928   02 Jun 2027 18:31:15.177           254.249              Murmansk1          7945.281
       246   02 Jun 2027 18:31:20.519   02 Jun 2027 18:31:56.525            36.006              Murmansk2          1125.188
       247   02 Jun 2027 18:39:52.138   02 Jun 2027 18:39:55.009             2.871                Anadyr1            89.719
       248   02 Jun 2027 18:40:12.816   02 Jun 2027 18:41:00.334            47.518               Magadan1          1484.938
       249   02 Jun 2027 18:41:11.995   02 Jun 2027 18:41:52.761            40.766               Magadan1          1273.937
       250   02 Jun 2027 18:46:22.013   02 Jun 2027 18:46:36.802            14.789               Magadan2           462.156
       251   02 Jun 2027 20:12:52.242   02 Jun 2027 20:16:40.454           228.212                Anadyr1          7131.625
       252   02 Jun 2027 20:17:00.096   02 Jun 2027 20:19:34.420           154.324               Magadan1          4822.625
       253   02 Jun 2027 20:20:06.520   02 Jun 2027 20:20:27.071            20.551               Magadan1           642.219
       254   02 Jun 2027 20:23:26.473   02 Jun 2027 20:23:40.650            14.177               Magadan2           443.031
       255   02 Jun 2027 20:24:01.097   02 Jun 2027 20:25:08.877            67.780               Magadan2          2118.125
       256   02 Jun 2027 21:09:48.684   02 Jun 2027 21:11:48.048           119.364            RioGallegos          3730.125
       257   02 Jun 2027 21:48:42.957   02 Jun 2027 21:50:00.748            77.791                Anadyr2          2430.969
       258   02 Jun 2027 21:50:52.922   02 Jun 2027 21:52:22.437            89.515                Norilsk          2797.344
       259   02 Jun 2027 21:52:28.678   02 Jun 2027 21:53:28.187            59.509               Magadan2          1859.656
       260   02 Jun 2027 21:53:42.506   02 Jun 2027 21:54:10.766            28.260               Magadan2           883.125
       261   02 Jun 2027 21:56:01.609   02 Jun 2027 21:56:25.326            23.717                Irkutsk           741.156
       262   02 Jun 2027 21:57:21.689   02 Jun 2027 21:58:25.809            64.120                Irkutsk          2003.750
       263   02 Jun 2027 22:01:32.209   02 Jun 2027 22:01:45.062            12.853                Irkutsk           401.656
       264   02 Jun 2027 22:11:26.829   02 Jun 2027 22:13:09.864           103.035                Sumatra          3219.844
       265   02 Jun 2027 22:13:12.765   02 Jun 2027 22:13:17.439             4.674                Sumatra           146.063
       266   02 Jun 2027 22:14:29.386   02 Jun 2027 22:16:09.478           100.092                Sumatra          3127.875
       267   02 Jun 2027 23:24:03.851   02 Jun 2027 23:24:30.911            27.060                Anadyr2           845.625
       268   02 Jun 2027 23:24:48.566   02 Jun 2027 23:26:06.799            78.233                Anadyr1          2444.781
       269   02 Jun 2027 23:26:35.680   02 Jun 2027 23:27:07.536            31.856                Norilsk           995.500
       270   02 Jun 2027 23:27:11.896   02 Jun 2027 23:27:14.703             2.807               Magadan1            87.719
       271   02 Jun 2027 23:27:17.654   02 Jun 2027 23:28:01.551            43.897                Norilsk          1371.781
       272   02 Jun 2027 23:29:10.179   02 Jun 2027 23:29:15.124             4.945               Magadan1           154.531
       273   02 Jun 2027 23:29:50.171   02 Jun 2027 23:30:24.466            34.295               Magadan2          1071.719
       274   02 Jun 2027 23:31:20.619   02 Jun 2027 23:32:15.007            54.388                Novosib          1699.625
       275   02 Jun 2027 23:32:54.843   02 Jun 2027 23:33:08.714            13.871                Novosib           433.469
       276   02 Jun 2027 23:33:37.679   02 Jun 2027 23:34:48.369            70.690                Novosib          2209.063
       277   02 Jun 2027 23:42:41.080   02 Jun 2027 23:44:06.770            85.690                  Delhi          2677.812
       278   03 Jun 2027 00:22:42.399   03 Jun 2027 00:23:15.913            33.514            RioGallegos          1047.313
       279   03 Jun 2027 00:26:27.593   03 Jun 2027 00:27:33.096            65.503            RioGallegos          2046.969
       280   03 Jun 2027 00:58:17.826   03 Jun 2027 00:58:36.626            18.800                Anadyr2           587.500
       281   03 Jun 2027 00:59:12.238   03 Jun 2027 00:59:59.772            47.534                Anadyr1          1485.437
       282   03 Jun 2027 01:00:42.224   03 Jun 2027 01:00:45.138             2.914                Anadyr1            91.062
       283   03 Jun 2027 01:00:45.138   03 Jun 2027 01:00:52.097             6.959                Anadyr2           217.469
       284   03 Jun 2027 01:02:36.054   03 Jun 2027 01:04:19.355           103.301                Norilsk          3228.156
       285   03 Jun 2027 01:04:55.459   03 Jun 2027 01:05:24.732            29.273               Magadan1           914.781
       286   03 Jun 2027 01:05:43.391   03 Jun 2027 01:08:40.495           177.104              Murmansk2          5534.500
       287   03 Jun 2027 01:16:08.255   03 Jun 2027 01:16:41.461            33.206                  Delhi          1037.688
       288   03 Jun 2027 01:22:14.204   03 Jun 2027 01:22:26.513            12.309                  Delhi           384.656
       289   03 Jun 2027 01:23:19.917   03 Jun 2027 01:23:53.840            33.923                  Delhi          1060.094
       290   03 Jun 2027 01:55:28.923   03 Jun 2027 01:56:54.871            85.948            RioGallegos          2685.875
       291   03 Jun 2027 02:00:57.838   03 Jun 2027 02:01:00.932             3.094            RioGallegos            96.687
       292   03 Jun 2027 02:02:32.746   03 Jun 2027 02:03:01.637            28.891            RioGallegos           902.844
       293   03 Jun 2027 02:31:36.256   03 Jun 2027 02:32:00.814            24.558                Anadyr1           767.438
       294   03 Jun 2027 02:32:17.921   03 Jun 2027 02:32:34.124            16.203                Anadyr1           506.344
       295   03 Jun 2027 02:33:45.355   03 Jun 2027 02:34:04.527            19.172                Anadyr2           599.125
       296   03 Jun 2027 02:34:30.303   03 Jun 2027 02:34:35.910             5.607                Anadyr2           175.219
       297   03 Jun 2027 02:37:22.670   03 Jun 2027 02:37:41.087            18.417                Anadyr2           575.531
       298   03 Jun 2027 02:37:46.064   03 Jun 2027 02:38:24.165            38.101               Magadan2          1190.656
       299   03 Jun 2027 02:38:24.165   03 Jun 2027 02:38:36.171            12.006               Magadan1           375.188
       300   03 Jun 2027 02:39:08.114   03 Jun 2027 02:39:34.577            26.463                Norilsk           826.969
       301   03 Jun 2027 02:39:53.696   03 Jun 2027 02:40:08.383            14.687                Norilsk           458.969
       302   03 Jun 2027 02:40:47.099   03 Jun 2027 02:42:15.021            87.922              Murmansk1          2747.562
       303   03 Jun 2027 02:42:28.394   03 Jun 2027 02:42:32.902             4.508                Novosib           140.875
       304   03 Jun 2027 02:42:57.144   03 Jun 2027 02:43:29.520            32.376                Novosib          1011.750
       305   03 Jun 2027 02:45:54.730   03 Jun 2027 02:46:49.782            55.052                Irkutsk          1720.375
       306   03 Jun 2027 02:52:16.334   03 Jun 2027 02:53:43.950            87.616                  Delhi          2738.000
       307   03 Jun 2027 04:23:59.361   03 Jun 2027 04:24:38.981            39.620                Novosib          1238.125
       308   03 Jun 2027 04:26:08.741   03 Jun 2027 04:26:30.751            22.010              Murmansk1           687.812
       309   03 Jun 2027 04:26:54.187   03 Jun 2027 04:27:34.696            40.509              Murmansk2          1265.906
       310   03 Jun 2027 04:28:15.764   03 Jun 2027 04:28:21.229             5.465              Murmansk1           170.781
       311   03 Jun 2027 04:28:52.827   03 Jun 2027 04:29:05.729            12.902                 Moscow           403.188
       312   03 Jun 2027 04:29:31.100   03 Jun 2027 04:30:45.745            74.645                 Moscow          2332.656
       313   03 Jun 2027 05:47:37.597   03 Jun 2027 05:49:43.990           126.393                Anadyr1          3949.781
       314   03 Jun 2027 05:49:48.021   03 Jun 2027 05:50:56.473            68.452               Magadan2          2139.125
       315   03 Jun 2027 05:51:21.865   03 Jun 2027 05:51:45.117            23.252                Anadyr1           726.625
       316   03 Jun 2027 07:23:48.321   03 Jun 2027 07:23:56.855             8.534               Magadan2           266.687
       317   03 Jun 2027 07:23:57.909   03 Jun 2027 07:24:31.913            34.004                Anadyr1          1062.625
       318   03 Jun 2027 07:24:31.913   03 Jun 2027 07:25:37.207            65.294                Anadyr2          2040.437
       319   03 Jun 2027 07:25:46.587   03 Jun 2027 07:26:58.304            71.717               Magadan1          2241.156
       320   03 Jun 2027 07:32:49.010   03 Jun 2027 07:32:49.847             0.837                 Moscow            26.156
       321   03 Jun 2027 07:34:22.751   03 Jun 2027 07:34:34.227            11.476                 Moscow           358.625
       322   03 Jun 2027 08:07:17.790   03 Jun 2027 08:07:23.934             6.144            RioGallegos           192.000
       323   03 Jun 2027 08:08:54.072   03 Jun 2027 08:09:18.325            24.253            RioGallegos           757.906
       324   03 Jun 2027 08:12:06.721   03 Jun 2027 08:12:19.687            12.966            RioGallegos           405.187
       325   03 Jun 2027 08:57:30.282   03 Jun 2027 08:57:50.023            19.741               Magadan2           616.906
       326   03 Jun 2027 08:58:01.051   03 Jun 2027 08:58:12.977            11.926                Norilsk           372.688
       327   03 Jun 2027 08:58:21.734   03 Jun 2027 08:58:28.113             6.379               Magadan2           199.344
       328   03 Jun 2027 08:58:34.262   03 Jun 2027 08:58:48.255            13.993               Magadan1           437.281
       329   03 Jun 2027 08:59:27.396   03 Jun 2027 09:00:01.301            33.905               Magadan1          1059.531
       330   03 Jun 2027 09:00:01.301   03 Jun 2027 09:01:11.931            70.630               Magadan2          2207.187
       331   03 Jun 2027 09:01:57.499   03 Jun 2027 09:02:27.554            30.055                Norilsk           939.219
       332   03 Jun 2027 09:02:38.638   03 Jun 2027 09:02:47.866             9.228                Irkutsk           288.375
       333   03 Jun 2027 09:02:57.518   03 Jun 2027 09:03:25.248            27.730                Anadyr2           866.562
       334   03 Jun 2027 09:03:26.960   03 Jun 2027 09:03:40.706            13.746                Novosib           429.563
       335   03 Jun 2027 09:03:41.173   03 Jun 2027 09:04:33.185            52.012              Murmansk2          1625.375
       336   03 Jun 2027 09:04:42.901   03 Jun 2027 09:04:43.821             0.920              Murmansk1            28.750
       337   03 Jun 2027 09:04:45.352   03 Jun 2027 09:05:16.550            31.198                Novosib           974.938
       338   03 Jun 2027 09:07:57.336   03 Jun 2027 09:07:58.658             1.322              Murmansk1            41.313
       339   03 Jun 2027 09:09:26.820   03 Jun 2027 09:09:43.237            16.417              Murmansk1           513.031
       340   03 Jun 2027 09:39:50.440   03 Jun 2027 09:40:48.563            58.123            RioGallegos          1816.344
       341   03 Jun 2027 09:45:26.541   03 Jun 2027 09:45:32.980             6.439            RioGallegos           201.219
       342   03 Jun 2027 09:45:37.284   03 Jun 2027 09:45:47.432            10.148            RioGallegos           317.125
       343   03 Jun 2027 10:16:54.475   03 Jun 2027 10:18:41.762           107.287                Sumatra          3352.719
       344   03 Jun 2027 10:33:55.983   03 Jun 2027 10:34:00.345             4.362                Novosib           136.312
       345   03 Jun 2027 10:34:00.663   03 Jun 2027 10:34:36.737            36.074                Irkutsk          1127.312
       346   03 Jun 2027 10:34:38.754   03 Jun 2027 10:35:22.278            43.524                Norilsk          1360.125
       347   03 Jun 2027 10:35:41.550   03 Jun 2027 10:36:14.396            32.846                Irkutsk          1026.437
       348   03 Jun 2027 10:36:22.040   03 Jun 2027 10:36:25.440             3.400                Novosib           106.250
       349   03 Jun 2027 10:36:38.898   03 Jun 2027 10:37:30.428            51.530                Norilsk          1610.313
       350   03 Jun 2027 10:37:52.988   03 Jun 2027 10:37:58.702             5.714                Norilsk           178.563
       351   03 Jun 2027 10:38:04.551   03 Jun 2027 10:38:18.879            14.328                Norilsk           447.750
       352   03 Jun 2027 10:38:38.087   03 Jun 2027 10:38:46.033             7.946                Irkutsk           248.312
       353   03 Jun 2027 10:38:47.004   03 Jun 2027 10:38:51.937             4.933                Norilsk           154.156
       354   03 Jun 2027 10:39:07.319   03 Jun 2027 10:39:09.149             1.830              Murmansk2            57.187
       355   03 Jun 2027 10:39:10.512   03 Jun 2027 10:39:54.461            43.949                Norilsk          1373.406
       356   03 Jun 2027 10:39:57.976   03 Jun 2027 10:40:06.666             8.690                Irkutsk           271.563
       357   03 Jun 2027 10:40:07.368   03 Jun 2027 10:41:10.505            63.137              Murmansk2          1973.031
       358   03 Jun 2027 11:15:56.797   03 Jun 2027 11:16:34.213            37.416            RioGallegos          1169.250
       359   03 Jun 2027 11:50:23.911   03 Jun 2027 11:51:03.945            40.034                Sumatra          1251.063
       360   03 Jun 2027 11:55:17.616   03 Jun 2027 11:56:09.934            52.318                Sumatra          1634.937
       361   03 Jun 2027 12:05:05.107   03 Jun 2027 12:05:25.954            20.847                Irkutsk           651.469
       362   03 Jun 2027 12:05:28.291   03 Jun 2027 12:05:53.612            25.321                Irkutsk           791.281
       363   03 Jun 2027 12:09:03.577   03 Jun 2027 12:09:58.008            54.431                Norilsk          1700.969
       364   03 Jun 2027 12:13:25.947   03 Jun 2027 12:13:46.048            20.101                Norilsk           628.156
       365   03 Jun 2027 12:15:36.645   03 Jun 2027 12:15:43.517             6.872              Murmansk2           214.750
       366   03 Jun 2027 12:16:01.308   03 Jun 2027 12:16:16.260            14.952              Murmansk2           467.250
       367   03 Jun 2027 12:17:48.301   03 Jun 2027 12:18:10.088            21.787              Murmansk1           680.844
       368   03 Jun 2027 12:21:34.938   03 Jun 2027 12:21:44.330             9.392                Norilsk           293.500
       369   03 Jun 2027 12:22:39.080   03 Jun 2027 12:23:17.514            38.434              Murmansk2          1201.062
       370   03 Jun 2027 12:58:38.564   03 Jun 2027 12:59:54.071            75.507            RioGallegos          2359.594
       371   03 Jun 2027 13:34:57.040   03 Jun 2027 13:35:15.111            18.071                  Delhi           564.719
       372   03 Jun 2027 13:41:04.012   03 Jun 2027 13:42:39.471            95.459                  Delhi          2983.094
       373   03 Jun 2027 13:43:03.401   03 Jun 2027 13:43:46.672            43.271                Novosib          1352.219
       374   03 Jun 2027 13:44:09.973   03 Jun 2027 13:45:19.870            69.897                Novosib          2184.281
       375   03 Jun 2027 13:46:37.019   03 Jun 2027 13:48:12.935            95.916                Novosib          2997.375
       376   03 Jun 2027 13:55:52.487   03 Jun 2027 13:56:46.564            54.077                Norilsk          1689.906
       377   03 Jun 2027 15:18:55.505   03 Jun 2027 15:21:57.515           182.010                 Moscow          5687.813
       378   03 Jun 2027 15:22:13.426   03 Jun 2027 15:22:48.378            34.952                 Moscow          1092.250
       379   03 Jun 2027 15:23:49.498   03 Jun 2027 15:25:34.258           104.760              Murmansk2          3273.750
       380   03 Jun 2027 15:27:28.000   03 Jun 2027 15:29:44.072           136.072                Norilsk          4252.250
       381   03 Jun 2027 15:31:00.251   03 Jun 2027 15:31:55.922            55.671                Norilsk          1739.719
       382   03 Jun 2027 16:57:00.157   03 Jun 2027 16:57:31.838            31.681                 Moscow           990.031
       383   03 Jun 2027 16:58:14.219   03 Jun 2027 16:58:17.393             3.174                 Moscow            99.187
       384   03 Jun 2027 16:59:51.363   03 Jun 2027 17:00:46.624            55.261              Murmansk2          1726.906
       385   03 Jun 2027 17:01:44.073   03 Jun 2027 17:02:22.792            38.719              Murmansk1          1209.969
       386   03 Jun 2027 17:03:46.017   03 Jun 2027 17:05:24.579            98.562              Murmansk1          3080.062
       387   03 Jun 2027 17:13:16.967   03 Jun 2027 17:14:31.417            74.450                Anadyr1          2326.563
       388   03 Jun 2027 17:22:06.787   03 Jun 2027 17:22:28.436            21.649                Anadyr2           676.531
       389   03 Jun 2027 18:09:29.345   03 Jun 2027 18:10:06.132            36.787               CapeTown          1149.594
       390   03 Jun 2027 18:17:41.928   03 Jun 2027 18:18:19.194            37.266               CapeTown          1164.562
       391   03 Jun 2027 18:39:43.335   03 Jun 2027 18:41:46.145           122.810              Murmansk1          3837.813
       392   03 Jun 2027 18:43:07.225   03 Jun 2027 18:44:33.175            85.950              Murmansk1          2685.938
       393   03 Jun 2027 18:50:12.806   03 Jun 2027 18:51:05.937            53.131                Anadyr1          1660.344
       394   03 Jun 2027 18:51:59.728   03 Jun 2027 18:53:02.958            63.230               Magadan1          1975.937
       395   03 Jun 2027 18:57:15.448   03 Jun 2027 18:57:38.051            22.603               Magadan2           706.344
       396   03 Jun 2027 18:57:38.051   03 Jun 2027 18:58:10.614            32.563               Magadan1          1017.594
       397   03 Jun 2027 20:24:53.826   03 Jun 2027 20:26:31.107            97.281                Anadyr2          3040.031
       398   03 Jun 2027 20:26:58.555   03 Jun 2027 20:28:37.784            99.229                Anadyr1          3100.906
       399   03 Jun 2027 20:28:48.883   03 Jun 2027 20:31:02.633           133.750               Magadan2          4179.688
       400   03 Jun 2027 20:31:55.798   03 Jun 2027 20:32:37.845            42.047               Magadan2          1313.969
       401   03 Jun 2027 20:34:32.852   03 Jun 2027 20:35:12.249            39.397               Magadan1          1231.156
       402   03 Jun 2027 21:20:49.019   03 Jun 2027 21:23:27.249           158.230            RioGallegos          4944.688
       403   03 Jun 2027 21:25:43.554   03 Jun 2027 21:26:09.615            26.061            RioGallegos           814.406
       404   03 Jun 2027 22:00:42.454   03 Jun 2027 22:02:12.531            90.077                Anadyr2          2814.906
       405   03 Jun 2027 22:02:29.787   03 Jun 2027 22:03:09.453            39.666                Anadyr2          1239.563
       406   03 Jun 2027 22:03:11.871   03 Jun 2027 22:04:36.900            85.029               Magadan2          2657.156
       407   03 Jun 2027 22:05:24.317   03 Jun 2027 22:05:38.007            13.690               Magadan2           427.813
       408   03 Jun 2027 22:06:02.367   03 Jun 2027 22:06:03.507             1.140               Magadan2            35.625
       409   03 Jun 2027 22:06:10.209   03 Jun 2027 22:06:28.782            18.573                Norilsk           580.406
       410   03 Jun 2027 22:07:40.286   03 Jun 2027 22:08:22.533            42.247                Irkutsk          1320.219
       411   03 Jun 2027 22:09:51.997   03 Jun 2027 22:10:29.344            37.347                Irkutsk          1167.094
       412   03 Jun 2027 22:22:27.977   03 Jun 2027 22:22:32.150             4.173                Sumatra           130.406
       413   03 Jun 2027 22:24:07.184   03 Jun 2027 22:24:50.927            43.743                Sumatra          1366.969
       414   03 Jun 2027 22:25:14.923   03 Jun 2027 22:26:16.052            61.129                Sumatra          1910.281
       415   03 Jun 2027 22:27:58.341   03 Jun 2027 22:27:59.734             1.393                Sumatra            43.531
       416   03 Jun 2027 22:28:42.533   03 Jun 2027 22:30:04.021            81.488                Sumatra          2546.500
       417   03 Jun 2027 23:35:56.953   03 Jun 2027 23:36:27.889            30.936                Anadyr1           966.750
       418   03 Jun 2027 23:38:07.824   03 Jun 2027 23:38:29.426            21.602                Anadyr2           675.062
       419   03 Jun 2027 23:38:37.528   03 Jun 2027 23:39:21.220            43.692                Norilsk          1365.375
       420   03 Jun 2027 23:39:28.022   03 Jun 2027 23:40:55.629            87.607               Magadan2          2737.719
       421   03 Jun 2027 23:40:55.629   03 Jun 2027 23:40:59.980             4.351               Magadan1           135.969
       422   03 Jun 2027 23:42:32.067   03 Jun 2027 23:44:52.293           140.226                Irkutsk          4382.062
       423   03 Jun 2027 23:45:06.153   03 Jun 2027 23:45:36.474            30.321                Novosib           947.531
       424   03 Jun 2027 23:52:31.463   03 Jun 2027 23:52:37.782             6.319                Novosib           197.469
       425   03 Jun 2027 23:52:41.728   03 Jun 2027 23:52:47.887             6.159                Novosib           192.469
       426   03 Jun 2027 23:54:21.328   03 Jun 2027 23:54:46.350            25.022                  Delhi           781.938
       427   03 Jun 2027 23:55:21.867   03 Jun 2027 23:57:43.467           141.600                  Delhi          4425.000
       428   04 Jun 2027 01:10:01.219   04 Jun 2027 01:10:30.990            29.771                Anadyr2           930.344
       429   04 Jun 2027 01:10:30.990   04 Jun 2027 01:10:37.788             6.798                Anadyr1           212.438
       430   04 Jun 2027 01:11:23.498   04 Jun 2027 01:12:19.590            56.092                Anadyr2          1752.875
       431   04 Jun 2027 01:12:37.400   04 Jun 2027 01:12:38.725             1.325                Anadyr1            41.406
       432   04 Jun 2027 01:14:38.194   04 Jun 2027 01:14:56.071            17.877                Norilsk           558.656
       433   04 Jun 2027 01:15:13.457   04 Jun 2027 01:16:45.266            91.809               Magadan2          2869.031
       434   04 Jun 2027 01:16:54.794   04 Jun 2027 01:17:03.385             8.591               Magadan2           268.469
       435   04 Jun 2027 01:17:28.120   04 Jun 2027 01:18:36.379            68.259              Murmansk1          2133.094
       436   04 Jun 2027 01:18:37.859   04 Jun 2027 01:20:31.491           113.632              Murmansk2          3551.000
       437   04 Jun 2027 01:26:07.775   04 Jun 2027 01:26:11.453             3.678                Irkutsk           114.938
       438   04 Jun 2027 01:28:08.172   04 Jun 2027 01:28:32.742            24.570                  Delhi           767.812
       439   04 Jun 2027 01:32:30.415   04 Jun 2027 01:32:43.408            12.993                  Delhi           406.031
       440   04 Jun 2027 01:34:17.455   04 Jun 2027 01:34:40.869            23.414                  Delhi           731.687
       441   04 Jun 2027 02:07:47.363   04 Jun 2027 02:09:45.785           118.422            RioGallegos          3700.687
       442   04 Jun 2027 02:12:24.204   04 Jun 2027 02:12:41.281            17.077            RioGallegos           533.656
       443   04 Jun 2027 02:43:18.133   04 Jun 2027 02:43:42.902            24.769                Anadyr1           774.031
       444   04 Jun 2027 02:45:31.511   04 Jun 2027 02:45:45.917            14.406                Anadyr2           450.188
       445   04 Jun 2027 02:46:32.909   04 Jun 2027 02:46:39.184             6.275                Anadyr1           196.094
       446   04 Jun 2027 02:47:53.268   04 Jun 2027 02:48:41.385            48.117                Anadyr2          1503.656
       447   04 Jun 2027 02:49:20.183   04 Jun 2027 02:50:04.771            44.588               Magadan1          1393.375
       448   04 Jun 2027 02:50:33.345   04 Jun 2027 02:50:38.007             4.662                Norilsk           145.688
       449   04 Jun 2027 02:51:42.250   04 Jun 2027 02:51:46.202             3.952                Norilsk           123.500
       450   04 Jun 2027 02:52:01.413   04 Jun 2027 02:52:12.673            11.260                Norilsk           351.875
       451   04 Jun 2027 02:52:47.603   04 Jun 2027 02:54:26.549            98.946              Murmansk2          3092.063
       452   04 Jun 2027 02:56:10.172   04 Jun 2027 02:56:42.082            31.910                Irkutsk           997.187
       453   04 Jun 2027 02:56:58.684   04 Jun 2027 02:57:11.921            13.237                Irkutsk           413.656
       454   04 Jun 2027 02:58:55.912   04 Jun 2027 02:59:14.728            18.816                Irkutsk           588.000
       455   04 Jun 2027 03:00:18.674   04 Jun 2027 03:00:44.340            25.666              Murmansk2           802.063
       456   04 Jun 2027 03:01:30.914   04 Jun 2027 03:02:11.750            40.836              Murmansk2          1276.125
       457   04 Jun 2027 03:02:37.232   04 Jun 2027 03:03:33.140            55.908                 Moscow          1747.125
       458   04 Jun 2027 03:03:50.244   04 Jun 2027 03:04:09.797            19.553                  Delhi           611.031
       459   04 Jun 2027 03:04:32.967   04 Jun 2027 03:05:14.934            41.967                Novosib          1311.469
       460   04 Jun 2027 04:31:21.220   04 Jun 2027 04:31:21.491             0.271                Novosib             8.469
       461   04 Jun 2027 04:31:35.711   04 Jun 2027 04:31:52.152            16.441                Novosib           513.781
       462   04 Jun 2027 04:37:25.997   04 Jun 2027 04:37:29.787             3.790              Murmansk1           118.437
       463   04 Jun 2027 04:37:29.787   04 Jun 2027 04:38:38.880            69.093              Murmansk2          2159.156
       464   04 Jun 2027 04:38:43.415   04 Jun 2027 04:40:02.809            79.394              Murmansk1          2481.063
       465   04 Jun 2027 05:59:20.912   04 Jun 2027 06:00:54.981            94.069               Magadan2          2939.656
       466   04 Jun 2027 06:01:17.178   04 Jun 2027 06:01:38.724            21.546               Magadan1           673.312
       467   04 Jun 2027 07:35:05.018   04 Jun 2027 07:35:21.411            16.393                Anadyr1           512.281
       468   04 Jun 2027 07:35:25.305   04 Jun 2027 07:35:28.976             3.671               Magadan2           114.719
       469   04 Jun 2027 07:35:35.098   04 Jun 2027 07:35:52.153            17.055                Anadyr2           532.969
       470   04 Jun 2027 07:36:09.113   04 Jun 2027 07:36:21.041            11.928               Magadan1           372.750
       471   04 Jun 2027 07:36:21.041   04 Jun 2027 07:36:40.934            19.893               Magadan2           621.656
       472   04 Jun 2027 07:36:41.605   04 Jun 2027 07:37:37.242            55.637                Anadyr1          1738.656
       473   04 Jun 2027 07:37:48.505   04 Jun 2027 07:38:58.017            69.512               Magadan2          2172.250
       474   04 Jun 2027 07:46:05.130   04 Jun 2027 07:46:30.869            25.739                 Moscow           804.344
       475   04 Jun 2027 08:20:44.491   04 Jun 2027 08:21:10.609            26.118            RioGallegos           816.187
       476   04 Jun 2027 09:09:30.576   04 Jun 2027 09:10:52.034            81.458               Magadan1          2545.562
       477   04 Jun 2027 09:11:29.444   04 Jun 2027 09:11:34.760             5.316               Magadan1           166.125
       478   04 Jun 2027 09:11:53.790   04 Jun 2027 09:14:09.528           135.738                Anadyr1          4241.813
       479   04 Jun 2027 09:14:26.879   04 Jun 2027 09:14:45.663            18.784                Norilsk           587.000
       480   04 Jun 2027 09:15:12.600   04 Jun 2027 09:15:24.945            12.345                Anadyr1           385.781
       481   04 Jun 2027 09:15:27.901   04 Jun 2027 09:15:45.142            17.241               Magadan1           538.781
       482   04 Jun 2027 09:15:45.142   04 Jun 2027 09:16:17.993            32.851               Magadan2          1026.594
