uniorb/output/strategy_2/Drop/Drop_KinoSat_110806.txt

KinoSat_110806
-------------------------
    Access    *     Start Time (UTCG)     *     Stop Time (UTCG)  *   Duration (s)        *       Station  *  Data (Mbytes)
         1   01 Jun 2027 03:26:29.602   01 Jun 2027 03:26:58.066            28.464                Anadyr2           889.500
         2   01 Jun 2027 03:27:10.338   01 Jun 2027 03:28:29.002            78.664                Anadyr1          2458.250
         3   01 Jun 2027 03:29:44.832   01 Jun 2027 03:30:10.100            25.268               Magadan1           789.625
         4   01 Jun 2027 03:30:23.975   01 Jun 2027 03:31:42.269            78.294               Magadan1          2446.687
         5   01 Jun 2027 03:32:10.499   01 Jun 2027 03:32:17.979             7.480               Magadan1           233.750
         6   01 Jun 2027 05:05:14.206   01 Jun 2027 05:05:56.761            42.555                Irkutsk          1329.844
         7   01 Jun 2027 06:38:06.601   01 Jun 2027 06:38:28.852            22.251                Novosib           695.344
         8   01 Jun 2027 06:39:35.042   01 Jun 2027 06:40:06.680            31.638                Irkutsk           988.688
         9   01 Jun 2027 06:41:21.261   01 Jun 2027 06:42:02.990            41.729                Novosib          1304.031
        10   01 Jun 2027 06:42:21.336   01 Jun 2027 06:43:53.970            92.634                Irkutsk          2894.813
        11   01 Jun 2027 06:44:09.549   01 Jun 2027 06:45:24.125            74.576                Norilsk          2330.500
        12   01 Jun 2027 06:45:25.266   01 Jun 2027 06:46:54.789            89.523              Murmansk1          2797.594
        13   01 Jun 2027 06:48:20.128   01 Jun 2027 06:48:42.291            22.163                Norilsk           692.594
        14   01 Jun 2027 06:48:45.139   01 Jun 2027 06:50:41.469           116.330              Murmansk1          3635.312
        15   01 Jun 2027 06:52:42.413   01 Jun 2027 06:52:44.777             2.364              Murmansk2            73.875
        16   01 Jun 2027 07:18:38.460   01 Jun 2027 07:23:04.852           266.392            RioGallegos          8324.750
        17   01 Jun 2027 07:24:10.229   01 Jun 2027 07:24:15.721             5.492            RioGallegos           171.625
        18   01 Jun 2027 07:24:23.292   01 Jun 2027 07:24:42.982            19.690            RioGallegos           615.313
        19   01 Jun 2027 07:27:12.850   01 Jun 2027 07:27:25.728            12.878            RioGallegos           402.437
        20   01 Jun 2027 07:27:28.334   01 Jun 2027 07:28:15.144            46.810            RioGallegos          1462.812
        21   01 Jun 2027 07:53:58.520   01 Jun 2027 07:55:17.642            79.122                Sumatra          2472.563
        22   01 Jun 2027 08:06:41.087   01 Jun 2027 08:07:51.432            70.345                  Delhi          2198.281
        23   01 Jun 2027 08:10:00.117   01 Jun 2027 08:10:44.356            44.239                  Delhi          1382.469
        24   01 Jun 2027 08:15:53.806   01 Jun 2027 08:19:05.629           191.823                Irkutsk          5994.469
        25   01 Jun 2027 08:24:40.508   01 Jun 2027 08:24:55.877            15.369                Norilsk           480.281
        26   01 Jun 2027 09:30:51.777   01 Jun 2027 09:31:00.491             8.714                Sumatra           272.312
        27   01 Jun 2027 09:33:36.856   01 Jun 2027 09:34:09.194            32.338                Sumatra          1010.562
        28   01 Jun 2027 09:35:18.025   01 Jun 2027 09:35:25.853             7.828                Sumatra           244.625
        29   01 Jun 2027 09:39:46.689   01 Jun 2027 09:40:11.273            24.584                Sumatra           768.250
        30   01 Jun 2027 09:41:27.493   01 Jun 2027 09:42:04.132            36.639                  Delhi          1144.969
        31   01 Jun 2027 09:53:51.756   01 Jun 2027 09:55:54.414           122.658              Murmansk2          3833.062
        32   01 Jun 2027 09:56:24.011   01 Jun 2027 09:56:34.681            10.670              Murmansk2           333.437
        33   01 Jun 2027 09:56:40.810   01 Jun 2027 09:57:15.720            34.910              Murmansk2          1090.937
        34   01 Jun 2027 09:57:34.429   01 Jun 2027 09:57:47.779            13.350                 Moscow           417.187
        35   01 Jun 2027 11:16:17.539   01 Jun 2027 11:18:16.285           118.746                  Delhi          3710.813
        36   01 Jun 2027 11:19:14.288   01 Jun 2027 11:20:08.808            54.520                  Delhi          1703.750
        37   01 Jun 2027 11:28:08.630   01 Jun 2027 11:28:35.465            26.835                 Moscow           838.594
        38   01 Jun 2027 11:28:41.615   01 Jun 2027 11:28:51.278             9.663                Novosib           301.969
        39   01 Jun 2027 11:28:51.780   01 Jun 2027 11:30:09.102            77.322              Murmansk2          2416.313
        40   01 Jun 2027 11:30:09.102   01 Jun 2027 11:30:31.229            22.127              Murmansk1           691.469
        41   01 Jun 2027 11:30:32.678   01 Jun 2027 11:30:58.835            26.157              Murmansk1           817.406
        42   01 Jun 2027 11:31:11.089   01 Jun 2027 11:31:36.717            25.628                Novosib           800.875
        43   01 Jun 2027 11:31:49.339   01 Jun 2027 11:33:04.289            74.950              Murmansk2          2342.187
        44   01 Jun 2027 11:33:07.796   01 Jun 2027 11:33:55.317            47.521              Murmansk1          1485.031
        45   01 Jun 2027 12:38:52.549   01 Jun 2027 12:40:54.123           121.574               CapeTown          3799.187
        46   01 Jun 2027 12:58:35.359   01 Jun 2027 12:59:36.064            60.705                 Moscow          1897.031
        47   01 Jun 2027 13:01:15.864   01 Jun 2027 13:01:54.805            38.941                 Moscow          1216.906
        48   01 Jun 2027 13:02:02.658   01 Jun 2027 13:03:03.995            61.337              Murmansk2          1916.781
        49   01 Jun 2027 13:03:42.323   01 Jun 2027 13:05:20.079            97.756              Murmansk1          3054.875
        50   01 Jun 2027 13:17:10.677   01 Jun 2027 13:23:29.519           378.842                Anadyr1         11838.813
        51   01 Jun 2027 14:40:29.075   01 Jun 2027 14:41:10.741            41.666              Murmansk1          1302.062
        52   01 Jun 2027 14:42:22.099   01 Jun 2027 14:42:38.717            16.618              Murmansk2           519.312
        53   01 Jun 2027 14:52:16.873   01 Jun 2027 14:54:53.202           156.329                Anadyr2          4885.281
        54   01 Jun 2027 14:55:29.603   01 Jun 2027 14:56:02.498            32.895                Anadyr2          1027.969
        55   01 Jun 2027 14:57:45.665   01 Jun 2027 14:59:42.794           117.129               Magadan1          3660.281
        56   01 Jun 2027 16:22:42.229   01 Jun 2027 16:22:56.171            13.942              Murmansk2           435.687
        57   01 Jun 2027 16:23:52.716   01 Jun 2027 16:24:16.849            24.133              Murmansk1           754.156
        58   01 Jun 2027 16:28:07.599   01 Jun 2027 16:30:29.991           142.392                Anadyr1          4449.750
        59   01 Jun 2027 16:30:40.338   01 Jun 2027 16:35:42.887           302.549               Magadan1          9454.656
        60   01 Jun 2027 18:04:01.944   01 Jun 2027 18:07:25.273           203.329                Anadyr1          6354.031
        61   01 Jun 2027 18:08:00.486   01 Jun 2027 18:08:38.373            37.887               Magadan1          1183.969
        62   01 Jun 2027 18:08:38.373   01 Jun 2027 18:10:14.257            95.884               Magadan2          2996.375
        63   01 Jun 2027 18:58:32.286   01 Jun 2027 19:02:15.258           222.972            RioGallegos          6967.875
        64   01 Jun 2027 19:02:33.828   01 Jun 2027 19:02:38.265             4.437            RioGallegos           138.656
        65   01 Jun 2027 19:41:53.873   01 Jun 2027 19:43:38.211           104.338                Norilsk          3260.563
        66   01 Jun 2027 19:44:07.257   01 Jun 2027 19:45:07.679            60.422               Magadan1          1888.187
        67   01 Jun 2027 19:46:05.392   01 Jun 2027 19:47:33.648            88.256                Irkutsk          2758.000
        68   01 Jun 2027 19:48:11.537   01 Jun 2027 19:50:54.679           163.142                Novosib          5098.187
        69   01 Jun 2027 19:54:13.513   01 Jun 2027 19:54:31.134            17.621                Irkutsk           550.656
        70   01 Jun 2027 19:59:51.216   01 Jun 2027 20:00:46.263            55.047                Sumatra          1720.219
        71   01 Jun 2027 20:01:10.107   01 Jun 2027 20:02:29.083            78.976                Sumatra          2468.000
        72   01 Jun 2027 20:03:45.498   01 Jun 2027 20:04:11.822            26.324                Sumatra           822.625
        73   01 Jun 2027 20:11:29.139   01 Jun 2027 20:12:13.244            44.105                Sumatra          1378.281
        74   01 Jun 2027 21:20:17.424   01 Jun 2027 21:20:34.119            16.695                Norilsk           521.719
        75   01 Jun 2027 21:20:39.893   01 Jun 2027 21:20:49.527             9.634                Norilsk           301.063
        76   01 Jun 2027 21:21:10.380   01 Jun 2027 21:22:13.862            63.482               Magadan2          1983.812
        77   01 Jun 2027 21:22:26.531   01 Jun 2027 21:23:51.345            84.814                Novosib          2650.438
        78   01 Jun 2027 21:24:11.468   01 Jun 2027 21:24:52.912            41.444                Novosib          1295.125
        79   01 Jun 2027 21:27:30.904   01 Jun 2027 21:28:42.588            71.684                Novosib          2240.125
        80   01 Jun 2027 21:29:40.556   01 Jun 2027 21:32:42.171           181.615                  Delhi          5675.469
        81   01 Jun 2027 22:53:56.328   01 Jun 2027 22:55:52.647           116.319               Magadan1          3634.969
        82   01 Jun 2027 22:56:12.855   01 Jun 2027 23:00:15.911           243.056              Murmansk1          7595.500
        83   01 Jun 2027 23:01:08.390   01 Jun 2027 23:07:01.183           352.793                 Moscow         11024.781
        84   02 Jun 2027 00:31:57.321   02 Jun 2027 00:33:31.918            94.597              Murmansk2          2956.156
        85   02 Jun 2027 00:33:58.259   02 Jun 2027 00:36:23.198           144.939                Novosib          4529.344
        86   02 Jun 2027 00:39:02.624   02 Jun 2027 00:39:23.305            20.681                 Moscow           646.281
        87   02 Jun 2027 00:42:30.581   02 Jun 2027 00:43:04.686            34.105              Murmansk2          1065.781
        88   02 Jun 2027 00:46:52.401   02 Jun 2027 00:47:32.824            40.423                 Moscow          1263.219
        89   02 Jun 2027 00:59:40.739   02 Jun 2027 01:00:18.399            37.660               CapeTown          1176.875
        90   02 Jun 2027 01:01:38.001   02 Jun 2027 01:03:17.117            99.116               CapeTown          3097.375
        91   02 Jun 2027 01:57:25.308   02 Jun 2027 01:57:51.684            26.376                Anadyr1           824.250
        92   02 Jun 2027 01:58:19.548   02 Jun 2027 01:58:25.059             5.511               Magadan2           172.219
        93   02 Jun 2027 01:58:30.133   02 Jun 2027 02:00:04.962            94.829               Magadan1          2963.406
        94   02 Jun 2027 02:03:20.201   02 Jun 2027 02:03:50.159            29.958               Magadan1           936.187
        95   02 Jun 2027 02:06:19.074   02 Jun 2027 02:06:39.824            20.750               Magadan2           648.437
        96   02 Jun 2027 02:07:55.391   02 Jun 2027 02:09:06.512            71.121              Murmansk1          2222.531
        97   02 Jun 2027 02:09:36.496   02 Jun 2027 02:09:58.170            21.674              Murmansk2           677.312
        98   02 Jun 2027 02:10:43.177   02 Jun 2027 02:11:08.290            25.113              Murmansk2           784.781
        99   02 Jun 2027 02:11:27.167   02 Jun 2027 02:11:38.239            11.072                 Moscow           346.000
       100   02 Jun 2027 02:12:34.352   02 Jun 2027 02:14:10.482            96.130                 Moscow          3004.062
       101   02 Jun 2027 02:21:23.179   02 Jun 2027 02:21:50.200            27.021                 Moscow           844.406
       102   02 Jun 2027 02:37:44.573   02 Jun 2027 02:39:20.511            95.938               CapeTown          2998.062
       103   02 Jun 2027 03:37:45.226   02 Jun 2027 03:37:53.566             8.340               Magadan2           260.625
       104   02 Jun 2027 03:37:59.913   02 Jun 2027 03:39:06.556            66.643               Magadan2          2082.594
       105   02 Jun 2027 03:39:06.556   02 Jun 2027 03:39:52.294            45.738               Magadan1          1429.313
       106   02 Jun 2027 03:40:29.782   02 Jun 2027 03:40:59.013            29.231                Anadyr1           913.469
       107   02 Jun 2027 03:41:11.127   02 Jun 2027 03:42:02.808            51.681               Magadan1          1615.031
       108   02 Jun 2027 03:42:16.975   02 Jun 2027 03:44:37.758           140.783                Anadyr2          4399.469
       109   02 Jun 2027 04:25:27.908   02 Jun 2027 04:27:19.534           111.626            RioGallegos          3488.313
       110   02 Jun 2027 05:15:41.489   02 Jun 2027 05:18:09.867           148.378                Anadyr1          4636.812
       111   02 Jun 2027 05:18:09.867   02 Jun 2027 05:18:30.890            21.023                Anadyr2           656.969
       112   02 Jun 2027 05:18:43.599   02 Jun 2027 05:19:39.423            55.824               Magadan1          1744.500
       113   02 Jun 2027 06:48:21.980   02 Jun 2027 06:49:56.460            94.480                Novosib          2952.500
       114   02 Jun 2027 06:52:45.363   02 Jun 2027 06:53:09.241            23.878                Novosib           746.187
       115   02 Jun 2027 06:53:43.532   02 Jun 2027 06:54:56.508            72.976                Irkutsk          2280.500
       116   02 Jun 2027 06:55:08.961   02 Jun 2027 06:56:12.969            64.008              Murmansk2          2000.250
       117   02 Jun 2027 06:56:19.138   02 Jun 2027 06:56:20.455             1.317                Norilsk            41.156
       118   02 Jun 2027 06:56:23.697   02 Jun 2027 06:57:09.731            46.034                Novosib          1438.563
       119   02 Jun 2027 06:57:13.550   02 Jun 2027 06:57:46.871            33.321                Norilsk          1041.281
       120   02 Jun 2027 07:00:01.044   02 Jun 2027 07:01:03.650            62.606                Norilsk          1956.438
       121   02 Jun 2027 07:30:41.515   02 Jun 2027 07:30:46.388             4.873            RioGallegos           152.281
       122   02 Jun 2027 07:32:26.230   02 Jun 2027 07:32:33.311             7.081            RioGallegos           221.281
       123   02 Jun 2027 07:32:42.266   02 Jun 2027 07:33:09.713            27.447            RioGallegos           857.719
       124   02 Jun 2027 07:33:57.106   02 Jun 2027 07:35:18.654            81.548            RioGallegos          2548.375
       125   02 Jun 2027 08:05:45.486   02 Jun 2027 08:07:00.874            75.388                Sumatra          2355.875
       126   02 Jun 2027 08:08:35.596   02 Jun 2027 08:09:20.215            44.619                Sumatra          1394.344
       127   02 Jun 2027 08:17:21.534   02 Jun 2027 08:19:17.935           116.401                  Delhi          3637.531
       128   02 Jun 2027 08:22:21.048   02 Jun 2027 08:24:23.917           122.869                  Delhi          3839.656
       129   02 Jun 2027 08:27:54.430   02 Jun 2027 08:28:21.394            26.964                Irkutsk           842.625
       130   02 Jun 2027 08:28:23.103   02 Jun 2027 08:28:27.940             4.837                Norilsk           151.156
       131   02 Jun 2027 08:28:31.853   02 Jun 2027 08:28:39.488             7.635              Murmansk1           238.594
       132   02 Jun 2027 08:28:39.488   02 Jun 2027 08:29:45.949            66.461              Murmansk2          2076.906
       133   02 Jun 2027 08:29:47.304   02 Jun 2027 08:30:34.628            47.324              Murmansk2          1478.875
       134   02 Jun 2027 08:30:43.800   02 Jun 2027 08:30:48.203             4.403                Norilsk           137.594
       135   02 Jun 2027 08:31:05.529   02 Jun 2027 08:33:14.867           129.338                 Moscow          4041.812
       136   02 Jun 2027 09:09:25.927   02 Jun 2027 09:09:38.737            12.810            RioGallegos           400.313
       137   02 Jun 2027 09:11:14.436   02 Jun 2027 09:11:34.989            20.553            RioGallegos           642.281
       138   02 Jun 2027 09:43:42.118   02 Jun 2027 09:45:17.244            95.126                Sumatra          2972.687
       139   02 Jun 2027 09:49:46.483   02 Jun 2027 09:49:57.081            10.598                  Delhi           331.187
       140   02 Jun 2027 10:03:13.615   02 Jun 2027 10:03:18.478             4.863                 Moscow           151.969
       141   02 Jun 2027 10:03:51.302   02 Jun 2027 10:05:00.148            68.846                Novosib          2151.438
       142   02 Jun 2027 10:05:09.477   02 Jun 2027 10:05:14.663             5.186              Murmansk1           162.063
       143   02 Jun 2027 10:05:21.156   02 Jun 2027 10:06:32.530            71.374                Novosib          2230.437
       144   02 Jun 2027 10:06:39.347   02 Jun 2027 10:07:11.298            31.951                Norilsk           998.469
       145   02 Jun 2027 10:07:16.739   02 Jun 2027 10:07:26.406             9.667                Novosib           302.094
       146   02 Jun 2027 10:07:39.976   02 Jun 2027 10:08:41.060            61.084                 Moscow          1908.875
       147   02 Jun 2027 11:29:37.754   02 Jun 2027 11:32:15.263           157.509                  Delhi          4922.156
       148   02 Jun 2027 11:36:53.205   02 Jun 2027 11:37:27.636            34.431                 Moscow          1075.969
       149   02 Jun 2027 11:37:36.688   02 Jun 2027 11:37:43.858             7.170              Murmansk2           224.062
       150   02 Jun 2027 11:38:04.469   02 Jun 2027 11:38:15.295            10.826                Novosib           338.312
       151   02 Jun 2027 11:38:39.949   02 Jun 2027 11:38:47.570             7.621                 Moscow           238.156
       152   02 Jun 2027 11:38:50.916   02 Jun 2027 11:39:13.817            22.901              Murmansk2           715.656
       153   02 Jun 2027 11:39:28.054   02 Jun 2027 11:39:44.877            16.823              Murmansk2           525.719
       154   02 Jun 2027 11:39:52.242   02 Jun 2027 11:40:49.237            56.995              Murmansk2          1781.094
       155   02 Jun 2027 11:40:57.857   02 Jun 2027 11:41:45.047            47.190              Murmansk2          1474.688
       156   02 Jun 2027 11:41:51.319   02 Jun 2027 11:42:31.430            40.111              Murmansk1          1253.469
       157   02 Jun 2027 11:42:46.020   02 Jun 2027 11:42:55.755             9.735                Novosib           304.219
       158   02 Jun 2027 11:42:58.021   02 Jun 2027 11:43:08.900            10.879                Norilsk           339.969
       159   02 Jun 2027 11:43:10.561   02 Jun 2027 11:43:49.293            38.732              Murmansk1          1210.375
       160   02 Jun 2027 11:43:49.894   02 Jun 2027 11:44:21.325            31.431                 Moscow           982.219
       161   02 Jun 2027 11:44:29.304   02 Jun 2027 11:45:03.762            34.458              Murmansk2          1076.812
       162   02 Jun 2027 11:45:47.510   02 Jun 2027 11:46:28.235            40.725              Murmansk2          1272.656
       163   02 Jun 2027 12:49:52.004   02 Jun 2027 12:52:34.047           162.043               CapeTown          5063.844
       164   02 Jun 2027 12:55:50.985   02 Jun 2027 12:57:46.963           115.978               CapeTown          3624.313
       165   02 Jun 2027 13:14:15.488   02 Jun 2027 13:14:43.619            28.131              Murmansk1           879.094
       166   02 Jun 2027 13:14:46.633   02 Jun 2027 13:15:08.584            21.951              Murmansk2           685.969
       167   02 Jun 2027 13:15:29.788   02 Jun 2027 13:15:47.874            18.086              Murmansk1           565.188
       168   02 Jun 2027 13:16:29.145   02 Jun 2027 13:16:55.814            26.669              Murmansk1           833.406
       169   02 Jun 2027 13:26:04.292   02 Jun 2027 13:26:31.567            27.275              Murmansk1           852.344
       170   02 Jun 2027 13:28:58.767   02 Jun 2027 13:32:46.840           228.073                Anadyr1          7127.281
       171   02 Jun 2027 13:32:56.594   02 Jun 2027 13:34:30.234            93.640                Anadyr2          2926.250
       172   02 Jun 2027 14:54:23.349   02 Jun 2027 14:55:32.840            69.491              Murmansk2          2171.594
       173   02 Jun 2027 15:02:01.165   02 Jun 2027 15:02:19.870            18.705              Murmansk1           584.531
       174   02 Jun 2027 15:04:16.565   02 Jun 2027 15:05:20.489            63.924                Anadyr2          1997.625
       175   02 Jun 2027 15:05:20.489   02 Jun 2027 15:06:01.009            40.520                Anadyr1          1266.250
       176   02 Jun 2027 15:06:38.582   02 Jun 2027 15:06:51.075            12.493                Anadyr2           390.406
       177   02 Jun 2027 15:07:04.000   02 Jun 2027 15:07:30.939            26.939                Anadyr2           841.844
       178   02 Jun 2027 15:08:34.219   02 Jun 2027 15:13:32.649           298.430               Magadan1          9325.938
       179   02 Jun 2027 16:40:08.967   02 Jun 2027 16:40:56.141            47.174                Anadyr1          1474.188
       180   02 Jun 2027 16:41:02.691   02 Jun 2027 16:41:47.021            44.330                Anadyr1          1385.312
       181   02 Jun 2027 16:42:36.949   02 Jun 2027 16:44:44.329           127.380               Magadan1          3980.625
       182   02 Jun 2027 16:45:23.355   02 Jun 2027 16:45:33.257             9.902               Magadan2           309.438
       183   02 Jun 2027 16:47:28.065   02 Jun 2027 16:47:55.027            26.962               Magadan1           842.562
       184   02 Jun 2027 18:16:02.355   02 Jun 2027 18:19:26.759           204.404                Anadyr2          6387.625
       185   02 Jun 2027 18:19:48.839   02 Jun 2027 18:21:37.049           108.210               Magadan2          3381.562
       186   02 Jun 2027 18:21:39.399   02 Jun 2027 18:21:46.981             7.582               Magadan1           236.937
       187   02 Jun 2027 18:22:06.802   02 Jun 2027 18:22:20.645            13.843                Norilsk           432.594
       188   02 Jun 2027 18:25:16.155   02 Jun 2027 18:27:51.739           155.584                Irkutsk          4862.000
       189   02 Jun 2027 19:10:21.689   02 Jun 2027 19:11:38.145            76.456            RioGallegos          2389.250
       190   02 Jun 2027 19:11:57.365   02 Jun 2027 19:13:08.991            71.626            RioGallegos          2238.312
       191   02 Jun 2027 19:54:24.350   02 Jun 2027 19:55:08.031            43.681               Magadan2          1365.031
       192   02 Jun 2027 19:55:08.031   02 Jun 2027 19:55:36.860            28.829               Magadan1           900.906
       193   02 Jun 2027 19:56:06.198   02 Jun 2027 19:56:59.750            53.552               Magadan1          1673.500
       194   02 Jun 2027 19:58:19.729   02 Jun 2027 19:59:22.755            63.026                Irkutsk          1969.563
       195   02 Jun 2027 19:59:30.848   02 Jun 2027 20:02:41.096           190.248                Novosib          5945.250
       196   02 Jun 2027 20:03:48.151   02 Jun 2027 20:05:31.306           103.155                Novosib          3223.594
       197   02 Jun 2027 20:12:49.793   02 Jun 2027 20:14:07.515            77.722                Sumatra          2428.812
       198   02 Jun 2027 20:14:40.541   02 Jun 2027 20:15:12.420            31.879                Sumatra           996.219
       199   02 Jun 2027 21:33:10.762   02 Jun 2027 21:33:22.076            11.314                Norilsk           353.563
       200   02 Jun 2027 21:33:44.745   02 Jun 2027 21:34:01.311            16.566                Irkutsk           517.688
       201   02 Jun 2027 21:34:10.911   02 Jun 2027 21:35:51.757           100.846                Novosib          3151.438
       202   02 Jun 2027 21:40:30.817   02 Jun 2027 21:41:07.254            36.437                Novosib          1138.656
       203   02 Jun 2027 21:41:25.345   02 Jun 2027 21:44:59.923           214.578                  Delhi          6705.563
       204   02 Jun 2027 23:05:44.246   02 Jun 2027 23:06:21.853            37.607               Magadan1          1175.219
       205   02 Jun 2027 23:08:10.589   02 Jun 2027 23:10:14.366           123.777              Murmansk2          3868.031
       206   02 Jun 2027 23:10:56.025   02 Jun 2027 23:13:05.439           129.414              Murmansk1          4044.188
       207   02 Jun 2027 23:14:11.203   02 Jun 2027 23:17:38.883           207.680                 Moscow          6490.000
       208   03 Jun 2027 00:37:56.220   03 Jun 2027 00:38:10.802            14.582               Magadan1           455.688
       209   03 Jun 2027 00:38:50.980   03 Jun 2027 00:39:07.114            16.134               Magadan2           504.187
       210   03 Jun 2027 00:39:14.387   03 Jun 2027 00:39:57.956            43.569               Magadan1          1361.531
       211   03 Jun 2027 00:41:40.235   03 Jun 2027 00:41:49.480             9.245               Magadan2           288.906
       212   03 Jun 2027 00:43:11.186   03 Jun 2027 00:44:07.503            56.317               Magadan2          1759.906
       213   03 Jun 2027 00:44:24.482   03 Jun 2027 00:45:31.313            66.831              Murmansk2          2088.469
       214   03 Jun 2027 00:46:09.549   03 Jun 2027 00:46:49.468            39.919              Murmansk1          1247.469
       215   03 Jun 2027 00:47:17.525   03 Jun 2027 00:49:20.858           123.333                 Moscow          3854.156
       216   03 Jun 2027 00:58:51.944   03 Jun 2027 00:58:57.049             5.105                 Moscow           159.531
       217   03 Jun 2027 00:59:45.974   03 Jun 2027 00:59:52.551             6.577                 Moscow           205.531
       218   03 Jun 2027 01:11:25.334   03 Jun 2027 01:13:02.050            96.716               CapeTown          3022.375
       219   03 Jun 2027 01:22:30.145   03 Jun 2027 01:22:36.719             6.574               CapeTown           205.437
       220   03 Jun 2027 02:07:50.980   03 Jun 2027 02:08:14.649            23.669                Anadyr2           739.656
       221   03 Jun 2027 02:08:14.649   03 Jun 2027 02:08:49.111            34.462                Anadyr1          1076.938
       222   03 Jun 2027 02:09:56.067   03 Jun 2027 02:11:06.685            70.618               Magadan1          2206.812
       223   03 Jun 2027 02:12:06.626   03 Jun 2027 02:12:26.647            20.021               Magadan1           625.656
       224   03 Jun 2027 02:12:58.261   03 Jun 2027 02:13:12.794            14.533               Magadan1           454.156
       225   03 Jun 2027 02:14:55.700   03 Jun 2027 02:15:21.739            26.039               Magadan1           813.719
       226   03 Jun 2027 02:19:01.978   03 Jun 2027 02:19:10.156             8.178               Magadan2           255.563
       227   03 Jun 2027 02:19:56.870   03 Jun 2027 02:20:59.289            62.419              Murmansk1          1950.594
       228   03 Jun 2027 02:21:00.940   03 Jun 2027 02:21:23.652            22.712              Murmansk1           709.750
       229   03 Jun 2027 02:23:07.704   03 Jun 2027 02:24:06.183            58.479              Murmansk2          1827.469
       230   03 Jun 2027 02:26:00.149   03 Jun 2027 02:26:01.309             1.160                 Moscow            36.250
       231   03 Jun 2027 02:27:08.739   03 Jun 2027 02:27:32.139            23.400                 Moscow           731.250
       232   03 Jun 2027 02:31:50.467   03 Jun 2027 02:32:03.600            13.133                 Moscow           410.406
       233   03 Jun 2027 02:33:32.732   03 Jun 2027 02:34:35.345            62.613                 Moscow          1956.656
       234   03 Jun 2027 02:53:59.945   03 Jun 2027 02:54:16.255            16.310               CapeTown           509.688
       235   03 Jun 2027 02:57:26.077   03 Jun 2027 02:58:12.292            46.215               CapeTown          1444.219
       236   03 Jun 2027 03:48:42.146   03 Jun 2027 03:48:55.888            13.742               Magadan2           429.438
       237   03 Jun 2027 03:50:57.621   03 Jun 2027 03:52:30.813            93.192                Anadyr2          2912.250
       238   03 Jun 2027 03:52:30.813   03 Jun 2027 03:52:35.745             4.932                Anadyr1           154.125
       239   03 Jun 2027 03:52:55.102   03 Jun 2027 03:53:09.658            14.556                Anadyr1           454.875
       240   03 Jun 2027 03:54:01.521   03 Jun 2027 03:55:14.905            73.384               Magadan2          2293.250
       241   03 Jun 2027 03:55:20.242   03 Jun 2027 03:56:37.806            77.564                Anadyr2          2423.875
       242   03 Jun 2027 04:36:24.125   03 Jun 2027 04:39:58.175           214.050            RioGallegos          6689.063
       243   03 Jun 2027 05:25:51.254   03 Jun 2027 05:26:22.457            31.203                Anadyr2           975.094
       244   03 Jun 2027 05:26:40.187   03 Jun 2027 05:27:00.055            19.868               Magadan1           620.875
       245   03 Jun 2027 05:27:16.696   03 Jun 2027 05:28:26.599            69.903                Anadyr2          2184.469
       246   03 Jun 2027 05:28:26.599   03 Jun 2027 05:29:48.056            81.457                Anadyr1          2545.531
       247   03 Jun 2027 05:30:00.370   03 Jun 2027 05:30:31.088            30.718               Magadan1           959.938
       248   03 Jun 2027 05:30:36.155   03 Jun 2027 05:31:06.975            30.820               Magadan1           963.125
       249   03 Jun 2027 05:31:40.680   03 Jun 2027 05:31:53.030            12.350                Norilsk           385.937
       250   03 Jun 2027 05:31:56.422   03 Jun 2027 05:32:12.632            16.210               Magadan1           506.562
       251   03 Jun 2027 05:35:48.571   03 Jun 2027 05:37:11.960            83.389                Norilsk          2605.906
       252   03 Jun 2027 06:07:42.587   03 Jun 2027 06:08:56.429            73.842            RioGallegos          2307.562
       253   03 Jun 2027 06:09:19.735   03 Jun 2027 06:09:48.954            29.219            RioGallegos           913.094
       254   03 Jun 2027 06:10:14.614   03 Jun 2027 06:10:31.295            16.681            RioGallegos           521.281
       255   03 Jun 2027 06:10:41.710   03 Jun 2027 06:11:11.017            29.307            RioGallegos           915.844
       256   03 Jun 2027 06:11:58.981   03 Jun 2027 06:13:17.137            78.156            RioGallegos          2442.375
       257   03 Jun 2027 07:01:14.917   03 Jun 2027 07:02:27.963            73.046                Irkutsk          2282.687
       258   03 Jun 2027 07:02:40.943   03 Jun 2027 07:02:54.280            13.337                Irkutsk           416.781
       259   03 Jun 2027 07:03:12.362   03 Jun 2027 07:03:20.500             8.138               Magadan2           254.312
       260   03 Jun 2027 07:03:29.182   03 Jun 2027 07:03:31.530             2.348                Norilsk            73.375
       261   03 Jun 2027 07:03:32.278   03 Jun 2027 07:03:35.401             3.123               Magadan1            97.594
       262   03 Jun 2027 07:03:42.742   03 Jun 2027 07:04:11.045            28.303                Norilsk           884.469
       263   03 Jun 2027 07:04:34.375   03 Jun 2027 07:05:43.594            69.219               Magadan2          2163.094
       264   03 Jun 2027 07:05:48.315   03 Jun 2027 07:06:56.000            67.685                Irkutsk          2115.156
       265   03 Jun 2027 07:06:57.308   03 Jun 2027 07:07:11.735            14.427              Murmansk2           450.844
       266   03 Jun 2027 07:07:11.735   03 Jun 2027 07:07:41.557            29.822              Murmansk1           931.937
       267   03 Jun 2027 07:08:05.058   03 Jun 2027 07:08:11.826             6.768              Murmansk1           211.500
       268   03 Jun 2027 07:09:01.031   03 Jun 2027 07:09:18.084            17.053              Murmansk2           532.906
       269   03 Jun 2027 07:09:18.084   03 Jun 2027 07:09:29.764            11.680              Murmansk1           365.000
       270   03 Jun 2027 07:10:36.683   03 Jun 2027 07:10:59.262            22.579              Murmansk1           705.594
       271   03 Jun 2027 07:14:27.985   03 Jun 2027 07:14:35.702             7.717              Murmansk1           241.156
       272   03 Jun 2027 07:42:48.024   03 Jun 2027 07:43:24.832            36.808            RioGallegos          1150.250
       273   03 Jun 2027 07:44:17.365   03 Jun 2027 07:44:24.389             7.024            RioGallegos           219.500
       274   03 Jun 2027 08:17:38.473   03 Jun 2027 08:18:36.659            58.186                Sumatra          1818.313
       275   03 Jun 2027 08:20:00.634   03 Jun 2027 08:20:13.310            12.676                Sumatra           396.125
       276   03 Jun 2027 08:20:43.998   03 Jun 2027 08:20:50.007             6.009                Sumatra           187.781
       277   03 Jun 2027 08:24:42.568   03 Jun 2027 08:25:53.910            71.342                Sumatra          2229.438
       278   03 Jun 2027 08:28:25.623   03 Jun 2027 08:29:14.411            48.788                  Delhi          1524.625
       279   03 Jun 2027 08:29:35.175   03 Jun 2027 08:30:52.050            76.875                  Delhi          2402.344
       280   03 Jun 2027 08:38:28.663   03 Jun 2027 08:38:32.095             3.432                Irkutsk           107.250
       281   03 Jun 2027 08:39:04.889   03 Jun 2027 08:39:08.500             3.611                Norilsk           112.844
       282   03 Jun 2027 08:39:16.273   03 Jun 2027 08:39:23.479             7.206                Norilsk           225.188
       283   03 Jun 2027 08:39:46.963   03 Jun 2027 08:40:16.387            29.424                Norilsk           919.500
       284   03 Jun 2027 08:40:34.735   03 Jun 2027 08:40:37.443             2.708                Norilsk            84.625
       285   03 Jun 2027 08:40:42.764   03 Jun 2027 08:41:11.635            28.871                Irkutsk           902.219
       286   03 Jun 2027 08:41:21.726   03 Jun 2027 08:41:25.817             4.091                Irkutsk           127.844
       287   03 Jun 2027 08:41:30.121   03 Jun 2027 08:41:37.653             7.532                Novosib           235.375
       288   03 Jun 2027 08:41:37.772   03 Jun 2027 08:41:42.323             4.551              Murmansk2           142.219
       289   03 Jun 2027 08:41:42.323   03 Jun 2027 08:42:27.032            44.709              Murmansk1          1397.156
       290   03 Jun 2027 08:42:29.516   03 Jun 2027 08:42:50.608            21.092                 Moscow           659.125
       291   03 Jun 2027 08:42:54.111   03 Jun 2027 08:43:14.519            20.408                Irkutsk           637.750
       292   03 Jun 2027 08:43:20.600   03 Jun 2027 08:43:48.119            27.519                Irkutsk           859.969
       293   03 Jun 2027 08:43:49.584   03 Jun 2027 08:44:02.526            12.942              Murmansk2           404.437
       294   03 Jun 2027 08:44:29.850   03 Jun 2027 08:45:24.152            54.302              Murmansk1          1696.937
       295   03 Jun 2027 09:22:11.412   03 Jun 2027 09:23:09.823            58.411            RioGallegos          1825.344
       296   03 Jun 2027 09:57:06.212   03 Jun 2027 09:57:54.552            48.340                Sumatra          1510.625
       297   03 Jun 2027 09:59:54.968   03 Jun 2027 10:00:11.891            16.923                Sumatra           528.844
       298   03 Jun 2027 10:01:49.184   03 Jun 2027 10:02:34.488            45.304                  Delhi          1415.750
       299   03 Jun 2027 10:15:56.834   03 Jun 2027 10:16:42.665            45.831              Murmansk1          1432.219
       300   03 Jun 2027 10:16:52.590   03 Jun 2027 10:17:00.127             7.537                Norilsk           235.531
       301   03 Jun 2027 10:17:05.645   03 Jun 2027 10:17:20.116            14.471                Novosib           452.219
       302   03 Jun 2027 10:17:36.350   03 Jun 2027 10:18:08.492            32.142              Murmansk1          1004.437
       303   03 Jun 2027 10:18:14.433   03 Jun 2027 10:18:46.539            32.106                 Moscow          1003.312
       304   03 Jun 2027 10:18:52.725   03 Jun 2027 10:18:56.092             3.367                Novosib           105.219
       305   03 Jun 2027 10:18:56.529   03 Jun 2027 10:19:06.887            10.358                Novosib           323.687
       306   03 Jun 2027 10:19:10.602   03 Jun 2027 10:19:23.245            12.643                Norilsk           395.094
       307   03 Jun 2027 10:19:29.561   03 Jun 2027 10:19:56.125            26.564              Murmansk2           830.125
       308   03 Jun 2027 10:20:14.024   03 Jun 2027 10:21:21.545            67.521                 Moscow          2110.031
       309   03 Jun 2027 11:49:32.478   03 Jun 2027 11:49:33.600             1.122                 Moscow            35.062
       310   03 Jun 2027 11:49:37.718   03 Jun 2027 11:49:45.678             7.960              Murmansk1           248.750
       311   03 Jun 2027 11:49:45.678   03 Jun 2027 11:50:29.567            43.889              Murmansk2          1371.531
       312   03 Jun 2027 11:50:40.304   03 Jun 2027 11:50:44.117             3.813              Murmansk2           119.156
       313   03 Jun 2027 11:50:44.117   03 Jun 2027 11:50:47.439             3.322              Murmansk1           103.813
       314   03 Jun 2027 11:50:49.761   03 Jun 2027 11:50:52.275             2.514                 Moscow            78.563
       315   03 Jun 2027 11:51:14.734   03 Jun 2027 11:51:53.907            39.173              Murmansk2          1224.156
       316   03 Jun 2027 11:52:03.277   03 Jun 2027 11:53:40.636            97.359                 Moscow          3042.469
       317   03 Jun 2027 11:53:49.264   03 Jun 2027 11:54:52.276            63.012              Murmansk1          1969.125
       318   03 Jun 2027 11:54:58.118   03 Jun 2027 11:55:12.410            14.292                 Moscow           446.625
       319   03 Jun 2027 11:55:26.670   03 Jun 2027 11:56:41.958            75.288                Norilsk          2352.750
       320   03 Jun 2027 12:00:49.780   03 Jun 2027 12:00:54.000             4.220              Murmansk1           131.875
       321   03 Jun 2027 12:01:20.436   03 Jun 2027 12:02:20.416            59.980              Murmansk2          1874.375
       322   03 Jun 2027 13:02:21.334   03 Jun 2027 13:06:06.891           225.557               CapeTown          7048.656
       323   03 Jun 2027 13:08:05.689   03 Jun 2027 13:08:27.385            21.696               CapeTown           678.000
       324   03 Jun 2027 13:26:30.250   03 Jun 2027 13:28:16.263           106.013              Murmansk2          3312.906
       325   03 Jun 2027 13:28:30.105   03 Jun 2027 13:28:57.351            27.246              Murmansk1           851.437
       326   03 Jun 2027 13:30:39.128   03 Jun 2027 13:31:26.560            47.432              Murmansk1          1482.250
       327   03 Jun 2027 13:34:27.612   03 Jun 2027 13:35:05.754            38.142              Murmansk1          1191.937
       328   03 Jun 2027 13:37:07.598   03 Jun 2027 13:37:22.399            14.801              Murmansk1           462.531
       329   03 Jun 2027 13:40:50.234   03 Jun 2027 13:44:08.280           198.046                Anadyr1          6188.938
       330   03 Jun 2027 13:47:56.021   03 Jun 2027 13:48:08.107            12.086                Anadyr2           377.687
       331   03 Jun 2027 15:05:34.104   03 Jun 2027 15:07:44.618           130.514              Murmansk2          4078.562
       332   03 Jun 2027 15:12:06.116   03 Jun 2027 15:12:22.072            15.956              Murmansk1           498.625
       333   03 Jun 2027 15:14:03.073   03 Jun 2027 15:14:17.638            14.565              Murmansk1           455.156
       334   03 Jun 2027 15:16:16.668   03 Jun 2027 15:17:58.145           101.477                Anadyr1          3171.156
       335   03 Jun 2027 15:18:27.516   03 Jun 2027 15:18:48.252            20.736                Anadyr2           648.000
       336   03 Jun 2027 15:19:04.436   03 Jun 2027 15:19:26.385            21.949                Anadyr1           685.906
       337   03 Jun 2027 15:20:01.405   03 Jun 2027 15:23:21.769           200.364               Magadan2          6261.375
       338   03 Jun 2027 15:23:36.449   03 Jun 2027 15:26:10.210           153.761               Magadan1          4805.031
       339   03 Jun 2027 16:54:34.593   03 Jun 2027 16:56:19.706           105.113               Magadan2          3284.781
       340   03 Jun 2027 16:56:57.544   03 Jun 2027 16:57:26.030            28.486               Magadan2           890.188
       341   03 Jun 2027 17:02:19.454   03 Jun 2027 17:02:31.559            12.105               Magadan1           378.281
       342   03 Jun 2027 17:06:14.741   03 Jun 2027 17:06:30.276            15.535               Magadan2           485.469
       343   03 Jun 2027 18:28:02.458   03 Jun 2027 18:29:37.461            95.003                Anadyr1          2968.844
       344   03 Jun 2027 18:29:47.445   03 Jun 2027 18:31:28.285           100.840                Anadyr2          3151.250
       345   03 Jun 2027 18:31:35.117   03 Jun 2027 18:33:14.112            98.995               Magadan1          3093.594
       346   03 Jun 2027 18:33:17.236   03 Jun 2027 18:34:18.037            60.801                Norilsk          1900.031
       347   03 Jun 2027 18:35:46.582   03 Jun 2027 18:36:19.205            32.623                Norilsk          1019.469
       348   03 Jun 2027 18:36:46.360   03 Jun 2027 18:38:58.116           131.756                Irkutsk          4117.375
       349   03 Jun 2027 18:39:50.159   03 Jun 2027 18:41:40.933           110.774                Irkutsk          3461.687
       350   03 Jun 2027 18:53:23.558   03 Jun 2027 18:55:40.961           137.403                Sumatra          4293.844
       351   03 Jun 2027 20:08:20.464   03 Jun 2027 20:08:52.402            31.938                Norilsk           998.063
       352   03 Jun 2027 20:09:56.137   03 Jun 2027 20:11:56.466           120.329                Irkutsk          3760.281
       353   03 Jun 2027 20:12:41.035   03 Jun 2027 20:14:30.884           109.849                Novosib          3432.781
       354   03 Jun 2027 20:17:35.454   03 Jun 2027 20:17:45.677            10.223                Novosib           319.469
       355   03 Jun 2027 20:23:37.098   03 Jun 2027 20:24:52.540            75.442                Sumatra          2357.562
       356   03 Jun 2027 20:33:12.305   03 Jun 2027 20:33:39.679            27.374                Sumatra           855.438
       357   03 Jun 2027 21:42:29.753   03 Jun 2027 21:43:29.079            59.326               Magadan2          1853.937
       358   03 Jun 2027 21:43:54.967   03 Jun 2027 21:43:59.008             4.041               Magadan2           126.281
       359   03 Jun 2027 21:45:46.464   03 Jun 2027 21:47:09.429            82.965                Novosib          2592.656
       360   03 Jun 2027 21:47:30.186   03 Jun 2027 21:47:42.796            12.610              Murmansk2           394.062
       361   03 Jun 2027 21:47:49.354   03 Jun 2027 21:48:41.130            51.776                Novosib          1618.000
       362   03 Jun 2027 21:53:14.898   03 Jun 2027 21:56:36.342           201.444                  Delhi          6295.125
       363   03 Jun 2027 22:04:09.215   03 Jun 2027 22:04:33.325            24.110                  Delhi           753.438
       364   03 Jun 2027 23:17:27.956   03 Jun 2027 23:18:00.454            32.498               Magadan1          1015.563
       365   03 Jun 2027 23:19:13.129   03 Jun 2027 23:19:50.770            37.641               Magadan2          1176.281
       366   03 Jun 2027 23:20:09.275   03 Jun 2027 23:24:23.498           254.223              Murmansk2          7944.469
       367   03 Jun 2027 23:24:44.903   03 Jun 2027 23:27:55.366           190.463                 Moscow          5951.969
       368   03 Jun 2027 23:52:11.502   03 Jun 2027 23:53:25.694            74.192               CapeTown          2318.500
       369   03 Jun 2027 23:55:01.023   03 Jun 2027 23:56:14.425            73.402               CapeTown          2293.813
       370   04 Jun 2027 00:53:08.635   04 Jun 2027 00:53:31.138            22.503               Magadan1           703.219
       371   04 Jun 2027 00:56:00.314   04 Jun 2027 00:57:25.920            85.606              Murmansk1          2675.188
       372   04 Jun 2027 00:58:07.940   04 Jun 2027 00:58:27.186            19.246              Murmansk2           601.437
       373   04 Jun 2027 00:58:42.569   04 Jun 2027 00:59:20.077            37.508              Murmansk2          1172.125
       374   04 Jun 2027 01:01:08.777   04 Jun 2027 01:01:35.681            26.904                 Moscow           840.750
       375   04 Jun 2027 01:03:58.041   04 Jun 2027 01:04:23.535            25.494                 Moscow           796.687
       376   04 Jun 2027 01:11:55.282   04 Jun 2027 01:12:03.065             7.783                 Moscow           243.219
       377   04 Jun 2027 01:23:15.118   04 Jun 2027 01:24:47.495            92.377               CapeTown          2886.781
       378   04 Jun 2027 01:32:25.216   04 Jun 2027 01:32:45.067            19.851               CapeTown           620.344
       379   04 Jun 2027 02:19:50.699   04 Jun 2027 02:20:49.651            58.952                Anadyr1          1842.250
       380   04 Jun 2027 02:20:49.651   04 Jun 2027 02:20:56.689             7.038                Anadyr2           219.937
       381   04 Jun 2027 02:21:12.977   04 Jun 2027 02:21:18.643             5.666                Anadyr2           177.062
       382   04 Jun 2027 02:21:34.316   04 Jun 2027 02:22:31.274            56.958               Magadan2          1779.937
       383   04 Jun 2027 02:23:55.550   04 Jun 2027 02:24:08.672            13.122               Magadan2           410.062
       384   04 Jun 2027 02:24:08.672   04 Jun 2027 02:25:04.002            55.330               Magadan1          1729.063
       385   04 Jun 2027 02:30:56.992   04 Jun 2027 02:31:00.243             3.251                Norilsk           101.594
       386   04 Jun 2027 02:31:58.225   04 Jun 2027 02:32:26.842            28.617              Murmansk2           894.281
       387   04 Jun 2027 02:33:18.669   04 Jun 2027 02:33:46.716            28.047              Murmansk1           876.469
       388   04 Jun 2027 02:35:06.728   04 Jun 2027 02:35:53.424            46.696              Murmansk2          1459.250
       389   04 Jun 2027 02:35:59.821   04 Jun 2027 02:37:05.500            65.679                 Moscow          2052.469
       390   04 Jun 2027 02:45:39.123   04 Jun 2027 02:46:28.796            49.673                 Moscow          1552.281
       391   04 Jun 2027 03:01:07.530   04 Jun 2027 03:01:14.470             6.940               CapeTown           216.875
       392   04 Jun 2027 03:05:20.081   04 Jun 2027 03:05:29.480             9.399               CapeTown           293.719
       393   04 Jun 2027 03:06:28.665   04 Jun 2027 03:07:18.329            49.664               CapeTown          1552.000
       394   04 Jun 2027 04:01:22.482   04 Jun 2027 04:02:29.312            66.830                Anadyr2          2088.437
       395   04 Jun 2027 04:02:35.848   04 Jun 2027 04:02:59.907            24.059               Magadan2           751.844
       396   04 Jun 2027 04:03:07.059   04 Jun 2027 04:04:32.037            84.978                Anadyr1          2655.562
       397   04 Jun 2027 04:04:36.417   04 Jun 2027 04:05:04.883            28.466                Anadyr1           889.562
       398   04 Jun 2027 04:05:29.599   04 Jun 2027 04:06:11.488            41.889               Magadan2          1309.031
       399   04 Jun 2027 04:06:19.895   04 Jun 2027 04:07:57.162            97.267                Anadyr1          3039.594
       400   04 Jun 2027 04:08:17.343   04 Jun 2027 04:08:37.412            20.069                Anadyr2           627.156
       401   04 Jun 2027 04:11:32.929   04 Jun 2027 04:12:11.627            38.698                Norilsk          1209.312
       402   04 Jun 2027 04:47:32.512   04 Jun 2027 04:48:59.010            86.498            RioGallegos          2703.063
       403   04 Jun 2027 04:49:19.106   04 Jun 2027 04:49:43.741            24.635            RioGallegos           769.844
       404   04 Jun 2027 04:51:25.478   04 Jun 2027 04:52:35.371            69.893            RioGallegos          2184.156
       405   04 Jun 2027 05:38:05.363   04 Jun 2027 05:40:03.283           117.920               Magadan1          3685.000
       406   04 Jun 2027 05:40:07.555   04 Jun 2027 05:40:45.176            37.621                Anadyr1          1175.656
       407   04 Jun 2027 05:40:45.176   04 Jun 2027 05:41:39.784            54.608                Anadyr2          1706.500
       408   04 Jun 2027 05:41:54.425   04 Jun 2027 05:44:10.866           136.441               Magadan2          4263.781
       409   04 Jun 2027 05:49:23.756   04 Jun 2027 05:49:23.968             0.212                Norilsk             6.625
       410   04 Jun 2027 06:19:26.407   04 Jun 2027 06:20:33.367            66.960            RioGallegos          2092.500
       411   04 Jun 2027 06:21:54.892   04 Jun 2027 06:22:26.891            31.999            RioGallegos           999.969
       412   04 Jun 2027 06:22:50.014   04 Jun 2027 06:23:04.251            14.237            RioGallegos           444.906
       413   04 Jun 2027 06:23:27.325   04 Jun 2027 06:23:40.534            13.209            RioGallegos           412.781
       414   04 Jun 2027 06:25:14.888   04 Jun 2027 06:25:35.939            21.051            RioGallegos           657.844
       415   04 Jun 2027 06:27:15.209   04 Jun 2027 06:27:17.454             2.245            RioGallegos            70.156
       416   04 Jun 2027 06:30:32.546   04 Jun 2027 06:31:33.481            60.935            RioGallegos          1904.219
       417   04 Jun 2027 06:57:59.687   04 Jun 2027 06:59:08.913            69.226                Sumatra          2163.312
       418   04 Jun 2027 07:00:06.768   04 Jun 2027 07:02:20.004           133.236                Sumatra          4163.625
       419   04 Jun 2027 07:13:20.244   04 Jun 2027 07:13:30.692            10.448                Irkutsk           326.500
       420   04 Jun 2027 07:14:43.410   04 Jun 2027 07:14:44.151             0.741                Novosib            23.156
       421   04 Jun 2027 07:14:50.045   04 Jun 2027 07:15:05.082            15.037               Magadan1           469.906
       422   04 Jun 2027 07:15:53.734   04 Jun 2027 07:15:54.743             1.009                Irkutsk            31.531
       423   04 Jun 2027 07:16:40.239   04 Jun 2027 07:16:55.115            14.876                Irkutsk           464.875
       424   04 Jun 2027 07:17:02.618   04 Jun 2027 07:17:43.284            40.666                Novosib          1270.812
       425   04 Jun 2027 07:17:46.060   04 Jun 2027 07:19:12.979            86.919              Murmansk2          2716.219
       426   04 Jun 2027 07:19:30.321   04 Jun 2027 07:19:47.848            17.527                Irkutsk           547.719
       427   04 Jun 2027 07:19:50.632   04 Jun 2027 07:19:59.210             8.578                Novosib           268.062
       428   04 Jun 2027 07:20:06.269   04 Jun 2027 07:20:11.103             4.834              Murmansk1           151.062
       429   04 Jun 2027 07:20:27.558   04 Jun 2027 07:20:53.832            26.274              Murmansk1           821.063
       430   04 Jun 2027 07:20:53.832   04 Jun 2027 07:20:57.074             3.242              Murmansk2           101.312
       431   04 Jun 2027 07:24:07.768   04 Jun 2027 07:24:41.577            33.809              Murmansk2          1056.531
       432   04 Jun 2027 07:26:30.340   04 Jun 2027 07:26:52.843            22.503              Murmansk1           703.219
       433   04 Jun 2027 07:54:58.136   04 Jun 2027 07:55:30.253            32.117            RioGallegos          1003.656
       434   04 Jun 2027 07:58:22.296   04 Jun 2027 07:58:56.184            33.888            RioGallegos          1059.000
       435   04 Jun 2027 08:29:37.112   04 Jun 2027 08:30:05.672            28.560                Sumatra           892.500
       436   04 Jun 2027 08:36:27.950   04 Jun 2027 08:37:33.417            65.467                Sumatra          2045.844
       437   04 Jun 2027 08:39:42.967   04 Jun 2027 08:41:25.945           102.978                  Delhi          3218.063
       438   04 Jun 2027 08:45:01.698   04 Jun 2027 08:46:21.953            80.255                  Delhi          2507.969
       439   04 Jun 2027 08:49:34.645   04 Jun 2027 08:49:52.511            17.866                  Delhi           558.312
       440   04 Jun 2027 08:50:07.662   04 Jun 2027 08:50:24.339            16.677                Irkutsk           521.156
       441   04 Jun 2027 08:51:25.288   04 Jun 2027 08:51:41.510            16.222                Norilsk           506.938
       442   04 Jun 2027 08:51:51.895   04 Jun 2027 08:52:11.164            19.269              Murmansk2           602.156
       443   04 Jun 2027 08:52:14.951   04 Jun 2027 08:52:52.989            38.038                Irkutsk          1188.688
       444   04 Jun 2027 08:52:55.498   04 Jun 2027 08:53:17.646            22.148                Norilsk           692.125
       445   04 Jun 2027 08:53:20.123   04 Jun 2027 08:53:25.338             5.215                Norilsk           162.969
       446   04 Jun 2027 08:53:25.812   04 Jun 2027 08:53:35.446             9.634                Norilsk           301.062
       447   04 Jun 2027 08:53:38.017   04 Jun 2027 08:54:18.459            40.442              Murmansk1          1263.813
       448   04 Jun 2027 08:54:19.096   04 Jun 2027 08:54:56.600            37.504                 Moscow          1172.000
       449   04 Jun 2027 08:55:23.106   04 Jun 2027 08:55:41.930            18.824              Murmansk2           588.250
       450   04 Jun 2027 08:55:48.496   04 Jun 2027 08:57:15.877            87.381                 Moscow          2730.656
       451   04 Jun 2027 09:35:18.080   04 Jun 2027 09:36:09.450            51.370            RioGallegos          1605.312
       452   04 Jun 2027 10:13:57.395   04 Jun 2027 10:15:38.664           101.269                  Delhi          3164.656
       453   04 Jun 2027 10:27:45.521   04 Jun 2027 10:28:53.672            68.151                 Moscow          2129.719
       454   04 Jun 2027 10:29:01.000   04 Jun 2027 10:29:24.004            23.004                Norilsk           718.875
       455   04 Jun 2027 10:29:29.786   04 Jun 2027 10:30:04.048            34.262              Murmansk2          1070.687
       456   04 Jun 2027 10:30:18.125   04 Jun 2027 10:30:24.974             6.849                 Moscow           214.031
       457   04 Jun 2027 10:30:27.201   04 Jun 2027 10:30:28.657             1.456                Novosib            45.500
       458   04 Jun 2027 10:30:39.102   04 Jun 2027 10:31:37.108            58.006                 Moscow          1812.688
       459   04 Jun 2027 11:58:13.198   04 Jun 2027 11:58:41.622            28.424                 Moscow           888.250
       460   04 Jun 2027 12:02:03.538   04 Jun 2027 12:02:09.530             5.992              Murmansk2           187.250
       461   04 Jun 2027 12:02:40.175   04 Jun 2027 12:03:15.337            35.162              Murmansk1          1098.812
       462   04 Jun 2027 12:04:06.358   04 Jun 2027 12:04:45.750            39.392              Murmansk2          1231.000
       463   04 Jun 2027 12:05:37.050   04 Jun 2027 12:06:07.148            30.098                 Moscow           940.562
       464   04 Jun 2027 12:06:32.832   04 Jun 2027 12:07:00.996            28.164                 Moscow           880.125
       465   04 Jun 2027 12:08:15.811   04 Jun 2027 12:08:27.907            12.096              Murmansk1           378.000
       466   04 Jun 2027 12:09:32.428   04 Jun 2027 12:10:10.882            38.454                Norilsk          1201.688
       467   04 Jun 2027 12:12:50.083   04 Jun 2027 12:13:04.579            14.496              Murmansk2           453.000
       468   04 Jun 2027 12:14:19.295   04 Jun 2027 12:14:26.277             6.982              Murmansk2           218.187
       469   04 Jun 2027 13:12:46.086   04 Jun 2027 13:15:09.024           142.938               CapeTown          4466.813
       470   04 Jun 2027 13:16:45.916   04 Jun 2027 13:17:06.615            20.699               CapeTown           646.844
       471   04 Jun 2027 13:17:57.535   04 Jun 2027 13:19:26.216            88.681               CapeTown          2771.281
       472   04 Jun 2027 13:38:47.035   04 Jun 2027 13:39:47.753            60.718              Murmansk2          1897.437
       473   04 Jun 2027 13:40:31.276   04 Jun 2027 13:40:58.766            27.490              Murmansk2           859.063
       474   04 Jun 2027 13:42:39.382   04 Jun 2027 13:42:56.663            17.281              Murmansk1           540.031
       475   04 Jun 2027 13:43:21.358   04 Jun 2027 13:43:56.573            35.215              Murmansk1          1100.469
       476   04 Jun 2027 13:46:29.272   04 Jun 2027 13:47:02.316            33.044              Murmansk1          1032.625
       477   04 Jun 2027 13:48:32.400   04 Jun 2027 13:49:09.879            37.479              Murmansk1          1171.219
       478   04 Jun 2027 13:52:44.017   04 Jun 2027 13:55:22.816           158.799                Anadyr1          4962.469
       479   04 Jun 2027 13:56:23.965   04 Jun 2027 13:57:32.808            68.843                Anadyr2          2151.344
       480   04 Jun 2027 14:00:52.077   04 Jun 2027 14:02:18.553            86.476                Anadyr1          2702.375
       481   04 Jun 2027 15:28:17.122   04 Jun 2027 15:29:56.209            99.087                Anadyr1          3096.469
       482   04 Jun 2027 15:30:29.760   04 Jun 2027 15:30:44.657            14.897                Anadyr2           465.531
