uniorb/output/strategy_2/Drop/Drop_KinoSat_110404.txt

KinoSat_110404
-------------------------
    Access    *     Start Time (UTCG)     *     Stop Time (UTCG)  *   Duration (s)        *       Station  *  Data (Mbytes)
         1   01 Jun 2027 04:01:58.770   01 Jun 2027 04:02:27.996            29.226               Magadan1          3653.250
         2   01 Jun 2027 04:02:27.996   01 Jun 2027 04:02:33.211             5.215               Magadan2           117.250
         3   01 Jun 2027 04:02:58.843   01 Jun 2027 04:04:47.740           108.897               Magadan2         12816.000
         4   01 Jun 2027 04:04:49.316   01 Jun 2027 04:05:18.224            28.908               Magadan2           788.000
         5   01 Jun 2027 04:05:18.842   01 Jun 2027 04:05:28.537             9.695                Norilsk           309.000
         6   01 Jun 2027 04:05:33.103   01 Jun 2027 04:05:58.944            25.841                Norilsk          2283.000
         7   01 Jun 2027 04:06:12.655   01 Jun 2027 04:07:27.578            74.923                Novosib          6855.500
         8   01 Jun 2027 04:07:37.410   01 Jun 2027 04:07:47.354             9.944                Novosib          1243.000
         9   01 Jun 2027 04:07:49.102   01 Jun 2027 04:08:38.158            49.056              Murmansk1          4547.000
        10   01 Jun 2027 05:38:17.010   01 Jun 2027 05:38:43.675            26.665                Norilsk          1805.000
        11   01 Jun 2027 05:38:59.162   01 Jun 2027 05:40:04.540            65.378                Norilsk          7743.500
        12   01 Jun 2027 05:40:16.096   01 Jun 2027 05:41:11.655            55.559                Novosib          5778.000
        13   01 Jun 2027 05:41:13.254   01 Jun 2027 05:41:28.211            14.957                Irkutsk           799.500
        14   01 Jun 2027 05:41:36.915   01 Jun 2027 05:42:40.421            63.506              Murmansk1          4352.000
        15   01 Jun 2027 05:42:42.272   01 Jun 2027 05:43:05.890            23.618                Norilsk           925.500
        16   01 Jun 2027 05:43:19.332   01 Jun 2027 05:44:42.122            82.790                Irkutsk          6721.000
        17   01 Jun 2027 07:15:46.345   01 Jun 2027 07:16:33.590            47.245                 Moscow          2342.500
        18   01 Jun 2027 07:16:37.185   01 Jun 2027 07:16:58.858            21.673              Murmansk1          1797.500
        19   01 Jun 2027 07:17:00.654   01 Jun 2027 07:18:12.662            72.008                Irkutsk           898.000
        20   01 Jun 2027 07:18:24.426   01 Jun 2027 07:19:22.045            57.619                Novosib          5882.000
        21   01 Jun 2027 07:19:29.806   01 Jun 2027 07:19:38.456             8.650                Irkutsk          1081.250
        22   01 Jun 2027 07:19:41.213   01 Jun 2027 07:21:03.425            82.212              Murmansk2          4177.750
        23   01 Jun 2027 08:51:47.986   01 Jun 2027 08:52:39.922            51.936                Novosib             9.000
        24   01 Jun 2027 08:52:41.238   01 Jun 2027 08:53:18.901            37.663                 Moscow           658.000
        25   01 Jun 2027 08:53:21.870   01 Jun 2027 08:53:43.711            21.841                Norilsk          1484.500
        26   01 Jun 2027 08:53:47.635   01 Jun 2027 08:54:07.527            19.892              Murmansk1          1962.000
        27   01 Jun 2027 08:54:26.429   01 Jun 2027 08:55:48.026            81.597                Norilsk          9451.000
        28   01 Jun 2027 08:55:54.242   01 Jun 2027 08:56:30.188            35.946                Norilsk          3108.000
        29   02 Jun 2027 04:14:03.565   02 Jun 2027 04:14:19.653            16.088               Magadan2          1676.000
        30   02 Jun 2027 04:14:29.900   02 Jun 2027 04:15:26.660            56.760               Magadan1          5123.500
        31   02 Jun 2027 04:15:29.720   02 Jun 2027 04:15:58.091            28.371                Norilsk          1530.000
        32   02 Jun 2027 04:16:03.820   02 Jun 2027 04:16:16.251            12.431                Norilsk          1553.875
        33   02 Jun 2027 04:16:17.068   02 Jun 2027 04:16:36.049            18.981               Magadan1          1719.125
        34   02 Jun 2027 04:16:40.298   02 Jun 2027 04:17:02.244            21.946                Novosib          2124.500
        35   02 Jun 2027 04:17:15.074   02 Jun 2027 04:18:52.735            97.661                Norilsk          6415.000
        36   02 Jun 2027 04:18:55.729   02 Jun 2027 04:19:16.666            20.937                Norilsk          1497.000
        37   02 Jun 2027 04:19:21.556   02 Jun 2027 04:19:50.245            28.689              Murmansk2          2445.000
        38   02 Jun 2027 04:20:06.013   02 Jun 2027 04:21:13.735            67.722              Murmansk2          7884.000
        39   02 Jun 2027 05:50:13.215   02 Jun 2027 05:50:35.599            22.384                Norilsk             1.500
        40   02 Jun 2027 05:50:51.173   02 Jun 2027 05:52:23.762            92.589                Novosib          7787.000
        41   02 Jun 2027 05:52:23.805   02 Jun 2027 05:53:08.647            44.842                Novosib            21.500
        42   02 Jun 2027 05:53:19.953   02 Jun 2027 05:54:51.939            91.986                Novosib          5653.000
        43   02 Jun 2027 05:55:13.507   02 Jun 2027 05:56:39.091            85.584                Novosib         10698.000
        44   02 Jun 2027 05:56:45.592   02 Jun 2027 05:56:50.151             4.559                Norilsk            86.000
        45   02 Jun 2027 07:27:50.255   02 Jun 2027 07:28:17.330            27.075                Irkutsk          1088.500
        46   02 Jun 2027 07:28:20.383   02 Jun 2027 07:28:46.069            25.686              Murmansk2          1526.500
        47   02 Jun 2027 07:28:55.688   02 Jun 2027 07:29:48.449            52.761                Norilsk          4809.500
        48   02 Jun 2027 07:29:50.802   02 Jun 2027 07:30:07.668            16.866                Norilsk          1176.500
        49   02 Jun 2027 07:30:10.930   02 Jun 2027 07:31:03.906            52.976              Murmansk1          1631.000
        50   02 Jun 2027 07:31:09.429   02 Jun 2027 07:31:18.984             9.555                Irkutsk          1194.375
        51   02 Jun 2027 07:31:25.212   02 Jun 2027 07:32:12.784            47.572                Norilsk          4681.125
        52   02 Jun 2027 07:32:14.190   02 Jun 2027 07:32:25.138            10.948                 Moscow           703.000
        53   02 Jun 2027 09:04:02.201   02 Jun 2027 09:04:55.997            53.796              Murmansk2          6213.500
        54   02 Jun 2027 09:04:58.479   02 Jun 2027 09:05:30.905            32.426                 Moscow          1241.000
        55   02 Jun 2027 09:05:31.510   02 Jun 2027 09:05:35.502             3.992              Murmansk2           302.500
        56   02 Jun 2027 09:05:42.594   02 Jun 2027 09:06:19.548            36.954              Murmansk2          3546.000
        57   02 Jun 2027 09:06:21.195   02 Jun 2027 09:07:15.117            53.922                Norilsk           823.500
        58   02 Jun 2027 09:07:22.493   02 Jun 2027 09:07:55.736            33.243                Norilsk          3688.000
        59   02 Jun 2027 09:07:59.288   02 Jun 2027 09:08:25.254            25.966                Norilsk          1776.000
        60   02 Jun 2027 09:08:25.815   02 Jun 2027 09:08:36.941            11.126                Novosib           280.500
        61   02 Jun 2027 09:08:43.727   02 Jun 2027 09:09:35.906            52.179                Norilsk          3393.000
        62   03 Jun 2027 04:25:42.914   03 Jun 2027 04:26:58.032            75.118                Norilsk          9389.750
        63   03 Jun 2027 04:27:01.330   03 Jun 2027 04:27:26.938            25.608               Magadan2          1757.250
        64   03 Jun 2027 04:27:30.600   03 Jun 2027 04:27:47.494            16.894               Magadan1          1831.000
        65   03 Jun 2027 04:27:54.531   03 Jun 2027 04:28:55.557            61.026                Irkutsk          3518.500
        66   03 Jun 2027 04:29:09.166   03 Jun 2027 04:30:26.500            77.334                Novosib          6804.500
        67   03 Jun 2027 04:30:37.821   03 Jun 2027 04:31:20.048            42.227                Novosib          5278.375
        68   03 Jun 2027 04:31:21.831   03 Jun 2027 04:31:51.183            29.352              Murmansk1          1273.625
        69   03 Jun 2027 04:31:59.584   03 Jun 2027 04:32:10.348            10.764               Magadan1          1345.500
        70   03 Jun 2027 04:32:25.825   03 Jun 2027 04:34:13.582           107.757                Norilsk         10593.500
        71   03 Jun 2027 06:02:02.729   03 Jun 2027 06:03:13.073            70.344                Novosib          1067.500
        72   03 Jun 2027 06:03:26.484   03 Jun 2027 06:04:20.688            54.204                Novosib          6705.500
        73   03 Jun 2027 06:04:32.441   03 Jun 2027 06:05:04.334            31.893                Novosib          3986.625
        74   03 Jun 2027 06:05:11.315   03 Jun 2027 06:05:58.212            46.897              Murmansk2          5380.375
        75   03 Jun 2027 06:06:03.110   03 Jun 2027 06:06:40.523            37.413                Novosib          2449.000
        76   03 Jun 2027 06:06:48.149   03 Jun 2027 06:07:13.007            24.858                Norilsk          3107.250
        77   03 Jun 2027 06:07:22.267   03 Jun 2027 06:08:38.188            75.921                Irkutsk          5335.750
        78   03 Jun 2027 07:40:26.750   03 Jun 2027 07:41:41.998            75.248                Novosib          4132.000
        79   03 Jun 2027 07:41:47.405   03 Jun 2027 07:42:18.541            31.136                Norilsk          2703.500
        80   03 Jun 2027 07:42:20.719   03 Jun 2027 07:42:51.556            30.837                Irkutsk          1089.000
        81   03 Jun 2027 07:42:59.233   03 Jun 2027 07:43:31.382            32.149              Murmansk1          3838.500
        82   03 Jun 2027 07:43:32.869   03 Jun 2027 07:44:43.087            70.218                Novosib           743.500
        83   03 Jun 2027 09:13:58.365   03 Jun 2027 09:15:34.853            96.488                 Moscow         10124.000
        84   03 Jun 2027 09:15:42.534   03 Jun 2027 09:16:47.822            65.288              Murmansk1          2300.500
        85   03 Jun 2027 09:16:53.799   03 Jun 2027 09:17:26.586            32.787                Novosib          2988.500
        86   03 Jun 2027 09:17:33.212   03 Jun 2027 09:18:11.628            38.416              Murmansk1          3313.000
        87   03 Jun 2027 09:18:16.625   03 Jun 2027 09:19:11.747            55.122                Norilsk          2498.500
        88   03 Jun 2027 09:19:13.357   03 Jun 2027 09:19:36.937            23.580              Murmansk1           805.000
        89   03 Jun 2027 09:19:37.678   03 Jun 2027 09:20:05.899            28.221                Norilsk           370.500
        90   03 Jun 2027 09:20:12.272   03 Jun 2027 09:20:35.364            23.092              Murmansk1           723.500
        91   03 Jun 2027 09:20:36.330   03 Jun 2027 09:21:06.925            30.595                Norilsk           483.000
        92   03 Jun 2027 09:21:07.598   03 Jun 2027 09:21:36.024            28.426                Norilsk           336.500
        93   04 Jun 2027 03:00:41.410   04 Jun 2027 03:01:28.099            46.689                Irkutsk          3229.500
        94   04 Jun 2027 03:01:33.525   04 Jun 2027 03:01:59.394            25.869                Anadyr2          2713.000
        95   04 Jun 2027 03:02:03.970   04 Jun 2027 03:02:25.262            21.292               Magadan1          2288.000
        96   04 Jun 2027 03:02:27.979   04 Jun 2027 03:02:48.618            20.639               Magadan1          1358.500
        97   04 Jun 2027 03:02:58.536   04 Jun 2027 03:03:44.263            45.727                Anadyr2          4959.000
        98   04 Jun 2027 03:03:53.080   04 Jun 2027 03:04:32.788            39.708               Magadan2          4408.500
        99   04 Jun 2027 03:04:37.102   04 Jun 2027 03:04:56.195            19.093                Anadyr2          2157.000
       100   04 Jun 2027 03:05:02.681   04 Jun 2027 03:05:44.589            41.908               Magadan1          3243.000
       101   04 Jun 2027 03:05:54.874   04 Jun 2027 03:06:37.775            42.901               Magadan2          5142.500
       102   04 Jun 2027 03:06:51.106   04 Jun 2027 03:06:56.206             5.100                Irkutsk           637.500
       103   04 Jun 2027 03:06:58.849   04 Jun 2027 03:08:09.372            70.523               Magadan1          7349.500
       104   04 Jun 2027 04:37:28.238   04 Jun 2027 04:38:20.296            52.058               Magadan2          4832.000
       105   04 Jun 2027 04:38:32.598   04 Jun 2027 04:39:15.930            43.332                Novosib          5416.500
       106   04 Jun 2027 04:39:19.191   04 Jun 2027 04:39:24.089             4.898               Magadan1           612.250
       107   04 Jun 2027 04:39:24.089   04 Jun 2027 04:40:04.044            39.955               Magadan2          1752.750
       108   04 Jun 2027 04:40:05.574   04 Jun 2027 04:41:04.621            59.047                Novosib           765.000
       109   04 Jun 2027 04:41:07.596   04 Jun 2027 04:41:28.013            20.417                Novosib          1487.500
       110   04 Jun 2027 04:41:32.414   04 Jun 2027 04:42:37.369            64.955                Norilsk          2200.500
       111   04 Jun 2027 04:42:40.986   04 Jun 2027 04:43:10.374            29.388                Novosib          1808.500
       112   04 Jun 2027 04:43:20.685   04 Jun 2027 04:44:10.066            49.381              Murmansk1          5155.500
       113   04 Jun 2027 04:44:32.809   04 Jun 2027 04:44:46.979            14.170                Irkutsk          1771.250
       114   04 Jun 2027 04:45:22.738   04 Jun 2027 04:45:46.768            24.030                Novosib          3003.750
       115   04 Jun 2027 04:45:49.007   04 Jun 2027 04:46:59.024            70.017              Murmansk2          6860.500
       116   04 Jun 2027 06:14:24.666   04 Jun 2027 06:14:52.545            27.879                Norilsk          1513.500
       117   04 Jun 2027 06:15:11.059   04 Jun 2027 06:17:01.327           110.268                Irkutsk          9257.000
       118   04 Jun 2027 06:17:09.773   04 Jun 2027 06:17:51.197            41.424              Murmansk2          4223.000
       119   04 Jun 2027 06:17:51.301   04 Jun 2027 06:18:03.575            12.274                Norilsk            52.000
       120   04 Jun 2027 06:18:08.526   04 Jun 2027 06:18:40.222            31.696                Norilsk          2475.500
       121   04 Jun 2027 06:18:41.889   04 Jun 2027 06:19:06.126            24.237                Novosib           833.500
       122   04 Jun 2027 06:19:06.634   04 Jun 2027 06:19:38.720            32.086                Norilsk           254.000
       123   04 Jun 2027 06:19:39.230   04 Jun 2027 06:20:11.843            32.613                 Moscow           255.000
       124   04 Jun 2027 06:20:31.730   04 Jun 2027 06:22:07.953            96.223                Norilsk          8184.500
       125   04 Jun 2027 07:52:20.397   04 Jun 2027 07:53:00.503            40.106              Murmansk2          2279.500
       126   04 Jun 2027 07:53:04.610   04 Jun 2027 07:53:31.078            26.468              Murmansk2          2053.500
       127   04 Jun 2027 07:53:37.328   04 Jun 2027 07:54:55.225            77.897              Murmansk1          3125.000
       128   04 Jun 2027 07:54:55.994   04 Jun 2027 07:55:10.787            14.793              Murmansk1           384.500
       129   04 Jun 2027 07:55:14.254   04 Jun 2027 07:55:44.422            30.168                 Moscow          1733.500
       130   04 Jun 2027 07:55:51.974   04 Jun 2027 07:56:57.670            65.696                Novosib          3776.000
       131   04 Jun 2027 09:25:56.527   04 Jun 2027 09:28:22.914           146.387                 Moscow         13601.000
       132   04 Jun 2027 09:28:32.182   04 Jun 2027 09:29:34.559            62.377                 Moscow          4634.000
       133   04 Jun 2027 09:29:34.893   04 Jun 2027 09:29:44.955            10.062              Murmansk1           167.000
       134   04 Jun 2027 09:29:49.401   04 Jun 2027 09:30:12.696            23.295                Norilsk          2223.000
       135   04 Jun 2027 09:30:16.994   04 Jun 2027 09:30:53.778            36.784                 Moscow          2149.000
       136   04 Jun 2027 09:31:07.396   04 Jun 2027 09:32:02.849            55.453              Murmansk2          6809.000
       137   04 Jun 2027 09:32:11.933   04 Jun 2027 09:32:29.620            17.687                Norilsk          2117.000
       138   04 Jun 2027 09:32:30.979   04 Jun 2027 09:32:41.523            10.544              Murmansk1           679.500
       139   04 Jun 2027 09:33:04.385   04 Jun 2027 09:34:23.378            78.993                 Moscow          9874.125
       140   04 Jun 2027 09:34:24.235   04 Jun 2027 09:34:26.839             2.604              Murmansk2           325.500
       141   04 Jun 2027 09:34:26.839   04 Jun 2027 09:34:49.440            22.601              Murmansk1          1231.375
       142   05 Jun 2027 03:11:57.799   05 Jun 2027 03:12:09.816            12.017               Magadan1          1337.500
       143   05 Jun 2027 03:12:22.029   05 Jun 2027 03:13:49.656            87.627                Irkutsk          6106.500
       144   05 Jun 2027 03:13:57.282   05 Jun 2027 03:14:32.249            34.967               Magadan2          3813.000
       145   05 Jun 2027 03:14:32.545   05 Jun 2027 03:14:37.376             4.831               Magadan1           148.000
       146   05 Jun 2027 03:14:44.866   05 Jun 2027 03:15:49.011            64.145               Magadan2          3745.000
       147   05 Jun 2027 03:16:00.590   05 Jun 2027 03:17:29.301            88.711                Irkutsk          5789.500
       148   05 Jun 2027 03:17:33.459   05 Jun 2027 03:17:54.739            21.280                Norilsk          2079.000
       149   05 Jun 2027 03:18:01.272   05 Jun 2027 03:18:28.200            26.928                Norilsk          3266.500
       150   05 Jun 2027 03:18:30.543   05 Jun 2027 03:18:37.985             7.442               Magadan2           930.250
       151   05 Jun 2027 03:18:37.985   05 Jun 2027 03:18:40.530             2.545               Magadan1           241.250
       152   05 Jun 2027 03:18:59.972   05 Jun 2027 03:20:05.072            65.100                Norilsk          8137.500
       153   05 Jun 2027 03:20:06.435   05 Jun 2027 03:20:44.092            37.657               Magadan1          2265.000
       154   05 Jun 2027 04:49:49.808   05 Jun 2027 04:51:51.314           121.506                Novosib         10123.500
       155   05 Jun 2027 04:51:55.557   05 Jun 2027 04:52:08.051            12.494                Irkutsk          1561.750
       156   05 Jun 2027 04:52:15.851   05 Jun 2027 04:53:07.073            51.222                Norilsk          4459.750
       157   05 Jun 2027 04:53:13.945   05 Jun 2027 04:54:06.839            52.894                Novosib          3436.000
       158   05 Jun 2027 04:54:25.668   05 Jun 2027 04:55:37.124            71.456               Magadan2          8932.000
       159   05 Jun 2027 04:55:39.507   05 Jun 2027 04:56:03.229            23.722              Murmansk2          1674.000
       160   05 Jun 2027 04:56:12.144   05 Jun 2027 04:57:28.484            76.340              Murmansk1          4457.500
       161   05 Jun 2027 06:26:12.704   05 Jun 2027 06:26:33.256            20.552                Irkutsk           189.000
       162   05 Jun 2027 06:26:40.337   05 Jun 2027 06:27:09.020            28.683                Irkutsk          3540.500
       163   05 Jun 2027 06:27:12.946   05 Jun 2027 06:27:35.654            22.708                Norilsk          1963.000
       164   05 Jun 2027 06:28:02.431   05 Jun 2027 06:29:52.351           109.920                Norilsk         13388.500
       165   05 Jun 2027 06:29:53.105   05 Jun 2027 06:30:16.804            23.699                 Moscow           377.000
       166   05 Jun 2027 06:30:17.807   05 Jun 2027 06:30:57.632            39.825                Novosib           501.500
       167   05 Jun 2027 06:31:01.264   05 Jun 2027 06:31:11.431            10.167                Norilsk          1270.875
       168   05 Jun 2027 06:31:26.486   05 Jun 2027 06:32:48.475            81.989              Murmansk2          8072.625
       169   05 Jun 2027 06:32:48.903   05 Jun 2027 06:33:27.650            38.747                Novosib           214.000
       170   05 Jun 2027 08:04:22.486   05 Jun 2027 08:05:44.873            82.387                 Moscow          3396.500
       171   05 Jun 2027 08:05:49.116   05 Jun 2027 08:06:37.810            48.694                Novosib          2121.500
       172   05 Jun 2027 08:06:39.718   05 Jun 2027 08:06:51.258            11.540                 Moscow           954.000
       173   05 Jun 2027 08:06:51.836   05 Jun 2027 08:07:06.525            14.689              Murmansk1           289.000
       174   05 Jun 2027 08:07:10.979   05 Jun 2027 08:08:03.524            52.545                Norilsk          2227.000
       175   05 Jun 2027 08:08:15.171   05 Jun 2027 08:09:06.137            50.966                Novosib          5823.500
       176   05 Jun 2027 09:38:17.315   05 Jun 2027 09:39:43.746            86.431                 Moscow         10077.000
       177   05 Jun 2027 09:39:46.594   05 Jun 2027 09:40:09.680            23.086                 Moscow          1424.000
       178   05 Jun 2027 09:40:21.890   05 Jun 2027 09:41:31.939            70.049                 Moscow          6105.000
       179   05 Jun 2027 09:41:36.522   05 Jun 2027 09:41:58.064            21.542              Murmansk1          2291.500
       180   05 Jun 2027 09:42:10.542   05 Jun 2027 09:43:18.205            67.663                 Moscow          6239.000
       181   05 Jun 2027 09:43:20.274   05 Jun 2027 09:43:33.215            12.941                Norilsk          1034.500
       182   05 Jun 2027 09:43:44.576   05 Jun 2027 09:44:32.125            47.549              Murmansk2          5680.500
       183   05 Jun 2027 09:44:34.258   05 Jun 2027 09:44:57.909            23.651                 Moscow          1066.500
       184   06 Jun 2027 03:23:26.623   06 Jun 2027 03:23:55.057            28.434               Magadan2           555.000
       185   06 Jun 2027 03:23:59.361   06 Jun 2027 03:24:43.884            44.523                Irkutsk          2152.000
       186   06 Jun 2027 03:24:56.869   06 Jun 2027 03:25:35.592            38.723               Magadan2          4840.375
       187   06 Jun 2027 03:25:53.731   06 Jun 2027 03:27:07.275            73.544                Irkutsk          9193.000
       188   06 Jun 2027 03:27:07.978   06 Jun 2027 03:27:30.934            22.956                Anadyr1          1880.125
       189   06 Jun 2027 03:27:36.417   06 Jun 2027 03:27:46.734            10.317                Norilsk          1289.625
       190   06 Jun 2027 03:27:54.167   06 Jun 2027 03:28:37.888            43.721                Anadyr2          5168.375
       191   06 Jun 2027 03:28:39.916   06 Jun 2027 03:28:57.992            18.076               Magadan1          1014.000
       192   06 Jun 2027 03:28:58.650   06 Jun 2027 03:29:03.747             5.097                Anadyr2           329.000
       193   06 Jun 2027 03:29:03.912   06 Jun 2027 03:29:30.637            26.725                Norilsk            82.500
       194   06 Jun 2027 03:29:30.922   06 Jun 2027 03:29:35.782             4.860                Anadyr1           142.500
       195   06 Jun 2027 03:29:37.895   06 Jun 2027 03:30:19.136            41.241                Irkutsk          1056.500
       196   06 Jun 2027 03:30:20.442   06 Jun 2027 03:31:00.019            39.577                Irkutsk           653.000
       197   06 Jun 2027 03:31:02.937   06 Jun 2027 03:31:45.169            42.232                Anadyr1          1459.000
       198   06 Jun 2027 03:31:55.752   06 Jun 2027 03:32:03.231             7.479                Anadyr2           636.500
       199   06 Jun 2027 03:32:06.610   06 Jun 2027 03:32:59.011            52.401                Norilsk          1689.500
       200   06 Jun 2027 05:01:36.058   06 Jun 2027 05:02:42.552            66.494                Irkutsk          6139.000
       201   06 Jun 2027 05:02:44.997   06 Jun 2027 05:03:25.553            40.556               Magadan2          1222.500
       202   06 Jun 2027 05:03:48.163   06 Jun 2027 05:05:23.312            95.149               Magadan1         11305.000
       203   06 Jun 2027 05:05:29.714   06 Jun 2027 05:05:58.821            29.107                Novosib          3201.000
       204   06 Jun 2027 05:06:01.264   06 Jun 2027 05:06:06.704             5.440                Irkutsk           680.000
       205   06 Jun 2027 05:06:07.805   06 Jun 2027 05:06:22.960            15.155                Norilsk          1092.000
       206   06 Jun 2027 05:06:25.222   06 Jun 2027 05:06:37.942            12.720               Magadan2          1131.000
       207   06 Jun 2027 05:06:44.590   06 Jun 2027 05:07:08.091            23.501               Magadan1          2937.625
       208   06 Jun 2027 05:07:14.359   06 Jun 2027 05:08:14.212            59.853              Murmansk2          3520.375
       209   06 Jun 2027 05:08:17.039   06 Jun 2027 05:09:23.434            66.395              Murmansk2          1413.500
       210   06 Jun 2027 06:38:26.200   06 Jun 2027 06:38:55.370            29.170                Irkutsk          3302.000
       211   06 Jun 2027 06:39:21.063   06 Jun 2027 06:41:09.260           108.197                Irkutsk         12846.500
       212   06 Jun 2027 06:41:16.911   06 Jun 2027 06:41:49.506            32.595              Murmansk2          3825.500
       213   06 Jun 2027 06:41:50.898   06 Jun 2027 06:41:58.455             7.557              Murmansk2           696.000
       214   06 Jun 2027 06:42:00.013   06 Jun 2027 06:42:21.738            21.725                 Moscow           779.000
       215   06 Jun 2027 06:42:22.757   06 Jun 2027 06:43:24.055            61.298              Murmansk2           509.500
       216   06 Jun 2027 06:43:43.723   06 Jun 2027 06:45:07.710            83.987              Murmansk2          7290.500
       217   06 Jun 2027 08:16:10.241   06 Jun 2027 08:17:50.523           100.282                 Moscow          4373.000
       218   06 Jun 2027 08:17:53.390   06 Jun 2027 08:18:32.487            39.097                Norilsk          1433.500
       219   06 Jun 2027 08:18:37.342   06 Jun 2027 08:19:00.619            23.277              Murmansk1          2427.500
       220   06 Jun 2027 08:19:01.950   06 Jun 2027 08:19:25.723            23.773                Norilsk           665.500
       221   06 Jun 2027 08:19:27.517   06 Jun 2027 08:19:58.324            30.807                 Moscow           897.000
       222   06 Jun 2027 08:20:01.655   06 Jun 2027 08:20:48.354            46.699                Norilsk          1665.500
       223   06 Jun 2027 09:50:18.832   06 Jun 2027 09:50:49.512            30.680                 Moscow           810.500
       224   06 Jun 2027 09:51:00.365   06 Jun 2027 09:51:57.188            56.823                 Moscow          5426.500
       225   06 Jun 2027 09:52:14.271   06 Jun 2027 09:54:00.135           105.864                 Moscow          6391.500
       226   06 Jun 2027 09:54:28.203   06 Jun 2027 09:56:23.459           115.256              Murmansk2         14034.000
       227   07 Jun 2027 03:36:37.445   07 Jun 2027 03:37:53.630            76.185               Magadan2          9014.500
       228   07 Jun 2027 03:38:00.171   07 Jun 2027 03:39:17.423            77.252                Irkutsk          3270.500
       229   07 Jun 2027 03:39:18.428   07 Jun 2027 03:39:41.440            23.012                Norilsk           502.500
       230   07 Jun 2027 03:39:45.088   07 Jun 2027 03:39:57.903            12.815                Norilsk          1601.875
       231   07 Jun 2027 03:40:02.269   07 Jun 2027 03:40:22.266            19.997                Anadyr2          2405.125
       232   07 Jun 2027 03:40:25.929   07 Jun 2027 03:40:41.670            15.741                Anadyr1          1831.500
       233   07 Jun 2027 03:40:45.401   07 Jun 2027 03:41:10.984            25.583                Novosib          1865.500
       234   07 Jun 2027 03:41:26.642   07 Jun 2027 03:42:36.833            70.191                Norilsk          7829.000
       235   07 Jun 2027 03:42:45.857   07 Jun 2027 03:43:40.347            54.490               Magadan2          4512.000
       236   07 Jun 2027 03:43:44.272   07 Jun 2027 03:43:57.899            13.627                Anadyr1          1703.375
       237   07 Jun 2027 03:44:01.793   07 Jun 2027 03:45:00.411            58.618              Murmansk2          2206.125
       238   07 Jun 2027 05:13:55.560   07 Jun 2027 05:14:41.344            45.784                Norilsk          5222.000
       239   07 Jun 2027 05:14:56.324   07 Jun 2027 05:16:21.293            84.969                Novosib          7490.000
       240   07 Jun 2027 05:16:22.726   07 Jun 2027 05:17:07.321            44.595                Novosib           716.500
       241   07 Jun 2027 05:17:10.460   07 Jun 2027 05:17:55.741            45.281               Magadan1          1569.500
       242   07 Jun 2027 05:18:15.954   07 Jun 2027 05:20:05.662           109.708              Murmansk1         10106.500
       243   07 Jun 2027 05:20:16.252   07 Jun 2027 05:21:11.009            54.757              Murmansk1          5295.000
       244   07 Jun 2027 06:50:54.585   07 Jun 2027 06:52:11.211            76.626                Irkutsk          2959.000
       245   07 Jun 2027 06:52:11.253   07 Jun 2027 06:52:22.431            11.178                Irkutsk            21.000
       246   07 Jun 2027 06:52:26.140   07 Jun 2027 06:52:56.713            30.573                Novosib          1854.500
       247   07 Jun 2027 06:52:58.862   07 Jun 2027 06:53:21.536            22.674                Novosib          1074.500
       248   07 Jun 2027 06:53:24.805   07 Jun 2027 06:53:50.849            26.044                Novosib          1634.500
       249   07 Jun 2027 06:53:53.460   07 Jun 2027 06:54:07.708            14.248                 Moscow          1305.500
       250   07 Jun 2027 06:54:10.321   07 Jun 2027 06:54:23.120            12.799              Murmansk1          1306.500
       251   07 Jun 2027 06:54:23.274   07 Jun 2027 06:55:20.837            57.563              Murmansk1            77.000
       252   07 Jun 2027 06:55:36.727   07 Jun 2027 06:56:31.037            54.310              Murmansk1          5834.500
       253   07 Jun 2027 06:56:37.874   07 Jun 2027 06:56:54.985            17.111              Murmansk2          2138.875
       254   07 Jun 2027 06:56:54.985   07 Jun 2027 06:57:36.055            41.070              Murmansk1          1279.625
       255   07 Jun 2027 08:27:34.111   07 Jun 2027 08:27:47.561            13.450                Norilsk            45.000
       256   07 Jun 2027 08:27:57.338   07 Jun 2027 08:29:15.169            77.831                Novosib          4888.500
       257   07 Jun 2027 08:29:18.562   07 Jun 2027 08:29:36.096            17.534                Novosib          1696.500
       258   07 Jun 2027 08:29:39.196   07 Jun 2027 08:29:55.020            15.824                Norilsk          1550.000
       259   07 Jun 2027 08:29:55.214   07 Jun 2027 08:30:03.201             7.987              Murmansk2            97.000
       260   07 Jun 2027 08:30:15.953   07 Jun 2027 08:31:12.061            56.108              Murmansk2          6376.000
       261   07 Jun 2027 08:31:14.418   07 Jun 2027 08:32:29.236            74.818                 Moscow          1178.500
       262   07 Jun 2027 10:02:53.497   07 Jun 2027 10:03:11.347            17.850                 Moscow          1662.500
       263   07 Jun 2027 10:04:32.230   07 Jun 2027 10:04:53.287            21.057              Murmansk2           238.000
       264   07 Jun 2027 10:05:00.959   07 Jun 2027 10:05:39.473            38.514              Murmansk2          3836.000
       265   07 Jun 2027 10:05:42.356   07 Jun 2027 10:06:12.007            29.651                 Moscow          1441.500
       266   07 Jun 2027 10:06:28.911   07 Jun 2027 10:07:38.295            69.384              Murmansk1          8452.000
       267   08 Jun 2027 03:49:19.520   08 Jun 2027 03:51:08.439           108.919               Magadan2         12376.500
       268   08 Jun 2027 03:51:09.548   08 Jun 2027 03:52:09.860            60.312                Novosib           554.500
       269   08 Jun 2027 03:52:10.915   08 Jun 2027 03:52:18.917             8.002                Norilsk           527.500
       270   08 Jun 2027 03:52:19.593   08 Jun 2027 03:52:23.068             3.475                Anadyr2           338.000
       271   08 Jun 2027 03:52:30.385   08 Jun 2027 03:52:57.801            27.416               Magadan2          3427.000
       272   08 Jun 2027 03:52:59.175   08 Jun 2027 03:53:09.036             9.861                Novosib           918.500
       273   08 Jun 2027 03:53:21.547   08 Jun 2027 03:54:02.382            40.835                Norilsk          5104.375
       274   08 Jun 2027 03:54:24.276   08 Jun 2027 03:55:57.966            93.690                Novosib         11711.250
       275   08 Jun 2027 03:56:02.696   08 Jun 2027 03:56:35.600            32.904               Magadan2          2751.875
       276   08 Jun 2027 03:56:41.832   08 Jun 2027 03:57:40.581            58.749                Novosib          3116.000
       277   08 Jun 2027 05:26:11.481   08 Jun 2027 05:27:08.177            56.696                Norilsk          6881.000
       278   08 Jun 2027 05:27:39.970   08 Jun 2027 05:29:46.540           126.570                Novosib         15821.250
       279   08 Jun 2027 05:30:03.865   08 Jun 2027 05:31:03.114            59.249              Murmansk1          7406.125
       280   08 Jun 2027 05:31:03.114   08 Jun 2027 05:31:42.939            39.825              Murmansk2          1331.625
       281   08 Jun 2027 05:31:53.749   08 Jun 2027 05:32:58.954            65.205              Murmansk2          5405.000
       282   08 Jun 2027 07:03:06.011   08 Jun 2027 07:04:07.128            61.117                Novosib          5647.500
       283   08 Jun 2027 07:04:07.507   08 Jun 2027 07:05:14.138            66.631                Irkutsk           189.500
       284   08 Jun 2027 07:05:15.937   08 Jun 2027 07:06:22.603            66.666                Irkutsk           899.500
       285   08 Jun 2027 07:06:25.242   08 Jun 2027 07:07:18.945            53.703              Murmansk1          1319.500
       286   08 Jun 2027 07:07:29.918   08 Jun 2027 07:08:11.482            41.564              Murmansk2          5003.000
       287   08 Jun 2027 08:39:42.426   08 Jun 2027 08:40:07.683            25.257                Norilsk          1022.500
       288   08 Jun 2027 08:40:08.317   08 Jun 2027 08:40:18.251             9.934              Murmansk2           317.000
       289   08 Jun 2027 08:40:28.602   08 Jun 2027 08:41:26.632            58.030              Murmansk1          5175.500
       290   08 Jun 2027 08:41:31.890   08 Jun 2027 08:42:42.433            70.543                Novosib          2629.000
       291   08 Jun 2027 08:42:45.015   08 Jun 2027 08:43:43.516            58.501              Murmansk1          1291.000
       292   08 Jun 2027 08:43:43.591   08 Jun 2027 08:44:08.967            25.376              Murmansk1            37.500
       293   08 Jun 2027 08:44:14.273   08 Jun 2027 08:44:59.575            45.302              Murmansk1          2653.000
       294   08 Jun 2027 10:17:54.856   08 Jun 2027 10:18:46.947            52.091                 Moscow           254.000
       295   08 Jun 2027 10:18:47.746   08 Jun 2027 10:19:25.358            37.612                 Moscow           399.500
       296   09 Jun 2027 04:02:13.620   09 Jun 2027 04:02:44.739            31.119               Magadan1          3675.000
       297   09 Jun 2027 04:02:48.499   09 Jun 2027 04:03:13.347            24.848               Magadan2          1880.000
       298   09 Jun 2027 04:03:28.214   09 Jun 2027 04:04:37.753            69.539                Novosib          7433.500
       299   09 Jun 2027 04:04:44.668   09 Jun 2027 04:04:47.731             3.063                Novosib           382.875
       300   09 Jun 2027 04:04:49.828   09 Jun 2027 04:05:32.048            42.220                Irkutsk          4123.125
       301   09 Jun 2027 04:05:32.956   09 Jun 2027 04:06:30.809            57.853               Magadan1           454.000
       302   09 Jun 2027 04:06:41.137   09 Jun 2027 04:07:28.716            47.579               Magadan1          5164.000
       303   09 Jun 2027 04:07:31.000   09 Jun 2027 04:08:04.575            33.575              Murmansk2          1142.000
       304   09 Jun 2027 04:08:09.131   09 Jun 2027 04:08:35.864            26.733               Magadan2          2278.000
       305   09 Jun 2027 04:08:39.249   09 Jun 2027 04:09:17.369            38.120              Murmansk2          1692.500
       306   09 Jun 2027 05:38:31.937   09 Jun 2027 05:39:00.876            28.939                Norilsk          1772.000
       307   09 Jun 2027 05:39:14.226   09 Jun 2027 05:40:09.784            55.558                Norilsk          6675.000
       308   09 Jun 2027 05:40:18.801   09 Jun 2027 05:41:06.390            47.589                Novosib          4508.500
       309   09 Jun 2027 05:41:13.789   09 Jun 2027 05:41:55.759            41.970                Irkutsk          3699.500
       310   09 Jun 2027 05:41:58.861   09 Jun 2027 05:43:03.293            64.432                Novosib          1551.000
       311   09 Jun 2027 05:43:04.650   09 Jun 2027 05:43:41.422            36.772              Murmansk1           678.500
       312   09 Jun 2027 05:43:41.556   09 Jun 2027 05:43:43.872             2.316                Novosib            67.000
       313   09 Jun 2027 05:43:47.204   09 Jun 2027 05:44:03.767            16.563                Novosib          1666.000
       314   09 Jun 2027 05:44:06.663   09 Jun 2027 05:44:56.761            50.098                Irkutsk          1448.000
       315   09 Jun 2027 07:15:57.167   09 Jun 2027 07:16:28.951            31.784              Murmansk2           515.500
       316   09 Jun 2027 07:16:39.272   09 Jun 2027 07:18:27.774           108.502                Irkutsk          5160.500
       317   09 Jun 2027 07:18:39.214   09 Jun 2027 07:19:36.497            57.283                Novosib          5720.000
       318   09 Jun 2027 07:19:45.569   09 Jun 2027 07:19:52.891             7.322                Irkutsk           915.250
       319   09 Jun 2027 07:19:55.808   09 Jun 2027 07:21:18.112            82.304              Murmansk1          5079.250
       320   09 Jun 2027 08:52:08.243   09 Jun 2027 08:53:20.458            72.215              Murmansk2          2618.000
       321   09 Jun 2027 08:53:26.134   09 Jun 2027 08:53:50.027            23.893                Novosib          2838.000
       322   09 Jun 2027 08:53:56.340   09 Jun 2027 08:54:43.387            47.047              Murmansk1          3156.500
       323   09 Jun 2027 08:54:43.440   09 Jun 2027 08:55:24.060            40.620                Norilsk            26.500
       324   09 Jun 2027 08:55:28.910   09 Jun 2027 08:55:53.624            24.714                Norilsk          2425.000
       325   09 Jun 2027 08:55:56.304   09 Jun 2027 08:56:10.103            13.799              Murmansk2          1340.000
       326   09 Jun 2027 08:56:10.461   09 Jun 2027 08:56:23.292            12.831                Norilsk           179.000
       327   10 Jun 2027 04:14:18.367   10 Jun 2027 04:14:34.544            16.177               Magadan2          1778.500
       328   10 Jun 2027 04:14:46.663   10 Jun 2027 04:15:42.148            55.485               Magadan2          6059.500
       329   10 Jun 2027 04:15:46.954   10 Jun 2027 04:16:08.099            21.145               Magadan2          2403.000
       330   10 Jun 2027 04:16:21.603   10 Jun 2027 04:17:29.674            68.071                Norilsk          6752.000
       331   10 Jun 2027 04:17:33.777   10 Jun 2027 04:18:02.832            29.055               Magadan1          2051.500
       332   10 Jun 2027 04:18:19.890   10 Jun 2027 04:19:39.424            79.534               Magadan2          8529.000
       333   10 Jun 2027 04:19:46.975   10 Jun 2027 04:20:17.150            30.175                Novosib          3771.875
       334   10 Jun 2027 04:20:23.034   10 Jun 2027 04:21:10.086            47.052              Murmansk1          2945.625
       335   10 Jun 2027 05:50:18.269   10 Jun 2027 05:51:06.567            48.298                Novosib          2506.500
       336   10 Jun 2027 05:51:10.756   10 Jun 2027 05:51:47.367            36.611                Irkutsk          2094.500
       337   10 Jun 2027 05:51:52.751   10 Jun 2027 05:51:54.216             1.465                Norilsk           183.125
       338   10 Jun 2027 05:51:58.531   10 Jun 2027 05:52:39.017            40.486                Novosib          4666.375
       339   10 Jun 2027 05:52:42.443   10 Jun 2027 05:53:23.564            41.121                Novosib          1713.000
       340   10 Jun 2027 05:53:34.689   10 Jun 2027 05:54:09.130            34.441                Novosib          4305.125
       341   10 Jun 2027 05:54:09.443   10 Jun 2027 05:54:30.270            20.827              Murmansk1          1413.875
       342   10 Jun 2027 05:54:39.635   10 Jun 2027 05:55:53.890            74.255                Irkutsk          4682.500
       343   10 Jun 2027 05:55:55.225   10 Jun 2027 05:56:03.629             8.404              Murmansk1           667.500
       344   10 Jun 2027 05:56:06.124   10 Jun 2027 05:56:56.112            49.988                Irkutsk          1247.500
       345   10 Jun 2027 07:28:04.675   10 Jun 2027 07:28:35.590            30.915                Irkutsk          1037.500
       346   10 Jun 2027 07:28:43.481   10 Jun 2027 07:29:35.563            52.082              Murmansk1          3945.500
       347   10 Jun 2027 07:29:42.559   10 Jun 2027 07:30:36.695            54.136                 Moscow          3498.000
       348   10 Jun 2027 07:30:37.983   10 Jun 2027 07:30:53.592            15.609                 Moscow           644.000
       349   10 Jun 2027 07:31:01.541   10 Jun 2027 07:31:48.098            46.557              Murmansk1          3974.500
       350   10 Jun 2027 07:31:55.057   10 Jun 2027 07:32:27.680            32.623                Norilsk          3479.500
       351   10 Jun 2027 07:32:29.349   10 Jun 2027 07:32:42.205            12.856                 Moscow           834.500
       352   10 Jun 2027 09:04:17.110   10 Jun 2027 09:05:13.195            56.085              Murmansk1          6308.000
       353   10 Jun 2027 09:05:15.112   10 Jun 2027 09:05:45.953            30.841                 Moscow           958.500
       354   10 Jun 2027 09:05:46.367   10 Jun 2027 09:05:51.765             5.398              Murmansk2           207.000
       355   10 Jun 2027 09:05:57.246   10 Jun 2027 09:06:34.742            37.496              Murmansk1          2740.500
       356   10 Jun 2027 09:06:38.259   10 Jun 2027 09:07:30.362            52.103                Norilsk          1758.500
       357   10 Jun 2027 09:07:37.422   10 Jun 2027 09:08:14.420            36.998                Norilsk          3530.000
       358   10 Jun 2027 09:08:27.518   10 Jun 2027 09:09:13.872            46.354                Norilsk          4499.000
       359   11 Jun 2027 04:26:11.443   11 Jun 2027 04:27:33.166            81.723                Norilsk         10215.375
       360   11 Jun 2027 04:27:41.854   11 Jun 2027 04:29:34.187           112.333               Magadan1         10979.125
       361   11 Jun 2027 04:29:41.246   11 Jun 2027 04:30:18.995            37.749                Irkutsk          3529.500
       362   11 Jun 2027 04:30:33.060   11 Jun 2027 04:31:43.186            70.126                Irkutsk          7032.500
       363   11 Jun 2027 04:32:06.641   11 Jun 2027 04:34:05.654           119.013              Murmansk2         11727.500
       364   11 Jun 2027 06:02:17.447   11 Jun 2027 06:03:28.553            71.106                Novosib           973.500
       365   11 Jun 2027 06:03:40.903   11 Jun 2027 06:04:51.171            70.268                Novosib          6175.000
       366   11 Jun 2027 06:05:03.039   11 Jun 2027 06:05:56.515            53.476                Norilsk          5934.000
       367   11 Jun 2027 06:05:56.970   11 Jun 2027 06:06:01.846             4.876                Irkutsk           227.500
       368   11 Jun 2027 06:06:05.304   11 Jun 2027 06:06:19.717            14.413                Norilsk          1729.000
       369   11 Jun 2027 06:06:27.868   11 Jun 2027 06:07:21.195            53.327                Novosib          4075.500
       370   11 Jun 2027 06:07:27.622   11 Jun 2027 06:07:31.423             3.801                Norilsk           475.125
       371   11 Jun 2027 06:07:36.771   11 Jun 2027 06:08:53.907            77.136                Irkutsk          5412.375
       372   11 Jun 2027 07:40:43.237   11 Jun 2027 07:41:56.617            73.380                Novosib          4920.000
       373   11 Jun 2027 07:42:03.263   11 Jun 2027 07:42:33.300            30.037                Norilsk          3323.000
       374   11 Jun 2027 07:42:35.794   11 Jun 2027 07:43:05.782            29.988                Irkutsk          1247.000
       375   11 Jun 2027 07:43:13.828   11 Jun 2027 07:43:47.038            33.210              Murmansk2          4023.000
       376   11 Jun 2027 07:43:47.723   11 Jun 2027 07:43:50.478             2.755                Novosib           342.500
       377   11 Jun 2027 07:44:00.638   11 Jun 2027 07:44:31.617            30.979                 Moscow          3872.375
       378   11 Jun 2027 07:44:57.597   11 Jun 2027 07:45:56.967            59.370                 Moscow          1207.625
       379   11 Jun 2027 09:14:13.171   11 Jun 2027 09:15:38.272            85.101                 Moscow         10324.500
       380   11 Jun 2027 09:16:04.053   11 Jun 2027 09:17:08.271            64.218                Novosib          5786.000
       381   11 Jun 2027 09:17:09.993   11 Jun 2027 09:17:42.521            32.528                Novosib           861.000
       382   11 Jun 2027 09:17:43.015   11 Jun 2027 09:18:29.374            46.359                 Moscow           247.000
       383   11 Jun 2027 09:18:33.741   11 Jun 2027 09:19:28.614            54.873                Norilsk          2183.500
       384   11 Jun 2027 09:19:31.961   11 Jun 2027 09:19:50.838            18.877                Norilsk          1673.500
       385   11 Jun 2027 09:19:51.501   11 Jun 2027 09:20:03.635            12.134              Murmansk1           331.500
       386   11 Jun 2027 09:20:06.454   11 Jun 2027 09:20:22.034            15.580                Novosib          1092.500
       387   11 Jun 2027 09:20:27.617   11 Jun 2027 09:20:51.400            23.783              Murmansk2           870.000
       388   11 Jun 2027 09:20:53.430   11 Jun 2027 09:21:02.727             9.297                 Moscow          1015.000
       389   11 Jun 2027 09:21:03.237   11 Jun 2027 09:22:52.964           109.727                 Moscow           255.000
       390   12 Jun 2027 03:00:57.536   12 Jun 2027 03:01:46.184            48.648                Irkutsk          4144.500
       391   12 Jun 2027 03:01:48.377   12 Jun 2027 03:02:14.951            26.574                Anadyr2          1096.500
       392   12 Jun 2027 03:02:37.866   12 Jun 2027 03:03:13.456            35.590                Anadyr2          2988.500
       393   12 Jun 2027 03:03:15.660   12 Jun 2027 03:03:39.863            24.203               Magadan2          1102.000
       394   12 Jun 2027 03:03:44.215   12 Jun 2027 03:04:13.314            29.099                Irkutsk          2176.000
       395   12 Jun 2027 03:04:24.817   12 Jun 2027 03:05:28.277            63.460                Norilsk          5751.500
       396   12 Jun 2027 03:05:36.288   12 Jun 2027 03:07:18.440           102.152                Anadyr2          4005.500
       397   12 Jun 2027 03:07:19.507   12 Jun 2027 03:08:16.671            57.164                Anadyr2           533.500
       398   12 Jun 2027 04:37:42.013   12 Jun 2027 04:38:35.176            53.163               Magadan2          4178.500
       399   12 Jun 2027 04:38:45.440   12 Jun 2027 04:39:27.854            42.414               Magadan1          5132.000
       400   12 Jun 2027 04:39:28.687   12 Jun 2027 04:39:44.929            16.242                Norilsk           416.500
       401   12 Jun 2027 04:39:49.402   12 Jun 2027 04:40:08.929            19.527                Irkutsk          2236.500
       402   12 Jun 2027 04:40:18.585   12 Jun 2027 04:41:16.067            57.482               Magadan1          4828.000
       403   12 Jun 2027 04:41:19.367   12 Jun 2027 04:41:43.028            23.661                Novosib          1650.000
       404   12 Jun 2027 04:41:47.103   12 Jun 2027 04:41:55.760             8.657                Norilsk          1082.125
       405   12 Jun 2027 04:41:57.273   12 Jun 2027 04:42:14.874            17.601               Magadan2          1711.875
       406   12 Jun 2027 04:42:21.614   12 Jun 2027 04:44:47.083           145.469                Irkutsk          3370.000
       407   12 Jun 2027 04:44:49.607   12 Jun 2027 04:45:01.667            12.060                Irkutsk          1262.000
       408   12 Jun 2027 04:45:41.679   12 Jun 2027 04:46:03.493            21.814              Murmansk1           245.000
       409   12 Jun 2027 06:14:38.709   12 Jun 2027 06:15:25.176            46.467                Irkutsk          1177.000
       410   12 Jun 2027 06:15:25.902   12 Jun 2027 06:15:35.394             9.492                Novosib           363.000
       411   12 Jun 2027 06:15:35.760   12 Jun 2027 06:15:56.459            20.699                Norilsk           183.000
       412   12 Jun 2027 06:16:15.500   12 Jun 2027 06:17:58.221           102.721                Norilsk          9520.500
       413   12 Jun 2027 06:18:05.461   12 Jun 2027 06:18:55.880            50.419                Norilsk          3620.000
       414   12 Jun 2027 06:18:57.336   12 Jun 2027 06:19:17.873            20.537                Novosib           728.000
       415   12 Jun 2027 06:19:21.263   12 Jun 2027 06:19:54.191            32.928                Norilsk          1695.000
       416   12 Jun 2027 06:19:56.687   12 Jun 2027 06:20:27.984            31.297                 Moscow          1248.000
       417   12 Jun 2027 06:20:46.966   12 Jun 2027 06:22:23.440            96.474                Norilsk          7654.500
       418   12 Jun 2027 07:52:35.622   12 Jun 2027 07:53:15.319            39.697              Murmansk1          2594.000
       419   12 Jun 2027 07:53:23.997   12 Jun 2027 07:54:00.880            36.883                Irkutsk          4339.000
       420   12 Jun 2027 07:54:05.410   12 Jun 2027 07:54:17.484            12.074                Norilsk          1509.250
       421   12 Jun 2027 07:54:22.904   12 Jun 2027 07:55:56.133            93.229                Novosib          3465.750
       422   12 Jun 2027 07:55:58.635   12 Jun 2027 07:56:18.309            19.674                 Moscow          1251.000
       423   12 Jun 2027 07:56:20.356   12 Jun 2027 07:56:44.350            23.994                Norilsk          1023.500
       424   12 Jun 2027 09:26:11.322   12 Jun 2027 09:28:37.363           146.041                 Moscow         13346.000
       425   12 Jun 2027 09:28:46.658   12 Jun 2027 09:29:50.220            63.562                 Moscow          4647.500
       426   12 Jun 2027 09:29:53.640   12 Jun 2027 09:30:38.750            45.110                Novosib          1710.000
       427   12 Jun 2027 09:30:40.543   12 Jun 2027 09:31:08.491            27.948                 Moscow           896.500
       428   12 Jun 2027 09:31:23.602   12 Jun 2027 09:32:40.804            77.202                 Moscow          7555.500
       429   12 Jun 2027 09:32:46.369   12 Jun 2027 09:33:22.931            36.562              Murmansk1          2782.500
       430   12 Jun 2027 09:33:24.446   12 Jun 2027 09:33:53.017            28.571                Norilsk           757.500
       431   13 Jun 2027 03:12:12.787   13 Jun 2027 03:12:41.793            29.006               Magadan1          1651.000
       432   13 Jun 2027 03:12:49.756   13 Jun 2027 03:13:14.589            24.833               Magadan2          3104.125
       433   13 Jun 2027 03:13:14.589   13 Jun 2027 03:13:27.366            12.777               Magadan1           877.375
       434   13 Jun 2027 03:13:49.397   13 Jun 2027 03:15:21.776            92.379                Anadyr2         11015.500
       435   13 Jun 2027 03:15:22.170   13 Jun 2027 03:15:52.261            30.091                Irkutsk           197.000
       436   13 Jun 2027 03:15:56.102   13 Jun 2027 03:16:24.591            28.489                Norilsk          1920.500
       437   13 Jun 2027 03:16:31.225   13 Jun 2027 03:17:24.037            52.812                Norilsk          3317.000
       438   13 Jun 2027 03:17:33.492   13 Jun 2027 03:19:18.688           105.196                Anadyr2          4727.500
       439   13 Jun 2027 03:19:20.814   13 Jun 2027 03:20:16.448            55.634                Anadyr2          1063.000
       440   13 Jun 2027 03:20:17.527   13 Jun 2027 03:20:26.581             9.054                Anadyr1           539.500
       441   13 Jun 2027 03:20:29.674   13 Jun 2027 03:21:00.664            30.990               Magadan2          1546.500
       442   13 Jun 2027 04:49:49.318   13 Jun 2027 04:50:51.985            62.667                Norilsk          2721.000
       443   13 Jun 2027 04:50:54.419   13 Jun 2027 04:51:07.290            12.871               Magadan1          1217.000
       444   13 Jun 2027 04:51:08.214   13 Jun 2027 04:51:23.564            15.350                Norilsk           462.000
       445   13 Jun 2027 04:51:38.615   13 Jun 2027 04:52:43.470            64.855               Magadan1          7525.500
       446   13 Jun 2027 04:52:44.812   13 Jun 2027 04:52:55.906            11.094               Magadan2           671.000
       447   13 Jun 2027 04:53:03.485   13 Jun 2027 04:53:46.296            42.811                Norilsk          3789.500
       448   13 Jun 2027 04:53:46.807   13 Jun 2027 04:53:51.872             5.065               Magadan2           255.500
       449   13 Jun 2027 04:53:53.080   13 Jun 2027 04:54:11.836            18.756                Norilsk           604.000
       450   13 Jun 2027 04:54:21.058   13 Jun 2027 04:55:01.658            40.600                Novosib          4611.000
       451   13 Jun 2027 04:55:10.632   13 Jun 2027 04:55:51.471            40.839               Magadan2          4487.000
       452   13 Jun 2027 04:55:54.019   13 Jun 2027 04:56:22.823            28.804              Murmansk2          1274.000
       453   13 Jun 2027 04:56:29.163   13 Jun 2027 04:57:44.888            75.725              Murmansk2          3170.000
       454   13 Jun 2027 06:26:27.274   13 Jun 2027 06:26:47.497            20.223                Irkutsk           313.500
       455   13 Jun 2027 06:26:55.568   13 Jun 2027 06:28:29.408            93.840                Irkutsk          4035.500
       456   13 Jun 2027 06:28:57.284   13 Jun 2027 06:31:12.980           135.696                Novosib         13938.000
       457   13 Jun 2027 06:31:15.908   13 Jun 2027 06:31:28.410            12.502                Norilsk          1464.000
       458   13 Jun 2027 06:31:41.797   13 Jun 2027 06:33:04.348            82.551              Murmansk2          6693.500
       459   13 Jun 2027 06:33:05.977   13 Jun 2027 06:33:09.218             3.241                Norilsk           405.125
       460   13 Jun 2027 06:33:11.591   13 Jun 2027 06:33:39.550            27.959                 Moscow           159.875
       461   13 Jun 2027 08:04:30.836   13 Jun 2027 08:04:52.256            21.420                Norilsk           187.000
       462   13 Jun 2027 08:05:01.687   13 Jun 2027 08:05:58.196            56.509                Norilsk          4715.500
       463   13 Jun 2027 08:06:03.267   13 Jun 2027 08:06:49.376            46.109                 Moscow          2535.500
       464   13 Jun 2027 08:06:52.563   13 Jun 2027 08:07:14.919            22.356                Novosib          1593.500
       465   13 Jun 2027 08:07:15.407   13 Jun 2027 08:07:26.895            11.488                 Moscow           244.000
       466   13 Jun 2027 08:07:27.771   13 Jun 2027 08:07:40.358            12.587                Norilsk           438.000
       467   13 Jun 2027 08:07:49.807   13 Jun 2027 08:08:30.129            40.322                Novosib          4724.500
       468   13 Jun 2027 08:08:40.528   13 Jun 2027 08:10:09.496            88.968                 Moscow          4786.500
       469   13 Jun 2027 09:38:31.977   13 Jun 2027 09:39:57.843            85.866                 Moscow          9738.500
       470   13 Jun 2027 09:40:01.431   13 Jun 2027 09:40:23.940            22.509                 Moscow          1794.000
       471   13 Jun 2027 09:40:36.398   13 Jun 2027 09:41:44.565            68.167                 Moscow          6229.000
       472   13 Jun 2027 09:41:51.380   13 Jun 2027 09:42:42.402            51.022              Murmansk1          3407.500
       473   13 Jun 2027 09:42:53.898   13 Jun 2027 09:44:08.380            74.482                 Moscow          5748.000
       474   13 Jun 2027 09:44:15.026   13 Jun 2027 09:45:21.644            66.618                Norilsk          3323.000
