uniorb/output/strategy_2/Drop/Drop_KinoSat_110205.txt

KinoSat_110205
-------------------------
    Access    *     Start Time (UTCG)     *     Stop Time (UTCG)  *   Duration (s)        *       Station  *  Data (Mbytes)
         1   01 Jun 2027 04:02:02.766   01 Jun 2027 04:03:20.289            77.523                Norilsk          9690.375
         2   01 Jun 2027 04:03:24.154   01 Jun 2027 04:04:17.094            52.940                Norilsk          5392.625
         3   01 Jun 2027 04:04:22.881   01 Jun 2027 04:04:57.183            34.302                Novosib          2893.500
         4   01 Jun 2027 04:04:58.733   01 Jun 2027 04:05:18.842            20.109                Norilsk           775.000
         5   01 Jun 2027 04:05:21.157   01 Jun 2027 04:05:45.563            24.406                Novosib          1157.500
         6   01 Jun 2027 04:05:48.713   01 Jun 2027 04:06:01.583            12.870              Murmansk1          1575.000
         7   01 Jun 2027 04:06:15.914   01 Jun 2027 04:07:19.795            63.881              Murmansk1          7165.500
         8   01 Jun 2027 04:07:27.578   01 Jun 2027 04:07:37.410             9.832                Novosib          1229.000
         9   01 Jun 2027 04:07:47.354   01 Jun 2027 04:09:35.973           108.619                Novosib          7634.500
        10   01 Jun 2027 05:38:43.675   01 Jun 2027 05:38:59.162            15.487                Norilsk          1935.875
        11   01 Jun 2027 05:39:17.071   01 Jun 2027 05:40:57.331           100.260                Irkutsk         12092.625
        12   01 Jun 2027 05:41:10.038   01 Jun 2027 05:42:13.300            63.262                 Moscow          6353.500
        13   01 Jun 2027 05:42:20.404   01 Jun 2027 05:42:42.272            21.868                Norilsk          2733.500
        14   01 Jun 2027 05:42:48.371   01 Jun 2027 05:43:24.928            36.557                Novosib          3868.000
        15   01 Jun 2027 05:43:26.673   01 Jun 2027 05:43:35.277             8.604              Murmansk1           872.500
        16   01 Jun 2027 05:43:41.294   01 Jun 2027 05:44:06.717            25.423                 Moscow          3008.500
        17   01 Jun 2027 07:15:25.559   01 Jun 2027 07:16:06.375            40.816                Novosib           812.000
        18   01 Jun 2027 07:16:28.153   01 Jun 2027 07:17:58.497            90.344                Norilsk         10889.000
        19   01 Jun 2027 07:17:59.757   01 Jun 2027 07:18:09.238             9.481              Murmansk2           630.000
        20   01 Jun 2027 07:18:17.546   01 Jun 2027 07:18:24.426             6.880                Novosib           860.000
        21   01 Jun 2027 07:18:33.011   01 Jun 2027 07:18:54.173            21.162                 Moscow          2645.250
        22   01 Jun 2027 07:18:58.715   01 Jun 2027 07:20:18.131            79.416                Norilsk          7212.250
        23   01 Jun 2027 08:53:18.901   01 Jun 2027 08:54:40.120            81.219                 Moscow          7484.500
        24   01 Jun 2027 08:55:23.077   01 Jun 2027 08:55:41.038            17.961              Murmansk1           234.500
        25   02 Jun 2027 04:14:02.655   02 Jun 2027 04:15:08.998            66.343                Norilsk          8292.875
        26   02 Jun 2027 04:15:14.164   02 Jun 2027 04:15:43.785            29.621                Irkutsk          3671.125
        27   02 Jun 2027 04:15:46.190   02 Jun 2027 04:16:12.790            26.600                Irkutsk          1202.500
        28   02 Jun 2027 04:16:16.251   02 Jun 2027 04:16:51.712            35.461                Norilsk          1730.500
        29   02 Jun 2027 04:17:02.244   02 Jun 2027 04:18:19.225            76.981                Novosib          5266.000
        30   02 Jun 2027 04:18:22.179   02 Jun 2027 04:18:39.602            17.423              Murmansk2          1477.000
        31   02 Jun 2027 04:18:46.624   02 Jun 2027 04:19:21.556            34.932              Murmansk1          3511.000
        32   02 Jun 2027 04:19:32.379   02 Jun 2027 04:19:59.063            26.684                Novosib          3335.500
        33   02 Jun 2027 04:20:06.013   02 Jun 2027 04:20:55.244            49.231              Murmansk1          5551.000
        34   02 Jun 2027 05:51:32.723   02 Jun 2027 05:52:12.744            40.021                Irkutsk          2569.000
        35   02 Jun 2027 05:52:13.848   02 Jun 2027 05:52:36.168            22.320                 Moscow           552.000
        36   02 Jun 2027 05:52:40.047   02 Jun 2027 05:53:32.607            52.560              Murmansk1          1939.500
        37   02 Jun 2027 05:53:33.714   02 Jun 2027 05:53:51.864            18.150                Norilsk           553.500
        38   02 Jun 2027 05:53:54.664   02 Jun 2027 05:54:12.375            17.711              Murmansk1          1400.000
        39   02 Jun 2027 05:54:25.114   02 Jun 2027 05:55:39.300            74.186                Irkutsk          6369.500
        40   02 Jun 2027 05:55:47.319   02 Jun 2027 05:56:23.531            36.212                 Moscow          4009.500
        41   02 Jun 2027 07:27:36.943   02 Jun 2027 07:27:51.216            14.273                Norilsk          1547.000
        42   02 Jun 2027 07:27:52.360   02 Jun 2027 07:28:04.276            11.916                Novosib           572.000
        43   02 Jun 2027 07:28:05.375   02 Jun 2027 07:28:17.042            11.667                Norilsk           549.500
        44   02 Jun 2027 07:28:19.115   02 Jun 2027 07:28:56.997            37.882                Novosib          1036.500
        45   02 Jun 2027 07:29:15.041   02 Jun 2027 07:30:38.813            83.772                 Moscow          9022.000
        46   02 Jun 2027 07:30:47.414   02 Jun 2027 07:31:25.212            37.798                Norilsk          4300.500
        47   02 Jun 2027 07:31:29.045   02 Jun 2027 07:32:36.471            67.426                Novosib          1916.500
        48   03 Jun 2027 04:26:26.214   03 Jun 2027 04:27:39.880            73.666                Novosib          3944.500
        49   03 Jun 2027 04:27:39.968   03 Jun 2027 04:27:42.351             2.383                Irkutsk            44.000
        50   03 Jun 2027 04:27:50.217   03 Jun 2027 04:27:54.531             4.314                Irkutsk           539.250
        51   03 Jun 2027 04:27:59.394   03 Jun 2027 04:29:10.791            71.397                Norilsk          5825.250
        52   03 Jun 2027 04:29:11.876   03 Jun 2027 04:29:34.502            22.626                Norilsk           542.500
        53   03 Jun 2027 04:29:37.243   03 Jun 2027 04:30:49.255            72.012                Norilsk          1370.500
        54   03 Jun 2027 04:31:12.885   03 Jun 2027 04:31:52.942            40.057                Norilsk          5007.125
        55   03 Jun 2027 04:32:01.058   03 Jun 2027 04:34:01.269           120.211              Murmansk1         10865.875
        56   03 Jun 2027 06:03:41.873   03 Jun 2027 06:04:07.375            25.502                Norilsk          3187.750
        57   03 Jun 2027 06:04:14.296   03 Jun 2027 06:04:56.203            41.907                Irkutsk          4263.750
        58   03 Jun 2027 06:05:04.334   03 Jun 2027 06:06:03.110            58.776                Novosib          4065.500
        59   03 Jun 2027 06:06:04.899   03 Jun 2027 06:06:19.554            14.655                Norilsk           894.500
        60   03 Jun 2027 06:06:22.999   03 Jun 2027 06:06:37.105            14.106              Murmansk1          1722.500
        61   03 Jun 2027 06:06:40.523   03 Jun 2027 06:07:06.165            25.642                Novosib          1709.000
        62   03 Jun 2027 06:07:13.007   03 Jun 2027 06:07:15.997             2.990                Norilsk           373.750
        63   03 Jun 2027 06:07:20.829   03 Jun 2027 06:07:55.314            34.485                Norilsk          4310.625
        64   03 Jun 2027 06:07:59.996   03 Jun 2027 06:08:36.744            36.748                 Moscow          3493.625
        65   03 Jun 2027 07:40:01.740   03 Jun 2027 07:40:59.753            58.013                 Moscow          6784.000
        66   03 Jun 2027 07:41:04.950   03 Jun 2027 07:41:35.140            30.190                 Moscow          2598.500
        67   03 Jun 2027 07:41:36.270   03 Jun 2027 07:41:56.638            20.368              Murmansk2           565.000
        68   03 Jun 2027 07:42:18.541   03 Jun 2027 07:44:08.522           109.981                Norilsk         10951.500
        69   03 Jun 2027 07:44:14.800   03 Jun 2027 07:44:42.921            28.121                 Moscow          3139.000
        70   04 Jun 2027 03:01:34.046   04 Jun 2027 03:01:49.270            15.224                Norilsk           811.500
        71   04 Jun 2027 03:02:03.970   04 Jun 2027 03:03:25.383            81.413               Magadan2          7350.000
        72   04 Jun 2027 03:03:29.389   04 Jun 2027 03:03:34.846             5.457                Irkutsk           682.125
        73   04 Jun 2027 03:03:48.663   04 Jun 2027 03:05:12.984            84.321                Norilsk          8229.375
        74   04 Jun 2027 03:05:14.934   04 Jun 2027 03:05:29.983            15.049                Novosib           975.000
        75   04 Jun 2027 03:05:35.041   04 Jun 2027 03:06:00.573            25.532                Norilsk          2529.000
        76   04 Jun 2027 03:06:01.708   04 Jun 2027 03:06:36.363            34.655                Norilsk           567.500
        77   04 Jun 2027 03:06:37.775   04 Jun 2027 03:06:58.849            21.074               Magadan2           706.000
        78   04 Jun 2027 03:07:02.769   04 Jun 2027 03:07:51.113            48.344              Murmansk2          1960.000
        79   04 Jun 2027 03:07:56.752   04 Jun 2027 03:08:52.359            55.607              Murmansk2          2819.500
        80   04 Jun 2027 04:38:01.235   04 Jun 2027 04:38:47.490            46.255                Norilsk          4785.500
        81   04 Jun 2027 04:39:00.346   04 Jun 2027 04:39:27.255            26.909                Norilsk          3363.625
        82   04 Jun 2027 04:39:29.416   04 Jun 2027 04:40:05.574            36.158                Novosib          4144.875
        83   04 Jun 2027 04:40:15.654   04 Jun 2027 04:40:59.323            43.669                Norilsk          5040.000
        84   04 Jun 2027 04:41:00.601   04 Jun 2027 04:41:09.222             8.621                Norilsk           639.000
        85   04 Jun 2027 04:41:10.992   04 Jun 2027 04:41:30.350            19.358              Murmansk2           885.000
        86   04 Jun 2027 04:41:35.976   04 Jun 2027 04:42:07.517            31.541                Irkutsk          2813.000
        87   04 Jun 2027 04:42:08.712   04 Jun 2027 04:42:34.620            25.908                Novosib           597.500
        88   04 Jun 2027 04:42:37.369   04 Jun 2027 04:42:43.448             6.079                Norilsk           759.875
        89   04 Jun 2027 04:42:56.946   04 Jun 2027 04:43:20.685            23.739              Murmansk1          2967.375
        90   04 Jun 2027 04:43:20.685   04 Jun 2027 04:44:10.066            49.381              Murmansk2          4396.250
        91   04 Jun 2027 04:44:37.798   04 Jun 2027 04:45:25.191            47.393              Murmansk1          3076.000
        92   04 Jun 2027 06:16:09.002   04 Jun 2027 06:16:44.061            35.059                Norilsk          1112.500
        93   04 Jun 2027 06:16:48.881   04 Jun 2027 06:17:14.973            26.092                Norilsk          2410.000
        94   04 Jun 2027 06:17:22.634   04 Jun 2027 06:18:10.444            47.810                Novosib          3830.500
        95   04 Jun 2027 06:18:10.884   04 Jun 2027 06:18:41.889            31.005                Novosib           220.000
        96   04 Jun 2027 06:18:48.322   04 Jun 2027 06:19:29.496            41.174              Murmansk1          3216.500
        97   04 Jun 2027 06:19:34.206   04 Jun 2027 06:20:01.640            27.434              Murmansk1          2355.000
        98   04 Jun 2027 07:51:29.094   04 Jun 2027 07:52:05.914            36.820              Murmansk2           982.500
        99   04 Jun 2027 07:52:08.376   04 Jun 2027 07:52:42.603            34.227                Novosib          1231.000
       100   04 Jun 2027 07:52:42.797   04 Jun 2027 07:53:41.842            59.045                Novosib            97.000
       101   04 Jun 2027 07:53:44.579   04 Jun 2027 07:54:24.442            39.863                Norilsk          1368.500
       102   04 Jun 2027 07:54:31.177   04 Jun 2027 07:55:19.527            48.350                Norilsk          3367.500
       103   04 Jun 2027 07:55:21.266   04 Jun 2027 07:55:36.667            15.401              Murmansk2           869.500
       104   04 Jun 2027 07:55:41.001   04 Jun 2027 07:55:51.974            10.973                Novosib           904.000
       105   04 Jun 2027 07:56:00.306   04 Jun 2027 07:56:05.413             5.107                Norilsk           436.500
       106   04 Jun 2027 07:56:09.961   04 Jun 2027 07:56:29.453            19.492                Norilsk          2274.000
       107   04 Jun 2027 07:56:35.377   04 Jun 2027 07:57:30.267            54.890                 Moscow          2962.000
       108   05 Jun 2027 03:13:12.477   05 Jun 2027 03:13:21.569             9.092               Magadan2          1136.500
       109   05 Jun 2027 03:13:21.569   05 Jun 2027 03:13:41.310            19.741               Magadan1          2196.000
       110   05 Jun 2027 03:13:43.270   05 Jun 2027 03:13:57.282            14.012               Magadan1           980.000
       111   05 Jun 2027 03:14:05.005   05 Jun 2027 03:15:04.876            59.871                Norilsk          3861.500
       112   05 Jun 2027 03:15:07.132   05 Jun 2027 03:15:37.448            30.316                Irkutsk          1128.000
       113   05 Jun 2027 03:15:40.809   05 Jun 2027 03:16:09.770            28.961                Norilsk          1680.500
       114   05 Jun 2027 03:16:13.353   05 Jun 2027 03:16:39.541            26.188                Norilsk          1791.500
       115   05 Jun 2027 03:16:41.353   05 Jun 2027 03:17:25.786            44.433               Magadan2           906.000
       116   05 Jun 2027 03:17:26.332   05 Jun 2027 03:18:24.200            57.868               Magadan1           273.000
       117   05 Jun 2027 03:18:24.771   05 Jun 2027 03:18:37.351            12.580                Irkutsk           285.500
       118   05 Jun 2027 03:18:37.985   05 Jun 2027 03:18:40.530             2.545               Magadan2           317.000
       119   05 Jun 2027 03:18:47.655   05 Jun 2027 03:19:43.830            56.175              Murmansk2          3562.500
       120   05 Jun 2027 03:19:48.588   05 Jun 2027 03:20:13.214            24.626              Murmansk1          2379.000
       121   05 Jun 2027 03:20:15.315   05 Jun 2027 03:20:30.971            15.656              Murmansk2          1050.500
       122   05 Jun 2027 03:20:32.764   05 Jun 2027 03:20:39.363             6.599                Irkutsk           824.875
       123   05 Jun 2027 03:20:50.765   05 Jun 2027 03:20:52.009             1.244                Novosib           155.500
       124   05 Jun 2027 03:20:57.890   05 Jun 2027 03:21:05.937             8.047                Norilsk           500.125
       125   05 Jun 2027 04:50:27.400   05 Jun 2027 04:51:34.584            67.184                Irkutsk          8143.000
       126   05 Jun 2027 04:51:37.491   05 Jun 2027 04:51:55.557            18.066                Irkutsk          1453.500
       127   05 Jun 2027 04:52:08.051   05 Jun 2027 04:53:28.353            80.302                Irkutsk          6247.000
       128   05 Jun 2027 04:53:31.589   05 Jun 2027 04:53:56.640            25.051                Norilsk          1618.000
       129   05 Jun 2027 04:54:01.655   05 Jun 2027 04:54:27.924            26.269              Murmansk2          2507.500
       130   05 Jun 2027 04:54:28.107   05 Jun 2027 04:54:43.806            15.699                Novosib            91.500
       131   05 Jun 2027 04:55:02.046   05 Jun 2027 04:55:43.646            41.600                Norilsk          5200.000
       132   05 Jun 2027 04:55:49.732   05 Jun 2027 04:56:50.087            60.355                 Moscow          6963.000
       133   05 Jun 2027 06:28:10.759   05 Jun 2027 06:28:43.993            33.234                Novosib           433.500
       134   05 Jun 2027 06:28:46.032   05 Jun 2027 06:29:36.395            50.363                 Moscow          1019.500
       135   05 Jun 2027 06:29:43.164   05 Jun 2027 06:30:17.807            34.643                Novosib          3384.500
       136   05 Jun 2027 06:30:19.037   05 Jun 2027 06:30:26.989             7.952              Murmansk1           615.000
       137   05 Jun 2027 06:30:32.958   05 Jun 2027 06:31:01.264            28.306                Norilsk          2984.500
       138   05 Jun 2027 06:31:11.431   05 Jun 2027 06:31:48.497            37.066                Norilsk          4633.250
       139   05 Jun 2027 06:31:50.880   05 Jun 2027 06:32:26.506            35.626                 Moscow          1641.750
       140   05 Jun 2027 08:01:28.253   05 Jun 2027 08:01:36.973             8.720                 Moscow          1090.000
       141   05 Jun 2027 08:01:57.979   05 Jun 2027 08:03:45.137           107.158                 Moscow         13394.750
       142   05 Jun 2027 08:03:47.355   05 Jun 2027 08:04:07.747            20.392              Murmansk2          2003.250
       143   05 Jun 2027 08:04:12.972   05 Jun 2027 08:04:22.486             9.514                 Moscow          1189.250
       144   05 Jun 2027 08:04:31.719   05 Jun 2027 08:05:29.316            57.597                Novosib          6039.750
       145   05 Jun 2027 08:05:37.849   05 Jun 2027 08:06:14.759            36.910              Murmansk1          4266.500
       146   05 Jun 2027 08:06:22.654   05 Jun 2027 08:07:06.525            43.871              Murmansk2          3947.500
       147   05 Jun 2027 08:07:12.648   05 Jun 2027 08:07:45.988            33.340                 Moscow          3061.500
       148   05 Jun 2027 08:08:03.524   05 Jun 2027 08:09:22.701            79.177                Norilsk          8768.000
       149   06 Jun 2027 03:25:30.212   06 Jun 2027 03:26:08.039            37.827               Magadan1          2947.500
       150   06 Jun 2027 03:26:15.411   06 Jun 2027 03:27:02.054            46.643               Magadan1          3686.000
       151   06 Jun 2027 03:27:07.275   06 Jun 2027 03:27:44.447            37.172                Irkutsk          2610.500
       152   06 Jun 2027 03:28:02.102   06 Jun 2027 03:29:37.895            95.793                Irkutsk          8827.500
       153   06 Jun 2027 03:29:38.285   06 Jun 2027 03:29:48.439            10.154                Norilsk           195.000
       154   06 Jun 2027 03:30:01.671   06 Jun 2027 03:30:48.413            46.742                Norilsk          5842.750
       155   06 Jun 2027 03:30:49.561   06 Jun 2027 03:31:40.569            51.008               Magadan2          1347.250
       156   06 Jun 2027 03:31:42.858   06 Jun 2027 03:32:06.610            23.752                Norilsk          1144.500
       157   06 Jun 2027 03:32:16.384   06 Jun 2027 03:33:01.484            45.100              Murmansk2          4887.000
       158   06 Jun 2027 05:02:28.068   06 Jun 2027 05:03:19.889            51.821                Norilsk          6477.625
       159   06 Jun 2027 05:03:46.374   06 Jun 2027 05:06:01.264           134.890                Irkutsk         14554.875
       160   06 Jun 2027 05:06:06.704   06 Jun 2027 05:07:42.372            95.668                Irkutsk          2720.000
       161   06 Jun 2027 05:08:02.053   06 Jun 2027 05:09:26.124            84.071                 Moscow          9840.500
       162   06 Jun 2027 06:40:12.532   06 Jun 2027 06:40:50.614            38.082                Norilsk          1455.500
       163   06 Jun 2027 06:41:07.344   06 Jun 2027 06:42:24.019            76.675                Novosib          8365.000
       164   06 Jun 2027 06:42:26.084   06 Jun 2027 06:42:43.689            17.605                 Moscow          1032.500
       165   06 Jun 2027 06:42:56.978   06 Jun 2027 06:43:45.923            48.945                Norilsk          6118.125
       166   06 Jun 2027 06:43:48.338   06 Jun 2027 06:44:46.149            57.811                 Moscow          1733.875
       167   06 Jun 2027 08:14:07.216   06 Jun 2027 08:15:06.452            59.236                 Moscow          7404.500
       168   06 Jun 2027 08:15:15.090   06 Jun 2027 08:16:43.055            87.965              Murmansk1          7670.500
       169   06 Jun 2027 08:17:35.396   06 Jun 2027 08:21:14.233           218.837              Murmansk2         26170.500
       170   07 Jun 2027 03:37:24.122   07 Jun 2027 03:37:48.975            24.853                Norilsk          2641.000
       171   07 Jun 2027 03:37:50.160   07 Jun 2027 03:38:19.147            28.987                Norilsk           592.500
       172   07 Jun 2027 03:38:22.451   07 Jun 2027 03:38:55.373            32.922                Novosib          1652.000
       173   07 Jun 2027 03:38:57.270   07 Jun 2027 03:40:07.695            70.425                Novosib           948.500
       174   07 Jun 2027 03:40:15.474   07 Jun 2027 03:41:03.586            48.112               Magadan2          3889.500
       175   07 Jun 2027 03:41:10.984   07 Jun 2027 03:42:18.851            67.867                Novosib          3699.000
       176   07 Jun 2027 03:42:26.494   07 Jun 2027 03:42:45.857            19.363               Magadan2          2420.375
       177   07 Jun 2027 03:42:45.857   07 Jun 2027 03:43:12.083            26.226               Magadan1          1401.125
       178   07 Jun 2027 03:43:15.011   07 Jun 2027 03:43:20.616             5.605                Novosib           700.625
       179   07 Jun 2027 03:43:20.799   07 Jun 2027 03:43:33.810            13.011                Norilsk           854.875
       180   07 Jun 2027 03:43:34.986   07 Jun 2027 03:43:47.111            12.125                Irkutsk           588.000
       181   07 Jun 2027 03:43:54.996   07 Jun 2027 03:44:31.844            36.848                Irkutsk          3942.500
       182   07 Jun 2027 03:44:44.328   07 Jun 2027 03:44:46.371             2.043                Irkutsk           255.375
       183   07 Jun 2027 03:44:55.053   07 Jun 2027 03:45:26.918            31.865                Norilsk          3983.125
       184   07 Jun 2027 03:45:27.423   07 Jun 2027 03:46:02.808            35.385                Novosib          2003.500
       185   07 Jun 2027 05:14:05.322   07 Jun 2027 05:14:23.301            17.979                Novosib          1041.000
       186   07 Jun 2027 05:14:30.842   07 Jun 2027 05:14:56.324            25.482                Novosib          3185.250
       187   07 Jun 2027 05:15:04.139   07 Jun 2027 05:15:55.610            51.471                Irkutsk          4492.750
       188   07 Jun 2027 05:16:05.269   07 Jun 2027 05:16:17.060            11.791                Norilsk          1473.875
       189   07 Jun 2027 05:16:18.091   07 Jun 2027 05:17:37.597            79.506                Irkutsk          3871.125
       190   07 Jun 2027 05:17:40.530   07 Jun 2027 05:18:03.800            23.270                 Moscow          1466.500
       191   07 Jun 2027 05:18:16.519   07 Jun 2027 05:19:06.961            50.442                Novosib          6305.250
       192   07 Jun 2027 05:19:09.317   07 Jun 2027 05:19:20.614            11.297              Murmansk2          1232.250
       193   07 Jun 2027 05:19:21.327   07 Jun 2027 05:19:41.400            20.073                Norilsk           356.500
       194   07 Jun 2027 05:19:41.473   07 Jun 2027 05:19:42.637             1.164                 Moscow            36.500
       195   07 Jun 2027 05:19:42.665   07 Jun 2027 05:20:28.130            45.465                 Moscow            14.000
       196   07 Jun 2027 05:20:31.429   07 Jun 2027 05:20:55.249            23.820                Norilsk          1649.500
       197   07 Jun 2027 06:52:14.392   07 Jun 2027 06:52:41.091            26.699                Norilsk          1355.500
       198   07 Jun 2027 06:52:51.789   07 Jun 2027 06:53:37.823            46.034                Norilsk          5349.000
       199   07 Jun 2027 06:53:39.002   07 Jun 2027 06:53:49.231            10.229              Murmansk2           589.500
       200   07 Jun 2027 06:53:50.849   07 Jun 2027 06:54:29.284            38.435                Novosib           809.000
       201   07 Jun 2027 06:54:29.619   07 Jun 2027 06:55:06.207            36.588                Novosib           167.500
       202   07 Jun 2027 06:55:20.461   07 Jun 2027 06:56:24.818            64.357                Novosib          7127.000
       203   07 Jun 2027 08:26:12.223   07 Jun 2027 08:26:20.045             7.822                 Moscow           977.750
       204   07 Jun 2027 08:26:20.980   07 Jun 2027 08:27:06.572            45.592              Murmansk1          4501.750
       205   07 Jun 2027 08:27:09.359   07 Jun 2027 08:27:30.536            21.177                 Moscow          1393.500
       206   07 Jun 2027 08:27:33.582   07 Jun 2027 08:28:00.652            27.070                 Moscow          1523.000
       207   07 Jun 2027 08:28:02.436   07 Jun 2027 08:28:34.690            32.254                 Moscow           892.000
       208   07 Jun 2027 08:28:35.453   07 Jun 2027 08:29:31.637            56.184              Murmansk1           381.500
       209   07 Jun 2027 08:29:41.425   07 Jun 2027 08:30:26.824            45.399              Murmansk1          4894.000
       210   07 Jun 2027 08:30:30.791   07 Jun 2027 08:30:55.843            25.052                Norilsk          1983.500
       211   07 Jun 2027 08:30:59.557   07 Jun 2027 08:31:14.418            14.861                 Moscow          1857.000
       212   07 Jun 2027 08:31:20.231   07 Jun 2027 08:31:48.534            28.303                Norilsk          2906.500
       213   07 Jun 2027 08:31:58.419   07 Jun 2027 08:32:48.007            49.588                Norilsk          4942.500
       214   08 Jun 2027 03:49:25.621   08 Jun 2027 03:49:36.308            10.687                Novosib           170.500
       215   08 Jun 2027 03:49:38.174   08 Jun 2027 03:50:28.239            50.065                Novosib           933.000
       216   08 Jun 2027 03:50:41.311   08 Jun 2027 03:51:06.929            25.618                Norilsk          3202.250
       217   08 Jun 2027 03:51:08.439   08 Jun 2027 03:52:03.819            55.380               Magadan2          4088.750
       218   08 Jun 2027 03:52:06.885   08 Jun 2027 03:52:20.244            13.359               Magadan2          1533.000
       219   08 Jun 2027 03:52:20.462   08 Jun 2027 03:52:39.982            19.520                Irkutsk           109.000
       220   08 Jun 2027 03:52:57.801   08 Jun 2027 03:54:28.468            90.667               Magadan2          8909.500
       221   08 Jun 2027 03:54:35.392   08 Jun 2027 03:55:16.315            40.923              Murmansk2          3462.000
       222   08 Jun 2027 03:55:17.302   08 Jun 2027 03:55:25.383             8.081                Norilsk           493.500
       223   08 Jun 2027 03:55:32.345   08 Jun 2027 03:56:03.262            30.917              Murmansk1          3481.000
       224   08 Jun 2027 03:56:08.989   08 Jun 2027 03:56:47.641            38.652                Norilsk          2863.500
       225   08 Jun 2027 05:26:34.222   08 Jun 2027 05:27:06.407            32.185                Novosib          2998.000
       226   08 Jun 2027 05:27:08.177   08 Jun 2027 05:27:54.368            46.191                Norilsk           885.000
       227   08 Jun 2027 05:27:55.400   08 Jun 2027 05:28:11.282            15.882                Irkutsk           516.000
       228   08 Jun 2027 05:28:13.871   08 Jun 2027 05:28:18.028             4.157                Norilsk           519.625
       229   08 Jun 2027 05:28:19.964   08 Jun 2027 05:29:24.061            64.097              Murmansk1          1742.875
       230   08 Jun 2027 05:29:27.901   08 Jun 2027 05:29:44.182            16.281                 Moscow          1920.000
       231   08 Jun 2027 05:29:46.540   08 Jun 2027 05:30:58.991            72.451                Novosib          1179.000
       232   08 Jun 2027 05:31:03.114   08 Jun 2027 05:31:42.939            39.825              Murmansk1          2061.500
       233   08 Jun 2027 05:31:44.355   08 Jun 2027 05:32:01.836            17.481                 Moscow           708.000
       234   08 Jun 2027 05:32:06.029   08 Jun 2027 05:32:29.926            23.897                 Moscow          2096.500
       235   08 Jun 2027 05:32:37.760   08 Jun 2027 05:34:17.427            99.667                Novosib          2559.500
       236   08 Jun 2027 07:03:40.030   08 Jun 2027 07:04:00.150            20.120              Murmansk1          2515.000
       237   08 Jun 2027 07:04:00.150   08 Jun 2027 07:05:02.093            61.943              Murmansk2          4450.000
       238   08 Jun 2027 07:05:05.290   08 Jun 2027 07:05:28.624            23.334                Norilsk          1598.500
       239   08 Jun 2027 07:05:42.476   08 Jun 2027 07:06:41.365            58.889                 Moscow          6926.000
       240   08 Jun 2027 07:06:47.541   08 Jun 2027 07:07:42.274            54.733                Norilsk          3088.000
       241   08 Jun 2027 07:07:45.852   08 Jun 2027 07:08:15.858            30.006                Norilsk          1789.000
       242   08 Jun 2027 07:08:20.029   08 Jun 2027 07:08:55.590            35.561                Novosib           894.000
       243   08 Jun 2027 08:38:32.753   08 Jun 2027 08:39:00.978            28.225                 Moscow          1854.500
       244   08 Jun 2027 08:40:16.049   08 Jun 2027 08:40:46.091            30.042                 Moscow          3503.500
       245   08 Jun 2027 08:41:26.632   08 Jun 2027 08:44:08.967           162.335              Murmansk2         20270.500
       246   09 Jun 2027 04:02:00.634   09 Jun 2027 04:03:28.214            87.580                Novosib          4559.500
       247   09 Jun 2027 04:03:40.069   09 Jun 2027 04:04:31.722            51.653                Norilsk          5927.500
       248   09 Jun 2027 04:04:37.753   09 Jun 2027 04:04:44.668             6.915                Novosib           864.375
       249   09 Jun 2027 04:04:47.731   09 Jun 2027 04:05:36.194            48.463                Novosib          3682.625
       250   09 Jun 2027 04:05:43.600   09 Jun 2027 04:06:14.041            30.441                Norilsk          3703.000
       251   09 Jun 2027 04:06:15.945   09 Jun 2027 04:06:34.899            18.954              Murmansk1           952.000
       252   09 Jun 2027 04:06:36.381   09 Jun 2027 04:07:05.551            29.170              Murmansk1           741.000
       253   09 Jun 2027 04:07:09.772   09 Jun 2027 04:07:31.000            21.228              Murmansk2          2110.500
       254   09 Jun 2027 04:07:34.563   09 Jun 2027 04:08:32.875            58.312                Irkutsk          1781.500
       255   09 Jun 2027 04:08:39.249   09 Jun 2027 04:09:17.369            38.120              Murmansk1           197.500
       256   09 Jun 2027 05:38:51.959   09 Jun 2027 05:39:18.227            26.268                Novosib          1801.000
       257   09 Jun 2027 05:39:31.460   09 Jun 2027 05:40:25.048            53.588                Irkutsk          6616.500
       258   09 Jun 2027 05:40:33.626   09 Jun 2027 05:41:11.339            37.713              Murmansk2          4289.000
       259   09 Jun 2027 05:41:25.178   09 Jun 2027 05:42:27.729            62.551                 Moscow          6919.500
       260   09 Jun 2027 05:42:28.084   09 Jun 2027 05:42:55.828            27.744              Murmansk2           177.500
       261   09 Jun 2027 05:43:03.293   09 Jun 2027 05:43:41.556            38.263                Novosib          3732.500
       262   09 Jun 2027 05:43:43.872   09 Jun 2027 05:43:47.204             3.332                Novosib           416.500
       263   09 Jun 2027 05:43:49.923   09 Jun 2027 05:44:12.395            22.472              Murmansk1          2101.000
       264   09 Jun 2027 05:44:17.772   09 Jun 2027 05:45:40.317            82.545                 Moscow          2688.500
       265   09 Jun 2027 07:15:54.161   09 Jun 2027 07:16:56.640            62.479                Norilsk          7656.000
       266   09 Jun 2027 07:17:08.510   09 Jun 2027 07:18:39.214            90.704                Novosib          5935.000
       267   09 Jun 2027 07:18:47.799   09 Jun 2027 07:18:56.347             8.548                 Moscow          1068.500
       268   09 Jun 2027 07:19:06.356   09 Jun 2027 07:20:33.007            86.651                Norilsk          8228.500
       269   09 Jun 2027 08:53:20.458   09 Jun 2027 08:53:44.670            24.212              Murmansk1           530.500
       270   09 Jun 2027 08:53:56.340   09 Jun 2027 08:54:43.387            47.047              Murmansk2          5835.000
       271   09 Jun 2027 08:54:43.720   09 Jun 2027 08:55:39.645            55.925              Murmansk2           166.500
       272   10 Jun 2027 04:14:19.786   10 Jun 2027 04:15:37.015            77.229                Norilsk          9653.625
       273   10 Jun 2027 04:15:47.634   10 Jun 2027 04:16:21.603            33.969                Norilsk          4246.125
       274   10 Jun 2027 04:16:27.467   10 Jun 2027 04:17:16.170            48.703                Novosib          4766.250
       275   10 Jun 2027 04:17:18.276   10 Jun 2027 04:17:38.994            20.718                Novosib          1053.000
       276   10 Jun 2027 04:17:48.287   10 Jun 2027 04:19:08.468            80.181                Norilsk          4646.500
       277   10 Jun 2027 04:19:10.462   10 Jun 2027 04:19:34.074            23.612                Norilsk           997.000
       278   10 Jun 2027 04:19:37.294   10 Jun 2027 04:20:23.034            45.740              Murmansk2          1610.000
       279   10 Jun 2027 04:20:27.167   10 Jun 2027 04:21:10.086            42.919              Murmansk2          2066.500
       280   10 Jun 2027 05:51:47.367   10 Jun 2027 05:52:27.382            40.015                Irkutsk          2138.500
       281   10 Jun 2027 05:52:28.646   10 Jun 2027 05:52:52.387            23.741                 Moscow           632.000
       282   10 Jun 2027 05:52:56.891   10 Jun 2027 05:53:44.231            47.340                Irkutsk          2252.000
       283   10 Jun 2027 05:53:48.524   10 Jun 2027 05:54:06.459            17.935                Norilsk          2146.500
       284   10 Jun 2027 05:54:09.130   10 Jun 2027 05:55:06.452            57.322                Novosib          1335.500
       285   10 Jun 2027 05:55:09.800   10 Jun 2027 05:55:49.491            39.691                 Moscow          1674.000
       286   10 Jun 2027 05:55:55.225   10 Jun 2027 05:56:21.866            26.641              Murmansk2          2867.000
       287   10 Jun 2027 07:27:55.668   10 Jun 2027 07:28:29.573            33.905              Murmansk1          3373.500
       288   10 Jun 2027 07:28:33.407   10 Jun 2027 07:29:11.636            38.229                Novosib          1917.000
       289   10 Jun 2027 07:29:12.073   10 Jun 2027 07:30:03.304            51.231                Norilsk           218.500
       290   10 Jun 2027 07:30:06.636   10 Jun 2027 07:30:22.406            15.770                Norilsk          1666.000
       291   10 Jun 2027 07:30:28.756   10 Jun 2027 07:31:01.541            32.785              Murmansk2          3175.000
       292   10 Jun 2027 07:31:09.255   10 Jun 2027 07:31:44.209            34.954                Novosib          3857.000
       293   10 Jun 2027 07:31:48.098   10 Jun 2027 07:32:05.092            16.994              Murmansk1          1944.500
       294   10 Jun 2027 07:32:11.398   10 Jun 2027 07:33:08.884            57.486              Murmansk2          2141.000
       295   11 Jun 2027 04:26:44.125   11 Jun 2027 04:27:54.295            70.170                Novosib          5794.500
       296   11 Jun 2027 04:27:54.865   11 Jun 2027 04:27:57.432             2.567                Irkutsk           285.000
       297   11 Jun 2027 04:28:04.740   11 Jun 2027 04:29:14.793            70.053                Irkutsk          3654.000
       298   11 Jun 2027 04:29:23.947   11 Jun 2027 04:30:44.204            80.257                Novosib          4577.000
       299   11 Jun 2027 04:30:54.723   11 Jun 2027 04:31:37.517            42.794              Murmansk1          5259.500
       300   11 Jun 2027 04:31:43.186   11 Jun 2027 04:32:50.826            67.640                Irkutsk          2834.500
       301   11 Jun 2027 06:03:54.337   11 Jun 2027 06:04:46.784            52.447              Murmansk2          2686.000
       302   11 Jun 2027 06:04:51.171   11 Jun 2027 06:05:19.223            28.052                Novosib          2193.500
       303   11 Jun 2027 06:05:36.318   11 Jun 2027 06:06:27.868            51.550                Novosib          6443.750
       304   11 Jun 2027 06:06:31.598   11 Jun 2027 06:07:36.771            65.173                Irkutsk          3968.750
       305   11 Jun 2027 06:07:45.438   11 Jun 2027 06:08:30.659            45.221                 Moscow          4333.500
       306   11 Jun 2027 07:40:17.450   11 Jun 2027 07:42:03.263           105.813                Norilsk          7395.500
       307   11 Jun 2027 07:42:11.263   11 Jun 2027 07:42:54.371            43.108              Murmansk2          4000.000
       308   11 Jun 2027 07:42:58.822   11 Jun 2027 07:43:13.464            14.642                 Moscow          1830.250
       309   11 Jun 2027 07:43:13.828   11 Jun 2027 07:43:20.555             6.727              Murmansk1           577.250
       310   11 Jun 2027 07:43:40.054   11 Jun 2027 07:44:31.354            51.300                Norilsk          6412.500
       311   11 Jun 2027 07:44:31.617   11 Jun 2027 07:44:57.597            25.980                 Moscow          3247.500
       312   11 Jun 2027 07:45:00.387   11 Jun 2027 07:45:23.185            22.798              Murmansk2           221.000
       313   12 Jun 2027 03:01:49.634   12 Jun 2027 03:02:06.901            17.267                Norilsk          1257.000
       314   12 Jun 2027 03:02:18.534   12 Jun 2027 03:03:15.660            57.126               Magadan2          5816.500
       315   12 Jun 2027 03:03:27.164   12 Jun 2027 03:04:24.817            57.653                Norilsk          5752.000
       316   12 Jun 2027 03:04:28.626   12 Jun 2027 03:04:47.267            18.641                Novosib          1904.500
       317   12 Jun 2027 03:04:47.413   12 Jun 2027 03:05:04.277            16.864               Magadan1            73.000
       318   12 Jun 2027 03:05:17.267   12 Jun 2027 03:06:09.391            52.124               Magadan2          6495.000
       319   12 Jun 2027 03:06:10.789   12 Jun 2027 03:06:23.046            12.257                Novosib           699.000
       320   12 Jun 2027 03:06:29.584   12 Jun 2027 03:07:25.563            55.979               Magadan2          3269.000
       321   12 Jun 2027 03:07:26.494   12 Jun 2027 03:07:43.834            17.340                Norilsk           465.500
       322   12 Jun 2027 03:07:52.812   12 Jun 2027 03:08:23.277            30.465                Novosib          3808.125
       323   12 Jun 2027 03:08:27.269   12 Jun 2027 03:08:49.615            22.346                Irkutsk          2676.875
       324   12 Jun 2027 03:08:59.382   12 Jun 2027 03:09:17.442            18.060                Novosib          2051.000
       325   12 Jun 2027 04:38:18.298   12 Jun 2027 04:39:15.205            56.907                Norilsk          5965.000
       326   12 Jun 2027 04:39:25.584   12 Jun 2027 04:39:49.402            23.818                Irkutsk          2977.250
       327   12 Jun 2027 04:40:08.929   12 Jun 2027 04:41:50.996           102.067                Irkutsk         11975.750
       328   12 Jun 2027 04:41:55.760   12 Jun 2027 04:42:51.887            56.127                Norilsk          2382.000
       329   12 Jun 2027 04:42:52.390   12 Jun 2027 04:42:55.168             2.778                Novosib           251.500
       330   12 Jun 2027 04:42:58.499   12 Jun 2027 04:43:25.059            26.560                Novosib          1665.500
       331   12 Jun 2027 04:43:25.204   12 Jun 2027 04:44:10.119            44.915                Norilsk            72.500
       332   12 Jun 2027 04:44:27.091   12 Jun 2027 04:45:41.679            74.588              Murmansk2          8486.000
       333   12 Jun 2027 06:16:29.630   12 Jun 2027 06:17:16.118            46.488                Irkutsk          3954.500
       334   12 Jun 2027 06:17:18.446   12 Jun 2027 06:17:47.258            28.812                 Moscow          1164.000
       335   12 Jun 2027 06:17:48.746   12 Jun 2027 06:18:07.693            18.947                Irkutsk           744.000
       336   12 Jun 2027 06:18:14.907   12 Jun 2027 06:18:46.278            31.371              Murmansk2          3607.000
       337   12 Jun 2027 06:18:55.880   12 Jun 2027 06:19:21.263            25.383                Norilsk          3172.875
       338   12 Jun 2027 06:19:21.666   12 Jun 2027 06:21:22.215           120.549                Novosib          1829.625
       339   12 Jun 2027 07:51:46.895   12 Jun 2027 07:52:23.577            36.682                Novosib          2304.500
       340   12 Jun 2027 07:52:26.643   12 Jun 2027 07:52:51.143            24.500                 Moscow          1533.000
       341   12 Jun 2027 07:52:51.851   12 Jun 2027 07:52:55.698             3.847                 Moscow           354.000
       342   12 Jun 2027 07:52:57.183   12 Jun 2027 07:53:56.451            59.268                Novosib           742.500
       343   12 Jun 2027 07:53:56.795   12 Jun 2027 07:54:10.365            13.570              Murmansk2           172.000
       344   12 Jun 2027 07:54:17.484   12 Jun 2027 07:55:36.269            78.785                Norilsk          3559.500
       345   12 Jun 2027 07:55:40.050   12 Jun 2027 07:56:15.385            35.335                Norilsk          1890.500
       346   12 Jun 2027 07:56:18.309   12 Jun 2027 07:56:30.165            11.856                 Moscow          1462.000
       347   12 Jun 2027 07:56:44.350   12 Jun 2027 07:57:26.255            41.905                Norilsk          5238.125
       348   12 Jun 2027 07:57:41.748   12 Jun 2027 07:58:20.223            38.475              Murmansk1          1854.375
       349   13 Jun 2027 03:13:27.366   13 Jun 2027 03:13:36.273             8.907               Magadan1          1113.375
       350   13 Jun 2027 03:13:40.521   13 Jun 2027 03:14:00.799            20.278                Novosib          2534.750
       351   13 Jun 2027 03:14:08.162   13 Jun 2027 03:15:01.961            53.799                Irkutsk          5623.375
       352   13 Jun 2027 03:15:08.400   13 Jun 2027 03:16:03.657            55.257               Magadan2          3219.500
       353   13 Jun 2027 03:16:08.075   13 Jun 2027 03:16:34.424            26.349                Novosib          2209.000
       354   13 Jun 2027 03:16:35.850   13 Jun 2027 03:17:43.532            67.682                Irkutsk           713.000
       355   13 Jun 2027 03:17:50.033   13 Jun 2027 03:18:26.994            36.961                Novosib          3250.500
       356   13 Jun 2027 03:18:38.773   13 Jun 2027 03:19:29.477            50.704                Irkutsk          5889.500
       357   13 Jun 2027 03:19:35.415   13 Jun 2027 03:20:27.024            51.609                Irkutsk          2969.000
       358   13 Jun 2027 03:20:32.281   13 Jun 2027 03:21:17.933            45.652              Murmansk2          2628.500
       359   13 Jun 2027 04:50:40.908   13 Jun 2027 04:51:41.963            61.055                Irkutsk          7391.000
       360   13 Jun 2027 04:51:46.347   13 Jun 2027 04:52:10.280            23.933                Irkutsk          2192.000
       361   13 Jun 2027 04:52:11.577   13 Jun 2027 04:52:17.320             5.743                Norilsk           648.500
       362   13 Jun 2027 04:52:22.741   13 Jun 2027 04:53:42.520            79.779                Irkutsk          2710.500
       363   13 Jun 2027 04:53:44.190   13 Jun 2027 04:53:51.319             7.129                Novosib           835.000
       364   13 Jun 2027 04:53:52.438   13 Jun 2027 04:53:59.494             7.056                Irkutsk           559.500
       365   13 Jun 2027 04:54:04.445   13 Jun 2027 04:56:20.235           135.790                Irkutsk          2475.500
       366   13 Jun 2027 04:56:22.823   13 Jun 2027 04:56:42.573            19.750              Murmansk1          1294.000
       367   13 Jun 2027 04:57:00.912   13 Jun 2027 04:57:25.031            24.119                Norilsk          2892.500
       368   13 Jun 2027 06:28:25.386   13 Jun 2027 06:29:04.288            38.902                Norilsk           474.000
       369   13 Jun 2027 06:29:04.919   13 Jun 2027 06:29:54.410            49.491                 Moscow           315.500
       370   13 Jun 2027 06:30:04.956   13 Jun 2027 06:30:50.202            45.246              Murmansk2          5273.000
       371   13 Jun 2027 06:31:02.352   13 Jun 2027 06:32:01.027            58.675                 Moscow          6075.000
       372   13 Jun 2027 06:32:01.620   13 Jun 2027 06:32:07.138             5.518              Murmansk1           296.500
       373   13 Jun 2027 06:32:19.164   13 Jun 2027 06:33:05.977            46.813                Norilsk          5851.625
       374   13 Jun 2027 06:33:09.218   13 Jun 2027 06:33:18.441             9.223                Norilsk           161.375
       375   13 Jun 2027 08:01:44.022   13 Jun 2027 08:02:16.375            32.353                 Moscow          4044.125
       376   13 Jun 2027 08:02:23.218   13 Jun 2027 08:03:07.337            44.119                 Moscow          4775.375
       377   13 Jun 2027 08:03:18.798   13 Jun 2027 08:04:10.098            51.300              Murmansk2          5730.500
       378   13 Jun 2027 08:04:22.981   13 Jun 2027 08:05:53.404            90.423              Murmansk1          6441.500
       379   13 Jun 2027 08:05:55.490   13 Jun 2027 08:06:52.563            57.073                Novosib          1043.000
       380   13 Jun 2027 08:06:54.210   13 Jun 2027 08:07:05.976            11.766                 Moscow           823.500
       381   13 Jun 2027 08:07:06.446   13 Jun 2027 08:07:22.149            15.703              Murmansk1           235.000
       382   13 Jun 2027 08:07:26.895   13 Jun 2027 08:08:02.300            35.405                 Moscow          2373.000
       383   13 Jun 2027 08:08:18.494   13 Jun 2027 08:09:28.096            69.602                Norilsk          8097.000
       384   13 Jun 2027 08:09:37.156   13 Jun 2027 08:10:20.430            43.274              Murmansk2           454.500
