uniorb/output/strategy_2/Drop/Drop_KinoSat_111903.txt

KinoSat_111903
-------------------------
    Access    *     Start Time (UTCG)     *     Stop Time (UTCG)  *   Duration (s)        *       Station  *  Data (Mbytes)
         1   01 Jun 2027 03:23:21.395   01 Jun 2027 03:23:45.783            24.388              Murmansk2           762.125
         2   01 Jun 2027 03:23:50.926   01 Jun 2027 03:24:31.186            40.260              Murmansk2          1258.125
         3   01 Jun 2027 03:24:38.181   01 Jun 2027 03:25:08.315            30.134              Murmansk1           941.688
         4   01 Jun 2027 03:25:31.094   01 Jun 2027 03:25:48.387            17.293                Novosib           540.406
         5   01 Jun 2027 03:25:57.846   01 Jun 2027 03:26:01.080             3.234              Murmansk2           101.063
         6   01 Jun 2027 03:26:04.584   01 Jun 2027 03:26:31.780            27.196                Norilsk           849.875
         7   01 Jun 2027 03:26:32.143   01 Jun 2027 03:28:08.066            95.923                Irkutsk          2997.594
         8   01 Jun 2027 03:28:47.748   01 Jun 2027 03:30:06.982            79.234                Novosib          2476.062
         9   01 Jun 2027 04:10:03.388   01 Jun 2027 04:11:32.352            88.964            RioGallegos          2780.125
        10   01 Jun 2027 04:12:36.575   01 Jun 2027 04:14:04.648            88.073            RioGallegos          2752.281
        11   01 Jun 2027 05:00:28.213   01 Jun 2027 05:00:53.947            25.734              Murmansk1           804.188
        12   01 Jun 2027 05:00:53.947   01 Jun 2027 05:01:08.715            14.768              Murmansk2           461.500
        13   01 Jun 2027 05:01:52.438   01 Jun 2027 05:04:46.520           174.082              Murmansk2          5440.062
        14   01 Jun 2027 05:04:46.520   01 Jun 2027 05:05:39.587            53.067              Murmansk1          1658.344
        15   01 Jun 2027 05:05:39.587   01 Jun 2027 05:05:44.399             4.812              Murmansk2           150.375
        16   01 Jun 2027 05:05:45.840   01 Jun 2027 05:06:40.084            54.244                Novosib          1695.125
        17   01 Jun 2027 06:36:18.342   01 Jun 2027 06:37:29.052            70.710                Novosib          2209.688
        18   01 Jun 2027 06:39:02.639   01 Jun 2027 06:39:24.387            21.748                 Moscow           679.625
        19   01 Jun 2027 06:39:46.042   01 Jun 2027 06:41:35.902           109.860              Murmansk2          3433.125
        20   01 Jun 2027 06:41:35.902   01 Jun 2027 06:41:53.813            17.911              Murmansk1           559.719
        21   01 Jun 2027 06:42:07.763   01 Jun 2027 06:42:59.617            51.854                 Moscow          1620.438
        22   01 Jun 2027 06:43:46.745   01 Jun 2027 06:44:20.584            33.839                 Moscow          1057.469
        23   01 Jun 2027 06:44:42.708   01 Jun 2027 06:44:58.322            15.614                 Moscow           487.937
        24   01 Jun 2027 06:57:28.384   01 Jun 2027 07:02:56.277           327.893               CapeTown         10246.656
        25   01 Jun 2027 08:02:31.093   01 Jun 2027 08:06:55.769           264.676                Anadyr1          8271.125
        26   01 Jun 2027 08:06:58.709   01 Jun 2027 08:08:23.542            84.833              Murmansk2          2651.031
        27   01 Jun 2027 08:09:11.290   01 Jun 2027 08:09:57.053            45.763              Murmansk2          1430.094
        28   01 Jun 2027 08:10:04.459   01 Jun 2027 08:10:36.473            32.014                 Moscow          1000.437
        29   01 Jun 2027 08:16:20.916   01 Jun 2027 08:16:23.157             2.241                 Moscow            70.031
        30   01 Jun 2027 08:17:55.779   01 Jun 2027 08:18:31.612            35.833                 Moscow          1119.781
        31   01 Jun 2027 09:32:27.452   01 Jun 2027 09:33:08.933            41.481                Anadyr1          1296.281
        32   01 Jun 2027 09:36:39.703   01 Jun 2027 09:38:37.476           117.773                Anadyr2          3680.406
        33   01 Jun 2027 09:38:49.340   01 Jun 2027 09:39:35.020            45.680                Anadyr1          1427.500
        34   01 Jun 2027 09:39:59.763   01 Jun 2027 09:42:34.992           155.229                Anadyr2          4850.906
        35   01 Jun 2027 11:08:29.033   01 Jun 2027 11:08:49.185            20.152               Magadan1           629.750
        36   01 Jun 2027 11:11:54.896   01 Jun 2027 11:13:09.113            74.217               Magadan2          2319.281
        37   01 Jun 2027 11:14:19.931   01 Jun 2027 11:17:58.175           218.244               Magadan1          6820.125
        38   01 Jun 2027 14:24:23.356   01 Jun 2027 14:24:38.531            15.175                Irkutsk           474.219
        39   01 Jun 2027 15:49:45.548   01 Jun 2027 15:54:25.057           279.509                  Delhi          8734.656
        40   01 Jun 2027 15:58:14.062   01 Jun 2027 15:59:30.699            76.637                Novosib          2394.906
        41   01 Jun 2027 16:03:08.834   01 Jun 2027 16:05:02.229           113.395                Novosib          3543.594
        42   01 Jun 2027 17:43:55.026   01 Jun 2027 17:45:31.941            96.915                Norilsk          3028.594
        43   01 Jun 2027 19:12:28.118   01 Jun 2027 19:18:56.495           388.377                 Moscow         12136.781
        44   01 Jun 2027 20:22:43.351   01 Jun 2027 20:27:53.581           310.230               CapeTown          9694.687
        45   01 Jun 2027 20:55:30.176   01 Jun 2027 20:59:41.978           251.802              Murmansk2          7868.812
        46   01 Jun 2027 22:38:20.820   01 Jun 2027 22:41:05.384           164.564                Anadyr1          5142.625
        47   01 Jun 2027 22:41:22.418   01 Jun 2027 22:42:07.018            44.600                Norilsk          1393.750
        48   01 Jun 2027 22:42:22.710   01 Jun 2027 22:43:46.311            83.601               Magadan1          2612.531
        49   01 Jun 2027 22:43:46.311   01 Jun 2027 22:44:21.537            35.226               Magadan2          1100.813
        50   01 Jun 2027 22:45:10.753   01 Jun 2027 22:45:54.952            44.199               Magadan1          1381.219
        51   01 Jun 2027 23:33:01.043   01 Jun 2027 23:35:41.792           160.749            RioGallegos          5023.406
        52   02 Jun 2027 00:14:02.063   02 Jun 2027 00:14:58.973            56.910                Anadyr2          1778.437
        53   02 Jun 2027 00:15:06.447   02 Jun 2027 00:15:25.350            18.903                Anadyr1           590.719
        54   02 Jun 2027 00:16:09.377   02 Jun 2027 00:17:59.177           109.800                Norilsk          3431.250
        55   02 Jun 2027 00:18:23.544   02 Jun 2027 00:19:51.690            88.146               Magadan1          2754.563
        56   02 Jun 2027 00:19:51.690   02 Jun 2027 00:20:55.607            63.917               Magadan2          1997.406
        57   02 Jun 2027 00:21:10.585   02 Jun 2027 00:21:37.548            26.963                Irkutsk           842.594
        58   02 Jun 2027 00:22:46.055   02 Jun 2027 00:23:23.446            37.391                Irkutsk          1168.469
        59   02 Jun 2027 00:23:51.640   02 Jun 2027 00:24:18.497            26.857                Novosib           839.281
        60   02 Jun 2027 00:24:43.706   02 Jun 2027 00:25:09.723            26.017                Irkutsk           813.031
        61   02 Jun 2027 00:34:24.110   02 Jun 2027 00:36:09.074           104.964                Sumatra          3280.125
        62   02 Jun 2027 00:40:50.799   02 Jun 2027 00:40:53.875             3.076                Sumatra            96.125
        63   02 Jun 2027 00:46:02.800   02 Jun 2027 00:46:19.826            17.026                Sumatra           532.062
        64   02 Jun 2027 01:08:02.888   02 Jun 2027 01:08:38.480            35.592            RioGallegos          1112.250
        65   02 Jun 2027 01:09:07.378   02 Jun 2027 01:09:49.937            42.559            RioGallegos          1329.969
        66   02 Jun 2027 01:12:30.228   02 Jun 2027 01:12:41.987            11.759            RioGallegos           367.469
        67   02 Jun 2027 01:16:33.924   02 Jun 2027 01:16:48.840            14.916            RioGallegos           466.125
        68   02 Jun 2027 01:17:47.613   02 Jun 2027 01:18:10.903            23.290            RioGallegos           727.813
        69   02 Jun 2027 01:48:55.966   02 Jun 2027 01:50:00.040            64.074                Anadyr1          2002.312
        70   02 Jun 2027 01:51:05.993   02 Jun 2027 01:51:14.170             8.177                Anadyr1           255.531
        71   02 Jun 2027 01:51:37.922   02 Jun 2027 01:51:48.693            10.771                Anadyr1           336.594
        72   02 Jun 2027 01:52:05.747   02 Jun 2027 01:53:24.018            78.271                Norilsk          2445.969
        73   02 Jun 2027 01:53:34.371   02 Jun 2027 01:53:39.260             4.889                Norilsk           152.781
        74   02 Jun 2027 01:53:46.181   02 Jun 2027 01:54:10.109            23.928               Magadan2           747.750
        75   02 Jun 2027 01:55:58.239   02 Jun 2027 01:58:09.543           131.304                Irkutsk          4103.250
        76   02 Jun 2027 01:58:53.050   02 Jun 2027 01:59:14.429            21.379                Irkutsk           668.094
        77   02 Jun 2027 01:59:34.147   02 Jun 2027 01:59:56.389            22.242                Irkutsk           695.063
        78   02 Jun 2027 02:04:16.845   02 Jun 2027 02:04:29.793            12.948                  Delhi           404.625
        79   02 Jun 2027 02:04:57.903   02 Jun 2027 02:07:21.961           144.058                  Delhi          4501.813
        80   02 Jun 2027 02:10:54.949   02 Jun 2027 02:13:32.845           157.896                Sumatra          4934.250
        81   02 Jun 2027 02:47:30.932   02 Jun 2027 02:47:39.016             8.084            RioGallegos           252.625
        82   02 Jun 2027 02:51:00.560   02 Jun 2027 02:52:09.769            69.209            RioGallegos          2162.781
        83   02 Jun 2027 03:35:10.550   02 Jun 2027 03:35:13.080             2.530              Murmansk1            79.063
        84   02 Jun 2027 03:35:41.285   02 Jun 2027 03:36:58.378            77.093              Murmansk2          2409.156
        85   02 Jun 2027 03:36:58.378   02 Jun 2027 03:38:42.152           103.774              Murmansk1          3242.937
        86   02 Jun 2027 03:38:55.309   02 Jun 2027 03:39:13.344            18.035                Novosib           563.594
        87   02 Jun 2027 03:39:22.027   02 Jun 2027 03:39:40.685            18.658                  Delhi           583.063
        88   02 Jun 2027 03:39:43.309   02 Jun 2027 03:40:41.754            58.445                Novosib          1826.406
        89   02 Jun 2027 03:41:07.135   02 Jun 2027 03:41:13.709             6.574                Irkutsk           205.437
        90   02 Jun 2027 03:41:29.741   02 Jun 2027 03:41:52.072            22.331                Novosib           697.844
        91   02 Jun 2027 03:41:57.293   02 Jun 2027 03:42:09.192            11.899                Irkutsk           371.844
        92   02 Jun 2027 04:23:49.033   02 Jun 2027 04:23:58.968             9.935            RioGallegos           310.469
        93   02 Jun 2027 05:12:43.862   02 Jun 2027 05:12:57.277            13.415              Murmansk2           419.219
        94   02 Jun 2027 05:14:28.122   02 Jun 2027 05:14:31.610             3.488                Norilsk           109.000
        95   02 Jun 2027 05:14:36.057   02 Jun 2027 05:18:07.263           211.206                 Moscow          6600.188
        96   02 Jun 2027 05:18:55.573   02 Jun 2027 05:19:11.894            16.321                 Moscow           510.031
        97   02 Jun 2027 05:20:07.608   02 Jun 2027 05:20:19.561            11.953                 Moscow           373.531
        98   02 Jun 2027 05:21:12.605   02 Jun 2027 05:21:23.644            11.039                 Moscow           344.969
        99   02 Jun 2027 05:34:18.870   02 Jun 2027 05:43:36.454           557.584               CapeTown         17424.500
       100   02 Jun 2027 06:30:15.533   02 Jun 2027 06:33:25.578           190.045                Anadyr2          5938.906
       101   02 Jun 2027 06:34:32.329   02 Jun 2027 06:35:10.002            37.673                Anadyr2          1177.281
       102   02 Jun 2027 06:36:09.149   02 Jun 2027 06:36:48.170            39.021                Anadyr2          1219.406
       103   02 Jun 2027 06:50:10.128   02 Jun 2027 06:50:18.742             8.614                Norilsk           269.187
       104   02 Jun 2027 06:50:37.788   02 Jun 2027 06:51:48.143            70.355              Murmansk1          2198.594
       105   02 Jun 2027 06:51:52.952   02 Jun 2027 06:53:05.446            72.494              Murmansk1          2265.438
       106   02 Jun 2027 06:53:05.446   02 Jun 2027 06:55:08.961           123.515              Murmansk2          3859.844
       107   02 Jun 2027 06:55:08.995   02 Jun 2027 06:55:25.438            16.443                 Moscow           513.844
       108   02 Jun 2027 06:56:33.841   02 Jun 2027 06:57:03.822            29.981                 Moscow           936.906
       109   02 Jun 2027 07:09:44.943   02 Jun 2027 07:15:02.818           317.875               CapeTown          9933.594
       110   02 Jun 2027 08:14:32.567   02 Jun 2027 08:17:54.487           201.920                Anadyr1          6310.000
       111   02 Jun 2027 08:17:54.487   02 Jun 2027 08:18:56.985            62.498                Anadyr2          1953.063
       112   02 Jun 2027 08:22:11.096   02 Jun 2027 08:23:38.444            87.348                 Moscow          2729.625
       113   02 Jun 2027 09:45:00.422   02 Jun 2027 09:46:06.168            65.746                Anadyr1          2054.563
       114   02 Jun 2027 09:48:32.173   02 Jun 2027 09:51:41.154           188.981                Anadyr1          5905.656
       115   02 Jun 2027 09:51:41.154   02 Jun 2027 09:52:40.966            59.812                Anadyr2          1869.125
       116   02 Jun 2027 09:53:59.769   02 Jun 2027 09:54:30.833            31.064                Anadyr2           970.750
       117   02 Jun 2027 11:20:19.420   02 Jun 2027 11:25:03.719           284.299               Magadan2          8884.344
       118   02 Jun 2027 11:25:44.913   02 Jun 2027 11:25:47.788             2.875                Novosib            89.844
       119   02 Jun 2027 11:26:01.494   02 Jun 2027 11:28:34.467           152.973               Magadan2          4780.406
       120   02 Jun 2027 11:28:34.467   02 Jun 2027 11:29:31.657            57.190               Magadan1          1787.187
       121   02 Jun 2027 11:29:46.411   02 Jun 2027 11:30:11.982            25.571                Irkutsk           799.094
       122   02 Jun 2027 11:30:15.776   02 Jun 2027 11:31:16.815            61.039              Murmansk1          1907.469
       123   02 Jun 2027 12:04:57.267   02 Jun 2027 12:05:09.311            12.044            RioGallegos           376.375
       124   02 Jun 2027 12:06:09.778   02 Jun 2027 12:08:06.597           116.819            RioGallegos          3650.594
       125   02 Jun 2027 12:53:31.816   02 Jun 2027 12:57:44.048           252.232                Irkutsk          7882.250
       126   02 Jun 2027 13:42:59.421   02 Jun 2027 13:45:42.882           163.461            RioGallegos          5108.156
       127   02 Jun 2027 14:17:14.769   02 Jun 2027 14:22:00.974           286.205                Sumatra          8943.906
       128   02 Jun 2027 14:32:53.992   02 Jun 2027 14:35:54.330           180.338                Irkutsk          5635.562
       129   02 Jun 2027 16:02:40.669   02 Jun 2027 16:10:27.184           466.515                  Delhi         14578.594
       130   02 Jun 2027 16:12:15.339   02 Jun 2027 16:15:20.800           185.461                Novosib          5795.656
       131   02 Jun 2027 17:58:54.193   02 Jun 2027 18:00:21.449            87.256              Murmansk2          2726.750
       132   02 Jun 2027 18:57:55.494   02 Jun 2027 19:00:28.348           152.854               CapeTown          4776.687
       133   02 Jun 2027 19:25:38.023   02 Jun 2027 19:29:28.404           230.381                 Moscow          7199.406
       134   02 Jun 2027 19:31:00.099   02 Jun 2027 19:31:58.982            58.883              Murmansk1          1840.094
       135   02 Jun 2027 19:32:50.667   02 Jun 2027 19:34:28.976            98.309              Murmansk2          3072.156
       136   02 Jun 2027 20:35:10.516   02 Jun 2027 20:38:37.107           206.591               CapeTown          6455.969
       137   02 Jun 2027 21:08:51.333   02 Jun 2027 21:11:06.200           134.867              Murmansk1          4214.594
       138   02 Jun 2027 21:20:05.050   02 Jun 2027 21:20:26.172            21.122               Magadan2           660.062
       139   02 Jun 2027 21:23:03.859   02 Jun 2027 21:23:27.779            23.920               Magadan1           747.500
       140   02 Jun 2027 21:25:35.787   02 Jun 2027 21:25:52.920            17.133               Magadan1           535.406
       141   02 Jun 2027 22:50:21.992   02 Jun 2027 22:55:32.900           310.908                Anadyr2          9715.875
       142   02 Jun 2027 22:55:44.142   02 Jun 2027 22:56:14.955            30.813                Norilsk           962.906
       143   02 Jun 2027 22:56:19.685   02 Jun 2027 22:57:33.932            74.247               Magadan2          2320.219
       144   02 Jun 2027 22:57:33.932   02 Jun 2027 22:57:48.878            14.946               Magadan1           467.062
       145   02 Jun 2027 23:01:42.735   02 Jun 2027 23:01:49.554             6.819               Magadan2           213.094
       146   02 Jun 2027 23:02:22.522   02 Jun 2027 23:02:58.066            35.544               Magadan1          1110.750
       147   02 Jun 2027 23:04:45.652   02 Jun 2027 23:04:58.651            12.999               Magadan2           406.219
       148   02 Jun 2027 23:44:47.961   02 Jun 2027 23:47:46.950           178.989            RioGallegos          5593.406
       149   02 Jun 2027 23:49:53.601   02 Jun 2027 23:50:17.313            23.712            RioGallegos           741.000
       150   02 Jun 2027 23:50:38.397   02 Jun 2027 23:50:57.212            18.815            RioGallegos           587.969
       151   03 Jun 2027 00:25:59.434   03 Jun 2027 00:26:57.454            58.020                Anadyr1          1813.125
       152   03 Jun 2027 00:27:14.008   03 Jun 2027 00:27:26.900            12.892                Anadyr2           402.875
       153   03 Jun 2027 00:27:26.900   03 Jun 2027 00:27:40.628            13.728                Anadyr1           429.000
       154   03 Jun 2027 00:28:10.120   03 Jun 2027 00:30:01.377           111.257                Norilsk          3476.781
       155   03 Jun 2027 00:30:39.812   03 Jun 2027 00:32:30.397           110.585               Magadan1          3455.781
       156   03 Jun 2027 00:33:20.207   03 Jun 2027 00:33:53.518            33.311                Irkutsk          1040.969
       157   03 Jun 2027 00:34:19.208   03 Jun 2027 00:35:37.119            77.911                Novosib          2434.719
       158   03 Jun 2027 00:36:25.139   03 Jun 2027 00:36:36.099            10.960                Novosib           342.500
       159   03 Jun 2027 00:37:40.644   03 Jun 2027 00:37:41.150             0.506                Irkutsk            15.813
       160   03 Jun 2027 00:46:08.692   03 Jun 2027 00:48:34.504           145.812                Sumatra          4556.625
       161   03 Jun 2027 01:23:34.063   03 Jun 2027 01:23:40.667             6.604            RioGallegos           206.375
       162   03 Jun 2027 01:23:58.613   03 Jun 2027 01:24:40.099            41.486            RioGallegos          1296.438
       163   03 Jun 2027 01:28:41.848   03 Jun 2027 01:28:51.619             9.771            RioGallegos           305.344
       164   03 Jun 2027 01:29:40.234   03 Jun 2027 01:30:06.852            26.618            RioGallegos           831.813
       165   03 Jun 2027 01:32:31.896   03 Jun 2027 01:32:55.917            24.021            RioGallegos           750.656
       166   03 Jun 2027 02:00:44.429   03 Jun 2027 02:01:19.821            35.392                Anadyr1          1106.000
       167   03 Jun 2027 02:01:34.412   03 Jun 2027 02:02:14.004            39.592                Anadyr1          1237.250
       168   03 Jun 2027 02:04:08.192   03 Jun 2027 02:05:15.355            67.163                Norilsk          2098.844
       169   03 Jun 2027 02:05:19.021   03 Jun 2027 02:05:45.777            26.756               Magadan2           836.125
       170   03 Jun 2027 02:08:01.199   03 Jun 2027 02:11:11.277           190.078                Irkutsk          5939.937
       171   03 Jun 2027 02:18:24.910   03 Jun 2027 02:20:09.722           104.812                  Delhi          3275.375
       172   03 Jun 2027 02:28:13.713   03 Jun 2027 02:29:50.994            97.281                Sumatra          3040.031
       173   03 Jun 2027 02:59:07.573   03 Jun 2027 03:00:22.915            75.342            RioGallegos          2354.438
       174   03 Jun 2027 03:48:14.609   03 Jun 2027 03:48:32.481            17.872                Novosib           558.500
       175   03 Jun 2027 03:48:46.572   03 Jun 2027 03:51:19.520           152.948              Murmansk1          4779.625
       176   03 Jun 2027 03:51:54.578   03 Jun 2027 03:53:03.776            69.198                Norilsk          2162.438
       177   03 Jun 2027 05:24:57.529   03 Jun 2027 05:24:59.453             1.924              Murmansk1            60.125
       178   03 Jun 2027 05:25:16.523   03 Jun 2027 05:25:51.233            34.710                Novosib          1084.688
       179   03 Jun 2027 05:26:14.028   03 Jun 2027 05:26:55.819            41.791                Novosib          1305.969
       180   03 Jun 2027 05:27:03.672   03 Jun 2027 05:27:39.038            35.366                Norilsk          1105.187
       181   03 Jun 2027 05:27:42.816   03 Jun 2027 05:28:31.170            48.354              Murmansk1          1511.062
       182   03 Jun 2027 05:28:31.170   03 Jun 2027 05:29:06.666            35.496              Murmansk2          1109.250
       183   03 Jun 2027 05:29:06.666   03 Jun 2027 05:29:23.317            16.651              Murmansk1           520.344
       184   03 Jun 2027 05:29:31.452   03 Jun 2027 05:29:46.454            15.002                Novosib           468.813
       185   03 Jun 2027 05:29:58.450   03 Jun 2027 05:31:00.183            61.733                 Moscow          1929.156
       186   03 Jun 2027 05:33:21.544   03 Jun 2027 05:34:03.283            41.739                 Moscow          1304.344
       187   03 Jun 2027 05:45:58.437   03 Jun 2027 05:47:20.842            82.405               CapeTown          2575.156
       188   03 Jun 2027 06:49:44.297   03 Jun 2027 06:51:00.407            76.110                Anadyr1          2378.438
       189   03 Jun 2027 06:56:47.461   03 Jun 2027 06:57:28.118            40.657              Murmansk2          1270.531
       190   03 Jun 2027 07:00:28.385   03 Jun 2027 07:01:14.167            45.782                 Moscow          1430.687
       191   03 Jun 2027 07:01:23.780   03 Jun 2027 07:01:33.790            10.010                Norilsk           312.812
       192   03 Jun 2027 07:01:43.108   03 Jun 2027 07:01:58.587            15.479                Norilsk           483.719
       193   03 Jun 2027 07:02:20.063   03 Jun 2027 07:02:24.430             4.367                Norilsk           136.469
       194   03 Jun 2027 07:02:30.096   03 Jun 2027 07:03:23.234            53.138              Murmansk1          1660.562
       195   03 Jun 2027 07:03:26.585   03 Jun 2027 07:03:47.770            21.185                 Moscow           662.031
       196   03 Jun 2027 07:04:32.644   03 Jun 2027 07:05:14.431            41.787                 Moscow          1305.844
       197   03 Jun 2027 07:22:08.129   03 Jun 2027 07:23:44.242            96.113               CapeTown          3003.531
       198   03 Jun 2027 07:27:00.739   03 Jun 2027 07:27:14.843            14.104               CapeTown           440.750
       199   03 Jun 2027 08:23:18.818   03 Jun 2027 08:23:45.361            26.543               Magadan1           829.469
       200   03 Jun 2027 08:23:58.025   03 Jun 2027 08:25:11.377            73.352                Anadyr2          2292.250
       201   03 Jun 2027 08:25:25.320   03 Jun 2027 08:26:36.069            70.749               Magadan1          2210.906
       202   03 Jun 2027 08:27:04.009   03 Jun 2027 08:28:21.674            77.665                Anadyr2          2427.031
       203   03 Jun 2027 08:35:54.222   03 Jun 2027 08:36:07.698            13.476                 Moscow           421.125
       204   03 Jun 2027 08:37:22.140   03 Jun 2027 08:37:39.875            17.735                 Moscow           554.219
       205   03 Jun 2027 09:15:41.435   03 Jun 2027 09:15:50.535             9.100            RioGallegos           284.375
       206   03 Jun 2027 09:56:59.217   03 Jun 2027 09:57:58.015            58.798               Magadan1          1837.438
       207   03 Jun 2027 09:58:19.190   03 Jun 2027 09:58:28.781             9.591                Anadyr2           299.719
       208   03 Jun 2027 09:58:28.781   03 Jun 2027 10:02:17.745           228.964                Anadyr1          7155.125
       209   03 Jun 2027 10:02:45.695   03 Jun 2027 10:06:24.925           219.230                Anadyr2          6850.938
       210   03 Jun 2027 11:34:56.709   03 Jun 2027 11:35:31.852            35.143                Irkutsk          1098.219
       211   03 Jun 2027 11:36:16.483   03 Jun 2027 11:36:37.156            20.673                Irkutsk           646.031
       212   03 Jun 2027 11:37:09.054   03 Jun 2027 11:38:10.981            61.927                Irkutsk          1935.219
       213   03 Jun 2027 11:38:11.070   03 Jun 2027 11:39:06.794            55.724               Magadan1          1741.375
       214   03 Jun 2027 11:39:15.933   03 Jun 2027 11:39:53.392            37.459                Novosib          1170.594
       215   03 Jun 2027 11:40:01.429   03 Jun 2027 11:40:27.300            25.871                Irkutsk           808.469
       216   03 Jun 2027 11:40:29.908   03 Jun 2027 11:41:05.346            35.438                Irkutsk          1107.437
       217   03 Jun 2027 11:41:15.697   03 Jun 2027 11:41:38.109            22.412               Magadan2           700.375
       218   03 Jun 2027 11:41:39.490   03 Jun 2027 11:41:52.418            12.928              Murmansk2           404.000
       219   03 Jun 2027 11:42:09.287   03 Jun 2027 11:42:18.043             8.756              Murmansk2           273.625
       220   03 Jun 2027 11:42:18.043   03 Jun 2027 11:42:44.745            26.702              Murmansk1           834.438
       221   03 Jun 2027 11:43:14.385   03 Jun 2027 11:43:23.604             9.219              Murmansk2           288.094
       222   03 Jun 2027 11:45:58.081   03 Jun 2027 11:46:14.690            16.609              Murmansk2           519.031
       223   03 Jun 2027 12:17:00.896   03 Jun 2027 12:17:57.851            56.955            RioGallegos          1779.844
       224   03 Jun 2027 12:20:16.466   03 Jun 2027 12:20:37.883            21.417            RioGallegos           669.281
       225   03 Jun 2027 12:52:03.428   03 Jun 2027 12:54:50.966           167.538                Sumatra          5235.562
       226   03 Jun 2027 13:05:42.837   03 Jun 2027 13:06:04.736            21.899                Irkutsk           684.344
       227   03 Jun 2027 13:07:12.384   03 Jun 2027 13:08:02.447            50.063                Novosib          1564.469
       228   03 Jun 2027 13:09:28.744   03 Jun 2027 13:10:14.132            45.388                Irkutsk          1418.375
       229   03 Jun 2027 13:10:21.372   03 Jun 2027 13:11:24.469            63.097                Norilsk          1971.781
       230   03 Jun 2027 13:55:41.602   03 Jun 2027 13:57:58.173           136.571            RioGallegos          4267.844
       231   03 Jun 2027 14:30:08.048   03 Jun 2027 14:34:28.870           260.822                Sumatra          8150.688
       232   03 Jun 2027 14:36:49.216   03 Jun 2027 14:37:33.072            43.856                Sumatra          1370.500
       233   03 Jun 2027 14:45:58.937   03 Jun 2027 14:49:57.124           238.187                Irkutsk          7443.344
       234   03 Jun 2027 16:16:04.627   03 Jun 2027 16:21:17.378           312.751                  Delhi          9773.469
       235   03 Jun 2027 16:24:25.827   03 Jun 2027 16:29:17.332           291.505                Novosib          9109.531
       236   03 Jun 2027 18:09:16.540   03 Jun 2027 18:09:40.853            24.313              Murmansk1           759.781
       237   03 Jun 2027 18:15:13.024   03 Jun 2027 18:15:28.509            15.485                Anadyr1           483.906
       238   03 Jun 2027 18:15:37.224   03 Jun 2027 18:15:53.008            15.784                Anadyr1           493.250
       239   03 Jun 2027 19:09:55.819   03 Jun 2027 19:12:51.543           175.724               CapeTown          5491.375
       240   03 Jun 2027 19:39:19.803   03 Jun 2027 19:40:01.116            41.313              Murmansk1          1291.031
       241   03 Jun 2027 19:40:02.510   03 Jun 2027 19:41:40.965            98.455                 Moscow          3076.719
       242   03 Jun 2027 19:42:19.550   03 Jun 2027 19:44:51.571           152.021              Murmansk2          4750.656
       243   03 Jun 2027 19:54:42.679   03 Jun 2027 19:55:08.087            25.408               Magadan2           794.000
       244   03 Jun 2027 19:59:30.581   03 Jun 2027 20:00:04.478            33.897               Magadan1          1059.281
       245   03 Jun 2027 20:47:48.172   03 Jun 2027 20:54:19.562           391.390               CapeTown         12230.937
       246   03 Jun 2027 20:54:46.870   03 Jun 2027 20:54:46.952             0.082               CapeTown             2.562
       247   03 Jun 2027 21:29:44.990   03 Jun 2027 21:29:57.803            12.813               Magadan1           400.406
       248   03 Jun 2027 21:31:46.207   03 Jun 2027 21:31:54.336             8.129               Magadan2           254.031
       249   03 Jun 2027 21:32:51.220   03 Jun 2027 21:32:54.359             3.139               Magadan2            98.094
       250   03 Jun 2027 21:33:22.895   03 Jun 2027 21:33:53.396            30.501               Magadan2           953.156
       251   03 Jun 2027 21:36:03.065   03 Jun 2027 21:37:02.020            58.955               Magadan2          1842.344
       252   03 Jun 2027 23:02:22.903   03 Jun 2027 23:06:10.599           227.696                Anadyr2          7115.500
       253   03 Jun 2027 23:06:31.337   03 Jun 2027 23:09:03.621           152.284               Magadan1          4758.875
       254   03 Jun 2027 23:09:25.480   03 Jun 2027 23:09:50.465            24.985                Norilsk           780.781
       255   03 Jun 2027 23:11:10.773   03 Jun 2027 23:11:36.041            25.268               Magadan2           789.625
       256   03 Jun 2027 23:12:02.527   03 Jun 2027 23:13:52.424           109.897                Irkutsk          3434.281
       257   03 Jun 2027 23:56:38.279   03 Jun 2027 23:57:59.861            81.582            RioGallegos          2549.438
       258   03 Jun 2027 23:59:53.036   04 Jun 2027 00:00:11.559            18.523            RioGallegos           578.844
       259   04 Jun 2027 00:01:53.660   04 Jun 2027 00:02:01.569             7.909            RioGallegos           247.156
       260   04 Jun 2027 00:04:54.190   04 Jun 2027 00:05:36.556            42.366            RioGallegos          1323.937
       261   04 Jun 2027 00:37:55.978   04 Jun 2027 00:38:45.872            49.894                Anadyr2          1559.187
       262   04 Jun 2027 00:39:04.070   04 Jun 2027 00:39:24.512            20.442                Anadyr1           638.813
       263   04 Jun 2027 00:40:11.322   04 Jun 2027 00:42:03.644           112.322                Norilsk          3510.063
       264   04 Jun 2027 00:42:17.944   04 Jun 2027 00:43:59.448           101.504               Magadan2          3172.000
       265   04 Jun 2027 00:44:17.574   04 Jun 2027 00:45:14.912            57.338                Irkutsk          1791.812
       266   04 Jun 2027 00:45:42.494   04 Jun 2027 00:47:00.293            77.799                Novosib          2431.219
       267   04 Jun 2027 00:55:03.061   04 Jun 2027 00:55:43.276            40.215                Irkutsk          1256.719
       268   04 Jun 2027 00:57:59.680   04 Jun 2027 00:58:43.345            43.665                Sumatra          1364.531
       269   04 Jun 2027 01:02:53.509   04 Jun 2027 01:04:03.157            69.648                Sumatra          2176.500
       270   04 Jun 2027 01:35:39.946   04 Jun 2027 01:36:03.035            23.089            RioGallegos           721.531
       271   04 Jun 2027 01:41:03.589   04 Jun 2027 01:41:31.011            27.422            RioGallegos           856.937
       272   04 Jun 2027 01:44:34.859   04 Jun 2027 01:44:53.273            18.414            RioGallegos           575.438
       273   04 Jun 2027 02:12:31.569   04 Jun 2027 02:13:19.114            47.545                Anadyr2          1485.781
       274   04 Jun 2027 02:14:15.627   04 Jun 2027 02:14:29.237            13.610                Anadyr1           425.312
       275   04 Jun 2027 02:14:30.442   04 Jun 2027 02:14:49.791            19.349                Anadyr2           604.656
       276   04 Jun 2027 02:16:10.655   04 Jun 2027 02:17:31.789            81.134                Norilsk          2535.438
       277   04 Jun 2027 02:20:01.438   04 Jun 2027 02:20:03.744             2.306                Norilsk            72.062
       278   04 Jun 2027 02:20:04.948   04 Jun 2027 02:22:48.680           163.732                Irkutsk          5116.625
       279   04 Jun 2027 02:27:56.336   04 Jun 2027 02:28:35.048            38.712                  Delhi          1209.750
       280   04 Jun 2027 02:34:21.933   04 Jun 2027 02:34:46.571            24.638                  Delhi           769.938
       281   04 Jun 2027 02:36:45.882   04 Jun 2027 02:40:46.913           241.031                Sumatra          7532.219
       282   04 Jun 2027 03:12:12.682   04 Jun 2027 03:13:02.121            49.439            RioGallegos          1544.969
       283   04 Jun 2027 03:58:28.532   04 Jun 2027 03:59:35.159            66.627                Irkutsk          2082.094
       284   04 Jun 2027 04:01:16.283   04 Jun 2027 04:01:20.001             3.718                Irkutsk           116.187
       285   04 Jun 2027 04:01:37.101   04 Jun 2027 04:03:02.554            85.453                Novosib          2670.406
       286   04 Jun 2027 04:03:03.449   04 Jun 2027 04:03:53.642            50.193              Murmansk2          1568.531
       287   04 Jun 2027 04:04:21.924   04 Jun 2027 04:05:09.714            47.790                Irkutsk          1493.437
       288   04 Jun 2027 04:07:38.981   04 Jun 2027 04:08:22.780            43.799                Novosib          1368.719
       289   04 Jun 2027 05:37:36.482   04 Jun 2027 05:38:30.193            53.711                Norilsk          1678.469
       290   04 Jun 2027 05:38:38.183   04 Jun 2027 05:38:54.096            15.913                Novosib           497.281
       291   04 Jun 2027 05:39:07.603   04 Jun 2027 05:40:29.244            81.641                Novosib          2551.281
       292   04 Jun 2027 05:41:03.650   04 Jun 2027 05:41:15.283            11.633                Novosib           363.531
       293   04 Jun 2027 05:41:22.073   04 Jun 2027 05:41:46.785            24.712                 Moscow           772.250
       294   04 Jun 2027 05:42:16.946   04 Jun 2027 05:42:35.679            18.733              Murmansk1           585.406
       295   04 Jun 2027 05:43:05.303   04 Jun 2027 05:43:30.151            24.848                 Moscow           776.500
       296   04 Jun 2027 05:44:27.558   04 Jun 2027 05:44:34.215             6.657                 Moscow           208.031
       297   04 Jun 2027 05:57:43.648   04 Jun 2027 05:59:51.916           128.268               CapeTown          4008.375
       298   04 Jun 2027 07:00:53.276   04 Jun 2027 07:01:25.532            32.256               Magadan2          1008.000
       299   04 Jun 2027 07:02:00.982   04 Jun 2027 07:03:09.206            68.224                Anadyr1          2132.000
       300   04 Jun 2027 07:03:44.549   04 Jun 2027 07:04:18.238            33.689                Anadyr1          1052.781
       301   04 Jun 2027 07:12:37.609   04 Jun 2027 07:14:22.458           104.849                 Moscow          3276.531
       302   04 Jun 2027 07:34:39.200   04 Jun 2027 07:38:25.121           225.921               CapeTown          7060.031
       303   04 Jun 2027 08:34:55.160   04 Jun 2027 08:35:17.738            22.578               Magadan1           705.563
       304   04 Jun 2027 08:35:26.402   04 Jun 2027 08:36:08.930            42.528                Anadyr2          1329.000
       305   04 Jun 2027 08:36:11.456   04 Jun 2027 08:36:15.015             3.559               Magadan2           111.219
       306   04 Jun 2027 08:36:58.196   04 Jun 2027 08:37:29.538            31.342               Magadan1           979.437
       307   04 Jun 2027 08:38:17.545   04 Jun 2027 08:40:14.813           117.268                Anadyr2          3664.625
       308   04 Jun 2027 08:47:28.377   04 Jun 2027 08:47:41.281            12.904                 Moscow           403.250
       309   04 Jun 2027 10:08:59.222   04 Jun 2027 10:10:13.761            74.539               Magadan1          2329.344
       310   04 Jun 2027 10:10:13.761   04 Jun 2027 10:10:35.719            21.958               Magadan2           686.187
       311   04 Jun 2027 10:11:33.367   04 Jun 2027 10:12:43.077            69.710               Magadan2          2178.438
       312   04 Jun 2027 10:12:48.853   04 Jun 2027 10:13:01.231            12.378                Irkutsk           386.813
       313   04 Jun 2027 10:13:22.736   04 Jun 2027 10:14:42.110            79.374               Magadan2          2480.438
       314   04 Jun 2027 10:14:42.566   04 Jun 2027 10:18:16.590           214.024                Anadyr2          6688.250
       315   04 Jun 2027 11:45:48.365   04 Jun 2027 11:53:22.017           453.652               Magadan2         14176.625
       316   04 Jun 2027 11:54:18.444   04 Jun 2027 11:54:40.613            22.169                Novosib           692.781
       317   04 Jun 2027 11:55:12.498   04 Jun 2027 11:55:25.010            12.512              Murmansk1           391.000
       318   04 Jun 2027 11:56:12.997   04 Jun 2027 11:56:23.808            10.811              Murmansk2           337.844
       319   04 Jun 2027 11:59:08.035   04 Jun 2027 11:59:12.098             4.063                Norilsk           126.969
       320   04 Jun 2027 12:00:55.747   04 Jun 2027 12:01:07.271            11.524              Murmansk2           360.125
       321   04 Jun 2027 12:01:40.265   04 Jun 2027 12:02:03.538            23.273              Murmansk1           727.281
       322   04 Jun 2027 12:02:09.530   04 Jun 2027 12:02:18.984             9.454              Murmansk2           295.438
       323   04 Jun 2027 12:32:16.580   04 Jun 2027 12:33:15.917            59.337            RioGallegos          1854.281
       324   04 Jun 2027 12:37:58.923   04 Jun 2027 12:38:50.525            51.602            RioGallegos          1612.563
       325   04 Jun 2027 13:07:03.832   04 Jun 2027 13:07:54.127            50.295                Sumatra          1571.719
       326   04 Jun 2027 13:10:46.996   04 Jun 2027 13:12:25.249            98.253                Sumatra          3070.406
       327   04 Jun 2027 13:16:01.508   04 Jun 2027 13:16:40.605            39.097                Sumatra          1221.781
       328   04 Jun 2027 13:17:57.677   04 Jun 2027 13:20:36.786           159.109                Irkutsk          4972.156
       329   04 Jun 2027 13:31:03.617   04 Jun 2027 13:31:53.123            49.506                Novosib          1547.063
       330   04 Jun 2027 14:08:33.938   04 Jun 2027 14:12:07.231           213.293            RioGallegos          6665.406
       331   04 Jun 2027 14:43:39.929   04 Jun 2027 14:47:08.498           208.569                Sumatra          6517.781
       332   04 Jun 2027 14:59:35.507   04 Jun 2027 15:03:01.868           206.361                Irkutsk          6448.781
       333   04 Jun 2027 16:34:56.004   04 Jun 2027 16:34:59.814             3.810                 Moscow           119.062
       334   04 Jun 2027 16:35:57.358   04 Jun 2027 16:36:58.055            60.697              Murmansk1          1896.781
       335   04 Jun 2027 16:39:27.158   04 Jun 2027 16:40:55.701            88.543                Norilsk          2766.969
       336   04 Jun 2027 16:42:35.055   04 Jun 2027 16:43:18.526            43.471                Norilsk          1358.469
       337   04 Jun 2027 16:44:20.682   04 Jun 2027 16:45:08.112            47.430                Norilsk          1482.188
       338   04 Jun 2027 17:47:27.492   04 Jun 2027 17:48:27.607            60.115               CapeTown          1878.594
       339   04 Jun 2027 17:51:14.855   04 Jun 2027 17:51:40.273            25.418               CapeTown           794.312
       340   04 Jun 2027 17:55:44.516   04 Jun 2027 17:56:40.654            56.138               CapeTown          1754.313
       341   04 Jun 2027 18:09:35.170   04 Jun 2027 18:09:56.498            21.328                 Moscow           666.500
       342   04 Jun 2027 18:11:29.359   04 Jun 2027 18:14:37.283           187.924                 Moscow          5872.625
       343   04 Jun 2027 18:30:06.622   04 Jun 2027 18:31:18.487            71.865                Anadyr1          2245.781
       344   04 Jun 2027 19:21:58.948   04 Jun 2027 19:24:22.067           143.119               CapeTown          4472.469
       345   04 Jun 2027 19:30:50.672   04 Jun 2027 19:31:14.826            24.154               CapeTown           754.812
       346   04 Jun 2027 19:33:15.376   04 Jun 2027 19:33:23.981             8.605               CapeTown           268.906
       347   04 Jun 2027 19:51:54.374   04 Jun 2027 19:52:53.919            59.545              Murmansk2          1860.781
       348   04 Jun 2027 19:54:20.454   04 Jun 2027 20:00:40.527           380.073              Murmansk1         11877.281
       349   04 Jun 2027 21:00:47.942   04 Jun 2027 21:05:23.580           275.638               CapeTown          8613.687
       350   04 Jun 2027 21:40:52.731   04 Jun 2027 21:41:25.642            32.911               Magadan2          1028.469
       351   04 Jun 2027 21:43:19.635   04 Jun 2027 21:44:19.701            60.066               Magadan2          1877.063
       352   04 Jun 2027 21:49:29.914   04 Jun 2027 21:49:43.737            13.823               Magadan1           431.969
       353   04 Jun 2027 23:14:23.493   04 Jun 2027 23:18:10.115           226.622                Anadyr1          7081.937
       354   04 Jun 2027 23:18:28.771   04 Jun 2027 23:20:58.557           149.786               Magadan1          4680.813
       355   04 Jun 2027 23:20:58.557   04 Jun 2027 23:21:33.132            34.575               Magadan2          1080.469
       356   04 Jun 2027 23:21:43.212   04 Jun 2027 23:22:10.112            26.900               Magadan2           840.625
       357   04 Jun 2027 23:23:08.347   04 Jun 2027 23:23:39.812            31.465                Irkutsk           983.281
       358   04 Jun 2027 23:24:23.863   04 Jun 2027 23:25:16.274            52.411                Irkutsk          1637.844
       359   04 Jun 2027 23:26:57.038   04 Jun 2027 23:27:29.758            32.720                Irkutsk          1022.500
       360   04 Jun 2027 23:39:19.283   04 Jun 2027 23:39:42.002            22.719                Sumatra           709.969
       361   04 Jun 2027 23:41:34.851   04 Jun 2027 23:42:13.987            39.136                Sumatra          1223.000
       362   05 Jun 2027 00:08:31.176   05 Jun 2027 00:09:28.670            57.494            RioGallegos          1796.688
       363   05 Jun 2027 00:10:01.523   05 Jun 2027 00:10:28.393            26.870            RioGallegos           839.687
       364   05 Jun 2027 00:13:42.530   05 Jun 2027 00:13:49.638             7.108            RioGallegos           222.125
       365   05 Jun 2027 00:14:28.567   05 Jun 2027 00:15:02.023            33.456            RioGallegos          1045.500
       366   05 Jun 2027 00:19:37.802   05 Jun 2027 00:20:03.107            25.305            RioGallegos           790.781
       367   05 Jun 2027 00:49:51.603   05 Jun 2027 00:50:21.216            29.613                Anadyr1           925.406
       368   05 Jun 2027 00:50:55.619   05 Jun 2027 00:51:22.764            27.145                Anadyr2           848.281
       369   05 Jun 2027 00:51:22.764   05 Jun 2027 00:52:08.745            45.981                Anadyr1          1436.906
       370   05 Jun 2027 00:52:36.853   05 Jun 2027 00:52:58.711            21.858                Norilsk           683.062
       371   05 Jun 2027 00:52:58.810   05 Jun 2027 00:54:21.431            82.621               Magadan2          2581.906
       372   05 Jun 2027 00:54:40.671   05 Jun 2027 00:55:27.708            47.037               Magadan1          1469.906
       373   05 Jun 2027 00:56:14.482   05 Jun 2027 00:57:29.079            74.597                Irkutsk          2331.156
       374   05 Jun 2027 00:59:06.309   05 Jun 2027 00:59:39.219            32.910                Novosib          1028.437
       375   05 Jun 2027 01:02:50.559   05 Jun 2027 01:03:09.217            18.658                Novosib           583.063
       376   05 Jun 2027 01:03:22.155   05 Jun 2027 01:03:25.183             3.028                Novosib            94.625
       377   05 Jun 2027 01:05:33.240   05 Jun 2027 01:06:40.936            67.696                Irkutsk          2115.500
       378   05 Jun 2027 01:10:23.926   05 Jun 2027 01:12:43.066           139.140                Sumatra          4348.125
       379   05 Jun 2027 01:53:44.452   05 Jun 2027 01:53:47.139             2.687            RioGallegos            83.969
       380   05 Jun 2027 01:56:26.585   05 Jun 2027 01:56:46.909            20.324            RioGallegos           635.125
       381   05 Jun 2027 02:24:29.005   05 Jun 2027 02:25:18.247            49.242                Anadyr2          1538.812
       382   05 Jun 2027 02:26:49.493   05 Jun 2027 02:27:00.276            10.783                Anadyr1           336.969
       383   05 Jun 2027 02:28:13.107   05 Jun 2027 02:29:14.247            61.140                Norilsk          1910.625
       384   05 Jun 2027 02:29:29.799   05 Jun 2027 02:29:40.437            10.638                Norilsk           332.437
       385   05 Jun 2027 02:30:02.470   05 Jun 2027 02:30:05.397             2.927                Norilsk            91.469
       386   05 Jun 2027 02:30:37.097   05 Jun 2027 02:30:47.834            10.737               Magadan1           335.531
       387   05 Jun 2027 02:31:03.451   05 Jun 2027 02:31:10.386             6.935                Norilsk           216.719
       388   05 Jun 2027 02:31:54.972   05 Jun 2027 02:32:24.398            29.426              Murmansk1           919.563
       389   05 Jun 2027 02:32:43.814   05 Jun 2027 02:33:38.349            54.535              Murmansk2          1704.219
       390   05 Jun 2027 02:34:10.052   05 Jun 2027 02:34:20.433            10.381                Novosib           324.406
       391   05 Jun 2027 02:34:46.366   05 Jun 2027 02:34:55.567             9.201                Irkutsk           287.531
       392   05 Jun 2027 02:35:28.297   05 Jun 2027 02:36:11.001            42.704                Irkutsk          1334.500
       393   05 Jun 2027 02:37:32.530   05 Jun 2027 02:37:45.289            12.759                Irkutsk           398.719
       394   05 Jun 2027 02:40:13.545   05 Jun 2027 02:40:20.316             6.771                Novosib           211.594
       395   05 Jun 2027 02:40:53.344   05 Jun 2027 02:41:02.165             8.821                Irkutsk           275.656
       396   05 Jun 2027 02:41:21.308   05 Jun 2027 02:41:37.206            15.898                  Delhi           496.812
       397   05 Jun 2027 02:43:13.096   05 Jun 2027 02:43:39.481            26.385                  Delhi           824.531
       398   05 Jun 2027 02:46:25.833   05 Jun 2027 02:47:10.048            44.215                  Delhi          1381.719
       399   05 Jun 2027 03:20:52.723   05 Jun 2027 03:22:30.899            98.176            RioGallegos          3068.000
       400   05 Jun 2027 03:26:15.655   05 Jun 2027 03:26:36.826            21.171            RioGallegos           661.594
       401   05 Jun 2027 03:28:26.852   05 Jun 2027 03:29:37.335            70.483            RioGallegos          2202.594
       402   05 Jun 2027 04:12:44.384   05 Jun 2027 04:13:15.337            30.953                Novosib           967.281
       403   05 Jun 2027 04:13:30.326   05 Jun 2027 04:13:49.291            18.965                Irkutsk           592.656
       404   05 Jun 2027 04:14:12.932   05 Jun 2027 04:14:59.528            46.596              Murmansk2          1456.125
       405   05 Jun 2027 04:14:59.528   05 Jun 2027 04:16:01.692            62.164              Murmansk1          1942.625
       406   05 Jun 2027 04:16:01.692   05 Jun 2027 04:16:24.815            23.123              Murmansk2           722.594
       407   05 Jun 2027 04:16:25.382   05 Jun 2027 04:25:28.940           543.558                  Delhi         16986.188
       408   05 Jun 2027 05:47:36.171   05 Jun 2027 05:47:45.969             9.798                Novosib           306.187
       409   05 Jun 2027 05:49:35.793   05 Jun 2027 05:50:00.878            25.085              Murmansk1           783.906
       410   05 Jun 2027 05:50:01.018   05 Jun 2027 05:50:20.570            19.552                 Moscow           611.000
       411   05 Jun 2027 05:50:28.619   05 Jun 2027 05:51:15.451            46.832              Murmansk2          1463.500
       412   05 Jun 2027 05:51:15.451   05 Jun 2027 05:51:37.031            21.580              Murmansk1           674.375
       413   05 Jun 2027 05:51:39.863   05 Jun 2027 05:52:58.487            78.624              Murmansk1          2457.000
       414   05 Jun 2027 05:53:14.451   05 Jun 2027 05:53:30.556            16.105                 Moscow           503.281
       415   05 Jun 2027 05:53:32.426   05 Jun 2027 05:54:48.748            76.322              Murmansk1          2385.062
       416   05 Jun 2027 05:54:50.868   05 Jun 2027 05:56:23.939            93.071                 Moscow          2908.469
       417   05 Jun 2027 06:09:34.130   05 Jun 2027 06:10:34.975            60.845               CapeTown          1901.406
       418   05 Jun 2027 07:12:26.958   05 Jun 2027 07:12:35.109             8.151                Anadyr1           254.719
       419   05 Jun 2027 07:12:35.109   05 Jun 2027 07:13:22.752            47.643                Anadyr2          1488.844
       420   05 Jun 2027 07:13:38.390   05 Jun 2027 07:14:07.051            28.661               Magadan1           895.656
       421   05 Jun 2027 07:14:11.147   05 Jun 2027 07:15:00.655            49.508                Anadyr1          1547.125
       422   05 Jun 2027 07:16:10.999   05 Jun 2027 07:17:10.271            59.272                Anadyr1          1852.250
       423   05 Jun 2027 07:24:52.698   05 Jun 2027 07:25:15.781            23.083              Murmansk1           721.344
       424   05 Jun 2027 07:25:24.456   05 Jun 2027 07:25:37.464            13.008                 Moscow           406.500
       425   05 Jun 2027 07:25:45.713   05 Jun 2027 07:27:01.146            75.433                 Moscow          2357.281
       426   05 Jun 2027 07:47:20.381   05 Jun 2027 07:51:57.771           277.390               CapeTown          8668.437
       427   05 Jun 2027 08:46:55.301   05 Jun 2027 08:47:49.643            54.342               Magadan2          1698.187
       428   05 Jun 2027 08:47:50.978   05 Jun 2027 08:48:22.182            31.204                Anadyr1           975.125
       429   05 Jun 2027 08:49:00.099   05 Jun 2027 08:49:27.806            27.707               Magadan2           865.844
       430   05 Jun 2027 08:49:32.305   05 Jun 2027 08:50:05.127            32.822                Anadyr2          1025.687
       431   05 Jun 2027 08:50:29.461   05 Jun 2027 08:50:36.515             7.054                Norilsk           220.438
       432   05 Jun 2027 08:50:40.147   05 Jun 2027 08:51:03.433            23.286                Norilsk           727.688
       433   05 Jun 2027 08:51:06.540   05 Jun 2027 08:51:46.460            39.920                Anadyr2          1247.500
       434   05 Jun 2027 08:51:46.460   05 Jun 2027 08:52:39.298            52.838                Anadyr1          1651.187
       435   05 Jun 2027 08:52:39.298   05 Jun 2027 08:52:47.509             8.211                Anadyr2           256.594
       436   05 Jun 2027 09:01:15.394   05 Jun 2027 09:02:16.579            61.185                 Moscow          1912.031
       437   05 Jun 2027 09:03:19.065   05 Jun 2027 09:03:42.730            23.665                 Moscow           739.531
       438   05 Jun 2027 10:22:02.987   05 Jun 2027 10:23:06.815            63.828               Magadan2          1994.625
       439   05 Jun 2027 10:23:06.815   05 Jun 2027 10:23:19.835            13.020               Magadan1           406.875
       440   05 Jun 2027 10:23:41.178   05 Jun 2027 10:30:04.686           383.508                Anadyr2         11984.625
       441   05 Jun 2027 11:58:46.743   05 Jun 2027 12:02:53.717           246.974               Magadan2          7717.937
       442   05 Jun 2027 13:35:11.078   05 Jun 2027 13:35:29.156            18.078                Irkutsk           564.937
       443   05 Jun 2027 13:36:03.392   05 Jun 2027 13:36:37.465            34.073                Irkutsk          1064.781
       444   05 Jun 2027 13:39:12.784   05 Jun 2027 13:40:09.036            56.252                Irkutsk          1757.875
       445   05 Jun 2027 14:21:42.296   05 Jun 2027 14:25:35.773           233.477            RioGallegos          7296.156
       446   05 Jun 2027 15:08:09.913   05 Jun 2027 15:08:36.778            26.865                Novosib           839.531
       447   05 Jun 2027 15:09:52.217   05 Jun 2027 15:13:15.155           202.938                Novosib          6341.812
       448   05 Jun 2027 16:44:33.094   05 Jun 2027 16:47:08.614           155.520                 Moscow          4860.000
       449   05 Jun 2027 16:49:26.418   05 Jun 2027 16:49:40.250            13.832              Murmansk1           432.250
       450   05 Jun 2027 16:52:01.761   05 Jun 2027 16:52:37.545            35.784              Murmansk1          1118.250
       451   05 Jun 2027 16:53:00.179   05 Jun 2027 16:54:42.476           102.297                Norilsk          3196.781
       452   05 Jun 2027 16:55:20.352   05 Jun 2027 16:58:04.901           164.549                Norilsk          5142.156
       453   05 Jun 2027 18:08:19.850   05 Jun 2027 18:08:54.468            34.618               CapeTown          1081.812
       454   05 Jun 2027 18:22:01.761   05 Jun 2027 18:23:24.076            82.315                 Moscow          2572.344
       455   05 Jun 2027 18:25:07.813   05 Jun 2027 18:25:40.130            32.317              Murmansk2          1009.906
       456   05 Jun 2027 18:26:48.136   05 Jun 2027 18:27:18.075            29.939                 Moscow           935.594
       457   05 Jun 2027 18:28:49.370   05 Jun 2027 18:30:21.710            92.340              Murmansk1          2885.625
       458   05 Jun 2027 18:34:56.659   05 Jun 2027 18:34:57.286             0.627              Murmansk1            19.594
       459   05 Jun 2027 18:35:51.985   05 Jun 2027 18:36:55.870            63.885              Murmansk1          1996.406
       460   05 Jun 2027 18:47:33.194   05 Jun 2027 18:47:58.323            25.129                Anadyr1           785.281
       461   05 Jun 2027 19:34:04.882   05 Jun 2027 19:35:28.844            83.962               CapeTown          2623.812
       462   05 Jun 2027 19:38:08.072   05 Jun 2027 19:38:19.842            11.770               CapeTown           367.813
       463   05 Jun 2027 19:40:09.027   05 Jun 2027 19:42:38.337           149.310               CapeTown          4665.938
       464   05 Jun 2027 20:04:32.248   05 Jun 2027 20:10:10.970           338.722              Murmansk1         10585.063
       465   05 Jun 2027 20:10:40.521   05 Jun 2027 20:12:03.493            82.972              Murmansk2          2592.875
       466   05 Jun 2027 21:50:32.156   05 Jun 2027 21:51:13.383            41.227                Anadyr1          1288.344
       467   05 Jun 2027 21:51:15.273   05 Jun 2027 21:51:16.085             0.812                Anadyr1            25.375
       468   05 Jun 2027 21:52:03.035   05 Jun 2027 21:52:32.796            29.761                Anadyr1           930.031
       469   05 Jun 2027 21:52:51.875   05 Jun 2027 21:53:49.902            58.027               Magadan2          1813.344
       470   05 Jun 2027 21:53:49.902   05 Jun 2027 21:55:02.998            73.096               Magadan1          2284.250
       471   05 Jun 2027 21:55:15.997   05 Jun 2027 21:55:36.268            20.271               Magadan1           633.469
       472   05 Jun 2027 21:56:55.096   05 Jun 2027 21:57:12.804            17.708               Magadan2           553.375
       473   05 Jun 2027 21:57:48.629   05 Jun 2027 21:58:26.597            37.968               Magadan2          1186.500
       474   05 Jun 2027 22:47:43.298   05 Jun 2027 22:49:33.955           110.657            RioGallegos          3458.031
       475   05 Jun 2027 23:26:23.707   05 Jun 2027 23:29:05.357           161.650                Anadyr2          5051.563
       476   05 Jun 2027 23:29:05.357   05 Jun 2027 23:30:06.278            60.921                Anadyr1          1903.781
       477   05 Jun 2027 23:30:15.917   05 Jun 2027 23:31:51.801            95.884               Magadan2          2996.375
       478   05 Jun 2027 23:33:04.467   05 Jun 2027 23:33:39.009            34.542               Magadan1          1079.437
       479   05 Jun 2027 23:33:44.981   05 Jun 2027 23:34:12.374            27.393                Irkutsk           856.031
       480   05 Jun 2027 23:35:13.498   05 Jun 2027 23:35:42.203            28.705                Irkutsk           897.031
       481   05 Jun 2027 23:49:20.642   05 Jun 2027 23:51:04.789           104.147                Sumatra          3254.594
       482   05 Jun 2027 23:52:07.925   05 Jun 2027 23:53:58.112           110.187                Sumatra          3443.344
