uniorb/output/strategy_2/Drop/Drop_KinoSat_110908.txt

KinoSat_110908
-------------------------
    Access    *     Start Time (UTCG)     *     Stop Time (UTCG)  *   Duration (s)        *       Station  *  Data (Mbytes)
         1   01 Jun 2027 03:02:40.007   01 Jun 2027 03:02:47.840             7.833                Anadyr2           244.781
         2   01 Jun 2027 03:02:50.277   01 Jun 2027 03:03:12.647            22.370               Magadan1           699.062
         3   01 Jun 2027 03:03:12.647   01 Jun 2027 03:03:28.455            15.808               Magadan2           494.000
         4   01 Jun 2027 03:03:28.455   01 Jun 2027 03:03:34.709             6.254               Magadan1           195.438
         5   01 Jun 2027 03:03:34.709   01 Jun 2027 03:04:17.469            42.760               Magadan2          1336.250
         6   01 Jun 2027 03:04:37.025   01 Jun 2027 03:04:44.483             7.458               Magadan2           233.062
         7   01 Jun 2027 03:05:12.593   01 Jun 2027 03:06:10.503            57.910               Magadan2          1809.688
         8   01 Jun 2027 03:06:20.668   01 Jun 2027 03:06:54.669            34.001                Anadyr1          1062.531
         9   01 Jun 2027 04:39:29.390   01 Jun 2027 04:40:40.623            71.233               Magadan2          2226.031
        10   01 Jun 2027 04:40:59.121   01 Jun 2027 04:41:28.289            29.168               Magadan1           911.500
        11   01 Jun 2027 04:41:37.131   01 Jun 2027 04:41:41.809             4.678               Magadan2           146.188
        12   01 Jun 2027 04:41:47.784   01 Jun 2027 04:43:09.770            81.986                Anadyr2          2562.063
        13   01 Jun 2027 04:43:09.770   01 Jun 2027 04:44:11.647            61.877                Anadyr1          1933.656
        14   01 Jun 2027 04:44:13.122   01 Jun 2027 04:45:00.117            46.995               Magadan1          1468.594
        15   01 Jun 2027 06:13:58.128   01 Jun 2027 06:14:58.854            60.726               Magadan1          1897.687
        16   01 Jun 2027 06:15:06.552   01 Jun 2027 06:16:49.682           103.130               Magadan2          3222.813
        17   01 Jun 2027 06:16:50.997   01 Jun 2027 06:16:53.063             2.066               Magadan2            64.562
        18   01 Jun 2027 06:17:00.072   01 Jun 2027 06:19:25.482           145.410               Magadan2          4544.063
        19   01 Jun 2027 06:19:46.890   01 Jun 2027 06:20:12.322            25.432                Irkutsk           794.750
        20   01 Jun 2027 06:20:28.780   01 Jun 2027 06:20:34.120             5.340              Murmansk1           166.875
        21   01 Jun 2027 06:20:48.874   01 Jun 2027 06:21:03.843            14.969              Murmansk2           467.781
        22   01 Jun 2027 06:21:23.619   01 Jun 2027 06:22:01.331            37.712                Norilsk          1178.500
        23   01 Jun 2027 06:24:24.561   01 Jun 2027 06:24:27.212             2.651                Norilsk            82.844
        24   01 Jun 2027 06:24:53.446   01 Jun 2027 06:25:09.069            15.623              Murmansk2           488.219
        25   01 Jun 2027 06:55:53.673   01 Jun 2027 06:58:44.462           170.789            RioGallegos          5337.156
        26   01 Jun 2027 07:51:37.967   01 Jun 2027 07:52:54.269            76.302                Novosib          2384.438
        27   01 Jun 2027 07:53:00.706   01 Jun 2027 07:54:52.210           111.504               Magadan1          3484.500
        28   01 Jun 2027 07:54:58.836   01 Jun 2027 07:55:59.877            61.041                Novosib          1907.531
        29   01 Jun 2027 07:56:00.622   01 Jun 2027 07:56:15.169            14.547                Irkutsk           454.594
        30   01 Jun 2027 07:56:30.832   01 Jun 2027 07:57:38.438            67.606              Murmansk2          2112.688
        31   01 Jun 2027 07:57:52.237   01 Jun 2027 07:58:54.564            62.327              Murmansk2          1947.719
        32   01 Jun 2027 08:31:40.508   01 Jun 2027 08:32:25.155            44.647            RioGallegos          1395.219
        33   01 Jun 2027 08:34:49.395   01 Jun 2027 08:35:18.369            28.974            RioGallegos           905.437
        34   01 Jun 2027 09:06:13.800   01 Jun 2027 09:06:41.435            27.635                Sumatra           863.594
        35   01 Jun 2027 09:09:20.661   01 Jun 2027 09:10:23.972            63.311                Sumatra          1978.469
        36   01 Jun 2027 09:15:58.157   01 Jun 2027 09:17:43.575           105.418                  Delhi          3294.313
        37   01 Jun 2027 09:28:20.231   01 Jun 2027 09:30:04.738           104.507                Irkutsk          3265.844
        38   01 Jun 2027 09:30:29.695   01 Jun 2027 09:32:14.129           104.434                Irkutsk          3263.563
        39   01 Jun 2027 09:32:21.030   01 Jun 2027 09:33:30.008            68.978              Murmansk1          2155.562
        40   01 Jun 2027 09:33:30.008   01 Jun 2027 09:34:04.105            34.097              Murmansk2          1065.531
        41   01 Jun 2027 09:34:06.607   01 Jun 2027 09:34:46.138            39.531                 Moscow          1235.344
        42   01 Jun 2027 10:50:39.610   01 Jun 2027 10:52:21.830           102.220                  Delhi          3194.375
        43   01 Jun 2027 10:53:26.368   01 Jun 2027 10:54:16.396            50.028                  Delhi          1563.375
        44   01 Jun 2027 11:05:00.291   01 Jun 2027 11:06:56.543           116.252                Novosib          3632.875
        45   01 Jun 2027 11:07:08.651   01 Jun 2027 11:08:04.284            55.633                Norilsk          1738.531
        46   01 Jun 2027 11:08:20.758   01 Jun 2027 11:10:26.664           125.906                 Moscow          3934.563
        47   01 Jun 2027 12:34:48.570   01 Jun 2027 12:36:57.484           128.914                 Moscow          4028.562
        48   01 Jun 2027 12:38:07.512   01 Jun 2027 12:39:03.431            55.919                 Moscow          1747.469
        49   01 Jun 2027 12:39:09.667   01 Jun 2027 12:42:36.975           207.308              Murmansk1          6478.375
        50   01 Jun 2027 13:49:08.991   01 Jun 2027 13:52:35.013           206.022               CapeTown          6438.188
        51   01 Jun 2027 13:52:56.207   01 Jun 2027 13:54:12.188            75.981               CapeTown          2374.406
        52   01 Jun 2027 13:55:21.304   01 Jun 2027 13:55:37.794            16.490               CapeTown           515.312
        53   01 Jun 2027 14:15:32.381   01 Jun 2027 14:17:25.843           113.462              Murmansk1          3545.687
        54   01 Jun 2027 14:29:16.101   01 Jun 2027 14:31:54.759           158.658                Anadyr1          4958.063
        55   01 Jun 2027 15:24:22.864   01 Jun 2027 15:26:02.646            99.782               CapeTown          3118.188
        56   01 Jun 2027 15:56:16.124   01 Jun 2027 15:56:56.542            40.418              Murmansk2          1263.063
        57   01 Jun 2027 15:57:29.386   01 Jun 2027 15:58:59.710            90.324              Murmansk2          2822.625
        58   01 Jun 2027 16:04:52.437   01 Jun 2027 16:07:07.037           134.600                Anadyr1          4206.250
        59   01 Jun 2027 16:07:27.616   01 Jun 2027 16:07:49.681            22.065                Anadyr1           689.531
        60   01 Jun 2027 16:08:05.928   01 Jun 2027 16:11:18.732           192.804               Magadan2          6025.125
        61   01 Jun 2027 16:12:19.174   01 Jun 2027 16:13:00.860            41.686               Magadan1          1302.688
        62   01 Jun 2027 16:14:07.702   01 Jun 2027 16:14:17.753            10.051               Magadan1           314.094
        63   01 Jun 2027 17:40:47.448   01 Jun 2027 17:42:29.066           101.618                Anadyr1          3175.563
        64   01 Jun 2027 17:42:36.208   01 Jun 2027 17:44:24.477           108.269                Anadyr2          3383.406
        65   01 Jun 2027 17:45:03.172   01 Jun 2027 17:45:06.735             3.563               Magadan1           111.344
        66   01 Jun 2027 17:45:16.163   01 Jun 2027 17:45:26.082             9.919               Magadan2           309.969
        67   01 Jun 2027 17:45:57.198   01 Jun 2027 17:46:40.058            42.860               Magadan2          1339.375
        68   01 Jun 2027 17:50:11.938   01 Jun 2027 17:50:24.590            12.652               Magadan2           395.375
        69   01 Jun 2027 18:37:26.975   01 Jun 2027 18:39:47.971           140.996            RioGallegos          4406.125
        70   01 Jun 2027 19:16:36.952   01 Jun 2027 19:18:24.264           107.312                Anadyr1          3353.500
        71   01 Jun 2027 19:18:49.516   01 Jun 2027 19:22:45.098           235.582                Norilsk          7361.938
        72   01 Jun 2027 19:23:52.138   01 Jun 2027 19:27:09.309           197.171                Irkutsk          6161.594
        73   01 Jun 2027 19:39:04.026   01 Jun 2027 19:41:11.624           127.598                Sumatra          3987.437
        74   01 Jun 2027 19:42:47.211   01 Jun 2027 19:44:37.173           109.962                Sumatra          3436.312
        75   01 Jun 2027 20:55:03.930   01 Jun 2027 20:55:23.572            19.642                Norilsk           613.813
        76   01 Jun 2027 20:55:45.190   01 Jun 2027 20:56:04.786            19.596                Norilsk           612.375
        77   01 Jun 2027 20:56:08.065   01 Jun 2027 20:56:35.381            27.316                Norilsk           853.625
        78   01 Jun 2027 20:58:27.749   01 Jun 2027 21:00:13.422           105.673                Irkutsk          3302.281
        79   01 Jun 2027 21:00:45.999   01 Jun 2027 21:02:49.503           123.504                Novosib          3859.500
        80   01 Jun 2027 21:09:53.240   01 Jun 2027 21:11:09.038            75.798                  Delhi          2368.688
        81   01 Jun 2027 22:26:22.236   01 Jun 2027 22:26:46.070            23.834                Anadyr2           744.812
        82   01 Jun 2027 22:27:41.222   01 Jun 2027 22:28:00.906            19.684                Anadyr1           615.125
        83   01 Jun 2027 22:31:05.465   01 Jun 2027 22:31:50.976            45.511               Magadan2          1422.219
        84   01 Jun 2027 22:33:37.908   01 Jun 2027 22:37:10.267           212.359              Murmansk2          6636.219
        85   01 Jun 2027 22:37:42.000   01 Jun 2027 22:38:23.969            41.969              Murmansk1          1311.531
        86   01 Jun 2027 22:41:41.430   01 Jun 2027 22:42:08.378            26.948                  Delhi           842.125
        87   01 Jun 2027 22:42:48.076   01 Jun 2027 22:44:21.684            93.608                  Delhi          2925.250
        88   01 Jun 2027 23:59:25.298   01 Jun 2027 23:59:31.530             6.232                Anadyr1           194.750
        89   01 Jun 2027 23:59:35.622   02 Jun 2027 00:00:13.152            37.530                Anadyr2          1172.812
        90   02 Jun 2027 00:01:50.787   02 Jun 2027 00:02:01.801            11.014                Anadyr2           344.187
        91   02 Jun 2027 00:05:29.427   02 Jun 2027 00:06:20.672            51.245               Magadan1          1601.406
        92   02 Jun 2027 00:06:20.672   02 Jun 2027 00:07:39.618            78.946               Magadan2          2467.063
        93   02 Jun 2027 00:08:43.465   02 Jun 2027 00:10:37.849           114.384              Murmansk1          3574.500
        94   02 Jun 2027 00:10:46.016   02 Jun 2027 00:12:46.362           120.346              Murmansk2          3760.813
        95   02 Jun 2027 00:12:52.438   02 Jun 2027 00:16:09.406           196.968                 Moscow          6155.250
        96   02 Jun 2027 00:38:57.343   02 Jun 2027 00:41:08.034           130.691               CapeTown          4084.094
        97   02 Jun 2027 01:37:11.156   02 Jun 2027 01:38:49.690            98.534               Magadan2          3079.188
        98   02 Jun 2027 01:47:51.328   02 Jun 2027 01:49:15.745            84.417                 Moscow          2638.031
        99   02 Jun 2027 02:11:44.126   02 Jun 2027 02:12:59.840            75.714               CapeTown          2366.062
       100   02 Jun 2027 03:11:22.358   02 Jun 2027 03:11:41.120            18.762               Magadan1           586.313
       101   02 Jun 2027 03:14:51.506   02 Jun 2027 03:15:31.030            39.524               Magadan1          1235.125
       102   02 Jun 2027 03:15:52.792   02 Jun 2027 03:16:16.672            23.880                Anadyr2           746.250
       103   02 Jun 2027 03:16:16.672   02 Jun 2027 03:18:50.972           154.300                Anadyr1          4821.875
       104   02 Jun 2027 03:18:50.972   02 Jun 2027 03:19:15.295            24.323                Anadyr2           760.094
       105   02 Jun 2027 03:19:31.291   02 Jun 2027 03:19:50.697            19.406                Anadyr1           606.437
       106   02 Jun 2027 04:53:28.884   02 Jun 2027 04:53:45.871            16.987                Anadyr2           530.844
       107   02 Jun 2027 04:54:11.401   02 Jun 2027 04:54:40.362            28.961               Magadan1           905.031
       108   02 Jun 2027 04:54:40.362   02 Jun 2027 04:56:43.684           123.322               Magadan2          3853.813
       109   02 Jun 2027 04:56:55.826   02 Jun 2027 04:57:01.613             5.787               Magadan1           180.844
       110   02 Jun 2027 05:37:31.090   02 Jun 2027 05:38:19.482            48.392            RioGallegos          1512.250
       111   02 Jun 2027 05:39:37.076   02 Jun 2027 05:40:34.329            57.253            RioGallegos          1789.156
       112   02 Jun 2027 06:26:35.101   02 Jun 2027 06:26:57.183            22.082               Magadan1           690.063
       113   02 Jun 2027 06:27:00.903   02 Jun 2027 06:27:09.802             8.899               Magadan2           278.094
       114   02 Jun 2027 06:27:24.695   02 Jun 2027 06:28:28.940            64.245                Irkutsk          2007.656
       115   02 Jun 2027 06:28:35.032   02 Jun 2027 06:31:30.176           175.144                Anadyr1          5473.250
       116   02 Jun 2027 06:31:34.531   02 Jun 2027 06:32:36.304            61.773               Magadan2          1930.406
       117   02 Jun 2027 06:35:41.056   02 Jun 2027 06:36:18.999            37.943                Norilsk          1185.719
       118   02 Jun 2027 07:44:35.089   02 Jun 2027 07:45:24.715            49.626                Sumatra          1550.813
       119   02 Jun 2027 08:03:49.761   02 Jun 2027 08:05:00.129            70.368               Magadan2          2199.000
       120   02 Jun 2027 08:05:14.118   02 Jun 2027 08:05:34.830            20.712                Norilsk           647.250
       121   02 Jun 2027 08:05:43.543   02 Jun 2027 08:06:47.336            63.793                Novosib          1993.531
       122   02 Jun 2027 08:06:52.013   02 Jun 2027 08:07:05.534            13.521                Norilsk           422.531
       123   02 Jun 2027 08:07:07.748   02 Jun 2027 08:07:56.882            49.134              Murmansk2          1535.437
       124   02 Jun 2027 08:07:58.318   02 Jun 2027 08:07:58.758             0.440                Novosib            13.750
       125   02 Jun 2027 08:07:59.532   02 Jun 2027 08:08:10.230            10.698                Norilsk           334.313
       126   02 Jun 2027 08:08:13.214   02 Jun 2027 08:08:44.026            30.812                Irkutsk           962.875
       127   02 Jun 2027 08:08:56.376   02 Jun 2027 08:09:42.491            46.115                Novosib          1441.094
       128   02 Jun 2027 08:10:47.701   02 Jun 2027 08:11:35.981            48.280              Murmansk1          1508.750
       129   02 Jun 2027 08:43:56.787   02 Jun 2027 08:45:01.370            64.583            RioGallegos          2018.219
       130   02 Jun 2027 09:18:21.336   02 Jun 2027 09:19:46.600            85.264                Sumatra          2664.500
       131   02 Jun 2027 09:27:29.415   02 Jun 2027 09:30:02.160           152.745                  Delhi          4773.281
       132   02 Jun 2027 09:39:13.435   02 Jun 2027 09:39:38.365            24.930                Irkutsk           779.063
       133   02 Jun 2027 09:39:58.915   02 Jun 2027 09:40:38.349            39.434                Novosib          1232.313
       134   02 Jun 2027 09:41:17.091   02 Jun 2027 09:42:07.468            50.377              Murmansk2          1574.281
       135   02 Jun 2027 09:42:12.664   02 Jun 2027 09:42:24.733            12.069                Norilsk           377.156
       136   02 Jun 2027 09:42:30.949   02 Jun 2027 09:44:05.690            94.741                Irkutsk          2960.656
       137   02 Jun 2027 09:44:09.784   02 Jun 2027 09:44:25.909            16.125                Norilsk           503.906
       138   02 Jun 2027 09:44:29.027   02 Jun 2027 09:44:36.205             7.178                 Moscow           224.312
       139   02 Jun 2027 09:44:45.957   02 Jun 2027 09:45:37.814            51.857              Murmansk1          1620.531
       140   02 Jun 2027 11:02:57.445   02 Jun 2027 11:05:13.278           135.833                  Delhi          4244.781
       141   02 Jun 2027 11:15:50.052   02 Jun 2027 11:16:22.187            32.135              Murmansk2          1004.219
       142   02 Jun 2027 11:16:25.934   02 Jun 2027 11:16:50.147            24.213              Murmansk2           756.656
       143   02 Jun 2027 11:17:01.489   02 Jun 2027 11:17:24.485            22.996              Murmansk1           718.625
       144   02 Jun 2027 11:17:24.485   02 Jun 2027 11:17:43.745            19.260              Murmansk2           601.875
       145   02 Jun 2027 11:17:45.206   02 Jun 2027 11:18:11.852            26.646              Murmansk2           832.687
       146   02 Jun 2027 11:18:13.852   02 Jun 2027 11:18:47.286            33.434                 Moscow          1044.813
       147   02 Jun 2027 11:19:11.919   02 Jun 2027 11:19:30.024            18.105                 Moscow           565.781
       148   02 Jun 2027 11:19:32.933   02 Jun 2027 11:19:44.975            12.042              Murmansk1           376.312
       149   02 Jun 2027 11:19:44.975   02 Jun 2027 11:19:50.972             5.997              Murmansk2           187.406
       150   02 Jun 2027 11:19:58.208   02 Jun 2027 11:20:05.325             7.117                Novosib           222.406
       151   02 Jun 2027 11:20:05.529   02 Jun 2027 11:20:10.038             4.509              Murmansk2           140.906
       152   02 Jun 2027 11:20:29.782   02 Jun 2027 11:21:44.760            74.978              Murmansk2          2343.063
       153   02 Jun 2027 12:46:51.555   02 Jun 2027 12:48:48.070           116.515                 Moscow          3641.094
       154   02 Jun 2027 12:48:57.716   02 Jun 2027 12:49:37.698            39.982                 Moscow          1249.437
       155   02 Jun 2027 12:50:22.415   02 Jun 2027 12:53:25.602           183.187              Murmansk2          5724.594
       156   02 Jun 2027 12:58:17.675   02 Jun 2027 12:59:24.215            66.540                Norilsk          2079.375
       157   02 Jun 2027 14:00:52.460   02 Jun 2027 14:03:35.835           163.375               CapeTown          5105.469
       158   02 Jun 2027 14:04:29.767   02 Jun 2027 14:05:06.536            36.769               CapeTown          1149.031
       159   02 Jun 2027 14:27:52.514   02 Jun 2027 14:29:54.556           122.042              Murmansk2          3813.813
       160   02 Jun 2027 14:33:34.850   02 Jun 2027 14:35:00.736            85.886              Murmansk1          2683.938
       161   02 Jun 2027 14:41:12.377   02 Jun 2027 14:43:31.045           138.668                Anadyr1          4333.375
       162   02 Jun 2027 15:36:32.486   02 Jun 2027 15:36:52.532            20.046               CapeTown           626.437
       163   02 Jun 2027 16:07:52.561   02 Jun 2027 16:09:31.186            98.625              Murmansk1          3082.031
       164   02 Jun 2027 16:10:57.703   02 Jun 2027 16:11:16.716            19.013              Murmansk1           594.156
       165   02 Jun 2027 16:16:53.325   02 Jun 2027 16:18:39.295           105.970                Anadyr1          3311.563
       166   02 Jun 2027 16:18:48.612   02 Jun 2027 16:19:50.874            62.262                Anadyr2          1945.688
       167   02 Jun 2027 16:19:53.421   02 Jun 2027 16:23:01.223           187.802               Magadan2          5868.813
       168   02 Jun 2027 16:23:01.223   02 Jun 2027 16:24:39.400            98.177               Magadan1          3068.031
       169   02 Jun 2027 17:52:48.721   02 Jun 2027 17:54:27.649            98.928                Anadyr2          3091.500
       170   02 Jun 2027 17:55:07.045   02 Jun 2027 17:57:27.650           140.605               Magadan1          4393.906
       171   02 Jun 2027 18:02:49.338   02 Jun 2027 18:03:23.024            33.686               Magadan1          1052.688
       172   02 Jun 2027 18:48:36.009   02 Jun 2027 18:51:31.172           175.163            RioGallegos          5473.844
       173   02 Jun 2027 18:55:07.677   02 Jun 2027 18:55:20.135            12.458            RioGallegos           389.312
       174   02 Jun 2027 19:28:36.031   02 Jun 2027 19:28:38.664             2.633                Anadyr2            82.281
       175   02 Jun 2027 19:30:21.663   02 Jun 2027 19:30:25.020             3.357                Anadyr1           104.906
       176   02 Jun 2027 19:30:46.444   02 Jun 2027 19:34:44.765           238.321                Norilsk          7447.531
       177   02 Jun 2027 19:35:53.955   02 Jun 2027 19:36:42.061            48.106                Irkutsk          1503.312
       178   02 Jun 2027 19:37:17.661   02 Jun 2027 19:38:02.322            44.661                Norilsk          1395.656
       179   02 Jun 2027 19:38:31.565   02 Jun 2027 19:39:34.844            63.279                Irkutsk          1977.469
       180   02 Jun 2027 19:40:33.184   02 Jun 2027 19:41:55.335            82.151                Irkutsk          2567.219
       181   02 Jun 2027 19:50:11.023   02 Jun 2027 19:51:01.029            50.006                Sumatra          1562.688
       182   02 Jun 2027 19:51:22.733   02 Jun 2027 19:52:51.091            88.358                Sumatra          2761.187
       183   02 Jun 2027 19:54:09.846   02 Jun 2027 19:55:10.084            60.238                Sumatra          1882.437
       184   02 Jun 2027 19:56:35.051   02 Jun 2027 19:57:53.949            78.898                Sumatra          2465.562
       185   02 Jun 2027 21:11:26.468   02 Jun 2027 21:12:00.715            34.247                Novosib          1070.219
       186   02 Jun 2027 21:13:05.871   02 Jun 2027 21:13:22.889            17.018                Novosib           531.813
       187   02 Jun 2027 21:20:25.661   02 Jun 2027 21:22:43.348           137.687                  Delhi          4302.719
       188   02 Jun 2027 21:25:24.789   02 Jun 2027 21:26:10.199            45.410                  Delhi          1419.062
       189   02 Jun 2027 22:43:04.474   02 Jun 2027 22:44:00.821            56.347               Magadan2          1760.844
       190   02 Jun 2027 22:45:23.425   02 Jun 2027 22:49:05.757           222.332              Murmansk1          6947.875
       191   02 Jun 2027 22:49:55.204   02 Jun 2027 22:51:19.507            84.303              Murmansk2          2634.469
       192   02 Jun 2027 23:05:23.729   02 Jun 2027 23:06:18.534            54.805                  Delhi          1712.656
       193   03 Jun 2027 00:17:03.034   03 Jun 2027 00:19:05.426           122.392               Magadan2          3824.750
       194   03 Jun 2027 00:19:07.999   03 Jun 2027 00:19:38.257            30.258               Magadan1           945.563
       195   03 Jun 2027 00:20:09.444   03 Jun 2027 00:20:43.806            34.362               Magadan1          1073.812
       196   03 Jun 2027 00:21:15.163   03 Jun 2027 00:24:47.506           212.343              Murmansk2          6635.719
       197   03 Jun 2027 00:25:26.610   03 Jun 2027 00:25:49.991            23.381                 Moscow           730.656
       198   03 Jun 2027 00:26:43.222   03 Jun 2027 00:27:26.699            43.477                 Moscow          1358.656
       199   03 Jun 2027 00:50:09.661   03 Jun 2027 00:51:54.686           105.025               CapeTown          3282.031
       200   03 Jun 2027 00:54:43.280   03 Jun 2027 00:55:58.896            75.616               CapeTown          2363.000
       201   03 Jun 2027 01:48:41.381   03 Jun 2027 01:49:37.558            56.177               Magadan2          1755.531
       202   03 Jun 2027 01:49:54.018   03 Jun 2027 01:50:20.442            26.424               Magadan1           825.750
       203   03 Jun 2027 01:56:11.372   03 Jun 2027 01:56:38.195            26.823               Magadan1           838.219
       204   03 Jun 2027 01:56:39.587   03 Jun 2027 01:57:24.548            44.961              Murmansk2          1405.031
       205   03 Jun 2027 01:58:10.573   03 Jun 2027 01:58:19.988             9.415              Murmansk2           294.219
       206   03 Jun 2027 01:58:42.607   03 Jun 2027 01:59:00.010            17.403              Murmansk1           543.844
       207   03 Jun 2027 01:59:16.743   03 Jun 2027 02:00:22.304            65.561                Novosib          2048.781
       208   03 Jun 2027 02:01:18.482   03 Jun 2027 02:01:41.888            23.406                 Moscow           731.437
       209   03 Jun 2027 02:09:35.175   03 Jun 2027 02:10:10.362            35.187                 Moscow          1099.594
       210   03 Jun 2027 02:23:46.703   03 Jun 2027 02:24:01.670            14.967               CapeTown           467.719
       211   03 Jun 2027 02:24:41.100   03 Jun 2027 02:26:01.763            80.663               CapeTown          2520.719
       212   03 Jun 2027 03:27:29.626   03 Jun 2027 03:27:42.805            13.179                Anadyr2           411.844
       213   03 Jun 2027 03:27:53.573   03 Jun 2027 03:30:53.283           179.710                Anadyr1          5615.938
       214   03 Jun 2027 03:30:53.283   03 Jun 2027 03:33:20.548           147.265                Anadyr2          4602.031
       215   03 Jun 2027 05:05:44.210   03 Jun 2027 05:06:04.224            20.014               Magadan2           625.438
       216   03 Jun 2027 05:06:04.224   03 Jun 2027 05:06:58.192            53.968               Magadan1          1686.500
       217   03 Jun 2027 05:07:10.748   03 Jun 2027 05:09:08.787           118.039                Anadyr2          3688.719
       218   03 Jun 2027 05:46:24.885   03 Jun 2027 05:46:35.790            10.905            RioGallegos           340.781
       219   03 Jun 2027 05:52:06.176   03 Jun 2027 05:52:19.324            13.148            RioGallegos           410.875
       220   03 Jun 2027 06:37:54.019   03 Jun 2027 06:38:12.040            18.021                Irkutsk           563.156
       221   03 Jun 2027 06:38:31.343   03 Jun 2027 06:38:49.109            17.766               Magadan2           555.187
       222   03 Jun 2027 06:39:02.692   03 Jun 2027 06:39:35.151            32.459               Magadan2          1014.344
       223   03 Jun 2027 06:40:15.826   03 Jun 2027 06:40:37.789            21.963                Novosib           686.344
       224   03 Jun 2027 06:40:50.601   03 Jun 2027 06:41:37.908            47.307               Magadan2          1478.344
       225   03 Jun 2027 06:41:37.908   03 Jun 2027 06:42:11.004            33.096               Magadan1          1034.250
       226   03 Jun 2027 06:42:31.681   03 Jun 2027 06:42:56.484            24.803                Anadyr2           775.094
       227   03 Jun 2027 06:43:05.238   03 Jun 2027 06:43:30.864            25.626               Magadan1           800.813
       228   03 Jun 2027 06:43:33.141   03 Jun 2027 06:44:06.453            33.312              Murmansk2          1041.000
       229   03 Jun 2027 06:44:07.498   03 Jun 2027 06:44:15.865             8.367              Murmansk1           261.469
       230   03 Jun 2027 06:44:19.807   03 Jun 2027 06:44:36.871            17.064               Magadan2           533.250
       231   03 Jun 2027 06:44:38.345   03 Jun 2027 06:44:38.468             0.123              Murmansk2             3.844
       232   03 Jun 2027 06:44:38.468   03 Jun 2027 06:45:41.345            62.877              Murmansk1          1964.906
       233   03 Jun 2027 07:19:34.500   03 Jun 2027 07:19:55.526            21.026            RioGallegos           657.062
       234   03 Jun 2027 07:20:55.261   03 Jun 2027 07:21:19.558            24.297            RioGallegos           759.281
       235   03 Jun 2027 07:22:48.633   03 Jun 2027 07:23:22.357            33.724            RioGallegos          1053.875
       236   03 Jun 2027 07:55:50.692   03 Jun 2027 07:57:39.151           108.459                Sumatra          3389.344
       237   03 Jun 2027 08:14:37.898   03 Jun 2027 08:15:12.870            34.972                Novosib          1092.875
       238   03 Jun 2027 08:15:39.825   03 Jun 2027 08:16:41.302            61.477                Novosib          1921.156
       239   03 Jun 2027 08:16:50.396   03 Jun 2027 08:17:01.150            10.754                Irkutsk           336.062
       240   03 Jun 2027 08:17:09.889   03 Jun 2027 08:17:51.777            41.888                Norilsk          1309.000
       241   03 Jun 2027 08:17:57.268   03 Jun 2027 08:18:56.249            58.981              Murmansk1          1843.156
       242   03 Jun 2027 08:19:07.430   03 Jun 2027 08:19:57.835            50.405                Norilsk          1575.156
       243   03 Jun 2027 08:20:09.384   03 Jun 2027 08:20:45.168            35.784                Irkutsk          1118.250
       244   03 Jun 2027 08:20:52.729   03 Jun 2027 08:21:06.690            13.961              Murmansk1           436.281
       245   03 Jun 2027 08:21:43.304   03 Jun 2027 08:22:41.576            58.272              Murmansk2          1821.000
       246   03 Jun 2027 08:56:17.441   03 Jun 2027 08:56:29.689            12.248            RioGallegos           382.750
       247   03 Jun 2027 09:30:35.061   03 Jun 2027 09:32:07.265            92.204                Sumatra          2881.375
       248   03 Jun 2027 09:35:08.432   03 Jun 2027 09:35:20.680            12.248                Sumatra           382.750
       249   03 Jun 2027 09:39:07.560   03 Jun 2027 09:40:20.628            73.068                  Delhi          2283.375
       250   03 Jun 2027 09:51:18.429   03 Jun 2027 09:51:47.901            29.472                Irkutsk           921.000
       251   03 Jun 2027 09:51:55.698   03 Jun 2027 09:52:21.354            25.656              Murmansk1           801.750
       252   03 Jun 2027 09:52:23.091   03 Jun 2027 09:52:42.328            19.237                Irkutsk           601.156
       253   03 Jun 2027 09:53:32.258   03 Jun 2027 09:54:33.132            60.874              Murmansk1          1902.312
       254   03 Jun 2027 09:54:55.750   03 Jun 2027 09:55:01.333             5.583                Novosib           174.469
       255   03 Jun 2027 09:55:10.557   03 Jun 2027 09:55:42.175            31.618                Norilsk           988.063
       256   03 Jun 2027 09:55:56.410   03 Jun 2027 09:56:09.230            12.820              Murmansk2           400.625
       257   03 Jun 2027 09:56:15.138   03 Jun 2027 09:56:45.860            30.722                 Moscow           960.062
       258   03 Jun 2027 11:15:22.575   03 Jun 2027 11:18:55.388           212.813                  Delhi          6650.406
       259   03 Jun 2027 11:27:48.020   03 Jun 2027 11:28:23.613            35.593              Murmansk1          1112.281
       260   03 Jun 2027 11:28:26.013   03 Jun 2027 11:28:37.699            11.686              Murmansk2           365.188
       261   03 Jun 2027 11:28:41.617   03 Jun 2027 11:29:45.039            63.422                Norilsk          1981.937
       262   03 Jun 2027 11:29:55.537   03 Jun 2027 11:31:04.643            69.106                 Moscow          2159.563
       263   03 Jun 2027 11:31:11.412   03 Jun 2027 11:31:35.574            24.162                 Moscow           755.062
       264   03 Jun 2027 11:31:40.539   03 Jun 2027 11:32:01.536            20.997                Norilsk           656.156
       265   03 Jun 2027 11:32:03.792   03 Jun 2027 11:32:20.063            16.271                Norilsk           508.469
       266   03 Jun 2027 11:32:22.753   03 Jun 2027 11:32:40.062            17.309              Murmansk2           540.906
       267   03 Jun 2027 11:33:39.933   03 Jun 2027 11:33:44.082             4.149                Norilsk           129.656
       268   03 Jun 2027 11:34:27.424   03 Jun 2027 11:34:39.087            11.663              Murmansk2           364.469
       269   03 Jun 2027 12:58:57.543   03 Jun 2027 13:02:19.879           202.336                 Moscow          6323.000
       270   03 Jun 2027 13:02:29.125   03 Jun 2027 13:05:37.061           187.936              Murmansk1          5873.000
       271   03 Jun 2027 13:05:39.983   03 Jun 2027 13:06:33.984            54.001              Murmansk1          1687.531
       272   03 Jun 2027 13:19:03.301   03 Jun 2027 13:20:11.804            68.503                Anadyr2          2140.719
       273   03 Jun 2027 13:21:18.008   03 Jun 2027 13:21:56.340            38.332                Anadyr1          1197.875
       274   03 Jun 2027 13:22:20.257   03 Jun 2027 13:22:29.574             9.317                Anadyr2           291.156
       275   03 Jun 2027 14:12:40.654   03 Jun 2027 14:13:46.177            65.523               CapeTown          2047.594
       276   03 Jun 2027 14:15:49.229   03 Jun 2027 14:16:09.493            20.264               CapeTown           633.250
       277   03 Jun 2027 14:40:14.888   03 Jun 2027 14:40:39.631            24.743              Murmansk1           773.219
       278   03 Jun 2027 14:41:18.546   03 Jun 2027 14:43:19.046           120.500              Murmansk1          3765.625
       279   03 Jun 2027 14:47:13.665   03 Jun 2027 14:47:38.699            25.034              Murmansk1           782.312
       280   03 Jun 2027 14:49:39.241   03 Jun 2027 14:50:08.924            29.683              Murmansk2           927.594
       281   03 Jun 2027 14:53:09.763   03 Jun 2027 14:55:01.195           111.432                Anadyr2          3482.250
       282   03 Jun 2027 14:55:01.195   03 Jun 2027 14:55:17.090            15.895                Anadyr1           496.719
       283   03 Jun 2027 15:00:46.385   03 Jun 2027 15:01:03.413            17.028                Anadyr2           532.125
       284   03 Jun 2027 15:48:45.534   03 Jun 2027 15:49:09.226            23.692               CapeTown           740.375
       285   03 Jun 2027 15:53:46.304   03 Jun 2027 15:53:50.319             4.015               CapeTown           125.469
       286   03 Jun 2027 15:54:29.804   03 Jun 2027 15:55:48.813            79.009               CapeTown          2469.031
       287   03 Jun 2027 16:20:41.479   03 Jun 2027 16:21:12.906            31.427              Murmansk2           982.094
       288   03 Jun 2027 16:22:54.498   03 Jun 2027 16:23:55.904            61.406              Murmansk2          1918.937
       289   03 Jun 2027 16:28:54.406   03 Jun 2027 16:30:39.150           104.744                Anadyr1          3273.250
       290   03 Jun 2027 16:31:06.332   03 Jun 2027 16:31:51.949            45.617                Anadyr2          1425.531
       291   03 Jun 2027 16:32:16.988   03 Jun 2027 16:36:08.467           231.479               Magadan2          7233.719
       292   03 Jun 2027 18:04:49.872   03 Jun 2027 18:07:32.954           163.082                Anadyr2          5096.312
       293   03 Jun 2027 18:08:13.589   03 Jun 2027 18:09:20.697            67.108               Magadan1          2097.125
       294   03 Jun 2027 18:09:35.944   03 Jun 2027 18:09:36.522             0.578               Magadan1            18.062
       295   03 Jun 2027 18:10:07.536   03 Jun 2027 18:10:18.125            10.589               Magadan1           330.906
       296   03 Jun 2027 18:11:02.915   03 Jun 2027 18:11:24.260            21.345               Magadan1           667.031
       297   03 Jun 2027 18:13:17.999   03 Jun 2027 18:14:09.815            51.816               Magadan2          1619.250
       298   03 Jun 2027 19:00:04.941   03 Jun 2027 19:03:18.613           193.672            RioGallegos          6052.250
       299   03 Jun 2027 19:40:34.585   03 Jun 2027 19:41:45.997            71.412                Anadyr2          2231.625
       300   03 Jun 2027 19:42:03.708   03 Jun 2027 19:42:06.803             3.095                Anadyr2            96.719
       301   03 Jun 2027 19:42:44.631   03 Jun 2027 19:46:45.000           240.369                Norilsk          7511.531
       302   03 Jun 2027 19:47:17.400   03 Jun 2027 19:49:00.934           103.534                Irkutsk          3235.438
       303   03 Jun 2027 19:49:29.528   03 Jun 2027 19:49:41.216            11.688                Irkutsk           365.250
       304   03 Jun 2027 20:01:33.409   03 Jun 2027 20:04:37.441           184.032                Sumatra          5751.000
       305   03 Jun 2027 20:07:25.433   03 Jun 2027 20:08:35.883            70.450                Sumatra          2201.563
       306   03 Jun 2027 21:22:53.725   03 Jun 2027 21:24:53.638           119.913                Novosib          3747.281
       307   03 Jun 2027 21:26:21.531   03 Jun 2027 21:26:40.834            19.303                Novosib           603.219
       308   03 Jun 2027 21:31:36.256   03 Jun 2027 21:34:24.754           168.498                  Delhi          5265.563
       309   03 Jun 2027 21:38:05.114   03 Jun 2027 21:39:17.755            72.641                  Delhi          2270.031
       310   03 Jun 2027 22:56:02.118   03 Jun 2027 22:56:27.475            25.357               Magadan1           792.406
       311   03 Jun 2027 22:57:14.175   03 Jun 2027 23:02:06.532           292.357              Murmansk2          9136.156
       312   03 Jun 2027 23:02:17.945   03 Jun 2027 23:03:46.810            88.865              Murmansk2          2777.031
       313   04 Jun 2027 00:28:34.051   04 Jun 2027 00:29:35.661            61.610               Magadan2          1925.313
       314   04 Jun 2027 00:30:08.482   04 Jun 2027 00:30:35.308            26.826               Magadan2           838.312
       315   04 Jun 2027 00:30:52.698   04 Jun 2027 00:31:06.278            13.580               Magadan2           424.375
       316   04 Jun 2027 00:32:06.187   04 Jun 2027 00:32:07.546             1.359               Magadan2            42.469
       317   04 Jun 2027 00:32:44.412   04 Jun 2027 00:34:32.647           108.235              Murmansk1          3382.344
       318   04 Jun 2027 00:34:33.605   04 Jun 2027 00:35:26.028            52.423                Novosib          1638.219
       319   04 Jun 2027 00:36:19.232   04 Jun 2027 00:37:15.821            56.589                 Moscow          1768.406
       320   04 Jun 2027 00:37:50.404   04 Jun 2027 00:38:27.974            37.570                 Moscow          1174.063
       321   04 Jun 2027 00:38:52.616   04 Jun 2027 00:38:55.886             3.270                 Moscow           102.187
       322   04 Jun 2027 00:42:13.215   04 Jun 2027 00:42:35.534            22.319                 Moscow           697.469
       323   04 Jun 2027 00:44:44.582   04 Jun 2027 00:45:49.573            64.991                 Moscow          2030.969
       324   04 Jun 2027 01:01:31.976   04 Jun 2027 01:02:09.026            37.050               CapeTown          1157.812
       325   04 Jun 2027 01:03:17.789   04 Jun 2027 01:04:24.846            67.057               CapeTown          2095.531
       326   04 Jun 2027 01:58:35.718   04 Jun 2027 01:59:17.303            41.585                Anadyr2          1299.531
       327   04 Jun 2027 02:00:12.795   04 Jun 2027 02:01:24.765            71.970               Magadan1          2249.063
       328   04 Jun 2027 02:01:36.255   04 Jun 2027 02:01:49.505            13.250               Magadan1           414.062
       329   04 Jun 2027 02:04:56.635   04 Jun 2027 02:05:29.006            32.371               Magadan1          1011.594
       330   04 Jun 2027 02:08:41.319   04 Jun 2027 02:10:05.340            84.021              Murmansk1          2625.656
       331   04 Jun 2027 02:10:05.340   04 Jun 2027 02:10:42.563            37.223              Murmansk2          1163.219
       332   04 Jun 2027 02:10:48.732   04 Jun 2027 02:10:54.964             6.232              Murmansk2           194.750
       333   04 Jun 2027 02:11:45.544   04 Jun 2027 02:12:10.890            25.346                Novosib           792.063
       334   04 Jun 2027 02:15:54.033   04 Jun 2027 02:16:02.249             8.216                Novosib           256.750
       335   04 Jun 2027 02:17:30.250   04 Jun 2027 02:18:57.683            87.433                 Moscow          2732.281
       336   04 Jun 2027 02:40:49.165   04 Jun 2027 02:41:23.042            33.877               CapeTown          1058.656
       337   04 Jun 2027 03:38:30.571   04 Jun 2027 03:38:55.453            24.882               Magadan1           777.563
       338   04 Jun 2027 03:39:54.089   04 Jun 2027 03:40:05.457            11.368                Anadyr1           355.250
       339   04 Jun 2027 03:40:05.457   04 Jun 2027 03:40:11.530             6.073                Anadyr2           189.781
       340   04 Jun 2027 03:40:30.361   04 Jun 2027 03:42:31.082           120.721               Magadan1          3772.531
       341   04 Jun 2027 03:42:31.082   04 Jun 2027 03:45:04.347           153.265               Magadan2          4789.531
       342   04 Jun 2027 03:45:21.436   04 Jun 2027 03:45:26.235             4.799                Anadyr1           149.969
       343   04 Jun 2027 05:15:08.006   04 Jun 2027 05:15:46.792            38.786                Irkutsk          1212.063
       344   04 Jun 2027 05:16:09.168   04 Jun 2027 05:17:19.152            69.984                Irkutsk          2187.000
       345   04 Jun 2027 05:18:35.241   04 Jun 2027 05:19:04.832            29.591                Irkutsk           924.719
       346   04 Jun 2027 06:52:20.114   04 Jun 2027 06:52:34.655            14.541                Norilsk           454.406
       347   04 Jun 2027 06:52:48.130   04 Jun 2027 06:52:55.665             7.535               Magadan1           235.469
       348   04 Jun 2027 06:52:55.665   04 Jun 2027 06:53:08.219            12.554               Magadan2           392.312
       349   04 Jun 2027 06:53:27.508   04 Jun 2027 06:54:49.991            82.483               Magadan2          2577.594
       350   04 Jun 2027 06:55:08.400   04 Jun 2027 06:56:01.275            52.875               Magadan2          1652.344
       351   04 Jun 2027 06:56:07.289   04 Jun 2027 06:56:40.530            33.241              Murmansk1          1038.781
       352   04 Jun 2027 06:56:48.753   04 Jun 2027 06:57:25.195            36.442                Novosib          1138.813
       353   04 Jun 2027 06:57:53.482   04 Jun 2027 06:57:58.230             4.748              Murmansk1           148.375
       354   04 Jun 2027 07:00:32.137   04 Jun 2027 07:00:55.419            23.282              Murmansk2           727.563
       355   04 Jun 2027 07:31:29.673   04 Jun 2027 07:32:05.769            36.096            RioGallegos          1128.000
       356   04 Jun 2027 07:33:19.328   04 Jun 2027 07:33:46.474            27.146            RioGallegos           848.312
       357   04 Jun 2027 08:07:18.699   04 Jun 2027 08:08:09.198            50.499                Sumatra          1578.094
       358   04 Jun 2027 08:12:52.704   04 Jun 2027 08:13:30.672            37.968                Sumatra          1186.500
       359   04 Jun 2027 08:26:48.651   04 Jun 2027 08:27:26.295            37.644                Novosib          1176.375
       360   04 Jun 2027 08:27:39.741   04 Jun 2027 08:27:48.677             8.936                Novosib           279.250
       361   04 Jun 2027 08:27:56.752   04 Jun 2027 08:27:59.206             2.454                Irkutsk            76.687
       362   04 Jun 2027 08:28:05.284   04 Jun 2027 08:28:12.710             7.426                Irkutsk           232.063
       363   04 Jun 2027 08:28:20.752   04 Jun 2027 08:28:46.801            26.049                Novosib           814.031
       364   04 Jun 2027 08:29:14.427   04 Jun 2027 08:29:25.469            11.042                Irkutsk           345.062
       365   04 Jun 2027 08:29:32.412   04 Jun 2027 08:30:27.475            55.063                Irkutsk          1720.719
       366   04 Jun 2027 08:30:31.389   04 Jun 2027 08:30:42.315            10.926                Norilsk           341.438
       367   04 Jun 2027 08:30:44.983   04 Jun 2027 08:30:52.076             7.093              Murmansk1           221.656
       368   04 Jun 2027 08:31:02.514   04 Jun 2027 08:31:23.771            21.257                Irkutsk           664.281
       369   04 Jun 2027 08:31:34.427   04 Jun 2027 08:31:53.536            19.109                Novosib           597.156
       370   04 Jun 2027 08:31:56.608   04 Jun 2027 08:32:13.413            16.805                Norilsk           525.156
       371   04 Jun 2027 08:32:13.418   04 Jun 2027 08:32:56.118            42.700              Murmansk2          1334.375
       372   04 Jun 2027 09:08:42.978   04 Jun 2027 09:10:13.072            90.094            RioGallegos          2815.438
       373   04 Jun 2027 09:42:55.962   04 Jun 2027 09:44:00.948            64.986                Sumatra          2030.813
       374   04 Jun 2027 09:52:14.842   04 Jun 2027 09:52:36.117            21.275                  Delhi           664.844
       375   04 Jun 2027 09:53:36.044   04 Jun 2027 09:54:01.229            25.185                  Delhi           787.031
       376   04 Jun 2027 10:04:00.443   04 Jun 2027 10:04:19.523            19.080                 Moscow           596.250
       377   04 Jun 2027 10:04:30.543   04 Jun 2027 10:04:32.111             1.568              Murmansk2            49.000
       378   04 Jun 2027 10:04:37.991   04 Jun 2027 10:05:24.376            46.385                 Moscow          1449.531
       379   04 Jun 2027 10:05:31.593   04 Jun 2027 10:06:02.597            31.004              Murmansk1           968.875
       380   04 Jun 2027 10:06:09.534   04 Jun 2027 10:06:09.913             0.379                Norilsk            11.844
       381   04 Jun 2027 10:06:16.010   04 Jun 2027 10:07:10.470            54.460                Novosib          1701.875
       382   04 Jun 2027 10:07:17.308   04 Jun 2027 10:07:57.794            40.486              Murmansk1          1265.187
       383   04 Jun 2027 10:08:02.968   04 Jun 2027 10:08:15.398            12.430                Novosib           388.438
       384   04 Jun 2027 10:08:26.585   04 Jun 2027 10:09:08.348            41.763                 Moscow          1305.094
       385   04 Jun 2027 11:27:56.724   04 Jun 2027 11:30:36.289           159.565                  Delhi          4986.406
       386   04 Jun 2027 11:40:13.489   04 Jun 2027 11:40:25.144            11.655              Murmansk1           364.219
       387   04 Jun 2027 11:40:43.447   04 Jun 2027 11:41:07.527            24.080              Murmansk1           752.500
       388   04 Jun 2027 11:41:07.527   04 Jun 2027 11:41:40.731            33.204              Murmansk2          1037.625
       389   04 Jun 2027 11:41:45.062   04 Jun 2027 11:42:03.836            18.774              Murmansk1           586.688
       390   04 Jun 2027 11:42:07.286   04 Jun 2027 11:42:19.607            12.321                 Moscow           385.031
       391   04 Jun 2027 11:42:23.462   04 Jun 2027 11:42:57.784            34.322              Murmansk1          1072.563
       392   04 Jun 2027 11:43:13.783   04 Jun 2027 11:43:17.965             4.182                 Moscow           130.687
       393   04 Jun 2027 11:43:25.929   04 Jun 2027 11:44:56.165            90.236                 Moscow          2819.875
       394   04 Jun 2027 13:11:06.664   04 Jun 2027 13:12:37.388            90.724                 Moscow          2835.125
       395   04 Jun 2027 13:14:37.559   04 Jun 2027 13:18:28.891           231.332              Murmansk1          7229.125
       396   04 Jun 2027 13:18:28.891   04 Jun 2027 13:19:22.322            53.431              Murmansk2          1669.719
       397   04 Jun 2027 13:21:53.075   04 Jun 2027 13:22:26.601            33.526                Norilsk          1047.688
       398   04 Jun 2027 13:30:27.267   04 Jun 2027 13:33:43.301           196.034                Anadyr1          6126.062
       399   04 Jun 2027 14:34:25.759   04 Jun 2027 14:34:31.962             6.203               CapeTown           193.844
       400   04 Jun 2027 14:50:34.753   04 Jun 2027 14:50:37.306             2.553                 Moscow            79.781
       401   04 Jun 2027 14:52:39.622   04 Jun 2027 14:52:54.683            15.061              Murmansk2           470.656
       402   04 Jun 2027 14:53:30.943   04 Jun 2027 14:54:08.719            37.776              Murmansk1          1180.500
       403   04 Jun 2027 14:55:20.689   04 Jun 2027 14:57:17.215           116.526              Murmansk2          3641.437
       404   04 Jun 2027 15:05:08.020   04 Jun 2027 15:06:04.262            56.242                Anadyr2          1757.563
       405   04 Jun 2027 15:06:04.262   04 Jun 2027 15:07:00.855            56.593                Anadyr1          1768.531
       406   04 Jun 2027 15:08:48.466   04 Jun 2027 15:09:07.532            19.066                Anadyr2           595.812
       407   04 Jun 2027 15:10:33.907   04 Jun 2027 15:11:16.160            42.253                Anadyr1          1320.406
       408   04 Jun 2027 15:16:10.188   04 Jun 2027 15:16:31.448            21.260                Anadyr2           664.375
       409   04 Jun 2027 16:33:38.082   04 Jun 2027 16:36:51.649           193.567              Murmansk2          6048.969
       410   04 Jun 2027 16:40:55.621   04 Jun 2027 16:43:05.322           129.701                Anadyr2          4053.156
       411   04 Jun 2027 16:43:37.127   04 Jun 2027 16:46:20.650           163.523               Magadan1          5110.094
       412   04 Jun 2027 16:50:15.367   04 Jun 2027 16:50:25.152             9.785               Magadan2           305.781
       413   04 Jun 2027 16:52:12.475   04 Jun 2027 16:53:10.867            58.392               Magadan1          1824.750
       414   04 Jun 2027 18:16:50.866   04 Jun 2027 18:19:37.181           166.315                Anadyr1          5197.344
       415   04 Jun 2027 18:19:45.251   04 Jun 2027 18:19:58.729            13.478                Anadyr1           421.188
       416   04 Jun 2027 18:20:13.672   04 Jun 2027 18:20:28.392            14.720                Anadyr1           460.000
       417   04 Jun 2027 18:20:52.837   04 Jun 2027 18:21:53.337            60.500               Magadan1          1890.625
       418   04 Jun 2027 18:21:53.337   04 Jun 2027 18:22:24.477            31.140               Magadan2           973.125
       419   04 Jun 2027 18:23:42.309   04 Jun 2027 18:24:34.491            52.182               Magadan2          1630.688
       420   04 Jun 2027 19:11:43.297   04 Jun 2027 19:13:59.037           135.740            RioGallegos          4241.875
       421   04 Jun 2027 19:14:32.735   04 Jun 2027 19:15:38.956            66.221            RioGallegos          2069.406
       422   04 Jun 2027 19:16:40.833   04 Jun 2027 19:18:01.420            80.587            RioGallegos          2518.344
       423   04 Jun 2027 19:53:12.370   04 Jun 2027 19:53:28.310            15.940                Anadyr2           498.125
       424   04 Jun 2027 19:53:46.481   04 Jun 2027 19:54:15.253            28.772                Anadyr2           899.125
       425   04 Jun 2027 19:54:43.746   04 Jun 2027 19:56:59.870           136.124                Norilsk          4253.875
       426   04 Jun 2027 19:57:39.644   04 Jun 2027 19:58:45.675            66.031                Norilsk          2063.469
       427   04 Jun 2027 19:59:06.338   04 Jun 2027 20:00:07.795            61.457                Irkutsk          1920.531
       428   04 Jun 2027 20:01:06.795   04 Jun 2027 20:01:58.626            51.831                Irkutsk          1619.719
       429   04 Jun 2027 20:13:06.214   04 Jun 2027 20:16:29.869           203.655                Sumatra          6364.219
       430   04 Jun 2027 21:34:47.303   04 Jun 2027 21:36:21.145            93.842                Novosib          2932.563
       431   04 Jun 2027 21:36:58.173   04 Jun 2027 21:37:23.989            25.816                Novosib           806.750
       432   04 Jun 2027 21:40:42.054   04 Jun 2027 21:41:12.255            30.201                Novosib           943.781
       433   04 Jun 2027 21:43:02.555   04 Jun 2027 21:46:11.575           189.020                  Delhi          5906.875
       434   04 Jun 2027 21:48:37.945   04 Jun 2027 21:49:57.652            79.707                  Delhi          2490.844
       435   04 Jun 2027 23:07:00.919   04 Jun 2027 23:07:40.054            39.135               Magadan2          1222.969
       436   04 Jun 2027 23:08:14.902   04 Jun 2027 23:08:50.363            35.461               Magadan2          1108.156
       437   04 Jun 2027 23:09:08.006   04 Jun 2027 23:13:00.932           232.926              Murmansk2          7278.938
       438   04 Jun 2027 23:13:39.015   04 Jun 2027 23:15:47.103           128.088              Murmansk1          4002.750
       439   04 Jun 2027 23:16:30.454   04 Jun 2027 23:17:23.805            53.351                 Moscow          1667.219
       440   05 Jun 2027 00:40:03.352   05 Jun 2027 00:41:10.568            67.216               Magadan2          2100.500
       441   05 Jun 2027 00:42:55.355   05 Jun 2027 00:43:42.611            47.256               Magadan2          1476.750
       442   05 Jun 2027 00:44:45.393   05 Jun 2027 00:45:27.092            41.699              Murmansk1          1303.094
       443   05 Jun 2027 00:45:54.406   05 Jun 2027 00:46:31.567            37.161              Murmansk2          1161.281
       444   05 Jun 2027 00:46:39.255   05 Jun 2027 00:47:22.798            43.543                Novosib          1360.719
       445   05 Jun 2027 00:48:14.178   05 Jun 2027 00:49:38.585            84.407                 Moscow          2637.719
       446   05 Jun 2027 00:55:06.745   05 Jun 2027 00:55:28.371            21.626                 Moscow           675.813
       447   05 Jun 2027 00:57:40.484   05 Jun 2027 00:58:01.852            21.368                 Moscow           667.750
       448   05 Jun 2027 01:13:02.048   05 Jun 2027 01:13:46.314            44.266               CapeTown          1383.312
       449   05 Jun 2027 01:17:50.015   05 Jun 2027 01:18:25.355            35.340               CapeTown          1104.375
       450   05 Jun 2027 02:08:48.957   05 Jun 2027 02:09:15.633            26.676                Anadyr1           833.625
       451   05 Jun 2027 02:09:40.792   05 Jun 2027 02:09:53.069            12.277                Anadyr2           383.656
       452   05 Jun 2027 02:09:53.069   05 Jun 2027 02:10:37.022            43.953                Anadyr1          1373.531
       453   05 Jun 2027 02:11:45.545   05 Jun 2027 02:12:52.340            66.795               Magadan1          2087.344
       454   05 Jun 2027 02:14:29.844   05 Jun 2027 02:14:33.243             3.399               Magadan2           106.219
       455   05 Jun 2027 02:15:32.529   05 Jun 2027 02:15:48.336            15.807               Magadan1           493.969
       456   05 Jun 2027 02:17:57.738   05 Jun 2027 02:18:36.944            39.206                Norilsk          1225.188
       457   05 Jun 2027 02:20:43.015   05 Jun 2027 02:21:59.386            76.371              Murmansk2          2386.594
       458   05 Jun 2027 02:22:41.114   05 Jun 2027 02:22:51.725            10.611              Murmansk2           331.594
       459   05 Jun 2027 02:23:54.090   05 Jun 2027 02:24:35.226            41.136                Novosib          1285.500
       460   05 Jun 2027 02:25:44.947   05 Jun 2027 02:25:54.753             9.806                Novosib           306.437
       461   05 Jun 2027 02:30:37.248   05 Jun 2027 02:30:39.497             2.249                 Moscow            70.281
       462   05 Jun 2027 02:30:47.820   05 Jun 2027 02:31:28.656            40.836                 Moscow          1276.125
       463   05 Jun 2027 02:48:07.699   05 Jun 2027 02:48:30.920            23.221               CapeTown           725.656
       464   05 Jun 2027 02:49:00.989   05 Jun 2027 02:49:37.304            36.315               CapeTown          1134.844
       465   05 Jun 2027 02:58:14.896   05 Jun 2027 02:58:25.323            10.427               CapeTown           325.844
       466   05 Jun 2027 02:59:43.906   05 Jun 2027 03:00:16.341            32.435               CapeTown          1013.594
       467   05 Jun 2027 03:51:20.857   05 Jun 2027 03:54:21.226           180.369                Anadyr2          5636.531
       468   05 Jun 2027 05:30:08.604   05 Jun 2027 05:30:11.814             3.210                Irkutsk           100.313
       469   05 Jun 2027 05:30:30.982   05 Jun 2027 05:33:01.722           150.740                Anadyr2          4710.625
       470   05 Jun 2027 07:03:16.262   05 Jun 2027 07:03:19.707             3.445               Magadan2           107.656
       471   05 Jun 2027 07:03:42.326   05 Jun 2027 07:03:48.319             5.993                Novosib           187.281
       472   05 Jun 2027 07:03:53.485   05 Jun 2027 07:04:38.119            44.634               Magadan2          1394.813
       473   05 Jun 2027 07:04:42.054   05 Jun 2027 07:04:44.595             2.541               Magadan2            79.406
       474   05 Jun 2027 07:04:55.535   05 Jun 2027 07:05:26.323            30.788                Novosib           962.125
       475   05 Jun 2027 07:05:35.583   05 Jun 2027 07:05:40.780             5.197                Irkutsk           162.406
       476   05 Jun 2027 07:06:19.878   05 Jun 2027 07:06:24.759             4.881                Irkutsk           152.531
       477   05 Jun 2027 07:06:49.981   05 Jun 2027 07:07:11.472            21.491               Magadan2           671.594
       478   05 Jun 2027 07:07:17.962   05 Jun 2027 07:08:04.420            46.458              Murmansk2          1451.812
       479   05 Jun 2027 07:08:04.420   05 Jun 2027 07:08:13.952             9.532              Murmansk1           297.875
       480   05 Jun 2027 07:08:13.975   05 Jun 2027 07:08:34.323            20.348              Murmansk2           635.875
       481   05 Jun 2027 07:08:42.482   05 Jun 2027 07:09:54.562            72.080              Murmansk1          2252.500
       482   05 Jun 2027 07:43:28.074   05 Jun 2027 07:44:14.542            46.468            RioGallegos          1452.125
