uniorb/output/strategy_2/Drop/Drop_KinoSat_111504.txt

KinoSat_111504
-------------------------
    Access    *     Start Time (UTCG)     *     Stop Time (UTCG)  *   Duration (s)        *       Station  *  Data (Mbytes)
         1   01 Jun 2027 03:31:47.295   01 Jun 2027 03:32:46.840            59.545              Murmansk1          1860.781
         2   01 Jun 2027 03:33:17.340   01 Jun 2027 03:33:57.976            40.636              Murmansk1          1269.875
         3   01 Jun 2027 03:34:21.627   01 Jun 2027 03:34:35.341            13.714              Murmansk2           428.563
         4   01 Jun 2027 03:35:11.037   01 Jun 2027 03:35:37.292            26.255              Murmansk1           820.469
         5   01 Jun 2027 03:36:40.428   01 Jun 2027 03:39:21.994           161.566                 Moscow          5048.937
         6   01 Jun 2027 03:52:00.543   01 Jun 2027 03:55:00.101           179.558               CapeTown          5611.187
         7   01 Jun 2027 05:07:20.972   01 Jun 2027 05:07:39.051            18.079              Murmansk1           564.969
         8   01 Jun 2027 05:09:14.481   01 Jun 2027 05:09:25.295            10.814              Murmansk2           337.938
         9   01 Jun 2027 05:10:15.030   01 Jun 2027 05:10:34.074            19.044              Murmansk1           595.125
        10   01 Jun 2027 05:11:44.526   01 Jun 2027 05:12:43.927            59.401              Murmansk2          1856.281
        11   01 Jun 2027 05:13:56.376   01 Jun 2027 05:14:38.962            42.586                 Moscow          1330.812
        12   01 Jun 2027 06:30:34.197   01 Jun 2027 06:30:43.196             8.999               Magadan1           281.219
        13   01 Jun 2027 06:30:51.988   01 Jun 2027 06:33:59.733           187.745               Magadan1          5867.031
        14   01 Jun 2027 06:35:37.414   01 Jun 2027 06:36:33.862            56.448                Anadyr2          1764.000
        15   01 Jun 2027 08:08:16.587   01 Jun 2027 08:12:07.964           231.377                Anadyr1          7230.531
        16   01 Jun 2027 09:42:53.739   01 Jun 2027 09:43:15.036            21.297               Magadan1           665.531
        17   01 Jun 2027 09:43:51.649   01 Jun 2027 09:44:08.198            16.549                Irkutsk           517.156
        18   01 Jun 2027 09:44:51.587   01 Jun 2027 09:45:28.780            37.193                Novosib          1162.281
        19   01 Jun 2027 09:45:32.645   01 Jun 2027 09:45:56.217            23.572                Norilsk           736.625
        20   01 Jun 2027 09:46:05.680   01 Jun 2027 09:48:33.629           147.949                Novosib          4623.406
        21   01 Jun 2027 09:48:34.931   01 Jun 2027 09:49:46.139            71.208              Murmansk1          2225.250
        22   01 Jun 2027 09:50:13.538   01 Jun 2027 09:50:50.498            36.960                Norilsk          1155.000
        23   01 Jun 2027 09:56:18.550   01 Jun 2027 09:56:24.011             5.461              Murmansk2           170.656
        24   01 Jun 2027 09:56:34.681   01 Jun 2027 09:56:40.810             6.129              Murmansk2           191.531
        25   01 Jun 2027 10:22:34.380   01 Jun 2027 10:25:27.368           172.988            RioGallegos          5405.875
        26   01 Jun 2027 10:30:31.381   01 Jun 2027 10:30:38.272             6.891            RioGallegos           215.344
        27   01 Jun 2027 10:34:55.987   01 Jun 2027 10:35:24.473            28.486            RioGallegos           890.188
        28   01 Jun 2027 10:57:56.075   01 Jun 2027 10:59:42.082           106.007                Sumatra          3312.719
        29   01 Jun 2027 11:17:53.921   01 Jun 2027 11:21:23.422           209.501                Irkutsk          6546.906
        30   01 Jun 2027 11:22:14.525   01 Jun 2027 11:22:57.640            43.115              Murmansk1          1347.344
        31   01 Jun 2027 11:23:01.616   01 Jun 2027 11:24:53.196           111.580                Norilsk          3486.875
        32   01 Jun 2027 12:00:30.467   01 Jun 2027 12:01:02.657            32.190            RioGallegos          1005.938
        33   01 Jun 2027 12:01:50.407   01 Jun 2027 12:02:16.421            26.014            RioGallegos           812.937
        34   01 Jun 2027 12:04:08.887   01 Jun 2027 12:05:35.174            86.287            RioGallegos          2696.469
        35   01 Jun 2027 12:34:44.122   01 Jun 2027 12:35:32.648            48.526                Sumatra          1516.437
        36   01 Jun 2027 12:37:53.141   01 Jun 2027 12:38:35.351            42.210                Sumatra          1319.062
        37   01 Jun 2027 12:49:42.955   01 Jun 2027 12:51:39.537           116.582                Novosib          3643.188
        38   01 Jun 2027 12:51:59.841   01 Jun 2027 12:55:20.995           201.154                Irkutsk          6286.062
        39   01 Jun 2027 14:20:06.673   01 Jun 2027 14:24:46.920           280.247                  Delhi          8757.719
        40   01 Jun 2027 14:29:33.418   01 Jun 2027 14:30:26.102            52.684              Murmansk1          1646.375
        41   01 Jun 2027 14:31:40.507   01 Jun 2027 14:33:11.953            91.446                Novosib          2857.687
        42   01 Jun 2027 14:35:13.815   01 Jun 2027 14:35:44.707            30.892                Norilsk           965.375
        43   01 Jun 2027 15:42:54.606   01 Jun 2027 15:44:12.019            77.413               CapeTown          2419.156
        44   01 Jun 2027 16:02:29.527   01 Jun 2027 16:03:05.816            36.289                 Moscow          1134.031
        45   01 Jun 2027 16:03:35.128   01 Jun 2027 16:04:05.801            30.673                 Moscow           958.531
        46   01 Jun 2027 16:05:57.150   01 Jun 2027 16:06:45.784            48.634              Murmansk1          1519.812
        47   01 Jun 2027 16:06:45.784   01 Jun 2027 16:07:05.054            19.270              Murmansk2           602.188
        48   01 Jun 2027 16:07:35.485   01 Jun 2027 16:08:32.681            57.196              Murmansk1          1787.375
        49   01 Jun 2027 16:21:05.241   01 Jun 2027 16:22:15.928            70.687                Anadyr1          2208.969
        50   01 Jun 2027 16:23:24.498   01 Jun 2027 16:24:02.944            38.446                Anadyr1          1201.438
        51   01 Jun 2027 17:15:33.247   01 Jun 2027 17:17:50.870           137.623               CapeTown          4300.719
        52   01 Jun 2027 17:43:02.559   01 Jun 2027 17:47:03.059           240.500                 Moscow          7515.625
        53   01 Jun 2027 17:48:41.255   01 Jun 2027 17:50:16.195            94.940              Murmansk1          2966.875
        54   01 Jun 2027 18:01:45.603   01 Jun 2027 18:02:13.554            27.951               Magadan2           873.469
        55   01 Jun 2027 18:52:41.279   01 Jun 2027 18:53:43.450            62.171               CapeTown          1942.844
        56   01 Jun 2027 18:56:22.505   01 Jun 2027 18:57:58.608            96.103               CapeTown          3003.219
        57   01 Jun 2027 19:26:16.220   01 Jun 2027 19:27:53.414            97.194              Murmansk2          3037.312
        58   01 Jun 2027 19:27:53.414   01 Jun 2027 19:28:47.170            53.756              Murmansk1          1679.875
        59   01 Jun 2027 19:32:55.138   01 Jun 2027 19:33:07.469            12.331                Anadyr2           385.344
        60   01 Jun 2027 19:33:17.327   01 Jun 2027 19:33:30.896            13.569                Anadyr2           424.031
        61   01 Jun 2027 19:34:35.786   01 Jun 2027 19:37:14.181           158.395               Magadan2          4949.844
        62   01 Jun 2027 21:07:58.704   01 Jun 2027 21:10:52.108           173.404                Anadyr2          5418.875
        63   01 Jun 2027 21:10:54.963   01 Jun 2027 21:12:01.852            66.889               Magadan2          2090.281
        64   01 Jun 2027 21:12:26.937   01 Jun 2027 21:13:43.737            76.800                Norilsk          2400.000
        65   01 Jun 2027 21:13:47.683   01 Jun 2027 21:14:19.085            31.402               Magadan1           981.313
        66   01 Jun 2027 21:14:19.085   01 Jun 2027 21:14:32.029            12.944               Magadan2           404.500
        67   01 Jun 2027 21:14:33.209   01 Jun 2027 21:15:15.372            42.163               Magadan2          1317.594
        68   01 Jun 2027 22:02:28.336   01 Jun 2027 22:05:49.098           200.762            RioGallegos          6273.813
        69   01 Jun 2027 22:43:36.379   01 Jun 2027 22:46:21.137           164.758                Anadyr2          5148.687
        70   01 Jun 2027 22:46:34.962   01 Jun 2027 22:47:30.953            55.991                Norilsk          1749.719
        71   01 Jun 2027 22:47:37.018   01 Jun 2027 22:48:20.527            43.509               Magadan2          1359.656
        72   01 Jun 2027 22:48:41.731   01 Jun 2027 22:49:27.174            45.443               Magadan2          1420.094
        73   01 Jun 2027 22:50:01.272   01 Jun 2027 22:50:31.378            30.106                Irkutsk           940.812
        74   01 Jun 2027 22:52:08.906   01 Jun 2027 22:53:15.238            66.332                Novosib          2072.875
        75   01 Jun 2027 23:03:48.534   01 Jun 2027 23:05:54.170           125.636                Sumatra          3926.125
        76   01 Jun 2027 23:06:16.092   01 Jun 2027 23:07:14.522            58.430                Sumatra          1825.938
        77   01 Jun 2027 23:49:19.803   01 Jun 2027 23:49:26.977             7.174            RioGallegos           224.188
        78   02 Jun 2027 00:18:22.730   02 Jun 2027 00:19:18.987            56.257                Anadyr2          1758.031
        79   02 Jun 2027 00:19:18.987   02 Jun 2027 00:20:37.682            78.695                Anadyr1          2459.219
        80   02 Jun 2027 00:21:45.478   02 Jun 2027 00:21:52.498             7.020                Norilsk           219.375
        81   02 Jun 2027 00:22:25.223   02 Jun 2027 00:24:52.060           146.837               Magadan1          4588.656
        82   02 Jun 2027 00:25:37.789   02 Jun 2027 00:26:27.227            49.438                Irkutsk          1544.938
        83   02 Jun 2027 00:27:47.633   02 Jun 2027 00:28:06.051            18.418                Novosib           575.563
        84   02 Jun 2027 00:29:44.235   02 Jun 2027 00:30:01.750            17.515                Novosib           547.344
        85   02 Jun 2027 00:30:35.400   02 Jun 2027 00:30:58.768            23.368                Novosib           730.250
        86   02 Jun 2027 00:33:00.261   02 Jun 2027 00:33:23.970            23.709                Novosib           740.906
        87   02 Jun 2027 00:33:37.809   02 Jun 2027 00:34:40.968            63.159                  Delhi          1973.719
        88   02 Jun 2027 00:35:57.961   02 Jun 2027 00:36:50.366            52.405                  Delhi          1637.656
        89   02 Jun 2027 00:42:59.468   02 Jun 2027 00:43:23.412            23.944                  Delhi           748.250
        90   02 Jun 2027 00:47:36.930   02 Jun 2027 00:49:52.295           135.365                Sumatra          4230.156
        91   02 Jun 2027 01:51:56.902   02 Jun 2027 01:52:49.456            52.554                Anadyr1          1642.312
        92   02 Jun 2027 01:53:44.235   02 Jun 2027 01:54:16.980            32.745                Anadyr2          1023.281
        93   02 Jun 2027 01:54:30.047   02 Jun 2027 01:54:43.762            13.715                Anadyr2           428.594
        94   02 Jun 2027 01:57:45.290   02 Jun 2027 01:59:17.689            92.399                Norilsk          2887.469
        95   02 Jun 2027 02:00:07.107   02 Jun 2027 02:02:31.036           143.929              Murmansk1          4497.781
        96   02 Jun 2027 02:04:41.666   02 Jun 2027 02:04:55.309            13.643                Irkutsk           426.344
        97   02 Jun 2027 02:05:19.585   02 Jun 2027 02:05:49.651            30.066                 Moscow           939.563
        98   02 Jun 2027 02:08:53.216   02 Jun 2027 02:08:55.002             1.786                Irkutsk            55.812
        99   02 Jun 2027 02:09:08.357   02 Jun 2027 02:09:56.705            48.348                  Delhi          1510.875
       100   02 Jun 2027 02:14:17.313   02 Jun 2027 02:14:46.612            29.299                  Delhi           915.594
       101   02 Jun 2027 02:19:27.940   02 Jun 2027 02:19:43.902            15.962                  Delhi           498.812
       102   02 Jun 2027 03:35:16.060   02 Jun 2027 03:35:21.302             5.242                Anadyr2           163.812
       103   02 Jun 2027 03:43:55.510   02 Jun 2027 03:44:35.976            40.466              Murmansk1          1264.562
       104   02 Jun 2027 03:44:49.663   02 Jun 2027 03:46:35.820           106.157              Murmansk2          3317.406
       105   02 Jun 2027 03:47:12.843   02 Jun 2027 03:47:33.316            20.473              Murmansk2           639.781
       106   02 Jun 2027 03:47:33.316   02 Jun 2027 03:47:54.595            21.279              Murmansk1           664.969
       107   02 Jun 2027 03:48:44.815   02 Jun 2027 03:51:37.841           173.026                 Moscow          5407.062
       108   02 Jun 2027 04:03:38.994   02 Jun 2027 04:07:53.742           254.748               CapeTown          7960.875
       109   02 Jun 2027 04:09:38.784   02 Jun 2027 04:09:56.010            17.226               CapeTown           538.312
       110   02 Jun 2027 05:07:27.787   02 Jun 2027 05:07:37.378             9.591                Anadyr2           299.719
       111   02 Jun 2027 05:07:37.378   02 Jun 2027 05:08:32.356            54.978                Anadyr1          1718.063
       112   02 Jun 2027 05:19:14.481   02 Jun 2027 05:19:52.236            37.755                Norilsk          1179.844
       113   02 Jun 2027 05:20:00.047   02 Jun 2027 05:20:04.465             4.418                Norilsk           138.062
       114   02 Jun 2027 05:20:21.195   02 Jun 2027 05:20:56.223            35.028              Murmansk2          1094.625
       115   02 Jun 2027 05:20:58.276   02 Jun 2027 05:22:23.075            84.799              Murmansk1          2649.969
       116   02 Jun 2027 06:42:26.145   02 Jun 2027 06:44:28.341           122.196               Magadan1          3818.625
       117   02 Jun 2027 06:44:51.434   02 Jun 2027 06:48:34.632           223.198                Anadyr1          6974.937
       118   02 Jun 2027 08:18:56.985   02 Jun 2027 08:20:07.928            70.943                Anadyr2          2216.969
       119   02 Jun 2027 08:20:19.741   02 Jun 2027 08:20:28.624             8.883               Magadan2           277.594
       120   02 Jun 2027 08:20:31.826   02 Jun 2027 08:21:32.955            61.129                Irkutsk          1910.281
       121   02 Jun 2027 08:21:46.891   02 Jun 2027 08:22:09.506            22.615               Magadan2           706.719
       122   02 Jun 2027 08:22:22.708   02 Jun 2027 08:23:16.476            53.768                Norilsk          1680.250
       123   02 Jun 2027 08:27:55.157   02 Jun 2027 08:28:10.119            14.962              Murmansk1           467.563
       124   02 Jun 2027 09:00:01.037   02 Jun 2027 09:00:23.013            21.976            RioGallegos           686.750
       125   02 Jun 2027 09:01:36.483   02 Jun 2027 09:02:04.193            27.710            RioGallegos           865.938
       126   02 Jun 2027 09:02:23.065   02 Jun 2027 09:02:34.681            11.616            RioGallegos           363.000
       127   02 Jun 2027 09:52:26.027   02 Jun 2027 09:53:02.738            36.711               Magadan2          1147.219
       128   02 Jun 2027 09:53:08.882   02 Jun 2027 09:53:31.493            22.611                Irkutsk           706.594
       129   02 Jun 2027 09:53:45.777   02 Jun 2027 09:53:58.038            12.261                Norilsk           383.156
       130   02 Jun 2027 09:54:02.608   02 Jun 2027 09:54:06.906             4.298                Irkutsk           134.313
       131   02 Jun 2027 09:54:08.657   02 Jun 2027 09:54:36.676            28.019                Irkutsk           875.594
       132   02 Jun 2027 09:54:36.864   02 Jun 2027 09:55:25.209            48.345               Magadan1          1510.781
       133   02 Jun 2027 09:55:52.420   02 Jun 2027 09:56:15.353            22.933               Magadan2           716.656
       134   02 Jun 2027 09:56:27.420   02 Jun 2027 09:56:28.007             0.587                Norilsk            18.344
       135   02 Jun 2027 09:56:38.022   02 Jun 2027 09:57:08.893            30.871                Irkutsk           964.719
       136   02 Jun 2027 09:57:31.115   02 Jun 2027 09:57:47.613            16.498                Irkutsk           515.562
       137   02 Jun 2027 09:57:50.417   02 Jun 2027 09:57:57.125             6.708                Irkutsk           209.625
       138   02 Jun 2027 09:57:57.688   02 Jun 2027 09:58:28.582            30.894                Norilsk           965.438
       139   02 Jun 2027 09:58:31.857   02 Jun 2027 09:59:28.231            56.374                Irkutsk          1761.688
       140   02 Jun 2027 09:59:37.096   02 Jun 2027 09:59:53.936            16.840                Irkutsk           526.250
       141   02 Jun 2027 09:59:59.191   02 Jun 2027 10:00:41.936            42.745              Murmansk2          1335.781
       142   02 Jun 2027 10:06:56.103   02 Jun 2027 10:07:01.997             5.894              Murmansk2           184.187
       143   02 Jun 2027 10:34:37.266   02 Jun 2027 10:35:35.228            57.962            RioGallegos          1811.313
       144   02 Jun 2027 10:42:13.907   02 Jun 2027 10:43:02.772            48.865            RioGallegos          1527.031
       145   02 Jun 2027 11:09:42.607   02 Jun 2027 11:10:22.951            40.344                Sumatra          1260.750
       146   02 Jun 2027 11:26:24.475   02 Jun 2027 11:26:31.047             6.572                  Delhi           205.375
       147   02 Jun 2027 11:29:35.608   02 Jun 2027 11:29:38.479             2.871                Norilsk            89.719
       148   02 Jun 2027 11:29:44.111   02 Jun 2027 11:30:51.898            67.787                Novosib          2118.344
       149   02 Jun 2027 11:30:59.668   02 Jun 2027 11:31:15.577            15.909                Novosib           497.156
       150   02 Jun 2027 11:31:18.015   02 Jun 2027 11:31:30.760            12.745                Norilsk           398.281
       151   02 Jun 2027 11:31:34.399   02 Jun 2027 11:31:37.679             3.280                Novosib           102.500
       152   02 Jun 2027 11:31:52.419   02 Jun 2027 11:33:03.416            70.997                Norilsk          2218.656
       153   02 Jun 2027 11:33:10.296   02 Jun 2027 11:33:22.549            12.253                Norilsk           382.906
       154   02 Jun 2027 11:33:29.706   02 Jun 2027 11:33:40.291            10.585              Murmansk1           330.781
       155   02 Jun 2027 11:33:43.034   02 Jun 2027 11:34:14.840            31.806              Murmansk1           993.938
       156   02 Jun 2027 11:34:19.795   02 Jun 2027 11:35:22.885            63.090                Novosib          1971.562
       157   02 Jun 2027 11:35:33.573   02 Jun 2027 11:35:39.008             5.435              Murmansk2           169.844
       158   02 Jun 2027 11:35:55.734   02 Jun 2027 11:36:19.358            23.624              Murmansk1           738.250
       159   02 Jun 2027 11:38:50.608   02 Jun 2027 11:39:10.624            20.016                Norilsk           625.500
       160   02 Jun 2027 12:13:10.982   02 Jun 2027 12:13:20.971             9.989            RioGallegos           312.156
       161   02 Jun 2027 12:13:54.136   02 Jun 2027 12:14:34.079            39.943            RioGallegos          1248.219
       162   02 Jun 2027 12:17:50.541   02 Jun 2027 12:18:05.216            14.675            RioGallegos           458.594
       163   02 Jun 2027 12:47:33.053   02 Jun 2027 12:49:39.669           126.616                Sumatra          3956.750
       164   02 Jun 2027 13:02:05.172   02 Jun 2027 13:03:41.762            96.590                Novosib          3018.437
       165   02 Jun 2027 13:05:05.515   02 Jun 2027 13:05:31.645            26.130                Norilsk           816.562
       166   02 Jun 2027 13:05:59.796   02 Jun 2027 13:06:53.674            53.878                Norilsk          1683.687
       167   02 Jun 2027 13:07:20.003   02 Jun 2027 13:07:23.093             3.090              Murmansk2            96.562
       168   02 Jun 2027 13:07:54.710   02 Jun 2027 13:08:58.895            64.185                Norilsk          2005.781
       169   02 Jun 2027 14:33:22.980   02 Jun 2027 14:36:52.123           209.143                  Delhi          6535.719
       170   02 Jun 2027 14:41:33.017   02 Jun 2027 14:42:43.920            70.903              Murmansk2          2215.719
       171   02 Jun 2027 14:42:49.332   02 Jun 2027 14:43:12.538            23.206              Murmansk1           725.188
       172   02 Jun 2027 14:44:19.678   02 Jun 2027 14:45:20.797            61.119                Norilsk          1909.969
       173   02 Jun 2027 14:45:29.723   02 Jun 2027 14:46:46.027            76.304                Norilsk          2384.500
       174   02 Jun 2027 15:53:51.194   02 Jun 2027 15:56:04.212           133.018               CapeTown          4156.813
       175   02 Jun 2027 16:15:37.694   02 Jun 2027 16:16:10.235            32.541                 Moscow          1016.906
       176   02 Jun 2027 16:18:10.001   02 Jun 2027 16:18:47.075            37.074              Murmansk1          1158.562
       177   02 Jun 2027 16:19:23.838   02 Jun 2027 16:19:25.522             1.684                 Moscow            52.625
       178   02 Jun 2027 16:19:32.574   02 Jun 2027 16:20:05.628            33.054                 Moscow          1032.937
       179   02 Jun 2027 16:20:52.608   02 Jun 2027 16:21:30.022            37.414              Murmansk1          1169.188
       180   02 Jun 2027 16:26:17.976   02 Jun 2027 16:26:35.856            17.880              Murmansk2           558.750
       181   02 Jun 2027 16:28:22.318   02 Jun 2027 16:28:42.812            20.494              Murmansk2           640.438
       182   02 Jun 2027 16:32:53.581   02 Jun 2027 16:34:44.496           110.915                Anadyr1          3466.094
       183   02 Jun 2027 16:35:48.350   02 Jun 2027 16:36:03.289            14.939                Anadyr1           466.844
       184   02 Jun 2027 16:36:03.289   02 Jun 2027 16:36:04.115             0.826                Anadyr2            25.812
       185   02 Jun 2027 16:36:10.079   02 Jun 2027 16:36:19.105             9.026                Anadyr1           282.063
       186   02 Jun 2027 16:39:01.581   02 Jun 2027 16:39:20.575            18.994                Anadyr2           593.563
       187   02 Jun 2027 17:27:32.808   02 Jun 2027 17:28:03.501            30.693               CapeTown           959.156
       188   02 Jun 2027 17:30:02.854   02 Jun 2027 17:30:45.923            43.069               CapeTown          1345.906
       189   02 Jun 2027 17:35:28.712   02 Jun 2027 17:35:31.407             2.695               CapeTown            84.219
       190   02 Jun 2027 17:36:17.826   02 Jun 2027 17:36:31.285            13.459               CapeTown           420.594
       191   02 Jun 2027 17:40:07.119   02 Jun 2027 17:40:20.644            13.525               CapeTown           422.656
       192   02 Jun 2027 17:56:43.417   02 Jun 2027 17:59:30.859           167.442                 Moscow          5232.563
       193   02 Jun 2027 18:00:21.449   02 Jun 2027 18:02:34.071           132.622              Murmansk1          4144.437
       194   02 Jun 2027 18:12:30.302   02 Jun 2027 18:13:09.346            39.044               Magadan1          1220.125
       195   02 Jun 2027 18:13:09.346   02 Jun 2027 18:13:38.091            28.745               Magadan2           898.281
       196   02 Jun 2027 19:05:15.891   02 Jun 2027 19:05:55.018            39.127               CapeTown          1222.719
       197   02 Jun 2027 19:07:29.748   02 Jun 2027 19:08:05.961            36.213               CapeTown          1131.656
       198   02 Jun 2027 19:44:05.217   02 Jun 2027 19:47:49.975           224.758                Anadyr2          7023.687
       199   02 Jun 2027 19:48:14.650   02 Jun 2027 19:51:19.633           184.983               Magadan1          5780.719
       200   02 Jun 2027 21:19:59.460   02 Jun 2027 21:23:40.671           221.211                Anadyr2          6912.844
       201   02 Jun 2027 21:24:28.807   02 Jun 2027 21:25:51.541            82.734                Norilsk          2585.437
       202   02 Jun 2027 21:25:52.920   02 Jun 2027 21:26:50.158            57.238               Magadan1          1788.687
       203   02 Jun 2027 21:27:23.924   02 Jun 2027 21:28:29.304            65.380               Magadan1          2043.125
       204   02 Jun 2027 21:29:16.878   02 Jun 2027 21:29:50.353            33.475                Irkutsk          1046.094
       205   02 Jun 2027 21:30:55.502   02 Jun 2027 21:31:01.442             5.940                Irkutsk           185.625
       206   02 Jun 2027 22:14:17.830   02 Jun 2027 22:16:10.710           112.880            RioGallegos          3527.500
       207   02 Jun 2027 22:16:36.176   02 Jun 2027 22:17:17.177            41.001            RioGallegos          1281.281
       208   02 Jun 2027 22:22:17.744   02 Jun 2027 22:22:32.389            14.645            RioGallegos           457.656
       209   02 Jun 2027 22:23:21.240   02 Jun 2027 22:23:45.798            24.558            RioGallegos           767.438
       210   02 Jun 2027 22:55:32.900   02 Jun 2027 22:56:03.024            30.124                Anadyr2           941.375
       211   02 Jun 2027 22:57:49.221   02 Jun 2027 23:00:21.573           152.352                Norilsk          4761.000
       212   02 Jun 2027 23:01:56.026   02 Jun 2027 23:02:52.387            56.361                Irkutsk          1761.281
       213   02 Jun 2027 23:03:27.292   02 Jun 2027 23:03:38.532            11.240                Novosib           351.250
       214   02 Jun 2027 23:04:05.697   02 Jun 2027 23:04:26.408            20.711                Irkutsk           647.219
       215   02 Jun 2027 23:04:44.958   02 Jun 2027 23:05:39.118            54.160                Novosib          1692.500
       216   02 Jun 2027 23:13:27.861   02 Jun 2027 23:14:03.877            36.016                Irkutsk          1125.500
       217   02 Jun 2027 23:15:38.214   02 Jun 2027 23:16:17.071            38.857                Sumatra          1214.281
       218   02 Jun 2027 23:21:49.812   02 Jun 2027 23:22:22.898            33.086                Sumatra          1033.937
       219   02 Jun 2027 23:23:30.322   02 Jun 2027 23:24:07.394            37.072                Sumatra          1158.500
       220   02 Jun 2027 23:25:38.755   02 Jun 2027 23:26:22.864            44.109                Sumatra          1378.406
       221   03 Jun 2027 00:30:10.019   03 Jun 2027 00:31:01.584            51.565                Anadyr2          1611.406
       222   03 Jun 2027 00:32:25.591   03 Jun 2027 00:32:57.286            31.695                Anadyr2           990.469
       223   03 Jun 2027 00:33:47.729   03 Jun 2027 00:33:52.151             4.422                Norilsk           138.188
       224   03 Jun 2027 00:34:27.410   03 Jun 2027 00:36:29.066           121.656               Magadan2          3801.750
       225   03 Jun 2027 00:37:41.150   03 Jun 2027 00:38:18.621            37.471                Irkutsk          1170.969
       226   03 Jun 2027 00:38:49.557   03 Jun 2027 00:42:33.311           223.754                Novosib          6992.312
       227   03 Jun 2027 00:54:06.942   03 Jun 2027 00:55:35.295            88.353                Sumatra          2761.031
       228   03 Jun 2027 01:27:02.234   03 Jun 2027 01:27:54.685            52.451            RioGallegos          1639.094
       229   03 Jun 2027 01:33:19.002   03 Jun 2027 01:33:36.299            17.297            RioGallegos           540.531
       230   03 Jun 2027 02:03:37.935   03 Jun 2027 02:03:57.256            19.321                Anadyr2           603.781
       231   03 Jun 2027 02:04:49.817   03 Jun 2027 02:05:45.556            55.739                Anadyr2          1741.844
       232   03 Jun 2027 02:09:10.385   03 Jun 2027 02:09:44.866            34.481                Anadyr1          1077.531
       233   03 Jun 2027 02:09:46.818   03 Jun 2027 02:09:47.006             0.188                Norilsk             5.875
       234   03 Jun 2027 02:09:47.842   03 Jun 2027 02:10:22.991            35.149               Magadan2          1098.406
       235   03 Jun 2027 02:10:38.935   03 Jun 2027 02:10:43.467             4.532               Magadan2           141.625
       236   03 Jun 2027 02:10:59.401   03 Jun 2027 02:12:06.626            67.225               Magadan2          2100.781
       237   03 Jun 2027 02:12:22.729   03 Jun 2027 02:13:06.221            43.492              Murmansk2          1359.125
       238   03 Jun 2027 02:13:06.221   03 Jun 2027 02:13:33.660            27.439              Murmansk1           857.469
       239   03 Jun 2027 02:13:35.882   03 Jun 2027 02:14:17.913            42.031                Novosib          1313.469
       240   03 Jun 2027 02:18:53.236   03 Jun 2027 02:19:01.419             8.183                Novosib           255.719
       241   03 Jun 2027 02:19:43.390   03 Jun 2027 02:20:00.827            17.437                 Moscow           544.906
       242   03 Jun 2027 02:21:23.381   03 Jun 2027 02:21:24.936             1.555                  Delhi            48.594
       243   03 Jun 2027 02:22:05.173   03 Jun 2027 02:22:58.002            52.829                  Delhi          1650.906
       244   03 Jun 2027 02:31:33.683   03 Jun 2027 02:31:54.678            20.995                  Delhi           656.094
       245   03 Jun 2027 03:55:54.321   03 Jun 2027 03:56:50.962            56.641              Murmansk1          1770.031
       246   03 Jun 2027 03:56:52.620   03 Jun 2027 03:57:19.859            27.239                Norilsk           851.219
       247   03 Jun 2027 03:57:47.599   03 Jun 2027 03:58:12.039            24.440              Murmansk1           763.750
       248   03 Jun 2027 03:59:14.571   03 Jun 2027 04:00:09.859            55.288              Murmansk1          1727.750
       249   03 Jun 2027 04:00:47.204   03 Jun 2027 04:03:50.174           182.970                 Moscow          5717.813
       250   03 Jun 2027 04:15:23.138   03 Jun 2027 04:24:48.659           565.521               CapeTown         17672.531
       251   03 Jun 2027 05:19:09.463   03 Jun 2027 05:20:21.428            71.965                Anadyr2          2248.906
       252   03 Jun 2027 05:20:21.428   03 Jun 2027 05:20:25.404             3.976                Anadyr1           124.250
       253   03 Jun 2027 05:21:58.377   03 Jun 2027 05:22:12.521            14.144               Magadan1           442.000
       254   03 Jun 2027 05:22:20.322   03 Jun 2027 05:22:38.979            18.657               Magadan2           583.031
       255   03 Jun 2027 05:22:58.930   03 Jun 2027 05:23:12.844            13.914                Anadyr2           434.812
       256   03 Jun 2027 05:23:35.449   03 Jun 2027 05:23:59.061            23.612                Anadyr2           737.875
       257   03 Jun 2027 05:24:24.411   03 Jun 2027 05:24:41.902            17.491                Anadyr2           546.594
       258   03 Jun 2027 05:30:28.232   03 Jun 2027 05:30:50.579            22.347                Norilsk           698.344
       259   03 Jun 2027 05:31:10.330   03 Jun 2027 05:32:05.986            55.656                 Moscow          1739.250
       260   03 Jun 2027 05:32:19.591   03 Jun 2027 05:32:49.168            29.577              Murmansk1           924.281
       261   03 Jun 2027 05:36:10.960   03 Jun 2027 05:36:46.836            35.876                 Moscow          1121.125
       262   03 Jun 2027 05:52:09.930   03 Jun 2027 05:52:22.103            12.173               CapeTown           380.406
       263   03 Jun 2027 05:53:06.095   03 Jun 2027 05:53:28.056            21.961               CapeTown           686.281
       264   03 Jun 2027 05:55:02.201   03 Jun 2027 05:55:20.519            18.318               CapeTown           572.437
       265   03 Jun 2027 06:52:24.360   03 Jun 2027 06:52:42.031            17.671               Magadan2           552.219
       266   03 Jun 2027 06:52:49.765   03 Jun 2027 06:53:07.461            17.696                Anadyr2           553.000
       267   03 Jun 2027 06:53:30.005   03 Jun 2027 06:53:32.463             2.458               Magadan1            76.813
       268   03 Jun 2027 06:53:57.260   03 Jun 2027 06:55:03.162            65.902                Anadyr2          2059.437
       269   03 Jun 2027 06:55:34.802   03 Jun 2027 06:55:53.189            18.387                Anadyr2           574.594
       270   03 Jun 2027 06:55:53.189   03 Jun 2027 06:57:31.627            98.438                Anadyr1          3076.188
       271   03 Jun 2027 07:40:29.111   03 Jun 2027 07:40:39.311            10.200            RioGallegos           318.750
       272   03 Jun 2027 07:41:54.139   03 Jun 2027 07:42:17.813            23.674            RioGallegos           739.812
       273   03 Jun 2027 08:27:45.307   03 Jun 2027 08:27:52.183             6.876               Magadan1           214.875
       274   03 Jun 2027 08:28:06.130   03 Jun 2027 08:28:44.850            38.720               Magadan1          1210.000
       275   03 Jun 2027 08:28:44.850   03 Jun 2027 08:29:21.439            36.589               Magadan2          1143.406
       276   03 Jun 2027 08:29:40.340   03 Jun 2027 08:30:57.915            77.575                Anadyr1          2424.219
       277   03 Jun 2027 08:30:57.915   03 Jun 2027 08:31:38.412            40.497                Anadyr2          1265.531
       278   03 Jun 2027 08:31:51.968   03 Jun 2027 08:32:55.919            63.951                Anadyr2          1998.469
       279   03 Jun 2027 08:33:09.582   03 Jun 2027 08:33:13.723             4.141                Norilsk           129.406
       280   03 Jun 2027 08:33:14.233   03 Jun 2027 08:33:31.375            17.142               Magadan1           535.687
       281   03 Jun 2027 08:33:34.153   03 Jun 2027 08:34:41.861            67.708                Novosib          2115.875
       282   03 Jun 2027 08:36:45.951   03 Jun 2027 08:37:00.927            14.976              Murmansk2           468.000
       283   03 Jun 2027 08:37:00.927   03 Jun 2027 08:37:47.634            46.707              Murmansk1          1459.594
       284   03 Jun 2027 09:11:41.256   03 Jun 2027 09:11:55.171            13.915            RioGallegos           434.844
       285   03 Jun 2027 09:13:49.030   03 Jun 2027 09:14:48.886            59.856            RioGallegos          1870.500
       286   03 Jun 2027 10:05:45.618   03 Jun 2027 10:05:50.712             5.094                Irkutsk           159.188
       287   03 Jun 2027 10:06:33.507   03 Jun 2027 10:08:12.275            98.768               Magadan1          3086.500
       288   03 Jun 2027 10:08:12.275   03 Jun 2027 10:09:05.736            53.461               Magadan2          1670.656
       289   03 Jun 2027 10:09:36.969   03 Jun 2027 10:11:00.991            84.022               Magadan2          2625.688
       290   03 Jun 2027 10:11:08.138   03 Jun 2027 10:11:17.351             9.213                Norilsk           287.906
       291   03 Jun 2027 10:11:20.052   03 Jun 2027 10:11:58.290            38.238                Irkutsk          1194.938
       292   03 Jun 2027 10:12:39.168   03 Jun 2027 10:12:41.652             2.484              Murmansk1            77.625
       293   03 Jun 2027 10:16:42.665   03 Jun 2027 10:16:47.062             4.397              Murmansk2           137.406
       294   03 Jun 2027 10:46:43.611   03 Jun 2027 10:47:29.865            46.254            RioGallegos          1445.438
       295   03 Jun 2027 10:49:53.592   03 Jun 2027 10:50:31.806            38.214            RioGallegos          1194.188
       296   03 Jun 2027 11:21:35.290   03 Jun 2027 11:22:09.580            34.290                Sumatra          1071.563
       297   03 Jun 2027 11:24:39.867   03 Jun 2027 11:24:46.271             6.404                Sumatra           200.125
       298   03 Jun 2027 11:28:20.174   03 Jun 2027 11:29:42.004            81.830                Sumatra          2557.188
       299   03 Jun 2027 11:41:44.138   03 Jun 2027 11:42:59.937            75.799                Irkutsk          2368.719
       300   03 Jun 2027 11:43:06.085   03 Jun 2027 11:43:12.985             6.900                Novosib           215.625
       301   03 Jun 2027 11:43:15.404   03 Jun 2027 11:43:20.037             4.633                Norilsk           144.781
       302   03 Jun 2027 11:43:26.867   03 Jun 2027 11:43:39.518            12.651                Novosib           395.344
       303   03 Jun 2027 11:44:00.903   03 Jun 2027 11:44:16.771            15.868                Norilsk           495.875
       304   03 Jun 2027 11:44:17.801   03 Jun 2027 11:44:57.029            39.228              Murmansk1          1225.875
       305   03 Jun 2027 11:45:02.881   03 Jun 2027 11:46:13.928            71.047                Irkutsk          2220.219
       306   03 Jun 2027 11:46:23.738   03 Jun 2027 11:47:05.847            42.109                Norilsk          1315.906
       307   03 Jun 2027 11:47:12.467   03 Jun 2027 11:47:16.290             3.823                Norilsk           119.469
       308   03 Jun 2027 11:47:22.128   03 Jun 2027 11:47:25.541             3.413                Norilsk           106.656
       309   03 Jun 2027 11:47:27.097   03 Jun 2027 11:47:35.154             8.057              Murmansk1           251.781
       310   03 Jun 2027 11:47:35.154   03 Jun 2027 11:47:47.722            12.568              Murmansk2           392.750
       311   03 Jun 2027 11:48:11.709   03 Jun 2027 11:48:54.628            42.919              Murmansk2          1341.219
       312   03 Jun 2027 12:26:01.050   03 Jun 2027 12:26:40.477            39.427            RioGallegos          1232.094
       313   03 Jun 2027 12:29:50.883   03 Jun 2027 12:30:41.738            50.855            RioGallegos          1589.219
       314   03 Jun 2027 13:00:52.824   03 Jun 2027 13:04:36.795           223.971                Sumatra          6999.094
       315   03 Jun 2027 13:15:39.093   03 Jun 2027 13:16:41.617            62.524                Novosib          1953.875
       316   03 Jun 2027 13:16:51.999   03 Jun 2027 13:18:11.574            79.575                Irkutsk          2486.719
       317   03 Jun 2027 13:30:34.183   03 Jun 2027 13:30:39.128             4.945              Murmansk1           154.531
       318   03 Jun 2027 14:50:11.649   03 Jun 2027 14:53:53.131           221.482                 Moscow          6921.312
       319   03 Jun 2027 14:54:51.227   03 Jun 2027 14:56:49.097           117.870              Murmansk1          3683.438
       320   03 Jun 2027 14:56:57.981   03 Jun 2027 14:58:00.322            62.341                Norilsk          1948.156
       321   03 Jun 2027 15:01:00.993   03 Jun 2027 15:01:53.748            52.755                Norilsk          1648.594
       322   03 Jun 2027 15:03:44.393   03 Jun 2027 15:04:41.768            57.375                Norilsk          1792.969
       323   03 Jun 2027 16:05:11.522   03 Jun 2027 16:06:11.961            60.439               CapeTown          1888.719
       324   03 Jun 2027 16:11:17.453   03 Jun 2027 16:12:13.125            55.672               CapeTown          1739.750
       325   03 Jun 2027 16:27:39.695   03 Jun 2027 16:28:17.753            38.058                 Moscow          1189.312
       326   03 Jun 2027 16:30:24.799   03 Jun 2027 16:30:48.096            23.297              Murmansk2           728.031
       327   03 Jun 2027 16:31:08.984   03 Jun 2027 16:31:49.124            40.140              Murmansk1          1254.375
       328   03 Jun 2027 16:32:57.264   03 Jun 2027 16:33:31.157            33.893              Murmansk1          1059.156
       329   03 Jun 2027 16:38:45.011   03 Jun 2027 16:39:24.944            39.933              Murmansk1          1247.906
       330   03 Jun 2027 16:44:45.330   03 Jun 2027 16:46:01.078            75.748                Anadyr1          2367.125
       331   03 Jun 2027 16:46:45.748   03 Jun 2027 16:47:12.653            26.905                Anadyr2           840.781
       332   03 Jun 2027 16:50:13.548   03 Jun 2027 16:50:52.074            38.526                Anadyr1          1203.937
       333   03 Jun 2027 17:39:35.153   03 Jun 2027 17:41:53.182           138.029               CapeTown          4313.406
       334   03 Jun 2027 18:09:25.669   03 Jun 2027 18:12:17.727           172.058              Murmansk2          5376.813
       335   03 Jun 2027 18:14:38.418   03 Jun 2027 18:14:38.885             0.467              Murmansk2            14.594
       336   03 Jun 2027 18:16:20.381   03 Jun 2027 18:16:43.599            23.218              Murmansk1           725.562
       337   03 Jun 2027 18:23:06.722   03 Jun 2027 18:23:28.242            21.520                Anadyr1           672.500
       338   03 Jun 2027 18:23:55.647   03 Jun 2027 18:24:00.363             4.716                Anadyr1           147.375
       339   03 Jun 2027 18:24:04.642   03 Jun 2027 18:25:21.511            76.869               Magadan2          2402.156
       340   03 Jun 2027 18:25:38.245   03 Jun 2027 18:26:00.089            21.844               Magadan2           682.625
       341   03 Jun 2027 18:28:37.830   03 Jun 2027 18:28:47.462             9.632               Magadan1           301.000
       342   03 Jun 2027 18:29:20.642   03 Jun 2027 18:30:34.248            73.606               Magadan1          2300.188
       343   03 Jun 2027 19:56:06.913   03 Jun 2027 19:57:47.161           100.248                Anadyr1          3132.750
       344   03 Jun 2027 19:57:48.519   03 Jun 2027 19:59:51.509           122.990                Anadyr2          3843.438
       345   03 Jun 2027 20:00:04.478   03 Jun 2027 20:02:18.438           133.960               Magadan1          4186.250
       346   03 Jun 2027 20:03:24.167   03 Jun 2027 20:03:52.678            28.511               Magadan1           890.969
       347   03 Jun 2027 21:31:59.914   03 Jun 2027 21:34:07.950           128.036                Anadyr2          4001.125
       348   03 Jun 2027 21:34:17.245   03 Jun 2027 21:39:27.589           310.344                Norilsk          9698.250
       349   03 Jun 2027 21:40:05.654   03 Jun 2027 21:40:22.581            16.927                Irkutsk           528.969
       350   03 Jun 2027 21:40:53.223   03 Jun 2027 21:41:37.004            43.781                Irkutsk          1368.156
       351   03 Jun 2027 21:44:54.686   03 Jun 2027 21:45:43.402            48.716                Irkutsk          1522.375
       352   03 Jun 2027 21:57:55.296   03 Jun 2027 21:59:01.647            66.351                Sumatra          2073.469
       353   03 Jun 2027 22:28:24.636   03 Jun 2027 22:28:46.800            22.164            RioGallegos           692.625
       354   03 Jun 2027 22:34:26.504   03 Jun 2027 22:35:26.652            60.148            RioGallegos          1879.625
       355   03 Jun 2027 23:07:28.520   03 Jun 2027 23:08:33.087            64.567                Anadyr1          2017.719
       356   03 Jun 2027 23:08:33.087   03 Jun 2027 23:09:21.587            48.500                Anadyr2          1515.625
       357   03 Jun 2027 23:09:50.465   03 Jun 2027 23:10:25.538            35.073                Norilsk          1096.031
       358   03 Jun 2027 23:10:40.273   03 Jun 2027 23:11:10.773            30.500               Magadan2           953.125
       359   03 Jun 2027 23:11:20.938   03 Jun 2027 23:11:35.044            14.106                Norilsk           440.812
       360   03 Jun 2027 23:11:53.090   03 Jun 2027 23:13:01.794            68.704               Magadan2          2147.000
       361   03 Jun 2027 23:15:01.308   03 Jun 2027 23:15:14.292            12.984                Novosib           405.750
       362   03 Jun 2027 23:16:42.335   03 Jun 2027 23:16:51.124             8.789                Novosib           274.656
       363   03 Jun 2027 23:17:31.987   03 Jun 2027 23:18:00.640            28.653                Novosib           895.406
       364   03 Jun 2027 23:18:20.908   03 Jun 2027 23:18:30.772             9.864                Novosib           308.250
       365   03 Jun 2027 23:24:31.559   03 Jun 2027 23:25:08.539            36.980                Irkutsk          1155.625
       366   03 Jun 2027 23:27:33.796   03 Jun 2027 23:28:10.614            36.818                Sumatra          1150.563
       367   03 Jun 2027 23:30:36.471   03 Jun 2027 23:30:37.336             0.865                Sumatra            27.031
       368   03 Jun 2027 23:31:26.348   03 Jun 2027 23:31:51.068            24.720                Sumatra           772.500
       369   03 Jun 2027 23:36:23.470   03 Jun 2027 23:36:31.646             8.176                Sumatra           255.500
       370   03 Jun 2027 23:37:08.667   03 Jun 2027 23:37:25.699            17.032                Sumatra           532.250
       371   04 Jun 2027 00:07:35.415   04 Jun 2027 00:07:57.375            21.960            RioGallegos           686.250
       372   04 Jun 2027 00:09:43.556   04 Jun 2027 00:09:50.214             6.658            RioGallegos           208.063
       373   04 Jun 2027 00:11:21.097   04 Jun 2027 00:12:05.025            43.928            RioGallegos          1372.750
       374   04 Jun 2027 00:13:36.328   04 Jun 2027 00:14:07.104            30.776            RioGallegos           961.750
       375   04 Jun 2027 00:42:16.634   04 Jun 2027 00:42:56.520            39.886                Anadyr2          1246.437
       376   04 Jun 2027 00:43:16.744   04 Jun 2027 00:43:32.948            16.204                Anadyr2           506.375
       377   04 Jun 2027 00:44:25.153   04 Jun 2027 00:44:38.499            13.346                Anadyr2           417.063
       378   04 Jun 2027 00:45:49.981   04 Jun 2027 00:45:52.520             2.539                Norilsk            79.344
       379   04 Jun 2027 00:46:29.154   04 Jun 2027 00:48:03.712            94.558               Magadan2          2954.938
       380   04 Jun 2027 00:49:06.459   04 Jun 2027 00:49:35.940            29.481                Norilsk           921.281
       381   04 Jun 2027 00:49:42.722   04 Jun 2027 00:51:41.075           118.353                Novosib          3698.531
       382   04 Jun 2027 00:52:20.436   04 Jun 2027 00:52:38.432            17.996                Novosib           562.375
       383   04 Jun 2027 00:54:28.441   04 Jun 2027 00:54:39.923            11.482                Novosib           358.812
       384   04 Jun 2027 00:55:43.276   04 Jun 2027 00:55:58.636            15.360                Irkutsk           480.000
       385   04 Jun 2027 00:57:11.856   04 Jun 2027 00:58:01.137            49.281                  Delhi          1540.031
       386   04 Jun 2027 01:03:26.393   04 Jun 2027 01:03:38.532            12.139                  Delhi           379.344
       387   04 Jun 2027 01:03:55.265   04 Jun 2027 01:05:12.499            77.234                  Delhi          2413.563
       388   04 Jun 2027 01:38:53.671   04 Jun 2027 01:39:35.238            41.567            RioGallegos          1298.969
       389   04 Jun 2027 01:45:41.421   04 Jun 2027 01:46:28.957            47.536            RioGallegos          1485.500
       390   04 Jun 2027 02:15:18.993   04 Jun 2027 02:15:41.407            22.414                Anadyr1           700.437
       391   04 Jun 2027 02:17:01.818   04 Jun 2027 02:17:42.954            41.136                Anadyr1          1285.500
       392   04 Jun 2027 02:21:12.977   04 Jun 2027 02:21:39.173            26.196                Anadyr1           818.625
       393   04 Jun 2027 02:21:43.266   04 Jun 2027 02:22:35.200            51.934               Magadan1          1622.938
       394   04 Jun 2027 02:22:37.837   04 Jun 2027 02:23:02.861            25.024                Norilsk           782.000
       395   04 Jun 2027 02:24:04.253   04 Jun 2027 02:25:33.007            88.754              Murmansk2          2773.563
       396   04 Jun 2027 02:25:33.007   04 Jun 2027 02:25:42.019             9.012              Murmansk1           281.625
       397   04 Jun 2027 02:26:52.680   04 Jun 2027 02:27:45.362            52.682                Novosib          1646.312
       398   04 Jun 2027 02:33:43.559   04 Jun 2027 02:33:54.730            11.171                  Delhi           349.094
       399   04 Jun 2027 02:34:46.571   04 Jun 2027 02:36:50.908           124.337                  Delhi          3885.531
       400   04 Jun 2027 04:07:53.876   04 Jun 2027 04:08:33.811            39.935                Norilsk          1247.969
       401   04 Jun 2027 04:08:52.567   04 Jun 2027 04:08:57.485             4.918              Murmansk2           153.687
       402   04 Jun 2027 04:10:01.204   04 Jun 2027 04:12:23.163           141.959              Murmansk2          4436.219
       403   04 Jun 2027 04:27:12.556   04 Jun 2027 04:28:04.792            52.236               CapeTown          1632.375
       404   04 Jun 2027 04:28:30.109   04 Jun 2027 04:29:37.832            67.723               CapeTown          2116.344
       405   04 Jun 2027 04:35:53.216   04 Jun 2027 04:36:19.824            26.608               CapeTown           831.500
       406   04 Jun 2027 05:30:32.966   04 Jun 2027 05:32:35.192           122.226                Anadyr2          3819.563
       407   04 Jun 2027 05:33:12.158   04 Jun 2027 05:33:26.024            13.866               Magadan2           433.312
       408   04 Jun 2027 05:34:17.272   04 Jun 2027 05:34:37.414            20.142                Anadyr2           629.437
       409   04 Jun 2027 05:34:37.823   04 Jun 2027 05:34:52.008            14.185               Magadan1           443.281
       410   04 Jun 2027 05:35:50.129   04 Jun 2027 05:36:22.529            32.400                Anadyr2          1012.500
       411   04 Jun 2027 05:48:05.644   04 Jun 2027 05:48:49.988            44.344              Murmansk2          1385.750
       412   04 Jun 2027 07:04:18.238   04 Jun 2027 07:05:08.960            50.722                Anadyr2          1585.062
       413   04 Jun 2027 07:05:13.154   04 Jun 2027 07:06:10.522            57.368                Anadyr2          1792.750
       414   04 Jun 2027 07:06:29.968   04 Jun 2027 07:06:34.664             4.696               Magadan1           146.750
       415   04 Jun 2027 07:06:40.333   04 Jun 2027 07:07:39.401            59.068                Anadyr1          1845.875
       416   04 Jun 2027 07:07:41.241   04 Jun 2027 07:08:53.534            72.293                Anadyr1          2259.156
       417   04 Jun 2027 07:09:04.940   04 Jun 2027 07:09:21.443            16.503               Magadan2           515.719
       418   04 Jun 2027 07:09:29.471   04 Jun 2027 07:10:02.688            33.217                Anadyr1          1038.031
       419   04 Jun 2027 07:11:43.137   04 Jun 2027 07:12:35.060            51.923                Anadyr1          1622.594
       420   04 Jun 2027 07:51:35.750   04 Jun 2027 07:52:19.903            44.153            RioGallegos          1379.781
       421   04 Jun 2027 08:39:30.831   04 Jun 2027 08:39:35.322             4.491               Magadan1           140.344
       422   04 Jun 2027 08:39:35.322   04 Jun 2027 08:40:28.904            53.582               Magadan2          1674.437
       423   04 Jun 2027 08:40:33.772   04 Jun 2027 08:40:46.219            12.447               Magadan1           388.969
       424   04 Jun 2027 08:40:51.516   04 Jun 2027 08:41:18.740            27.224                Anadyr2           850.750
       425   04 Jun 2027 08:41:18.740   04 Jun 2027 08:42:58.491            99.751                Anadyr1          3117.219
       426   04 Jun 2027 08:43:14.140   04 Jun 2027 08:44:29.632            75.492               Magadan2          2359.125
       427   04 Jun 2027 08:45:04.088   04 Jun 2027 08:46:44.734           100.646                Anadyr2          3145.188
       428   04 Jun 2027 08:47:19.363   04 Jun 2027 08:47:24.272             4.909                Norilsk           153.406
       429   04 Jun 2027 08:47:50.072   04 Jun 2027 08:48:15.086            25.014              Murmansk1           781.688
       430   04 Jun 2027 08:48:15.086   04 Jun 2027 08:48:33.158            18.072              Murmansk2           564.750
       431   04 Jun 2027 09:23:24.801   04 Jun 2027 09:23:55.070            30.269            RioGallegos           945.906
       432   04 Jun 2027 09:25:34.196   04 Jun 2027 09:25:50.411            16.215            RioGallegos           506.719
       433   04 Jun 2027 09:27:29.773   04 Jun 2027 09:27:42.030            12.257            RioGallegos           383.031
       434   04 Jun 2027 09:28:24.328   04 Jun 2027 09:28:39.377            15.049            RioGallegos           470.281
       435   04 Jun 2027 10:02:07.191   04 Jun 2027 10:02:47.903            40.712                Sumatra          1272.250
       436   04 Jun 2027 10:16:54.619   04 Jun 2027 10:17:25.341            30.722                Novosib           960.063
       437   04 Jun 2027 10:17:31.759   04 Jun 2027 10:17:37.793             6.034                Irkutsk           188.562
       438   04 Jun 2027 10:17:39.978   04 Jun 2027 10:17:53.685            13.707                Novosib           428.344
       439   04 Jun 2027 10:17:54.177   04 Jun 2027 10:19:18.514            84.337                Norilsk          2635.531
       440   04 Jun 2027 10:19:25.944   04 Jun 2027 10:19:50.056            24.112                Norilsk           753.500
       441   04 Jun 2027 10:20:00.802   04 Jun 2027 10:20:33.873            33.071                Norilsk          1033.469
       442   04 Jun 2027 10:20:35.710   04 Jun 2027 10:22:15.096            99.386               Magadan2          3105.813
       443   04 Jun 2027 10:22:15.096   04 Jun 2027 10:22:38.739            23.643               Magadan1           738.844
       444   04 Jun 2027 10:22:46.312   04 Jun 2027 10:23:24.873            38.561                Novosib          1205.031
       445   04 Jun 2027 10:23:30.437   04 Jun 2027 10:24:13.066            42.629              Murmansk2          1332.156
       446   04 Jun 2027 10:58:53.589   04 Jun 2027 11:00:09.135            75.546            RioGallegos          2360.813
       447   04 Jun 2027 11:33:33.712   04 Jun 2027 11:34:05.912            32.200                Sumatra          1006.250
       448   04 Jun 2027 11:36:04.650   04 Jun 2027 11:36:24.634            19.984                Sumatra           624.500
       449   04 Jun 2027 11:46:44.152   04 Jun 2027 11:47:02.328            18.176                  Delhi           568.000
       450   04 Jun 2027 11:53:36.278   04 Jun 2027 11:53:37.963             1.685                Irkutsk            52.656
       451   04 Jun 2027 11:53:53.999   04 Jun 2027 11:54:18.444            24.445                Novosib           763.906
       452   04 Jun 2027 11:54:40.613   04 Jun 2027 11:55:34.072            53.459                Novosib          1670.594
       453   04 Jun 2027 11:55:38.385   04 Jun 2027 11:55:40.746             2.361                Novosib            73.781
       454   04 Jun 2027 11:55:41.152   04 Jun 2027 11:56:11.064            29.912                Norilsk           934.750
       455   04 Jun 2027 11:56:12.997   04 Jun 2027 11:56:38.260            25.263              Murmansk1           789.469
       456   04 Jun 2027 11:56:40.223   04 Jun 2027 11:56:50.504            10.281                 Moscow           321.281
       457   04 Jun 2027 11:56:57.570   04 Jun 2027 11:57:34.109            36.539              Murmansk1          1141.844
       458   04 Jun 2027 11:57:34.109   04 Jun 2027 11:57:35.847             1.738              Murmansk2            54.312
       459   04 Jun 2027 11:57:36.581   04 Jun 2027 11:57:45.097             8.516                Novosib           266.125
       460   04 Jun 2027 11:57:47.311   04 Jun 2027 11:58:16.385            29.074                Irkutsk           908.562
       461   04 Jun 2027 11:58:29.208   04 Jun 2027 11:59:15.666            46.458              Murmansk1          1451.813
       462   04 Jun 2027 11:59:20.122   04 Jun 2027 11:59:41.004            20.882                Irkutsk           652.562
       463   04 Jun 2027 11:59:53.797   04 Jun 2027 12:00:58.226            64.429                Norilsk          2013.406
       464   04 Jun 2027 12:01:00.033   04 Jun 2027 12:01:31.759            31.726                 Moscow           991.437
       465   04 Jun 2027 12:03:06.884   04 Jun 2027 12:03:39.916            33.032                Norilsk          1032.250
       466   04 Jun 2027 12:04:06.358   04 Jun 2027 12:04:45.750            39.392              Murmansk1          1231.000
       467   04 Jun 2027 12:06:04.340   04 Jun 2027 12:06:18.895            14.555              Murmansk1           454.844
       468   04 Jun 2027 12:06:32.669   04 Jun 2027 12:07:05.651            32.982              Murmansk1          1030.687
       469   04 Jun 2027 12:42:39.605   04 Jun 2027 12:43:19.586            39.981            RioGallegos          1249.406
       470   04 Jun 2027 13:20:52.555   04 Jun 2027 13:22:16.548            83.993                  Delhi          2624.781
       471   04 Jun 2027 13:25:42.420   04 Jun 2027 13:25:45.435             3.015                Novosib            94.219
       472   04 Jun 2027 13:26:09.496   04 Jun 2027 13:26:49.188            39.692                Novosib          1240.375
       473   04 Jun 2027 13:27:33.892   04 Jun 2027 13:30:59.689           205.797                Novosib          6431.156
       474   04 Jun 2027 13:35:19.549   04 Jun 2027 13:36:36.539            76.990                Norilsk          2405.937
       475   04 Jun 2027 15:02:10.006   04 Jun 2027 15:05:28.326           198.320                 Moscow          6197.500
       476   04 Jun 2027 15:05:36.656   04 Jun 2027 15:06:53.143            76.487              Murmansk1          2390.219
       477   04 Jun 2027 15:09:39.844   04 Jun 2027 15:11:21.365           101.521                Norilsk          3172.531
       478   04 Jun 2027 15:13:03.942   04 Jun 2027 15:13:34.513            30.571                Norilsk           955.344
       479   04 Jun 2027 15:13:53.406   04 Jun 2027 15:14:30.392            36.986                Norilsk          1155.812
       480   04 Jun 2027 16:16:43.796   04 Jun 2027 16:17:07.245            23.449               CapeTown           732.781
       481   04 Jun 2027 16:17:52.597   04 Jun 2027 16:19:46.631           114.034               CapeTown          3563.562
       482   04 Jun 2027 16:39:41.073   04 Jun 2027 16:39:57.516            16.443                 Moscow           513.844
