uniorb/output/strategy_2/Drop/Drop_KinoSat_111602.txt

KinoSat_111602
-------------------------
    Access    *     Start Time (UTCG)     *     Stop Time (UTCG)  *   Duration (s)        *       Station  *  Data (Mbytes)
         1   01 Jun 2027 03:45:59.288   01 Jun 2027 03:47:08.155            68.867                Norilsk          2152.094
         2   01 Jun 2027 03:47:58.765   01 Jun 2027 03:48:04.921             6.156              Murmansk2           192.375
         3   01 Jun 2027 03:48:38.007   01 Jun 2027 03:49:35.721            57.714              Murmansk2          1803.562
         4   01 Jun 2027 03:50:02.813   01 Jun 2027 03:50:50.891            48.078              Murmansk2          1502.438
         5   01 Jun 2027 05:22:53.306   01 Jun 2027 05:23:42.592            49.286              Murmansk2          1540.187
         6   01 Jun 2027 05:24:11.648   01 Jun 2027 05:24:37.148            25.500              Murmansk2           796.875
         7   01 Jun 2027 05:25:22.234   01 Jun 2027 05:26:50.903            88.669              Murmansk2          2770.906
         8   01 Jun 2027 05:27:29.187   01 Jun 2027 05:28:01.717            32.530              Murmansk1          1016.562
         9   01 Jun 2027 05:28:01.717   01 Jun 2027 05:28:03.373             1.656              Murmansk2            51.750
        10   01 Jun 2027 06:46:08.845   01 Jun 2027 06:52:00.776           351.931                Anadyr1         10997.844
        11   01 Jun 2027 08:24:02.760   01 Jun 2027 08:27:32.339           209.579                Anadyr1          6549.344
        12   01 Jun 2027 09:58:45.044   01 Jun 2027 10:01:41.989           176.945               Magadan2          5529.531
        13   01 Jun 2027 10:01:41.989   01 Jun 2027 10:02:54.588            72.599               Magadan1          2268.719
        14   01 Jun 2027 11:34:01.472   01 Jun 2027 11:35:16.014            74.542                Irkutsk          2329.437
        15   01 Jun 2027 11:36:24.573   01 Jun 2027 11:38:23.886           119.313                Norilsk          3728.531
        16   01 Jun 2027 11:38:26.027   01 Jun 2027 11:38:32.080             6.053                Novosib           189.156
        17   01 Jun 2027 11:38:38.909   01 Jun 2027 11:42:13.706           214.797                Norilsk          6712.406
        18   01 Jun 2027 12:15:32.824   01 Jun 2027 12:16:15.162            42.338            RioGallegos          1323.062
        19   01 Jun 2027 12:49:45.777   01 Jun 2027 12:50:52.857            67.080                Sumatra          2096.250
        20   01 Jun 2027 12:53:10.013   01 Jun 2027 12:55:00.821           110.808                Sumatra          3462.750
        21   01 Jun 2027 13:04:06.986   01 Jun 2027 13:07:54.580           227.594                Novosib          7112.313
        22   01 Jun 2027 13:09:31.197   01 Jun 2027 13:10:03.144            31.947                Irkutsk           998.344
        23   01 Jun 2027 13:10:18.315   01 Jun 2027 13:10:42.643            24.328                Norilsk           760.250
        24   01 Jun 2027 14:34:54.640   01 Jun 2027 14:39:47.964           293.324                  Delhi          9166.375
        25   01 Jun 2027 14:43:24.106   01 Jun 2027 14:44:45.262            81.156                Novosib          2536.125
        26   01 Jun 2027 14:46:47.723   01 Jun 2027 14:47:00.726            13.003                Norilsk           406.344
        27   01 Jun 2027 14:47:46.966   01 Jun 2027 14:48:18.861            31.895                Norilsk           996.719
        28   01 Jun 2027 14:49:07.892   01 Jun 2027 14:50:17.119            69.227                Norilsk          2163.344
        29   01 Jun 2027 16:00:07.862   01 Jun 2027 16:00:30.989            23.127               CapeTown           722.719
        30   01 Jun 2027 16:17:46.680   01 Jun 2027 16:19:28.730           102.050                 Moscow          3189.063
        31   01 Jun 2027 16:20:41.578   01 Jun 2027 16:21:36.034            54.456                 Moscow          1701.750
        32   01 Jun 2027 16:21:43.975   01 Jun 2027 16:23:52.716           128.741              Murmansk1          4023.156
        33   01 Jun 2027 16:29:21.889   01 Jun 2027 16:30:18.921            57.032                Norilsk          1782.250
        34   01 Jun 2027 16:36:44.113   01 Jun 2027 16:37:28.829            44.716                Anadyr1          1397.375
        35   01 Jun 2027 17:31:02.972   01 Jun 2027 17:33:02.752           119.780               CapeTown          3743.125
        36   01 Jun 2027 17:38:53.875   01 Jun 2027 17:39:06.943            13.068               CapeTown           408.375
        37   01 Jun 2027 17:39:31.676   01 Jun 2027 17:40:31.460            59.784               CapeTown          1868.250
        38   01 Jun 2027 17:57:39.169   01 Jun 2027 17:58:19.223            40.054                 Moscow          1251.687
        39   01 Jun 2027 17:59:27.260   01 Jun 2027 18:00:59.970            92.710              Murmansk1          2897.187
        40   01 Jun 2027 18:01:40.819   01 Jun 2027 18:02:09.985            29.166                 Moscow           911.437
        41   01 Jun 2027 18:03:52.849   01 Jun 2027 18:04:37.154            44.305              Murmansk1          1384.531
        42   01 Jun 2027 18:08:36.169   01 Jun 2027 18:09:13.948            37.779              Murmansk1          1180.594
        43   01 Jun 2027 18:12:46.572   01 Jun 2027 18:13:13.449            26.877                Anadyr2           839.906
        44   01 Jun 2027 18:16:42.440   01 Jun 2027 18:17:00.882            18.442                Anadyr1           576.312
        45   01 Jun 2027 18:19:52.637   01 Jun 2027 18:20:21.564            28.927                Anadyr1           903.969
        46   01 Jun 2027 19:07:49.792   01 Jun 2027 19:09:00.825            71.033               CapeTown          2219.781
        47   01 Jun 2027 19:10:24.165   01 Jun 2027 19:11:56.310            92.145               CapeTown          2879.531
        48   01 Jun 2027 19:40:43.410   01 Jun 2027 19:44:42.272           238.862              Murmansk1          7464.437
        49   01 Jun 2027 19:50:06.278   01 Jun 2027 19:52:44.866           158.588               Magadan2          4955.875
        50   01 Jun 2027 19:59:12.719   01 Jun 2027 19:59:37.324            24.605               Magadan1           768.906
        51   01 Jun 2027 20:00:12.414   01 Jun 2027 20:00:34.525            22.111               Magadan1           690.969
        52   01 Jun 2027 21:23:25.692   01 Jun 2027 21:27:08.454           222.762                Anadyr1          6961.312
        53   01 Jun 2027 21:27:09.901   01 Jun 2027 21:29:15.920           126.019                Anadyr2          3938.094
        54   01 Jun 2027 21:29:30.295   01 Jun 2027 21:31:24.028           113.733               Magadan1          3554.156
        55   01 Jun 2027 21:31:24.028   01 Jun 2027 21:32:11.464            47.436               Magadan2          1482.375
        56   01 Jun 2027 21:34:43.833   01 Jun 2027 21:35:09.075            25.242               Magadan1           788.812
        57   01 Jun 2027 21:35:50.238   01 Jun 2027 21:36:13.850            23.612               Magadan2           737.875
        58   01 Jun 2027 21:36:21.701   01 Jun 2027 21:36:25.245             3.544               Magadan2           110.750
        59   01 Jun 2027 21:37:38.397   01 Jun 2027 21:37:57.303            18.906               Magadan2           590.812
        60   01 Jun 2027 22:18:05.627   01 Jun 2027 22:19:50.228           104.601            RioGallegos          3268.781
        61   01 Jun 2027 22:21:58.129   01 Jun 2027 22:22:26.917            28.788            RioGallegos           899.625
        62   01 Jun 2027 22:24:50.518   01 Jun 2027 22:25:06.440            15.922            RioGallegos           497.562
        63   01 Jun 2027 22:25:57.154   01 Jun 2027 22:26:31.188            34.034            RioGallegos          1063.562
        64   01 Jun 2027 22:27:29.342   01 Jun 2027 22:28:02.165            32.823            RioGallegos          1025.719
        65   01 Jun 2027 22:59:06.270   01 Jun 2027 23:01:19.178           132.908                Anadyr2          4153.375
        66   01 Jun 2027 23:01:43.924   01 Jun 2027 23:03:07.039            83.115               Magadan1          2597.344
        67   01 Jun 2027 23:03:07.039   01 Jun 2027 23:03:23.013            15.974               Magadan2           499.187
        68   01 Jun 2027 23:04:08.199   01 Jun 2027 23:04:55.484            47.285               Magadan2          1477.656
        69   01 Jun 2027 23:06:13.102   01 Jun 2027 23:06:46.636            33.534                Irkutsk          1047.938
        70   01 Jun 2027 23:07:48.765   01 Jun 2027 23:09:01.780            73.015                Irkutsk          2281.719
        71   01 Jun 2027 23:12:36.399   01 Jun 2027 23:12:44.103             7.704               Magadan2           240.750
        72   01 Jun 2027 23:13:47.345   01 Jun 2027 23:15:02.699            75.354                Irkutsk          2354.812
        73   01 Jun 2027 23:16:35.335   01 Jun 2027 23:16:55.309            19.974                Irkutsk           624.187
        74   01 Jun 2027 23:22:12.361   01 Jun 2027 23:22:43.608            31.247                Sumatra           976.469
        75   01 Jun 2027 23:26:30.745   01 Jun 2027 23:28:49.667           138.922                Sumatra          4341.313
        76   02 Jun 2027 00:03:21.897   02 Jun 2027 00:04:38.859            76.962            RioGallegos          2405.063
        77   02 Jun 2027 00:33:59.193   02 Jun 2027 00:34:16.956            17.763                Anadyr2           555.094
        78   02 Jun 2027 00:35:24.234   02 Jun 2027 00:35:39.435            15.201                Anadyr1           475.031
        79   02 Jun 2027 00:35:39.435   02 Jun 2027 00:36:06.273            26.838                Anadyr2           838.687
        80   02 Jun 2027 00:37:11.324   02 Jun 2027 00:38:54.529           103.205                Norilsk          3225.156
        81   02 Jun 2027 00:40:45.233   02 Jun 2027 00:40:57.200            11.967               Magadan2           373.969
        82   02 Jun 2027 00:41:17.143   02 Jun 2027 00:42:05.665            48.522                Novosib          1516.313
        83   02 Jun 2027 00:42:40.889   02 Jun 2027 00:43:08.334            27.445                Irkutsk           857.656
        84   02 Jun 2027 00:43:14.389   02 Jun 2027 00:43:38.503            24.114                Novosib           753.562
        85   02 Jun 2027 00:44:37.430   02 Jun 2027 00:45:21.857            44.427                Irkutsk          1388.344
        86   02 Jun 2027 00:47:28.004   02 Jun 2027 00:47:41.629            13.625                Novosib           425.781
        87   02 Jun 2027 00:47:52.533   02 Jun 2027 00:48:12.817            20.284                Novosib           633.875
        88   02 Jun 2027 00:49:58.701   02 Jun 2027 00:50:15.252            16.551                Novosib           517.219
        89   02 Jun 2027 00:50:39.951   02 Jun 2027 00:50:58.990            19.039                Irkutsk           594.969
        90   02 Jun 2027 00:51:31.284   02 Jun 2027 00:52:42.037            70.753                Irkutsk          2211.031
        91   02 Jun 2027 00:56:32.244   02 Jun 2027 00:56:55.864            23.620                  Delhi           738.125
        92   02 Jun 2027 00:59:02.728   02 Jun 2027 00:59:40.197            37.469                  Delhi          1170.906
        93   02 Jun 2027 01:33:29.826   02 Jun 2027 01:33:38.589             8.763            RioGallegos           273.844
        94   02 Jun 2027 01:34:06.139   02 Jun 2027 01:35:06.970            60.831            RioGallegos          1900.969
        95   02 Jun 2027 01:39:07.433   02 Jun 2027 01:39:51.969            44.536            RioGallegos          1391.750
        96   02 Jun 2027 01:40:03.428   02 Jun 2027 01:40:13.767            10.339            RioGallegos           323.094
        97   02 Jun 2027 02:07:38.641   02 Jun 2027 02:07:45.572             6.931                Anadyr1           216.594
        98   02 Jun 2027 02:08:28.420   02 Jun 2027 02:08:44.259            15.839                Anadyr2           494.969
        99   02 Jun 2027 02:09:00.903   02 Jun 2027 02:09:32.601            31.698                Anadyr2           990.562
       100   02 Jun 2027 02:10:56.659   02 Jun 2027 02:11:05.954             9.295                Anadyr1           290.469
       101   02 Jun 2027 02:11:58.947   02 Jun 2027 02:12:10.732            11.785                Anadyr1           368.281
       102   02 Jun 2027 02:12:58.188   02 Jun 2027 02:13:23.827            25.639                Anadyr1           801.219
       103   02 Jun 2027 02:13:33.371   02 Jun 2027 02:13:58.500            25.129               Magadan2           785.281
       104   02 Jun 2027 02:14:10.672   02 Jun 2027 02:14:28.248            17.576                Norilsk           549.250
       105   02 Jun 2027 02:15:36.469   02 Jun 2027 02:17:31.094           114.625              Murmansk1          3582.031
       106   02 Jun 2027 02:20:29.697   02 Jun 2027 02:20:56.148            26.451                Novosib           826.594
       107   02 Jun 2027 02:22:10.400   02 Jun 2027 02:22:13.993             3.593                 Moscow           112.281
       108   02 Jun 2027 02:22:46.062   02 Jun 2027 02:23:02.295            16.233              Murmansk1           507.281
       109   02 Jun 2027 02:23:52.385   02 Jun 2027 02:24:06.267            13.882                Irkutsk           433.813
       110   02 Jun 2027 02:25:32.256   02 Jun 2027 02:25:54.247            21.991                 Moscow           687.219
       111   02 Jun 2027 02:27:14.360   02 Jun 2027 02:27:20.459             6.099                Irkutsk           190.594
       112   02 Jun 2027 02:27:38.375   02 Jun 2027 02:28:04.652            26.277                Novosib           821.156
       113   02 Jun 2027 02:29:38.809   02 Jun 2027 02:29:43.288             4.479                Novosib           139.969
       114   02 Jun 2027 02:32:21.286   02 Jun 2027 02:32:57.851            36.565                  Delhi          1142.656
       115   02 Jun 2027 02:33:17.048   02 Jun 2027 02:33:33.692            16.644                  Delhi           520.125
       116   02 Jun 2027 02:34:11.156   02 Jun 2027 02:34:50.454            39.298                  Delhi          1228.062
       117   02 Jun 2027 03:57:44.023   02 Jun 2027 03:58:10.249            26.226                Novosib           819.562
       118   02 Jun 2027 03:58:56.720   02 Jun 2027 03:59:51.115            54.395                Norilsk          1699.844
       119   02 Jun 2027 04:00:54.429   02 Jun 2027 04:01:50.984            56.555              Murmansk1          1767.344
       120   02 Jun 2027 04:02:34.170   02 Jun 2027 04:03:05.397            31.227                 Moscow           975.844
       121   02 Jun 2027 04:03:28.951   02 Jun 2027 04:03:58.648            29.697                 Moscow           928.031
       122   02 Jun 2027 04:04:17.065   02 Jun 2027 04:06:26.134           129.069                 Moscow          4033.406
       123   02 Jun 2027 05:34:47.225   02 Jun 2027 05:35:09.574            22.349                Norilsk           698.406
       124   02 Jun 2027 05:35:17.677   02 Jun 2027 05:35:18.337             0.660                Norilsk            20.625
       125   02 Jun 2027 05:35:35.980   02 Jun 2027 05:35:45.490             9.510              Murmansk2           297.187
       126   02 Jun 2027 05:35:45.490   02 Jun 2027 05:36:19.776            34.286              Murmansk1          1071.438
       127   02 Jun 2027 05:37:30.655   02 Jun 2027 05:38:53.081            82.426              Murmansk2          2575.813
       128   02 Jun 2027 05:38:53.081   02 Jun 2027 05:40:13.819            80.738              Murmansk1          2523.063
       129   02 Jun 2027 05:41:19.046   02 Jun 2027 05:42:06.599            47.553                 Moscow          1486.031
       130   02 Jun 2027 06:59:29.446   02 Jun 2027 07:04:01.816           272.370                Anadyr2          8511.562
       131   02 Jun 2027 07:46:24.489   02 Jun 2027 07:47:05.255            40.766            RioGallegos          1273.938
       132   02 Jun 2027 07:47:30.160   02 Jun 2027 07:47:54.959            24.799            RioGallegos           774.969
       133   02 Jun 2027 08:34:48.619   02 Jun 2027 08:36:35.888           107.269               Magadan2          3352.156
       134   02 Jun 2027 08:36:35.888   02 Jun 2027 08:38:22.262           106.374               Magadan1          3324.188
       135   02 Jun 2027 10:08:35.233   02 Jun 2027 10:08:54.239            19.006                Novosib           593.937
       136   02 Jun 2027 10:09:44.260   02 Jun 2027 10:10:03.875            19.615                Irkutsk           612.969
       137   02 Jun 2027 10:10:27.173   02 Jun 2027 10:11:11.782            44.609               Magadan1          1394.031
       138   02 Jun 2027 10:11:11.782   02 Jun 2027 10:11:28.451            16.669               Magadan2           520.906
       139   02 Jun 2027 10:11:28.451   02 Jun 2027 10:13:41.757           133.306               Magadan1          4165.813
       140   02 Jun 2027 10:14:12.084   02 Jun 2027 10:14:38.931            26.847                Novosib           838.969
       141   02 Jun 2027 10:14:43.448   02 Jun 2027 10:14:47.380             3.932              Murmansk1           122.875
       142   02 Jun 2027 10:14:52.303   02 Jun 2027 10:15:17.744            25.441                Irkutsk           795.031
       143   02 Jun 2027 10:15:44.061   02 Jun 2027 10:16:18.311            34.250              Murmansk1          1070.312
       144   02 Jun 2027 10:23:06.530   02 Jun 2027 10:23:43.718            37.188              Murmansk1          1162.125
       145   02 Jun 2027 10:50:02.435   02 Jun 2027 10:51:05.077            62.642            RioGallegos          1957.563
       146   02 Jun 2027 11:25:19.452   02 Jun 2027 11:25:55.834            36.382                Sumatra          1136.938
       147   02 Jun 2027 11:27:11.369   02 Jun 2027 11:27:47.145            35.776                Sumatra          1118.000
       148   02 Jun 2027 11:41:52.425   02 Jun 2027 11:42:26.400            33.975                  Delhi          1061.719
       149   02 Jun 2027 11:45:20.865   02 Jun 2027 11:47:26.631           125.766                Irkutsk          3930.188
       150   02 Jun 2027 11:47:36.585   02 Jun 2027 11:48:16.466            39.881                Irkutsk          1246.281
       151   02 Jun 2027 11:48:20.540   02 Jun 2027 11:48:48.543            28.003                Irkutsk           875.094
       152   02 Jun 2027 11:48:49.108   02 Jun 2027 11:48:58.270             9.162              Murmansk1           286.313
       153   02 Jun 2027 11:49:00.677   02 Jun 2027 11:49:52.478            51.801                Novosib          1618.781
       154   02 Jun 2027 11:49:59.375   02 Jun 2027 11:51:21.919            82.544                Novosib          2579.500
       155   02 Jun 2027 12:28:07.899   02 Jun 2027 12:28:30.089            22.190            RioGallegos           693.437
       156   02 Jun 2027 12:29:48.617   02 Jun 2027 12:30:15.085            26.468            RioGallegos           827.125
       157   02 Jun 2027 12:31:30.359   02 Jun 2027 12:33:06.647            96.288            RioGallegos          3009.000
       158   02 Jun 2027 13:02:23.009   02 Jun 2027 13:02:31.756             8.747                Sumatra           273.344
       159   02 Jun 2027 13:02:58.524   02 Jun 2027 13:03:53.668            55.144                Sumatra          1723.250
       160   02 Jun 2027 13:05:58.637   02 Jun 2027 13:07:22.341            83.704                Sumatra          2615.750
       161   02 Jun 2027 13:18:04.314   02 Jun 2027 13:21:31.573           207.259                Irkutsk          6476.844
       162   02 Jun 2027 14:47:51.231   02 Jun 2027 14:52:05.599           254.368                  Delhi          7949.000
       163   02 Jun 2027 14:56:22.004   02 Jun 2027 14:58:57.967           155.963                Novosib          4873.844
       164   02 Jun 2027 15:00:37.660   02 Jun 2027 15:00:49.015            11.355                Novosib           354.844
       165   02 Jun 2027 15:04:26.113   02 Jun 2027 15:04:30.798             4.685                Norilsk           146.406
       166   02 Jun 2027 16:10:01.189   02 Jun 2027 16:11:36.473            95.284               CapeTown          2977.625
       167   02 Jun 2027 16:13:10.088   02 Jun 2027 16:15:00.156           110.068               CapeTown          3439.625
       168   02 Jun 2027 16:33:27.933   02 Jun 2027 16:34:13.108            45.175              Murmansk2          1411.719
       169   02 Jun 2027 16:36:18.905   02 Jun 2027 16:37:43.118            84.213              Murmansk1          2631.656
       170   02 Jun 2027 16:48:28.861   02 Jun 2027 16:49:27.160            58.299                Anadyr1          1821.844
       171   02 Jun 2027 16:49:44.582   02 Jun 2027 16:50:08.240            23.658                Anadyr2           739.313
       172   02 Jun 2027 16:50:24.104   02 Jun 2027 16:50:54.305            30.201                Anadyr2           943.781
       173   02 Jun 2027 16:53:03.193   02 Jun 2027 16:53:55.510            52.317                Anadyr1          1634.906
       174   02 Jun 2027 17:43:00.463   02 Jun 2027 17:43:32.641            32.178               CapeTown          1005.562
       175   02 Jun 2027 17:48:49.581   02 Jun 2027 17:48:57.803             8.222               CapeTown           256.938
       176   02 Jun 2027 17:50:07.097   02 Jun 2027 17:50:47.815            40.718               CapeTown          1272.437
       177   02 Jun 2027 17:55:45.571   02 Jun 2027 17:55:48.628             3.057               CapeTown            95.531
       178   02 Jun 2027 18:10:51.178   02 Jun 2027 18:14:27.244           216.066                 Moscow          6752.062
       179   02 Jun 2027 18:15:57.159   02 Jun 2027 18:16:55.753            58.594              Murmansk1          1831.062
       180   02 Jun 2027 18:26:51.773   02 Jun 2027 18:27:11.703            19.930                Anadyr2           622.813
       181   02 Jun 2027 18:28:40.824   02 Jun 2027 18:29:29.342            48.518               Magadan1          1516.187
       182   02 Jun 2027 18:30:44.523   02 Jun 2027 18:31:04.607            20.084               Magadan2           627.625
       183   02 Jun 2027 18:31:12.405   02 Jun 2027 18:31:23.664            11.259               Magadan2           351.844
       184   02 Jun 2027 19:21:14.046   02 Jun 2027 19:22:47.385            93.339               CapeTown          2916.844
       185   02 Jun 2027 19:54:11.064   02 Jun 2027 19:55:59.845           108.781              Murmansk2          3399.406
       186   02 Jun 2027 20:01:05.373   02 Jun 2027 20:01:10.553             5.180                Anadyr2           161.875
       187   02 Jun 2027 20:02:02.304   02 Jun 2027 20:03:27.204            84.900               Magadan2          2653.125
       188   02 Jun 2027 20:03:27.204   02 Jun 2027 20:04:32.957            65.753               Magadan1          2054.781
       189   02 Jun 2027 20:04:46.513   02 Jun 2027 20:05:25.672            39.159               Magadan2          1223.719
       190   02 Jun 2027 20:07:53.159   02 Jun 2027 20:08:01.074             7.915               Magadan1           247.344
       191   02 Jun 2027 20:08:11.998   02 Jun 2027 20:08:51.069            39.071               Magadan1          1220.969
       192   02 Jun 2027 20:11:34.716   02 Jun 2027 20:11:47.958            13.242               Magadan2           413.813
       193   02 Jun 2027 21:35:26.694   02 Jun 2027 21:39:17.779           231.085                Anadyr1          7221.406
       194   02 Jun 2027 21:39:28.115   02 Jun 2027 21:42:26.754           178.639                Norilsk          5582.469
       195   02 Jun 2027 21:44:17.221   02 Jun 2027 21:44:29.805            12.584               Magadan2           393.250
       196   02 Jun 2027 21:44:40.571   02 Jun 2027 21:44:52.728            12.157               Magadan2           379.906
       197   02 Jun 2027 21:47:53.316   02 Jun 2027 21:48:00.283             6.967               Magadan1           217.719
       198   02 Jun 2027 21:48:00.283   02 Jun 2027 21:48:05.403             5.120               Magadan2           160.000
       199   02 Jun 2027 21:48:08.921   02 Jun 2027 21:49:25.515            76.594               Magadan1          2393.563
       200   02 Jun 2027 22:29:52.657   02 Jun 2027 22:31:59.488           126.831            RioGallegos          3963.469
       201   02 Jun 2027 22:37:56.844   02 Jun 2027 22:38:28.659            31.815            RioGallegos           994.219
       202   02 Jun 2027 23:11:03.440   02 Jun 2027 23:11:52.064            48.624                Anadyr2          1519.500
       203   02 Jun 2027 23:13:14.665   02 Jun 2027 23:13:18.891             4.226                Anadyr2           132.062
       204   02 Jun 2027 23:13:21.689   02 Jun 2027 23:14:42.856            81.167                Norilsk          2536.469
       205   02 Jun 2027 23:14:56.446   02 Jun 2027 23:15:43.774            47.328               Magadan1          1479.000
       206   02 Jun 2027 23:16:52.887   02 Jun 2027 23:16:53.189             0.302               Magadan2             9.437
       207   02 Jun 2027 23:17:27.195   02 Jun 2027 23:18:47.872            80.677                Irkutsk          2521.156
       208   02 Jun 2027 23:19:38.019   02 Jun 2027 23:20:49.141            71.122                Irkutsk          2222.563
       209   02 Jun 2027 23:24:13.850   02 Jun 2027 23:24:45.845            31.995                Novosib           999.844
       210   02 Jun 2027 23:31:12.801   02 Jun 2027 23:31:52.258            39.457                Sumatra          1233.031
       211   02 Jun 2027 23:33:53.104   02 Jun 2027 23:34:42.527            49.423                Sumatra          1544.469
       212   02 Jun 2027 23:39:16.549   02 Jun 2027 23:40:39.753            83.204                Sumatra          2600.125
       213   03 Jun 2027 00:16:06.712   03 Jun 2027 00:16:46.365            39.653            RioGallegos          1239.156
       214   03 Jun 2027 00:45:47.469   03 Jun 2027 00:46:07.897            20.428                Anadyr1           638.375
       215   03 Jun 2027 00:46:32.355   03 Jun 2027 00:47:19.917            47.562                Anadyr1          1486.312
       216   03 Jun 2027 00:48:07.363   03 Jun 2027 00:48:07.604             0.241                Anadyr2             7.531
       217   03 Jun 2027 00:49:13.614   03 Jun 2027 00:50:56.345           102.731                Norilsk          3210.344
       218   03 Jun 2027 00:52:31.929   03 Jun 2027 00:52:47.711            15.782               Magadan1           493.187
       219   03 Jun 2027 00:53:06.291   03 Jun 2027 00:55:07.747           121.456                Irkutsk          3795.500
       220   03 Jun 2027 00:55:56.829   03 Jun 2027 00:57:19.666            82.837                Novosib          2588.656
       221   03 Jun 2027 01:02:07.173   03 Jun 2027 01:02:40.852            33.679                  Delhi          1052.469
       222   03 Jun 2027 01:07:09.981   03 Jun 2027 01:07:26.545            16.564                  Delhi           517.625
       223   03 Jun 2027 01:11:02.724   03 Jun 2027 01:11:54.754            52.030                Sumatra          1625.937
       224   03 Jun 2027 01:41:35.067   03 Jun 2027 01:42:13.344            38.277            RioGallegos          1196.156
       225   03 Jun 2027 01:48:13.652   03 Jun 2027 01:48:33.491            19.839            RioGallegos           619.969
       226   03 Jun 2027 01:48:53.871   03 Jun 2027 01:49:01.600             7.729            RioGallegos           241.531
       227   03 Jun 2027 01:50:05.267   03 Jun 2027 01:51:17.456            72.189            RioGallegos          2255.906
       228   03 Jun 2027 02:20:45.638   03 Jun 2027 02:21:50.584            64.946                Anadyr1          2029.562
       229   03 Jun 2027 02:25:13.369   03 Jun 2027 02:26:14.102            60.733                Norilsk          1897.906
       230   03 Jun 2027 02:27:33.772   03 Jun 2027 02:29:04.200            90.428              Murmansk2          2825.875
       231   03 Jun 2027 02:29:12.230   03 Jun 2027 02:29:25.335            13.105                Novosib           409.531
       232   03 Jun 2027 02:29:42.327   03 Jun 2027 02:30:00.193            17.866                Irkutsk           558.313
       233   03 Jun 2027 02:31:52.602   03 Jun 2027 02:31:58.444             5.842                Irkutsk           182.563
       234   03 Jun 2027 02:32:07.794   03 Jun 2027 02:32:08.339             0.545                Novosib            17.031
       235   03 Jun 2027 02:32:14.965   03 Jun 2027 02:32:50.579            35.614                Novosib          1112.937
       236   03 Jun 2027 02:36:15.418   03 Jun 2027 02:37:09.704            54.286                Irkutsk          1696.438
       237   03 Jun 2027 02:44:13.233   03 Jun 2027 02:45:10.223            56.990                  Delhi          1780.937
       238   03 Jun 2027 04:11:42.778   03 Jun 2027 04:12:11.836            29.058              Murmansk1           908.063
       239   03 Jun 2027 04:12:44.014   03 Jun 2027 04:13:10.845            26.831                Norilsk           838.469
       240   03 Jun 2027 04:13:31.938   03 Jun 2027 04:17:11.827           219.889                 Moscow          6871.531
       241   03 Jun 2027 04:17:51.490   03 Jun 2027 04:19:06.989            75.499                 Moscow          2359.344
       242   03 Jun 2027 04:31:01.932   03 Jun 2027 04:33:25.157           143.225               CapeTown          4475.781
       243   03 Jun 2027 04:35:09.191   03 Jun 2027 04:37:04.499           115.308               CapeTown          3603.375
       244   03 Jun 2027 04:41:08.416   03 Jun 2027 04:42:13.028            64.612               CapeTown          2019.125
       245   03 Jun 2027 05:35:30.113   03 Jun 2027 05:35:47.562            17.449               Magadan2           545.281
       246   03 Jun 2027 05:35:52.431   03 Jun 2027 05:36:22.116            29.685                Anadyr1           927.656
       247   03 Jun 2027 05:36:49.572   03 Jun 2027 05:37:54.421            64.849                Anadyr2          2026.531
       248   03 Jun 2027 05:45:39.125   03 Jun 2027 05:45:52.399            13.274                Norilsk           414.813
       249   03 Jun 2027 05:46:12.776   03 Jun 2027 05:46:24.649            11.873                 Moscow           371.031
       250   03 Jun 2027 05:46:29.213   03 Jun 2027 05:46:53.530            24.317                 Moscow           759.906
       251   03 Jun 2027 05:46:58.939   03 Jun 2027 05:47:06.741             7.802                Norilsk           243.813
       252   03 Jun 2027 05:47:25.734   03 Jun 2027 05:47:31.577             5.843                 Moscow           182.594
       253   03 Jun 2027 05:47:51.242   03 Jun 2027 05:48:21.829            30.587                 Moscow           955.844
       254   03 Jun 2027 05:48:26.182   03 Jun 2027 05:49:51.989            85.807              Murmansk1          2681.469
       255   03 Jun 2027 05:49:51.989   03 Jun 2027 05:50:00.528             8.539              Murmansk2           266.844
       256   03 Jun 2027 05:50:31.608   03 Jun 2027 05:50:52.349            20.741              Murmansk1           648.156
       257   03 Jun 2027 06:07:42.845   03 Jun 2027 06:08:23.488            40.643               CapeTown          1270.094
       258   03 Jun 2027 07:08:18.423   03 Jun 2027 07:09:15.220            56.797                Anadyr1          1774.906
       259   03 Jun 2027 07:09:20.315   03 Jun 2027 07:09:26.307             5.992               Magadan2           187.250
       260   03 Jun 2027 07:09:34.813   03 Jun 2027 07:09:45.296            10.483               Magadan2           327.594
       261   03 Jun 2027 07:09:45.296   03 Jun 2027 07:09:46.417             1.121               Magadan1            35.031
       262   03 Jun 2027 07:09:54.450   03 Jun 2027 07:11:33.115            98.665               Magadan1          3083.281
       263   03 Jun 2027 07:11:55.454   03 Jun 2027 07:12:28.414            32.960               Magadan2          1030.000
       264   03 Jun 2027 07:12:37.108   03 Jun 2027 07:13:48.225            71.117                Anadyr1          2222.406
       265   03 Jun 2027 07:27:19.132   03 Jun 2027 07:27:21.683             2.551                 Moscow            79.719
       266   03 Jun 2027 07:56:44.947   03 Jun 2027 07:57:04.886            19.939            RioGallegos           623.094
       267   03 Jun 2027 07:58:41.086   03 Jun 2027 07:59:25.421            44.335            RioGallegos          1385.469
       268   03 Jun 2027 08:44:04.235   03 Jun 2027 08:44:07.859             3.624               Magadan2           113.250
       269   03 Jun 2027 08:44:19.203   03 Jun 2027 08:45:19.499            60.296                Anadyr1          1884.250
       270   03 Jun 2027 08:45:19.499   03 Jun 2027 08:46:14.520            55.021                Anadyr2          1719.406
       271   03 Jun 2027 08:46:28.322   03 Jun 2027 08:46:51.968            23.646                Irkutsk           738.937
       272   03 Jun 2027 08:47:03.572   03 Jun 2027 08:47:42.031            38.459                Anadyr2          1201.844
       273   03 Jun 2027 08:47:42.031   03 Jun 2027 08:47:58.404            16.373                Anadyr1           511.656
       274   03 Jun 2027 08:48:08.014   03 Jun 2027 08:50:07.094           119.080                Anadyr1          3721.250
       275   03 Jun 2027 10:20:18.441   03 Jun 2027 10:22:59.820           161.379               Magadan2          5043.094
       276   03 Jun 2027 10:23:11.254   03 Jun 2027 10:23:27.470            16.216                Irkutsk           506.750
       277   03 Jun 2027 10:23:48.330   03 Jun 2027 10:24:28.823            40.493                Norilsk          1265.406
       278   03 Jun 2027 10:24:30.949   03 Jun 2027 10:24:33.603             2.654                Novosib            82.938
       279   03 Jun 2027 10:24:33.704   03 Jun 2027 10:24:53.592            19.888                Irkutsk           621.500
       280   03 Jun 2027 10:24:56.380   03 Jun 2027 10:24:56.830             0.450                Novosib            14.063
       281   03 Jun 2027 10:24:59.151   03 Jun 2027 10:24:59.575             0.424                Norilsk            13.250
       282   03 Jun 2027 10:25:06.243   03 Jun 2027 10:25:22.072            15.829                Irkutsk           494.656
       283   03 Jun 2027 10:25:23.636   03 Jun 2027 10:25:30.502             6.866                Novosib           214.563
       284   03 Jun 2027 10:25:30.825   03 Jun 2027 10:26:06.828            36.003              Murmansk2          1125.094
       285   03 Jun 2027 10:26:12.346   03 Jun 2027 10:26:28.771            16.425              Murmansk1           513.281
       286   03 Jun 2027 10:26:28.993   03 Jun 2027 10:26:46.265            17.272                Irkutsk           539.750
       287   03 Jun 2027 10:26:58.406   03 Jun 2027 10:27:07.159             8.753                Norilsk           273.531
       288   03 Jun 2027 10:27:39.375   03 Jun 2027 10:28:11.967            32.592              Murmansk2          1018.500
       289   03 Jun 2027 11:02:06.255   03 Jun 2027 11:03:01.079            54.824            RioGallegos          1713.250
       290   03 Jun 2027 11:03:20.003   03 Jun 2027 11:04:18.600            58.597            RioGallegos          1831.156
       291   03 Jun 2027 11:37:47.192   03 Jun 2027 11:39:39.805           112.613                Sumatra          3519.156
       292   03 Jun 2027 11:57:28.237   03 Jun 2027 11:57:55.083            26.846                Norilsk           838.938
       293   03 Jun 2027 11:58:08.843   03 Jun 2027 11:58:24.974            16.131                Novosib           504.094
       294   03 Jun 2027 11:58:25.189   03 Jun 2027 12:01:32.379           187.190                Irkutsk          5849.688
       295   03 Jun 2027 12:05:52.735   03 Jun 2027 12:06:02.406             9.671              Murmansk1           302.219
       296   03 Jun 2027 12:06:05.008   03 Jun 2027 12:06:17.679            12.671              Murmansk2           395.969
       297   03 Jun 2027 12:07:01.814   03 Jun 2027 12:07:02.087             0.273                Norilsk             8.531
       298   03 Jun 2027 12:07:09.723   03 Jun 2027 12:08:05.493            55.770              Murmansk2          1742.813
       299   03 Jun 2027 12:43:04.607   03 Jun 2027 12:45:08.024           123.417            RioGallegos          3856.781
       300   03 Jun 2027 13:16:56.884   03 Jun 2027 13:17:49.358            52.474                Sumatra          1639.812
       301   03 Jun 2027 13:19:44.764   03 Jun 2027 13:20:41.151            56.387                Sumatra          1762.094
       302   03 Jun 2027 13:30:01.030   03 Jun 2027 13:31:08.948            67.918                Novosib          2122.438
       303   03 Jun 2027 13:31:10.925   03 Jun 2027 13:33:30.909           139.984                Irkutsk          4374.500
       304   03 Jun 2027 15:01:18.984   03 Jun 2027 15:04:09.618           170.634                  Delhi          5332.313
       305   03 Jun 2027 15:06:46.174   03 Jun 2027 15:07:00.750            14.576                 Moscow           455.500
       306   03 Jun 2027 15:08:49.121   03 Jun 2027 15:09:19.058            29.937                 Moscow           935.531
       307   03 Jun 2027 15:09:39.590   03 Jun 2027 15:10:56.668            77.078                Novosib          2408.687
       308   03 Jun 2027 15:11:50.943   03 Jun 2027 15:13:02.360            71.417                Novosib          2231.781
       309   03 Jun 2027 15:14:33.781   03 Jun 2027 15:16:16.538           102.757                Norilsk          3211.156
       310   03 Jun 2027 16:21:43.678   03 Jun 2027 16:23:16.102            92.424               CapeTown          2888.250
       311   03 Jun 2027 16:45:00.710   03 Jun 2027 16:46:40.052            99.342                 Moscow          3104.437
       312   03 Jun 2027 16:52:08.987   03 Jun 2027 16:52:11.362             2.375                 Moscow            74.219
       313   03 Jun 2027 16:53:40.038   03 Jun 2027 16:54:09.180            29.142              Murmansk1           910.687
       314   03 Jun 2027 16:56:04.420   03 Jun 2027 16:56:47.613            43.193              Murmansk2          1349.781
       315   03 Jun 2027 17:00:18.364   03 Jun 2027 17:01:26.209            67.845                Anadyr1          2120.156
       316   03 Jun 2027 17:02:20.783   03 Jun 2027 17:02:55.736            34.953                Anadyr2          1092.281
       317   03 Jun 2027 17:05:00.807   03 Jun 2027 17:05:10.065             9.258                Anadyr1           289.313
       318   03 Jun 2027 17:55:00.830   03 Jun 2027 17:55:25.735            24.905               CapeTown           778.281
       319   03 Jun 2027 17:57:25.007   03 Jun 2027 17:57:41.311            16.304               CapeTown           509.500
       320   03 Jun 2027 17:58:04.092   03 Jun 2027 17:58:14.501            10.409               CapeTown           325.281
       321   03 Jun 2027 17:58:53.303   03 Jun 2027 17:59:38.970            45.667               CapeTown          1427.094
       322   03 Jun 2027 18:03:59.993   03 Jun 2027 18:04:36.259            36.266               CapeTown          1133.312
       323   03 Jun 2027 18:24:27.925   03 Jun 2027 18:27:48.815           200.890              Murmansk2          6277.813
       324   03 Jun 2027 18:28:07.542   03 Jun 2027 18:29:57.528           109.986              Murmansk1          3437.062
       325   03 Jun 2027 18:40:52.850   03 Jun 2027 18:40:57.240             4.390               Magadan1           137.187
       326   03 Jun 2027 18:42:34.356   03 Jun 2027 18:43:05.932            31.576               Magadan1           986.750
       327   03 Jun 2027 19:34:47.222   03 Jun 2027 19:35:26.560            39.338               CapeTown          1229.313
       328   03 Jun 2027 19:35:53.446   03 Jun 2027 19:37:53.508           120.062               CapeTown          3751.937
       329   03 Jun 2027 20:11:33.352   03 Jun 2027 20:12:22.073            48.721                Anadyr1          1522.531
       330   03 Jun 2027 20:12:26.929   03 Jun 2027 20:12:33.148             6.219                Anadyr1           194.344
       331   03 Jun 2027 20:12:51.312   03 Jun 2027 20:14:56.144           124.832                Anadyr2          3901.000
       332   03 Jun 2027 20:15:02.346   03 Jun 2027 20:16:03.765            61.419               Magadan2          1919.344
       333   03 Jun 2027 20:18:10.695   03 Jun 2027 20:18:47.470            36.775               Magadan2          1149.219
       334   03 Jun 2027 20:24:04.151   03 Jun 2027 20:24:32.141            27.990               Magadan1           874.687
       335   03 Jun 2027 21:47:27.431   03 Jun 2027 21:51:08.547           221.116                Anadyr2          6909.875
       336   03 Jun 2027 21:51:18.510   03 Jun 2027 21:53:17.848           119.338                Norilsk          3729.312
       337   03 Jun 2027 21:53:35.505   03 Jun 2027 21:54:28.725            53.220               Magadan2          1663.125
       338   03 Jun 2027 21:54:28.725   03 Jun 2027 21:54:56.360            27.635               Magadan1           863.594
       339   03 Jun 2027 21:56:17.244   03 Jun 2027 21:56:50.244            33.000                Irkutsk          1031.250
       340   03 Jun 2027 21:58:02.460   03 Jun 2027 21:58:22.269            19.809                Irkutsk           619.031
       341   03 Jun 2027 22:41:43.015   03 Jun 2027 22:44:13.867           150.852            RioGallegos          4714.125
       342   03 Jun 2027 22:50:02.911   03 Jun 2027 22:50:39.522            36.611            RioGallegos          1144.094
       343   03 Jun 2027 23:22:59.774   03 Jun 2027 23:23:41.225            41.451                Anadyr1          1295.344
       344   03 Jun 2027 23:24:14.137   03 Jun 2027 23:25:15.845            61.708                Anadyr1          1928.375
       345   03 Jun 2027 23:25:16.950   03 Jun 2027 23:26:00.351            43.401                Norilsk          1356.281
       346   03 Jun 2027 23:26:28.440   03 Jun 2027 23:26:46.370            17.930               Magadan1           560.312
       347   03 Jun 2027 23:28:51.756   03 Jun 2027 23:29:31.565            39.809               Magadan2          1244.031
       348   03 Jun 2027 23:30:16.948   03 Jun 2027 23:30:49.933            32.985                Irkutsk          1030.781
       349   03 Jun 2027 23:30:52.835   03 Jun 2027 23:32:03.601            70.766                Novosib          2211.438
       350   03 Jun 2027 23:33:09.339   03 Jun 2027 23:33:53.153            43.814                Novosib          1369.187
       351   03 Jun 2027 23:37:09.664   03 Jun 2027 23:37:34.392            24.728                Novosib           772.750
       352   03 Jun 2027 23:43:04.138   03 Jun 2027 23:43:40.559            36.421                Sumatra          1138.156
       353   03 Jun 2027 23:46:05.882   03 Jun 2027 23:46:26.306            20.424                Sumatra           638.250
       354   03 Jun 2027 23:51:02.648   03 Jun 2027 23:51:38.390            35.742                Sumatra          1116.938
       355   03 Jun 2027 23:53:00.923   03 Jun 2027 23:53:36.266            35.343                Sumatra          1104.469
       356   04 Jun 2027 00:22:24.796   04 Jun 2027 00:22:47.144            22.348            RioGallegos           698.375
       357   04 Jun 2027 00:25:07.397   04 Jun 2027 00:25:32.733            25.336            RioGallegos           791.750
       358   04 Jun 2027 00:29:53.698   04 Jun 2027 00:29:57.810             4.112            RioGallegos           128.500
       359   04 Jun 2027 00:57:34.440   04 Jun 2027 00:58:00.369            25.929                Anadyr1           810.281
       360   04 Jun 2027 00:58:00.369   04 Jun 2027 00:58:30.957            30.588                Anadyr2           955.875
       361   04 Jun 2027 00:59:13.977   04 Jun 2027 00:59:49.172            35.195                Anadyr2          1099.844
       362   04 Jun 2027 01:00:08.902   04 Jun 2027 01:00:17.190             8.288                Anadyr2           259.000
       363   04 Jun 2027 01:01:15.927   04 Jun 2027 01:03:06.839           110.912                Norilsk          3466.000
       364   04 Jun 2027 01:04:39.058   04 Jun 2027 01:05:02.159            23.101                Norilsk           721.906
       365   04 Jun 2027 01:05:09.922   04 Jun 2027 01:07:08.179           118.257                Irkutsk          3695.531
       366   04 Jun 2027 01:07:55.984   04 Jun 2027 01:08:13.950            17.966                Novosib           561.437
       367   04 Jun 2027 01:12:46.728   04 Jun 2027 01:12:56.941            10.213                  Delhi           319.156
       368   04 Jun 2027 01:13:43.494   04 Jun 2027 01:14:16.031            32.537                  Delhi          1016.781
       369   04 Jun 2027 01:18:38.249   04 Jun 2027 01:19:02.891            24.642                  Delhi           770.063
       370   04 Jun 2027 01:20:15.216   04 Jun 2027 01:21:51.001            95.785                  Delhi          2993.281
       371   04 Jun 2027 01:56:29.186   04 Jun 2027 01:56:57.764            28.578            RioGallegos           893.062
       372   04 Jun 2027 01:59:22.404   04 Jun 2027 01:59:51.460            29.056            RioGallegos           908.000
       373   04 Jun 2027 02:31:00.808   04 Jun 2027 02:31:14.235            13.427                Anadyr2           419.594
       374   04 Jun 2027 02:32:26.760   04 Jun 2027 02:33:42.765            76.005                Anadyr2          2375.156
       375   04 Jun 2027 02:36:57.646   04 Jun 2027 02:36:58.088             0.442                Anadyr1            13.812
       376   04 Jun 2027 02:37:09.650   04 Jun 2027 02:37:11.387             1.737                Anadyr2            54.281
       377   04 Jun 2027 02:37:12.870   04 Jun 2027 02:38:02.098            49.228               Magadan2          1538.375
       378   04 Jun 2027 02:38:09.137   04 Jun 2027 02:38:31.526            22.389                Norilsk           699.656
       379   04 Jun 2027 02:39:32.228   04 Jun 2027 02:40:49.485            77.257              Murmansk2          2414.281
       380   04 Jun 2027 02:41:04.565   04 Jun 2027 02:41:35.345            30.780                Novosib           961.875
       381   04 Jun 2027 02:41:54.559   04 Jun 2027 02:43:14.759            80.200                Irkutsk          2506.250
       382   04 Jun 2027 02:50:22.982   04 Jun 2027 02:50:34.569            11.587                  Delhi           362.094
       383   04 Jun 2027 02:52:55.625   04 Jun 2027 02:53:34.107            38.482                  Delhi          1202.562
       384   04 Jun 2027 02:59:16.911   04 Jun 2027 02:59:46.703            29.792                  Delhi           931.000
       385   04 Jun 2027 04:23:21.514   04 Jun 2027 04:23:25.803             4.289              Murmansk2           134.031
       386   04 Jun 2027 04:23:35.169   04 Jun 2027 04:24:12.988            37.819              Murmansk2          1181.844
       387   04 Jun 2027 04:24:18.052   04 Jun 2027 04:24:52.604            34.552                Novosib          1079.750
       388   04 Jun 2027 04:25:43.023   04 Jun 2027 04:26:39.799            56.776              Murmansk1          1774.250
       389   04 Jun 2027 04:26:39.799   04 Jun 2027 04:26:59.019            19.220              Murmansk2           600.625
       390   04 Jun 2027 04:27:18.913   04 Jun 2027 04:29:52.996           154.083                 Moscow          4815.094
       391   04 Jun 2027 04:42:47.521   04 Jun 2027 04:44:42.922           115.401               CapeTown          3606.281
       392   04 Jun 2027 05:46:19.240   04 Jun 2027 05:47:41.677            82.437                Anadyr2          2576.156
       393   04 Jun 2027 05:58:27.712   04 Jun 2027 05:58:33.973             6.261                 Moscow           195.656
       394   04 Jun 2027 05:58:42.163   04 Jun 2027 05:59:17.525            35.362                Norilsk          1105.063
       395   04 Jun 2027 05:59:19.676   04 Jun 2027 06:00:30.924            71.248              Murmansk1          2226.500
       396   04 Jun 2027 06:00:56.947   04 Jun 2027 06:01:57.542            60.595              Murmansk2          1893.594
       397   04 Jun 2027 06:02:03.949   04 Jun 2027 06:02:31.737            27.788              Murmansk1           868.375
       398   04 Jun 2027 07:20:06.917   04 Jun 2027 07:20:40.343            33.426               Magadan1          1044.562
       399   04 Jun 2027 07:20:56.293   04 Jun 2027 07:21:09.632            13.339               Magadan2           416.844
       400   04 Jun 2027 07:21:11.046   04 Jun 2027 07:21:20.849             9.803               Magadan2           306.344
       401   04 Jun 2027 07:21:26.723   04 Jun 2027 07:22:09.043            42.320                Anadyr1          1322.500
       402   04 Jun 2027 07:22:20.655   04 Jun 2027 07:23:14.323            53.668                Anadyr2          1677.125
       403   04 Jun 2027 07:23:32.252   04 Jun 2027 07:23:58.366            26.114               Magadan1           816.062
       404   04 Jun 2027 07:24:09.377   04 Jun 2027 07:24:35.233            25.856               Magadan2           808.000
       405   04 Jun 2027 07:24:50.576   04 Jun 2027 07:25:33.526            42.950               Magadan2          1342.188
       406   04 Jun 2027 07:25:33.526   04 Jun 2027 07:25:40.868             7.342               Magadan1           229.437
       407   04 Jun 2027 07:27:11.743   04 Jun 2027 07:27:23.053            11.310              Murmansk2           353.438
       408   04 Jun 2027 07:32:18.664   04 Jun 2027 07:32:28.446             9.782              Murmansk2           305.688
       409   04 Jun 2027 07:34:24.266   04 Jun 2027 07:34:24.773             0.507                 Moscow            15.844
       410   04 Jun 2027 07:35:17.432   04 Jun 2027 07:35:17.672             0.240                 Moscow             7.500
       411   04 Jun 2027 08:07:42.068   04 Jun 2027 08:08:23.110            41.042            RioGallegos          1282.563
       412   04 Jun 2027 08:13:04.876   04 Jun 2027 08:13:32.735            27.859            RioGallegos           870.594
       413   04 Jun 2027 08:54:53.793   04 Jun 2027 08:55:08.804            15.011               Magadan1           469.094
       414   04 Jun 2027 08:55:28.640   04 Jun 2027 08:56:17.890            49.250                Anadyr1          1539.063
       415   04 Jun 2027 08:56:50.226   04 Jun 2027 08:57:38.395            48.169               Magadan1          1505.281
       416   04 Jun 2027 08:57:41.293   04 Jun 2027 08:57:48.879             7.586                Norilsk           237.063
       417   04 Jun 2027 08:57:56.308   04 Jun 2027 08:58:20.266            23.958               Magadan1           748.687
       418   04 Jun 2027 08:58:35.196   04 Jun 2027 08:59:56.102            80.906               Magadan1          2528.313
       419   04 Jun 2027 09:00:17.066   04 Jun 2027 09:03:19.413           182.347                Anadyr2          5698.344
       420   04 Jun 2027 10:32:31.161   04 Jun 2027 10:33:02.218            31.057                Novosib           970.531
       421   04 Jun 2027 10:33:16.888   04 Jun 2027 10:34:04.893            48.005                Norilsk          1500.156
       422   04 Jun 2027 10:34:06.971   04 Jun 2027 10:35:07.720            60.749                Irkutsk          1898.406
       423   04 Jun 2027 10:35:14.612   04 Jun 2027 10:38:24.051           189.439               Magadan2          5919.969
       424   04 Jun 2027 10:38:36.220   04 Jun 2027 10:38:58.799            22.579                Norilsk           705.594
       425   04 Jun 2027 10:39:04.099   04 Jun 2027 10:39:54.440            50.341                Norilsk          1573.156
       426   04 Jun 2027 11:14:13.588   04 Jun 2027 11:14:55.319            41.731            RioGallegos          1304.094
       427   04 Jun 2027 11:49:02.004   04 Jun 2027 11:50:22.697            80.693                Sumatra          2521.656
       428   04 Jun 2027 12:03:03.888   04 Jun 2027 12:03:58.890            55.002                Irkutsk          1718.812
       429   04 Jun 2027 12:08:44.150   04 Jun 2027 12:08:58.061            13.911                Norilsk           434.719
       430   04 Jun 2027 12:10:20.992   04 Jun 2027 12:11:36.564            75.572                Irkutsk          2361.625
       431   04 Jun 2027 12:18:02.208   04 Jun 2027 12:18:07.162             4.954              Murmansk1           154.813
       432   04 Jun 2027 12:18:33.316   04 Jun 2027 12:19:02.781            29.465                Norilsk           920.781
       433   04 Jun 2027 12:21:37.123   04 Jun 2027 12:21:49.998            12.875              Murmansk1           402.344
       434   04 Jun 2027 12:53:43.951   04 Jun 2027 12:54:03.496            19.545            RioGallegos           610.781
       435   04 Jun 2027 12:54:58.827   04 Jun 2027 12:57:08.389           129.562            RioGallegos          4048.813
       436   04 Jun 2027 13:28:55.018   04 Jun 2027 13:31:54.402           179.384                Sumatra          5605.750
       437   04 Jun 2027 13:44:53.466   04 Jun 2027 13:46:08.104            74.638                Irkutsk          2332.438
       438   04 Jun 2027 13:50:33.882   04 Jun 2027 13:50:34.791             0.909                Norilsk            28.406
       439   04 Jun 2027 13:52:02.801   04 Jun 2027 13:52:16.159            13.358                Norilsk           417.437
       440   04 Jun 2027 13:52:38.263   04 Jun 2027 13:54:16.755            98.492                Norilsk          3077.875
       441   04 Jun 2027 15:17:38.655   04 Jun 2027 15:18:46.305            67.650                 Moscow          2114.063
       442   04 Jun 2027 15:19:34.295   04 Jun 2027 15:19:57.645            23.350                 Moscow           729.688
       443   04 Jun 2027 15:20:17.361   04 Jun 2027 15:21:22.016            64.655                 Moscow          2020.469
       444   04 Jun 2027 15:22:18.650   04 Jun 2027 15:22:36.340            17.690              Murmansk1           552.813
       445   04 Jun 2027 15:24:07.365   04 Jun 2027 15:24:23.831            16.466              Murmansk2           514.562
       446   04 Jun 2027 15:24:36.083   04 Jun 2027 15:25:42.764            66.681                Norilsk          2083.781
       447   04 Jun 2027 15:26:35.442   04 Jun 2027 15:28:18.891           103.449                Norilsk          3232.781
       448   04 Jun 2027 16:32:30.667   04 Jun 2027 16:33:29.641            58.974               CapeTown          1842.937
       449   04 Jun 2027 16:35:54.344   04 Jun 2027 16:35:58.648             4.304               CapeTown           134.500
       450   04 Jun 2027 16:36:36.694   04 Jun 2027 16:37:11.862            35.168               CapeTown          1099.000
       451   04 Jun 2027 16:54:42.021   04 Jun 2027 16:55:01.272            19.251                 Moscow           601.594
       452   04 Jun 2027 16:57:26.323   04 Jun 2027 16:58:50.345            84.022                 Moscow          2625.688
       453   04 Jun 2027 17:00:22.819   04 Jun 2027 17:00:48.677            25.858              Murmansk1           808.063
       454   04 Jun 2027 17:04:49.787   04 Jun 2027 17:05:38.010            48.223              Murmansk1          1506.969
       455   04 Jun 2027 17:12:10.910   04 Jun 2027 17:13:25.839            74.929                Anadyr2          2341.531
       456   04 Jun 2027 17:13:47.246   04 Jun 2027 17:13:54.267             7.021                Anadyr1           219.406
       457   04 Jun 2027 17:14:31.020   04 Jun 2027 17:14:54.845            23.825                Anadyr1           744.531
       458   04 Jun 2027 17:17:57.493   04 Jun 2027 17:18:15.523            18.030                Anadyr1           563.438
       459   04 Jun 2027 17:20:57.725   04 Jun 2027 17:21:15.328            17.603                Anadyr2           550.094
       460   04 Jun 2027 18:10:10.575   04 Jun 2027 18:10:12.348             1.773               CapeTown            55.406
       461   04 Jun 2027 18:10:34.176   04 Jun 2027 18:11:03.143            28.967               CapeTown           905.219
       462   04 Jun 2027 18:16:14.903   04 Jun 2027 18:16:42.779            27.876               CapeTown           871.125
       463   04 Jun 2027 18:37:02.658   04 Jun 2027 18:37:41.944            39.286              Murmansk1          1227.688
       464   04 Jun 2027 18:37:47.139   04 Jun 2027 18:42:05.213           258.074              Murmansk2          8064.813
       465   04 Jun 2027 18:51:17.902   04 Jun 2027 18:52:39.919            82.017               Magadan2          2563.031
       466   04 Jun 2027 19:50:00.301   04 Jun 2027 19:50:21.484            21.183               CapeTown           661.969
       467   04 Jun 2027 20:23:35.104   04 Jun 2027 20:27:26.635           231.531                Anadyr2          7235.344
       468   04 Jun 2027 20:27:42.858   04 Jun 2027 20:29:37.484           114.626               Magadan1          3582.063
       469   04 Jun 2027 20:30:24.303   04 Jun 2027 20:30:49.257            24.954               Magadan2           779.812
       470   04 Jun 2027 20:31:24.622   04 Jun 2027 20:31:34.381             9.759               Magadan2           304.969
       471   04 Jun 2027 20:31:49.340   04 Jun 2027 20:32:20.752            31.412               Magadan2           981.625
       472   04 Jun 2027 21:59:27.845   04 Jun 2027 22:03:07.943           220.098                Anadyr1          6878.063
       473   04 Jun 2027 22:03:13.865   04 Jun 2027 22:05:25.737           131.872               Magadan2          4121.000
       474   04 Jun 2027 22:05:25.737   04 Jun 2027 22:05:37.845            12.108               Magadan1           378.375
       475   04 Jun 2027 22:05:44.598   04 Jun 2027 22:06:05.783            21.185               Magadan1           662.031
       476   04 Jun 2027 22:06:09.304   04 Jun 2027 22:06:45.611            36.307                Norilsk          1134.594
       477   04 Jun 2027 22:07:43.933   04 Jun 2027 22:08:10.660            26.727                Norilsk           835.219
       478   04 Jun 2027 22:08:11.515   04 Jun 2027 22:08:24.370            12.855                Irkutsk           401.719
       479   04 Jun 2027 22:09:17.506   04 Jun 2027 22:10:02.358            44.852                Irkutsk          1401.625
       480   04 Jun 2027 22:12:52.761   04 Jun 2027 22:13:15.102            22.341                Irkutsk           698.156
       481   04 Jun 2027 22:24:09.900   04 Jun 2027 22:24:44.037            34.137                Sumatra          1066.781
       482   04 Jun 2027 22:26:16.118   04 Jun 2027 22:27:12.153            56.035                Sumatra          1751.094
