uniorb/output/strategy_2/Drop/Drop_KinoSat_111010.txt

KinoSat_111010
-------------------------
    Access    *     Start Time (UTCG)     *     Stop Time (UTCG)  *   Duration (s)        *       Station  *  Data (Mbytes)
         1   01 Jun 2027 04:16:53.893   01 Jun 2027 04:18:52.012           118.119                Anadyr1          3691.219
         2   01 Jun 2027 04:18:52.012   01 Jun 2027 04:18:53.989             1.977                Anadyr2            61.781
         3   01 Jun 2027 04:19:06.945   01 Jun 2027 04:19:21.831            14.886               Magadan2           465.187
         4   01 Jun 2027 04:19:26.672   01 Jun 2027 04:20:37.906            71.234                Anadyr1          2226.062
         5   01 Jun 2027 04:21:16.483   01 Jun 2027 04:21:35.416            18.933               Magadan2           591.656
         6   01 Jun 2027 05:53:16.637   01 Jun 2027 05:53:16.679             0.042                Irkutsk             1.313
         7   01 Jun 2027 05:54:05.711   01 Jun 2027 05:54:34.444            28.733               Magadan1           897.906
         8   01 Jun 2027 05:54:52.659   01 Jun 2027 05:56:03.864            71.205                Irkutsk          2225.156
         9   01 Jun 2027 05:56:05.325   01 Jun 2027 05:56:59.516            54.191                Anadyr2          1693.469
        10   01 Jun 2027 07:29:49.996   01 Jun 2027 07:30:04.234            14.238               Magadan1           444.937
        11   01 Jun 2027 07:30:04.234   01 Jun 2027 07:32:41.112           156.878               Magadan2          4902.438
        12   01 Jun 2027 07:32:50.263   01 Jun 2027 07:33:01.681            11.418                Novosib           356.813
        13   01 Jun 2027 07:33:05.869   01 Jun 2027 07:33:06.069             0.200               Magadan2             6.250
        14   01 Jun 2027 07:33:24.803   01 Jun 2027 07:34:14.224            49.421              Murmansk1          1544.406
        15   01 Jun 2027 07:34:14.224   01 Jun 2027 07:34:44.784            30.560              Murmansk2           955.000
        16   01 Jun 2027 08:08:08.528   01 Jun 2027 08:10:38.093           149.565            RioGallegos          4673.906
        17   01 Jun 2027 08:43:42.163   01 Jun 2027 08:44:36.341            54.178                Sumatra          1693.063
        18   01 Jun 2027 08:45:35.987   01 Jun 2027 08:46:30.935            54.948                Sumatra          1717.125
        19   01 Jun 2027 09:05:23.246   01 Jun 2027 09:05:37.049            13.803                Novosib           431.344
        20   01 Jun 2027 09:05:48.689   01 Jun 2027 09:06:18.035            29.346                Irkutsk           917.062
        21   01 Jun 2027 09:06:39.029   01 Jun 2027 09:09:58.172           199.143              Murmansk2          6223.219
        22   01 Jun 2027 09:10:05.038   01 Jun 2027 09:10:39.583            34.545                Novosib          1079.531
        23   01 Jun 2027 09:45:44.207   01 Jun 2027 09:46:09.695            25.488            RioGallegos           796.500
        24   01 Jun 2027 10:19:56.002   01 Jun 2027 10:20:48.715            52.713                Sumatra          1647.281
        25   01 Jun 2027 10:22:58.730   01 Jun 2027 10:23:36.676            37.946                Sumatra          1185.812
        26   01 Jun 2027 10:28:40.327   01 Jun 2027 10:29:06.138            25.811                  Delhi           806.594
        27   01 Jun 2027 10:41:44.853   01 Jun 2027 10:42:14.279            29.426                Irkutsk           919.562
        28   01 Jun 2027 10:43:01.563   01 Jun 2027 10:43:59.035            57.472                Novosib          1796.000
        29   01 Jun 2027 10:44:25.119   01 Jun 2027 10:45:58.685            93.566              Murmansk1          2923.938
        30   01 Jun 2027 10:46:03.869   01 Jun 2027 10:46:29.017            25.148                Norilsk           785.875
        31   01 Jun 2027 10:46:54.471   01 Jun 2027 10:47:09.439            14.968                 Moscow           467.750
        32   01 Jun 2027 12:05:07.645   01 Jun 2027 12:07:16.147           128.502                  Delhi          4015.687
        33   01 Jun 2027 12:08:06.783   01 Jun 2027 12:09:10.936            64.153                  Delhi          2004.781
        34   01 Jun 2027 12:13:38.894   01 Jun 2027 12:14:01.877            22.983                Novosib           718.219
        35   01 Jun 2027 12:14:37.646   01 Jun 2027 12:15:26.732            49.086                Novosib          1533.937
        36   01 Jun 2027 12:15:49.779   01 Jun 2027 12:16:36.736            46.957              Murmansk2          1467.406
        37   01 Jun 2027 12:16:54.881   01 Jun 2027 12:17:25.250            30.369              Murmansk1           949.031
        38   01 Jun 2027 12:17:33.001   01 Jun 2027 12:18:18.865            45.864                Norilsk          1433.250
        39   01 Jun 2027 12:20:50.471   01 Jun 2027 12:21:20.054            29.583                Norilsk           924.469
        40   01 Jun 2027 13:29:48.434   01 Jun 2027 13:30:40.144            51.710               CapeTown          1615.937
        41   01 Jun 2027 13:47:55.217   01 Jun 2027 13:48:02.928             7.711                 Moscow           240.969
        42   01 Jun 2027 13:48:46.711   01 Jun 2027 13:49:24.824            38.113                 Moscow          1191.031
        43   01 Jun 2027 13:50:47.588   01 Jun 2027 13:51:55.116            67.528                 Moscow          2110.250
        44   01 Jun 2027 13:52:03.460   01 Jun 2027 13:52:52.576            49.116              Murmansk1          1534.875
        45   01 Jun 2027 13:53:00.367   01 Jun 2027 13:53:33.316            32.949              Murmansk1          1029.656
        46   01 Jun 2027 13:54:58.427   01 Jun 2027 13:55:08.115             9.688              Murmansk1           302.750
        47   01 Jun 2027 13:55:49.283   01 Jun 2027 13:55:55.678             6.395              Murmansk2           199.844
        48   01 Jun 2027 13:56:12.409   01 Jun 2027 13:56:14.676             2.267              Murmansk1            70.844
        49   01 Jun 2027 13:56:42.113   01 Jun 2027 13:57:01.699            19.586              Murmansk1           612.063
        50   01 Jun 2027 13:58:32.102   01 Jun 2027 13:58:38.769             6.667              Murmansk1           208.344
        51   01 Jun 2027 14:00:24.069   01 Jun 2027 14:00:49.449            25.380              Murmansk1           793.125
        52   01 Jun 2027 14:06:51.889   01 Jun 2027 14:08:32.354           100.465                Anadyr1          3139.531
        53   01 Jun 2027 14:09:01.172   01 Jun 2027 14:10:16.202            75.030                Anadyr2          2344.688
        54   01 Jun 2027 14:11:50.674   01 Jun 2027 14:12:44.853            54.179                Anadyr1          1693.094
        55   01 Jun 2027 15:30:17.779   01 Jun 2027 15:30:26.888             9.109              Murmansk1           284.656
        56   01 Jun 2027 15:30:26.888   01 Jun 2027 15:30:35.823             8.935              Murmansk2           279.219
        57   01 Jun 2027 15:32:10.818   01 Jun 2027 15:32:30.815            19.997              Murmansk2           624.906
        58   01 Jun 2027 15:34:11.178   01 Jun 2027 15:34:28.208            17.030              Murmansk1           532.188
        59   01 Jun 2027 15:37:28.652   01 Jun 2027 15:37:58.732            30.080              Murmansk1           940.000
        60   01 Jun 2027 15:41:47.417   01 Jun 2027 15:42:56.997            69.580                Anadyr2          2174.375
        61   01 Jun 2027 15:43:12.140   01 Jun 2027 15:43:27.432            15.292                Anadyr2           477.875
        62   01 Jun 2027 15:43:35.089   01 Jun 2027 15:44:20.795            45.706                Anadyr1          1428.313
        63   01 Jun 2027 15:48:34.745   01 Jun 2027 15:48:38.544             3.799                Anadyr1           118.719
        64   01 Jun 2027 16:41:53.930   01 Jun 2027 16:43:08.346            74.416               CapeTown          2325.500
        65   01 Jun 2027 17:11:04.738   01 Jun 2027 17:14:16.405           191.667              Murmansk1          5989.594
        66   01 Jun 2027 17:19:13.749   01 Jun 2027 17:19:28.477            14.728                Anadyr1           460.250
        67   01 Jun 2027 17:20:30.895   01 Jun 2027 17:20:56.743            25.848                Anadyr1           807.750
        68   01 Jun 2027 17:21:31.040   01 Jun 2027 17:21:41.580            10.540               Magadan2           329.375
        69   01 Jun 2027 17:22:24.731   01 Jun 2027 17:24:00.534            95.803               Magadan2          2993.844
        70   01 Jun 2027 17:30:47.483   01 Jun 2027 17:31:00.712            13.229               Magadan2           413.406
        71   01 Jun 2027 18:53:31.827   01 Jun 2027 18:55:23.451           111.624                Anadyr1          3488.250
        72   01 Jun 2027 18:55:48.695   01 Jun 2027 18:57:47.588           118.893               Magadan1          3715.406
        73   01 Jun 2027 18:58:08.522   01 Jun 2027 18:59:25.499            76.977                Norilsk          2405.531
        74   01 Jun 2027 19:02:22.392   01 Jun 2027 19:02:50.992            28.600               Magadan1           893.750
        75   01 Jun 2027 19:04:41.349   01 Jun 2027 19:05:24.158            42.809               Magadan2          1337.781
        76   01 Jun 2027 19:48:11.904   01 Jun 2027 19:49:34.506            82.602            RioGallegos          2581.312
        77   01 Jun 2027 19:49:59.140   01 Jun 2027 19:50:26.737            27.597            RioGallegos           862.406
        78   01 Jun 2027 19:51:39.823   01 Jun 2027 19:52:56.717            76.894            RioGallegos          2402.937
        79   01 Jun 2027 19:57:26.756   01 Jun 2027 19:57:35.793             9.037            RioGallegos           282.406
        80   01 Jun 2027 20:31:23.663   01 Jun 2027 20:31:42.992            19.329                Norilsk           604.031
        81   01 Jun 2027 20:32:35.875   01 Jun 2027 20:34:02.774            86.899                Norilsk          2715.594
        82   01 Jun 2027 20:35:40.492   01 Jun 2027 20:35:56.529            16.037                Irkutsk           501.156
        83   01 Jun 2027 20:36:01.411   01 Jun 2027 20:36:21.785            20.374                Norilsk           636.687
        84   01 Jun 2027 20:37:09.150   01 Jun 2027 20:37:47.511            38.361                Irkutsk          1198.781
        85   01 Jun 2027 20:38:36.331   01 Jun 2027 20:40:03.970            87.639                Novosib          2738.719
        86   01 Jun 2027 20:44:34.868   01 Jun 2027 20:45:09.446            34.578                Irkutsk          1080.562
        87   01 Jun 2027 20:54:21.227   01 Jun 2027 20:55:06.279            45.052                Sumatra          1407.875
        88   01 Jun 2027 20:58:54.897   01 Jun 2027 20:59:58.525            63.628                Sumatra          1988.375
        89   01 Jun 2027 22:07:13.232   01 Jun 2027 22:07:22.722             9.490                Anadyr2           296.563
        90   01 Jun 2027 22:07:22.722   01 Jun 2027 22:07:45.583            22.861                Anadyr1           714.406
        91   01 Jun 2027 22:09:06.645   01 Jun 2027 22:09:07.559             0.914                Norilsk            28.563
        92   01 Jun 2027 22:09:22.057   01 Jun 2027 22:09:59.832            37.775               Magadan2          1180.469
        93   01 Jun 2027 22:10:32.653   01 Jun 2027 22:10:49.797            17.144                Norilsk           535.750
        94   01 Jun 2027 22:11:39.154   01 Jun 2027 22:11:44.120             4.966                Irkutsk           155.187
        95   01 Jun 2027 22:12:16.819   01 Jun 2027 22:14:25.768           128.949                Irkutsk          4029.656
        96   01 Jun 2027 22:19:25.126   01 Jun 2027 22:20:08.137            43.011                  Delhi          1344.094
        97   01 Jun 2027 22:22:36.600   01 Jun 2027 22:22:41.068             4.468                  Delhi           139.625
        98   01 Jun 2027 22:24:05.134   01 Jun 2027 22:25:22.977            77.843                  Delhi          2432.594
        99   01 Jun 2027 22:26:32.885   01 Jun 2027 22:27:12.608            39.723                  Delhi          1241.344
       100   01 Jun 2027 23:39:32.679   01 Jun 2027 23:39:48.595            15.916                Anadyr2           497.375
       101   01 Jun 2027 23:40:29.232   01 Jun 2027 23:40:37.049             7.817                Anadyr2           244.281
       102   01 Jun 2027 23:42:51.727   01 Jun 2027 23:43:45.822            54.095                Anadyr2          1690.469
       103   01 Jun 2027 23:43:49.701   01 Jun 2027 23:45:04.994            75.293                Norilsk          2352.906
       104   01 Jun 2027 23:45:08.999   01 Jun 2027 23:45:32.016            23.017               Magadan2           719.281
       105   01 Jun 2027 23:45:44.976   01 Jun 2027 23:46:47.865            62.889              Murmansk2          1965.281
       106   01 Jun 2027 23:46:47.865   01 Jun 2027 23:48:10.620            82.755              Murmansk1          2586.094
       107   01 Jun 2027 23:48:15.843   01 Jun 2027 23:49:26.074            70.231              Murmansk2          2194.719
       108   01 Jun 2027 23:51:07.757   01 Jun 2027 23:52:32.390            84.633                 Moscow          2644.781
       109   02 Jun 2027 01:11:02.907   02 Jun 2027 01:11:14.209            11.302                Anadyr2           353.188
       110   02 Jun 2027 01:11:58.737   02 Jun 2027 01:12:11.600            12.863                Anadyr1           401.969
       111   02 Jun 2027 01:12:47.884   02 Jun 2027 01:13:21.917            34.033                Anadyr2          1063.531
       112   02 Jun 2027 01:13:45.792   02 Jun 2027 01:13:55.310             9.518                Anadyr1           297.437
       113   02 Jun 2027 01:13:55.310   02 Jun 2027 01:14:21.160            25.850                Anadyr2           807.812
       114   02 Jun 2027 01:16:22.152   02 Jun 2027 01:18:00.426            98.274               Magadan2          3071.062
       115   02 Jun 2027 01:18:00.426   02 Jun 2027 01:18:25.114            24.688               Magadan1           771.500
       116   02 Jun 2027 01:19:11.628   02 Jun 2027 01:19:57.555            45.927               Magadan1          1435.219
       117   02 Jun 2027 01:22:10.654   02 Jun 2027 01:22:40.091            29.437              Murmansk2           919.906
       118   02 Jun 2027 01:22:58.242   02 Jun 2027 01:23:14.694            16.452              Murmansk1           514.125
       119   02 Jun 2027 01:26:26.887   02 Jun 2027 01:26:47.180            20.293                Novosib           634.156
       120   02 Jun 2027 01:27:07.682   02 Jun 2027 01:27:21.234            13.552                 Moscow           423.500
       121   02 Jun 2027 01:28:16.762   02 Jun 2027 01:28:21.758             4.996              Murmansk1           156.125
       122   02 Jun 2027 01:28:42.384   02 Jun 2027 01:30:31.660           109.276                 Moscow          3414.875
       123   02 Jun 2027 01:58:46.823   02 Jun 2027 01:59:49.474            62.651               CapeTown          1957.844
       124   02 Jun 2027 02:45:25.955   02 Jun 2027 02:46:44.239            78.284                Anadyr1          2446.375
       125   02 Jun 2027 02:47:06.623   02 Jun 2027 02:47:50.397            43.774                Anadyr1          1367.938
       126   02 Jun 2027 02:48:07.935   02 Jun 2027 02:48:14.278             6.343               Magadan1           198.219
       127   02 Jun 2027 02:49:11.580   02 Jun 2027 02:49:30.999            19.419               Magadan2           606.844
       128   02 Jun 2027 02:50:06.137   02 Jun 2027 02:50:21.637            15.500               Magadan2           484.375
       129   02 Jun 2027 02:54:32.248   02 Jun 2027 02:55:16.574            44.326                Norilsk          1385.187
       130   02 Jun 2027 02:57:24.466   02 Jun 2027 02:58:41.299            76.833              Murmansk2          2401.031
       131   02 Jun 2027 02:59:09.138   02 Jun 2027 02:59:13.372             4.234              Murmansk2           132.312
       132   02 Jun 2027 03:05:28.201   02 Jun 2027 03:06:51.704            83.503              Murmansk2          2609.469
       133   02 Jun 2027 03:07:18.081   02 Jun 2027 03:07:27.080             8.999              Murmansk2           281.219
       134   02 Jun 2027 03:08:28.812   02 Jun 2027 03:08:34.801             5.989              Murmansk1           187.156
       135   02 Jun 2027 03:08:57.402   02 Jun 2027 03:09:15.262            17.860              Murmansk2           558.125
       136   02 Jun 2027 03:25:00.793   02 Jun 2027 03:26:21.562            80.769               CapeTown          2524.031
       137   02 Jun 2027 04:21:26.751   02 Jun 2027 04:23:43.475           136.724               Magadan1          4272.625
       138   02 Jun 2027 04:28:04.334   02 Jun 2027 04:28:35.221            30.887               Magadan2           965.219
       139   02 Jun 2027 04:29:00.083   02 Jun 2027 04:29:40.609            40.526               Magadan2          1266.437
       140   02 Jun 2027 04:29:51.205   02 Jun 2027 04:30:36.848            45.643               Magadan1          1426.344
       141   02 Jun 2027 04:30:36.848   02 Jun 2027 04:30:49.756            12.908               Magadan2           403.375
       142   02 Jun 2027 04:30:58.492   02 Jun 2027 04:32:12.452            73.960                Anadyr2          2311.250
       143   02 Jun 2027 04:32:57.816   02 Jun 2027 04:33:10.242            12.426                Norilsk           388.313
       144   02 Jun 2027 06:05:00.651   02 Jun 2027 06:06:02.255            61.604                Irkutsk          1925.125
       145   02 Jun 2027 06:06:29.319   02 Jun 2027 06:07:02.586            33.267                Anadyr2          1039.594
       146   02 Jun 2027 06:07:31.475   02 Jun 2027 06:09:44.312           132.837               Magadan2          4151.156
       147   02 Jun 2027 06:10:03.703   02 Jun 2027 06:10:33.275            29.572              Murmansk1           924.125
       148   02 Jun 2027 06:10:41.055   02 Jun 2027 06:10:57.149            16.094              Murmansk2           502.937
       149   02 Jun 2027 06:45:48.462   02 Jun 2027 06:46:52.960            64.498            RioGallegos          2015.562
       150   02 Jun 2027 06:48:17.319   02 Jun 2027 06:48:52.842            35.523            RioGallegos          1110.094
       151   02 Jun 2027 07:40:05.924   02 Jun 2027 07:40:09.500             3.576                Novosib           111.750
       152   02 Jun 2027 07:40:23.590   02 Jun 2027 07:40:57.853            34.263               Magadan2          1070.719
       153   02 Jun 2027 07:40:57.853   02 Jun 2027 07:41:21.266            23.413               Magadan1           731.656
       154   02 Jun 2027 07:41:25.888   02 Jun 2027 07:42:06.419            40.531               Magadan2          1266.594
       155   02 Jun 2027 07:42:32.928   02 Jun 2027 07:44:04.222            91.294               Magadan2          2852.937
       156   02 Jun 2027 07:44:11.741   02 Jun 2027 07:44:16.694             4.953                Novosib           154.781
       157   02 Jun 2027 07:44:20.905   02 Jun 2027 07:44:56.366            35.461               Magadan1          1108.156
       158   02 Jun 2027 07:45:20.435   02 Jun 2027 07:45:38.555            18.120                Norilsk           566.250
       159   02 Jun 2027 07:46:07.770   02 Jun 2027 07:46:25.260            17.490              Murmansk1           546.563
       160   02 Jun 2027 07:46:39.963   02 Jun 2027 07:47:19.250            39.287              Murmansk2          1227.719
       161   02 Jun 2027 07:48:13.378   02 Jun 2027 07:48:18.741             5.363              Murmansk2           167.594
       162   02 Jun 2027 07:48:18.741   02 Jun 2027 07:48:45.913            27.172              Murmansk1           849.125
       163   02 Jun 2027 07:49:05.122   02 Jun 2027 07:49:43.518            38.396              Murmansk2          1199.875
       164   02 Jun 2027 07:49:43.518   02 Jun 2027 07:50:05.830            22.312              Murmansk1           697.250
       165   02 Jun 2027 08:20:09.218   02 Jun 2027 08:22:25.166           135.948            RioGallegos          4248.375
       166   02 Jun 2027 08:55:24.401   02 Jun 2027 08:59:03.040           218.639                Sumatra          6832.469
       167   02 Jun 2027 09:16:35.309   02 Jun 2027 09:16:39.837             4.528                Novosib           141.500
       168   02 Jun 2027 09:16:50.865   02 Jun 2027 09:17:08.851            17.986                Norilsk           562.062
       169   02 Jun 2027 09:17:25.630   02 Jun 2027 09:17:49.829            24.199                Novosib           756.219
       170   02 Jun 2027 09:18:01.684   02 Jun 2027 09:18:15.081            13.397                Novosib           418.656
       171   02 Jun 2027 09:18:18.742   02 Jun 2027 09:18:59.230            40.488                Novosib          1265.250
       172   02 Jun 2027 09:19:10.347   02 Jun 2027 09:19:43.273            32.926                Norilsk          1028.938
       173   02 Jun 2027 09:19:56.807   02 Jun 2027 09:21:09.610            72.803              Murmansk1          2275.094
       174   02 Jun 2027 09:24:37.520   02 Jun 2027 09:24:43.253             5.733              Murmansk1           179.156
       175   02 Jun 2027 09:58:19.939   02 Jun 2027 09:58:23.790             3.851            RioGallegos           120.344
       176   02 Jun 2027 09:58:35.587   02 Jun 2027 09:59:20.635            45.048            RioGallegos          1407.750
       177   02 Jun 2027 10:01:35.018   02 Jun 2027 10:02:28.354            53.336            RioGallegos          1666.750
       178   02 Jun 2027 10:40:13.901   02 Jun 2027 10:41:49.856            95.955                  Delhi          2998.594
       179   02 Jun 2027 10:53:18.098   02 Jun 2027 10:53:18.534             0.436                Norilsk            13.625
       180   02 Jun 2027 10:53:22.252   02 Jun 2027 10:53:39.282            17.030                 Moscow           532.188
       181   02 Jun 2027 10:53:47.381   02 Jun 2027 10:55:01.782            74.401                Novosib          2325.031
       182   02 Jun 2027 10:55:13.552   02 Jun 2027 10:55:39.724            26.172              Murmansk2           817.875
       183   02 Jun 2027 10:55:44.883   02 Jun 2027 10:55:54.527             9.644              Murmansk1           301.375
       184   02 Jun 2027 10:55:54.527   02 Jun 2027 10:56:18.668            24.141              Murmansk2           754.406
       185   02 Jun 2027 10:56:34.609   02 Jun 2027 10:56:41.644             7.035                Novosib           219.844
       186   02 Jun 2027 10:56:43.164   02 Jun 2027 10:56:43.351             0.187                Novosib             5.844
       187   02 Jun 2027 10:56:45.580   02 Jun 2027 10:57:11.139            25.559              Murmansk2           798.719
       188   02 Jun 2027 10:57:11.139   02 Jun 2027 10:58:01.785            50.646              Murmansk1          1582.687
       189   02 Jun 2027 12:18:06.554   02 Jun 2027 12:19:59.524           112.970                  Delhi          3530.312
       190   02 Jun 2027 12:24:36.473   02 Jun 2027 12:25:26.137            49.664                 Moscow          1552.000
       191   02 Jun 2027 12:25:58.804   02 Jun 2027 12:26:04.507             5.703                 Moscow           178.219
       192   02 Jun 2027 12:26:13.721   02 Jun 2027 12:26:49.484            35.763                 Moscow          1117.594
       193   02 Jun 2027 12:27:07.116   02 Jun 2027 12:29:43.846           156.730              Murmansk2          4897.812
       194   02 Jun 2027 13:40:01.717   02 Jun 2027 13:42:12.644           130.927               CapeTown          4091.469
       195   02 Jun 2027 13:45:18.243   02 Jun 2027 13:46:25.967            67.724               CapeTown          2116.375
       196   02 Jun 2027 14:00:10.085   02 Jun 2027 14:00:30.951            20.866                 Moscow           652.062
       197   02 Jun 2027 14:03:36.258   02 Jun 2027 14:06:25.024           168.766              Murmansk1          5273.938
       198   02 Jun 2027 14:06:32.466   02 Jun 2027 14:07:04.305            31.839              Murmansk1           994.969
       199   02 Jun 2027 14:18:36.570   02 Jun 2027 14:20:31.483           114.913                Anadyr1          3591.031
       200   02 Jun 2027 14:20:58.350   02 Jun 2027 14:22:16.771            78.421                Anadyr2          2450.656
       201   02 Jun 2027 14:24:04.604   02 Jun 2027 14:24:45.293            40.689                Anadyr2          1271.531
       202   02 Jun 2027 15:41:11.558   02 Jun 2027 15:41:31.283            19.725                 Moscow           616.406
       203   02 Jun 2027 15:42:07.532   02 Jun 2027 15:42:17.461             9.929              Murmansk2           310.281
       204   02 Jun 2027 15:42:17.599   02 Jun 2027 15:43:18.890            61.291              Murmansk1          1915.344
       205   02 Jun 2027 15:46:29.230   02 Jun 2027 15:47:00.287            31.057              Murmansk1           970.531
       206   02 Jun 2027 15:53:46.818   02 Jun 2027 15:55:55.804           128.986                Anadyr2          4030.813
       207   02 Jun 2027 15:56:03.368   02 Jun 2027 15:56:22.097            18.729                Anadyr2           585.281
       208   02 Jun 2027 15:58:44.477   02 Jun 2027 16:01:55.460           190.983               Magadan2          5968.219
       209   02 Jun 2027 17:25:00.683   02 Jun 2027 17:25:28.050            27.367              Murmansk2           855.219
       210   02 Jun 2027 17:29:38.238   02 Jun 2027 17:31:03.526            85.288                Anadyr1          2665.250
       211   02 Jun 2027 17:31:03.526   02 Jun 2027 17:31:05.465             1.939                Anadyr2            60.594
       212   02 Jun 2027 17:31:07.622   02 Jun 2027 17:31:13.069             5.447                Anadyr2           170.219
       213   02 Jun 2027 17:32:09.315   02 Jun 2027 17:34:35.850           146.535               Magadan2          4579.219
       214   02 Jun 2027 17:38:39.717   02 Jun 2027 17:38:45.564             5.847               Magadan1           182.719
       215   02 Jun 2027 17:39:50.141   02 Jun 2027 17:40:01.344            11.203               Magadan2           350.094
       216   02 Jun 2027 17:43:20.451   02 Jun 2027 17:43:32.275            11.824               Magadan1           369.500
       217   02 Jun 2027 19:05:32.497   02 Jun 2027 19:07:24.894           112.397                Anadyr1          3512.406
       218   02 Jun 2027 19:07:45.692   02 Jun 2027 19:09:27.314           101.622                Anadyr2          3175.687
       219   02 Jun 2027 19:09:38.624   02 Jun 2027 19:09:43.759             5.135               Magadan2           160.469
       220   02 Jun 2027 19:09:50.063   02 Jun 2027 19:11:36.173           106.110               Magadan1          3315.938
       221   02 Jun 2027 19:13:49.770   02 Jun 2027 19:14:23.977            34.207               Magadan2          1068.969
       222   02 Jun 2027 19:59:58.989   02 Jun 2027 20:03:35.855           216.866            RioGallegos          6777.063
       223   02 Jun 2027 20:42:38.094   02 Jun 2027 20:43:13.778            35.684                Anadyr2          1115.125
       224   02 Jun 2027 20:43:23.920   02 Jun 2027 20:43:40.559            16.639                Norilsk           519.969
       225   02 Jun 2027 20:43:52.854   02 Jun 2027 20:45:23.682            90.828                Norilsk          2838.375
       226   02 Jun 2027 20:45:39.877   02 Jun 2027 20:45:48.819             8.942               Magadan1           279.438
       227   02 Jun 2027 20:46:30.533   02 Jun 2027 20:47:07.611            37.078               Magadan1          1158.687
       228   02 Jun 2027 20:47:33.767   02 Jun 2027 20:47:53.624            19.857                Irkutsk           620.531
       229   02 Jun 2027 20:48:58.248   02 Jun 2027 20:49:56.122            57.874                Irkutsk          1808.562
       230   02 Jun 2027 20:50:05.848   02 Jun 2027 20:52:13.136           127.288                Novosib          3977.750
       231   02 Jun 2027 20:54:20.030   02 Jun 2027 20:54:58.822            38.792                Novosib          1212.250
       232   02 Jun 2027 21:01:18.021   02 Jun 2027 21:02:21.164            63.143                Sumatra          1973.219
       233   02 Jun 2027 21:03:39.212   02 Jun 2027 21:04:03.190            23.978                Sumatra           749.312
       234   02 Jun 2027 22:17:02.792   02 Jun 2027 22:17:23.923            21.131                Anadyr1           660.344
       235   02 Jun 2027 22:19:20.826   02 Jun 2027 22:19:42.797            21.971                Norilsk           686.594
       236   02 Jun 2027 22:19:58.212   02 Jun 2027 22:21:26.612            88.400               Magadan1          2762.500
       237   02 Jun 2027 22:22:01.652   02 Jun 2027 22:22:39.331            37.679                Norilsk          1177.469
       238   02 Jun 2027 22:23:12.796   02 Jun 2027 22:23:44.140            31.344                Irkutsk           979.500
       239   02 Jun 2027 22:23:58.724   02 Jun 2027 22:24:02.994             4.270                Irkutsk           133.437
       240   02 Jun 2027 22:24:49.455   02 Jun 2027 22:26:45.813           116.358                Novosib          3636.188
       241   02 Jun 2027 22:31:05.843   02 Jun 2027 22:32:50.561           104.718                  Delhi          3272.438
       242   02 Jun 2027 23:50:04.367   02 Jun 2027 23:50:34.277            29.910                Anadyr1           934.687
       243   02 Jun 2027 23:51:32.126   02 Jun 2027 23:52:27.266            55.140                Anadyr1          1723.125
       244   02 Jun 2027 23:55:19.853   02 Jun 2027 23:57:09.376           109.523                Norilsk          3422.594
       245   02 Jun 2027 23:57:15.181   02 Jun 2027 23:57:43.384            28.203               Magadan2           881.344
       246   02 Jun 2027 23:58:46.898   03 Jun 2027 00:00:11.863            84.965              Murmansk1          2655.156
       247   03 Jun 2027 00:01:03.328   03 Jun 2027 00:01:56.741            53.413              Murmansk1          1669.156
       248   03 Jun 2027 00:02:28.971   03 Jun 2027 00:03:34.189            65.218                 Moscow          2038.063
       249   03 Jun 2027 00:05:20.041   03 Jun 2027 00:05:50.068            30.027                 Moscow           938.344
       250   03 Jun 2027 00:06:10.403   03 Jun 2027 00:07:08.375            57.972                 Moscow          1811.625
       251   03 Jun 2027 01:22:48.043   03 Jun 2027 01:22:55.234             7.191                Anadyr2           224.719
       252   03 Jun 2027 01:24:07.680   03 Jun 2027 01:25:09.767            62.087                Anadyr1          1940.219
       253   03 Jun 2027 01:25:29.264   03 Jun 2027 01:25:46.443            17.179                Anadyr1           536.844
       254   03 Jun 2027 01:27:50.117   03 Jun 2027 01:30:29.253           159.136               Magadan2          4973.000
       255   03 Jun 2027 01:33:27.823   03 Jun 2027 01:33:58.930            31.107              Murmansk1           972.094
       256   03 Jun 2027 01:34:05.077   03 Jun 2027 01:35:07.118            62.041              Murmansk2          1938.781
       257   03 Jun 2027 01:35:15.334   03 Jun 2027 01:35:19.759             4.425              Murmansk2           138.281
       258   03 Jun 2027 01:35:28.322   03 Jun 2027 01:36:09.882            41.560              Murmansk1          1298.750
       259   03 Jun 2027 01:36:49.026   03 Jun 2027 01:37:17.698            28.672                 Moscow           896.000
       260   03 Jun 2027 01:39:07.016   03 Jun 2027 01:39:23.930            16.914                 Moscow           528.562
       261   03 Jun 2027 01:42:52.651   03 Jun 2027 01:43:38.329            45.678                 Moscow          1427.438
       262   03 Jun 2027 02:01:06.153   03 Jun 2027 02:02:14.491            68.338               CapeTown          2135.563
       263   03 Jun 2027 02:57:22.610   03 Jun 2027 02:59:43.681           141.071                Anadyr2          4408.469
       264   03 Jun 2027 02:59:43.681   03 Jun 2027 03:00:00.180            16.499                Anadyr1           515.594
       265   03 Jun 2027 03:04:36.506   03 Jun 2027 03:06:18.456           101.950                Anadyr1          3185.938
       266   03 Jun 2027 03:06:18.456   03 Jun 2027 03:06:20.386             1.930                Anadyr2            60.312
       267   03 Jun 2027 03:06:28.580   03 Jun 2027 03:06:34.487             5.907               Magadan1           184.594
       268   03 Jun 2027 03:06:52.040   03 Jun 2027 03:06:55.701             3.661                Anadyr2           114.406
       269   03 Jun 2027 03:07:30.638   03 Jun 2027 03:08:19.404            48.766                Anadyr1          1523.937
       270   03 Jun 2027 03:08:20.473   03 Jun 2027 03:08:27.922             7.449               Magadan1           232.781
       271   03 Jun 2027 03:09:13.415   03 Jun 2027 03:10:14.910            61.495                Anadyr1          1921.719
       272   03 Jun 2027 03:19:50.153   03 Jun 2027 03:19:53.144             2.991              Murmansk2            93.469
       273   03 Jun 2027 03:21:29.391   03 Jun 2027 03:22:23.335            53.944              Murmansk1          1685.750
       274   03 Jun 2027 04:39:56.423   03 Jun 2027 04:41:53.896           117.473               Magadan1          3671.031
       275   03 Jun 2027 04:42:15.845   03 Jun 2027 04:44:39.489           143.644                Anadyr2          4488.875
       276   03 Jun 2027 04:45:23.515   03 Jun 2027 04:45:36.513            12.998               Magadan1           406.188
       277   03 Jun 2027 05:26:39.141   03 Jun 2027 05:27:40.442            61.301            RioGallegos          1915.656
       278   03 Jun 2027 06:15:38.321   03 Jun 2027 06:15:45.088             6.767                Norilsk           211.469
       279   03 Jun 2027 06:15:47.314   03 Jun 2027 06:18:05.519           138.205                Irkutsk          4318.906
       280   03 Jun 2027 06:18:30.986   03 Jun 2027 06:19:06.155            35.169                Anadyr2          1099.031
       281   03 Jun 2027 06:19:11.549   03 Jun 2027 06:20:05.764            54.215                Anadyr1          1694.219
       282   03 Jun 2027 06:23:02.958   03 Jun 2027 06:23:22.940            19.982              Murmansk2           624.438
       283   03 Jun 2027 06:57:26.599   03 Jun 2027 06:58:28.866            62.267            RioGallegos          1945.844
       284   03 Jun 2027 07:03:25.711   03 Jun 2027 07:03:41.621            15.910            RioGallegos           497.188
       285   03 Jun 2027 07:50:21.259   03 Jun 2027 07:50:48.633            27.374               Magadan1           855.437
       286   03 Jun 2027 07:51:13.359   03 Jun 2027 07:51:24.087            10.728                Irkutsk           335.250
       287   03 Jun 2027 07:51:24.818   03 Jun 2027 07:51:37.167            12.349                Norilsk           385.906
       288   03 Jun 2027 07:51:47.070   03 Jun 2027 07:52:09.130            22.060                Novosib           689.375
       289   03 Jun 2027 07:52:12.457   03 Jun 2027 07:52:55.595            43.138               Magadan2          1348.062
       290   03 Jun 2027 07:53:11.830   03 Jun 2027 07:53:19.771             7.941               Magadan2           248.156
       291   03 Jun 2027 07:53:22.345   03 Jun 2027 07:53:23.262             0.917                Novosib            28.656
       292   03 Jun 2027 07:53:25.759   03 Jun 2027 07:54:34.412            68.653                Irkutsk          2145.406
       293   03 Jun 2027 07:54:38.369   03 Jun 2027 07:55:39.721            61.352               Magadan1          1917.250
       294   03 Jun 2027 07:55:52.342   03 Jun 2027 07:56:34.981            42.639              Murmansk1          1332.469
       295   03 Jun 2027 07:56:41.454   03 Jun 2027 07:57:28.421            46.967              Murmansk2          1467.719
       296   03 Jun 2027 07:57:38.745   03 Jun 2027 07:57:39.893             1.148                Norilsk            35.875
       297   03 Jun 2027 07:58:02.042   03 Jun 2027 07:58:07.647             5.605              Murmansk2           175.156
       298   03 Jun 2027 07:58:33.963   03 Jun 2027 07:59:07.783            33.820              Murmansk1          1056.875
       299   03 Jun 2027 08:32:13.276   03 Jun 2027 08:33:19.758            66.482            RioGallegos          2077.563
       300   03 Jun 2027 09:07:13.176   03 Jun 2027 09:08:12.949            59.773                Sumatra          1867.906
       301   03 Jun 2027 09:18:34.453   03 Jun 2027 09:20:36.635           122.182                  Delhi          3818.187
       302   03 Jun 2027 09:27:39.973   03 Jun 2027 09:27:49.706             9.733                Irkutsk           304.156
       303   03 Jun 2027 09:28:25.017   03 Jun 2027 09:28:33.403             8.386                Irkutsk           262.063
       304   03 Jun 2027 09:28:48.223   03 Jun 2027 09:28:55.026             6.803                Novosib           212.594
       305   03 Jun 2027 09:29:02.558   03 Jun 2027 09:30:18.854            76.296                Novosib          2384.250
       306   03 Jun 2027 09:30:41.630   03 Jun 2027 09:31:06.052            24.422                Irkutsk           763.188
       307   03 Jun 2027 09:31:11.547   03 Jun 2027 09:31:24.696            13.149                Norilsk           410.906
       308   03 Jun 2027 09:31:31.911   03 Jun 2027 09:32:03.179            31.268                Irkutsk           977.125
       309   03 Jun 2027 09:32:07.332   03 Jun 2027 09:32:23.810            16.478              Murmansk1           514.938
       310   03 Jun 2027 09:32:46.631   03 Jun 2027 09:33:23.548            36.917                Novosib          1153.656
       311   03 Jun 2027 09:35:51.113   03 Jun 2027 09:35:54.266             3.153                Norilsk            98.531
       312   03 Jun 2027 09:36:11.443   03 Jun 2027 09:36:26.356            14.913              Murmansk1           466.031
       313   03 Jun 2027 10:11:03.635   03 Jun 2027 10:12:01.491            57.856            RioGallegos          1808.000
       314   03 Jun 2027 10:14:54.296   03 Jun 2027 10:15:17.069            22.773            RioGallegos           711.656
       315   03 Jun 2027 10:45:31.353   03 Jun 2027 10:47:04.719            93.366                Sumatra          2917.687
       316   03 Jun 2027 11:05:14.309   03 Jun 2027 11:05:15.077             0.768                Novosib            24.000
       317   03 Jun 2027 11:05:16.335   03 Jun 2027 11:06:18.090            61.755              Murmansk2          1929.844
       318   03 Jun 2027 11:06:21.702   03 Jun 2027 11:07:01.655            39.953                Irkutsk          1248.531
       319   03 Jun 2027 11:07:10.099   03 Jun 2027 11:08:21.540            71.441                Novosib          2232.531
       320   03 Jun 2027 11:08:28.152   03 Jun 2027 11:08:32.514             4.362                Novosib           136.312
       321   03 Jun 2027 11:08:41.661   03 Jun 2027 11:09:04.140            22.479                 Moscow           702.469
       322   03 Jun 2027 11:09:12.343   03 Jun 2027 11:09:41.383            29.040              Murmansk2           907.500
       323   03 Jun 2027 11:10:01.092   03 Jun 2027 11:11:02.725            61.633                 Moscow          1926.031
       324   03 Jun 2027 12:31:41.080   03 Jun 2027 12:33:57.436           136.356                  Delhi          4261.125
       325   03 Jun 2027 12:37:26.014   03 Jun 2027 12:38:29.609            63.595                 Moscow          1987.344
       326   03 Jun 2027 12:39:07.134   03 Jun 2027 12:39:52.583            45.449              Murmansk2          1420.281
       327   03 Jun 2027 12:39:52.583   03 Jun 2027 12:40:15.986            23.403              Murmansk1           731.344
       328   03 Jun 2027 12:40:35.893   03 Jun 2027 12:41:38.046            62.153              Murmansk2          1942.281
       329   03 Jun 2027 13:51:09.481   03 Jun 2027 13:53:52.666           163.185               CapeTown          5099.531
       330   03 Jun 2027 13:56:20.455   03 Jun 2027 13:57:23.483            63.028               CapeTown          1969.625
       331   03 Jun 2027 13:58:12.642   03 Jun 2027 13:58:54.818            42.176               CapeTown          1318.000
       332   03 Jun 2027 14:15:49.673   03 Jun 2027 14:16:27.788            38.115              Murmansk1          1191.094
       333   03 Jun 2027 14:16:27.788   03 Jun 2027 14:16:54.310            26.522              Murmansk2           828.812
       334   03 Jun 2027 14:17:08.450   03 Jun 2027 14:17:16.712             8.262              Murmansk2           258.188
       335   03 Jun 2027 14:18:26.697   03 Jun 2027 14:19:01.155            34.458              Murmansk1          1076.812
       336   03 Jun 2027 14:30:25.890   03 Jun 2027 14:32:31.137           125.247                Anadyr2          3913.969
       337   03 Jun 2027 14:32:43.102   03 Jun 2027 14:34:05.446            82.344                Anadyr1          2573.250
       338   03 Jun 2027 14:36:03.878   03 Jun 2027 14:36:46.004            42.126                Anadyr2          1316.437
       339   03 Jun 2027 15:54:39.411   03 Jun 2027 15:54:53.384            13.973              Murmansk1           436.656
       340   03 Jun 2027 15:54:53.384   03 Jun 2027 15:56:13.403            80.019              Murmansk2          2500.594
       341   03 Jun 2027 15:58:05.112   03 Jun 2027 15:58:16.275            11.163              Murmansk1           348.844
       342   03 Jun 2027 15:59:00.366   03 Jun 2027 15:59:56.102            55.736              Murmansk2          1741.750
       343   03 Jun 2027 16:05:46.705   03 Jun 2027 16:07:08.939            82.234                Anadyr1          2569.812
       344   03 Jun 2027 16:07:28.126   03 Jun 2027 16:08:13.807            45.681                Anadyr2          1427.531
       345   03 Jun 2027 16:09:52.628   03 Jun 2027 16:12:51.414           178.786               Magadan2          5587.062
       346   03 Jun 2027 16:13:03.155   03 Jun 2027 16:14:13.010            69.855               Magadan1          2182.969
       347   03 Jun 2027 17:41:39.679   03 Jun 2027 17:43:10.962            91.283                Anadyr1          2852.594
       348   03 Jun 2027 17:43:30.478   03 Jun 2027 17:43:44.188            13.710                Anadyr1           428.438
       349   03 Jun 2027 17:44:06.322   03 Jun 2027 17:45:29.308            82.986               Magadan2          2593.313
       350   03 Jun 2027 17:45:31.752   03 Jun 2027 17:45:38.318             6.566               Magadan2           205.187
       351   03 Jun 2027 17:45:46.416   03 Jun 2027 17:46:06.113            19.697               Magadan2           615.531
       352   03 Jun 2027 17:49:53.944   03 Jun 2027 17:49:55.883             1.939               Magadan1            60.594
       353   03 Jun 2027 17:51:15.214   03 Jun 2027 17:51:42.256            27.042               Magadan1           845.063
       354   03 Jun 2027 19:17:32.890   03 Jun 2027 19:19:26.242           113.352                Anadyr1          3542.250
       355   03 Jun 2027 19:19:35.470   03 Jun 2027 19:21:27.636           112.166                Anadyr2          3505.187
       356   03 Jun 2027 19:21:52.376   03 Jun 2027 19:23:50.358           117.982               Magadan1          3686.937
       357   03 Jun 2027 19:26:19.480   03 Jun 2027 19:30:28.981           249.501                Irkutsk          7796.906
       358   03 Jun 2027 20:13:01.638   03 Jun 2027 20:13:25.558            23.920            RioGallegos           747.500
       359   03 Jun 2027 20:14:01.357   03 Jun 2027 20:14:56.476            55.119            RioGallegos          1722.469
       360   03 Jun 2027 20:55:24.629   03 Jun 2027 20:57:21.434           116.805                Norilsk          3650.156
       361   03 Jun 2027 20:59:28.898   03 Jun 2027 21:01:03.555            94.657                Irkutsk          2958.031
       362   03 Jun 2027 21:01:32.386   03 Jun 2027 21:02:02.901            30.515                Novosib           953.594
       363   03 Jun 2027 21:02:41.159   03 Jun 2027 21:03:57.714            76.555                Novosib          2392.344
       364   03 Jun 2027 21:05:52.300   03 Jun 2027 21:07:38.246           105.946                Novosib          3310.812
       365   03 Jun 2027 21:13:09.798   03 Jun 2027 21:14:02.978            53.180                Sumatra          1661.875
       366   03 Jun 2027 22:31:22.825   03 Jun 2027 22:31:30.611             7.786                Norilsk           243.312
       367   03 Jun 2027 22:31:59.837   03 Jun 2027 22:33:18.882            79.045               Magadan1          2470.156
       368   03 Jun 2027 22:35:14.278   03 Jun 2027 22:35:23.650             9.372                Norilsk           292.875
       369   03 Jun 2027 22:36:14.143   03 Jun 2027 22:37:01.144            47.001                Irkutsk          1468.781
       370   03 Jun 2027 22:37:13.125   03 Jun 2027 22:38:21.820            68.695                Novosib          2146.719
       371   03 Jun 2027 22:42:52.141   03 Jun 2027 22:45:14.898           142.757                  Delhi          4461.156
       372   03 Jun 2027 22:51:25.166   03 Jun 2027 22:53:34.402           129.236                  Delhi          4038.625
       373   04 Jun 2027 00:07:11.551   04 Jun 2027 00:08:04.856            53.305               Magadan2          1665.781
       374   04 Jun 2027 00:08:27.287   04 Jun 2027 00:08:48.106            20.819               Magadan1           650.594
       375   04 Jun 2027 00:09:40.071   04 Jun 2027 00:13:08.588           208.517              Murmansk2          6516.156
       376   04 Jun 2027 00:13:45.854   04 Jun 2027 00:14:08.590            22.736              Murmansk2           710.500
       377   04 Jun 2027 00:14:24.232   04 Jun 2027 00:15:13.015            48.783                 Moscow          1524.469
       378   04 Jun 2027 00:18:25.023   04 Jun 2027 00:18:59.907            34.884                 Moscow          1090.125
       379   04 Jun 2027 00:43:14.365   04 Jun 2027 00:44:40.201            85.836               CapeTown          2682.375
       380   04 Jun 2027 01:34:34.320   04 Jun 2027 01:34:50.776            16.456                Anadyr2           514.250
       381   04 Jun 2027 01:35:28.291   04 Jun 2027 01:36:05.520            37.229                Anadyr1          1163.406
       382   04 Jun 2027 01:36:45.708   04 Jun 2027 01:36:47.601             1.893                Anadyr1            59.156
       383   04 Jun 2027 01:36:51.999   04 Jun 2027 01:37:13.771            21.772                Anadyr1           680.375
       384   04 Jun 2027 01:37:54.995   04 Jun 2027 01:38:30.501            35.506                Anadyr1          1109.562
       385   04 Jun 2027 01:39:18.058   04 Jun 2027 01:40:37.742            79.684               Magadan1          2490.125
       386   04 Jun 2027 01:42:28.976   04 Jun 2027 01:42:43.854            14.878               Magadan2           464.938
       387   04 Jun 2027 01:43:07.571   04 Jun 2027 01:43:17.002             9.431               Magadan2           294.719
       388   04 Jun 2027 01:43:22.202   04 Jun 2027 01:43:22.797             0.595                Norilsk            18.594
       389   04 Jun 2027 01:45:29.370   04 Jun 2027 01:45:53.645            24.275              Murmansk2           758.594
       390   04 Jun 2027 01:45:58.773   04 Jun 2027 01:46:36.583            37.810              Murmansk1          1181.562
       391   04 Jun 2027 01:47:14.262   04 Jun 2027 01:47:20.373             6.111              Murmansk1           190.969
       392   04 Jun 2027 01:47:38.434   04 Jun 2027 01:49:05.329            86.895                Novosib          2715.469
       393   04 Jun 2027 01:54:16.135   04 Jun 2027 01:54:19.040             2.905                 Moscow            90.781
       394   04 Jun 2027 01:55:53.651   04 Jun 2027 01:56:00.602             6.951                 Moscow           217.219
       395   04 Jun 2027 01:56:21.378   04 Jun 2027 01:57:01.866            40.488                 Moscow          1265.250
       396   04 Jun 2027 02:12:52.264   04 Jun 2027 02:13:03.013            10.749               CapeTown           335.906
       397   04 Jun 2027 02:14:50.483   04 Jun 2027 02:15:42.759            52.276               CapeTown          1633.625
       398   04 Jun 2027 02:20:18.379   04 Jun 2027 02:21:03.478            45.099               CapeTown          1409.344
       399   04 Jun 2027 03:16:40.037   04 Jun 2027 03:17:34.939            54.902                Anadyr1          1715.687
       400   04 Jun 2027 03:19:29.498   04 Jun 2027 03:20:20.227            50.729                Anadyr2          1585.281
       401   04 Jun 2027 03:20:35.483   04 Jun 2027 03:20:37.637             2.154               Magadan1            67.312
       402   04 Jun 2027 03:20:53.726   04 Jun 2027 03:21:26.239            32.513               Magadan2          1016.031
       403   04 Jun 2027 03:21:26.239   04 Jun 2027 03:21:47.997            21.758               Magadan1           679.937
       404   04 Jun 2027 04:52:29.955   04 Jun 2027 04:52:55.684            25.729                Anadyr2           804.031
       405   04 Jun 2027 04:53:56.468   04 Jun 2027 04:54:00.191             3.723               Magadan1           116.344
       406   04 Jun 2027 04:54:08.762   04 Jun 2027 04:58:08.242           239.480                Anadyr1          7483.750
       407   04 Jun 2027 05:00:15.092   04 Jun 2027 05:00:40.786            25.694                Norilsk           802.937
       408   04 Jun 2027 05:01:12.087   04 Jun 2027 05:01:34.641            22.554                Norilsk           704.813
       409   04 Jun 2027 05:43:14.181   04 Jun 2027 05:43:42.316            28.135            RioGallegos           879.219
       410   04 Jun 2027 06:25:41.750   04 Jun 2027 06:26:46.659            64.909                Anadyr2          2028.406
       411   04 Jun 2027 06:27:10.604   04 Jun 2027 06:28:42.215            91.611                Anadyr2          2862.844
       412   04 Jun 2027 06:29:14.647   04 Jun 2027 06:29:50.998            36.351                Anadyr2          1135.969
       413   04 Jun 2027 06:29:53.520   04 Jun 2027 06:30:07.573            14.053               Magadan1           439.156
       414   04 Jun 2027 06:30:12.642   04 Jun 2027 06:30:32.541            19.899                Anadyr1           621.844
       415   04 Jun 2027 06:31:07.535   04 Jun 2027 06:31:11.721             4.186               Magadan1           130.812
       416   04 Jun 2027 06:31:17.113   04 Jun 2027 06:31:34.632            17.519               Magadan1           547.469
       417   04 Jun 2027 06:31:45.165   04 Jun 2027 06:31:52.866             7.701               Magadan2           240.656
       418   04 Jun 2027 06:31:52.866   04 Jun 2027 06:32:02.667             9.801               Magadan1           306.281
       419   04 Jun 2027 06:32:05.290   04 Jun 2027 06:33:02.717            57.427                Anadyr2          1794.594
       420   04 Jun 2027 06:33:24.249   04 Jun 2027 06:34:14.288            50.039              Murmansk1          1563.719
       421   04 Jun 2027 06:35:12.190   04 Jun 2027 06:35:33.444            21.254              Murmansk2           664.187
       422   04 Jun 2027 06:43:12.370   04 Jun 2027 06:43:39.865            27.495              Murmansk2           859.219
       423   04 Jun 2027 07:10:02.337   04 Jun 2027 07:10:33.834            31.497            RioGallegos           984.281
       424   04 Jun 2027 07:11:52.978   04 Jun 2027 07:12:29.887            36.909            RioGallegos          1153.406
       425   04 Jun 2027 08:02:50.731   04 Jun 2027 08:03:59.377            68.646               Magadan2          2145.187
       426   04 Jun 2027 08:04:14.302   04 Jun 2027 08:05:16.280            61.978                Irkutsk          1936.813
       427   04 Jun 2027 08:05:20.731   04 Jun 2027 08:05:44.687            23.956                Novosib           748.625
       428   04 Jun 2027 08:06:09.953   04 Jun 2027 08:06:46.489            36.536               Magadan2          1141.750
       429   04 Jun 2027 08:07:24.448   04 Jun 2027 08:07:37.242            12.794              Murmansk2           399.812
       430   04 Jun 2027 08:07:37.665   04 Jun 2027 08:07:46.369             8.704               Magadan1           272.000
       431   04 Jun 2027 08:07:55.492   04 Jun 2027 08:08:24.473            28.981              Murmansk1           905.656
       432   04 Jun 2027 08:08:39.731   04 Jun 2027 08:09:01.464            21.733              Murmansk1           679.156
       433   04 Jun 2027 08:09:13.413   04 Jun 2027 08:09:40.308            26.895                Norilsk           840.469
       434   04 Jun 2027 08:12:33.394   04 Jun 2027 08:12:45.004            11.610              Murmansk2           362.812
       435   04 Jun 2027 08:15:38.787   04 Jun 2027 08:16:25.207            46.420              Murmansk2          1450.625
       436   04 Jun 2027 08:45:25.394   04 Jun 2027 08:46:08.890            43.496            RioGallegos          1359.250
       437   04 Jun 2027 09:19:07.845   04 Jun 2027 09:19:51.080            43.235                Sumatra          1351.094
       438   04 Jun 2027 09:21:47.076   04 Jun 2027 09:22:11.881            24.805                Sumatra           775.156
       439   04 Jun 2027 09:29:42.818   04 Jun 2027 09:30:53.200            70.382                  Delhi          2199.438
       440   04 Jun 2027 09:39:25.801   04 Jun 2027 09:39:44.763            18.962                Irkutsk           592.562
       441   04 Jun 2027 09:39:56.010   04 Jun 2027 09:40:27.289            31.279                Novosib           977.469
       442   04 Jun 2027 09:41:28.387   04 Jun 2027 09:42:32.296            63.909                Novosib          1997.156
       443   04 Jun 2027 09:42:35.965   04 Jun 2027 09:43:11.168            35.203              Murmansk2          1100.094
       444   04 Jun 2027 09:43:14.169   04 Jun 2027 09:43:22.585             8.416                Norilsk           263.000
       445   04 Jun 2027 09:43:34.829   04 Jun 2027 09:44:04.822            29.993                Irkutsk           937.281
       446   04 Jun 2027 09:44:13.927   04 Jun 2027 09:44:58.614            44.687                Irkutsk          1396.469
       447   04 Jun 2027 09:45:00.102   04 Jun 2027 09:45:13.817            13.715              Murmansk1           428.594
       448   04 Jun 2027 09:45:23.388   04 Jun 2027 09:45:32.538             9.150              Murmansk1           285.938
       449   04 Jun 2027 09:45:37.367   04 Jun 2027 09:46:33.780            56.413                Norilsk          1762.906
       450   04 Jun 2027 10:23:58.360   04 Jun 2027 10:24:54.537            56.177            RioGallegos          1755.531
       451   04 Jun 2027 10:59:18.159   04 Jun 2027 11:00:20.425            62.266                Sumatra          1945.813
       452   04 Jun 2027 11:03:21.279   04 Jun 2027 11:03:32.136            10.857                  Delhi           339.281
       453   04 Jun 2027 11:05:25.266   04 Jun 2027 11:05:36.736            11.470                  Delhi           358.437
       454   04 Jun 2027 11:17:26.509   04 Jun 2027 11:18:27.737            61.228              Murmansk2          1913.375
       455   04 Jun 2027 11:18:38.955   04 Jun 2027 11:18:51.248            12.293              Murmansk2           384.156
       456   04 Jun 2027 11:18:54.147   04 Jun 2027 11:19:36.350            42.203                 Moscow          1318.844
       457   04 Jun 2027 11:19:56.308   04 Jun 2027 11:20:21.990            25.682              Murmansk2           802.563
       458   04 Jun 2027 11:20:28.128   04 Jun 2027 11:20:55.158            27.030                Novosib           844.688
       459   04 Jun 2027 11:20:58.330   04 Jun 2027 11:21:37.668            39.338                 Moscow          1229.313
       460   04 Jun 2027 12:47:44.369   04 Jun 2027 12:50:33.290           168.921                 Moscow          5278.781
       461   04 Jun 2027 12:51:00.852   04 Jun 2027 12:51:28.072            27.220                 Moscow           850.625
       462   04 Jun 2027 12:51:53.720   04 Jun 2027 12:54:52.714           178.994              Murmansk2          5593.562
       463   04 Jun 2027 12:56:15.631   04 Jun 2027 12:57:07.929            52.298              Murmansk2          1634.313
       464   04 Jun 2027 14:02:34.758   04 Jun 2027 14:03:53.207            78.449               CapeTown          2451.531
       465   04 Jun 2027 14:04:03.709   04 Jun 2027 14:04:17.162            13.453               CapeTown           420.406
       466   04 Jun 2027 14:05:15.612   04 Jun 2027 14:05:38.178            22.566               CapeTown           705.188
       467   04 Jun 2027 14:07:43.887   04 Jun 2027 14:08:31.705            47.818               CapeTown          1494.312
       468   04 Jun 2027 14:09:19.490   04 Jun 2027 14:09:30.860            11.370               CapeTown           355.312
       469   04 Jun 2027 14:28:05.051   04 Jun 2027 14:30:28.273           143.222              Murmansk2          4475.688
       470   04 Jun 2027 14:30:34.849   04 Jun 2027 14:30:58.623            23.774              Murmansk2           742.938
       471   04 Jun 2027 14:38:05.351   04 Jun 2027 14:38:21.667            16.316              Murmansk2           509.875
       472   04 Jun 2027 14:38:29.136   04 Jun 2027 14:38:31.806             2.670              Murmansk2            83.438
       473   04 Jun 2027 14:42:18.203   04 Jun 2027 14:44:31.207           133.004                Anadyr2          4156.375
       474   04 Jun 2027 14:47:08.744   04 Jun 2027 14:47:52.188            43.444                Anadyr1          1357.625
       475   04 Jun 2027 15:37:15.864   04 Jun 2027 15:39:04.471           108.607               CapeTown          3393.969
       476   04 Jun 2027 16:07:14.349   04 Jun 2027 16:07:50.647            36.298              Murmansk2          1134.313
       477   04 Jun 2027 16:08:14.293   04 Jun 2027 16:09:23.667            69.374              Murmansk1          2167.938
       478   04 Jun 2027 16:17:46.988   04 Jun 2027 16:20:01.230           134.242                Anadyr2          4195.062
       479   04 Jun 2027 16:21:24.300   04 Jun 2027 16:24:40.342           196.042               Magadan1          6126.313
       480   04 Jun 2027 17:53:41.116   04 Jun 2027 17:56:20.181           159.065                Anadyr2          4970.781
       481   04 Jun 2027 17:56:58.069   04 Jun 2027 17:57:36.194            38.125                Anadyr2          1191.406
       482   04 Jun 2027 17:57:39.978   04 Jun 2027 17:58:17.081            37.103               Magadan2          1159.469
