uniorb/output/strategy_2/Drop/Drop_KinoSat_111604.txt

KinoSat_111604
-------------------------
    Access    *     Start Time (UTCG)     *     Stop Time (UTCG)  *   Duration (s)        *       Station  *  Data (Mbytes)
         1   01 Jun 2027 03:26:23.608   01 Jun 2027 03:26:32.143             8.535                Irkutsk           266.719
         2   01 Jun 2027 03:26:57.135   01 Jun 2027 03:27:05.393             8.258                Norilsk           258.062
         3   01 Jun 2027 03:27:07.224   01 Jun 2027 03:27:35.970            28.746              Murmansk2           898.312
         4   01 Jun 2027 03:28:45.893   01 Jun 2027 03:29:41.953            56.060              Murmansk2          1751.875
         5   01 Jun 2027 03:29:44.216   01 Jun 2027 03:29:56.053            11.837                 Moscow           369.906
         6   01 Jun 2027 03:30:09.461   01 Jun 2027 03:31:07.748            58.287              Murmansk1          1821.469
         7   01 Jun 2027 03:31:10.177   01 Jun 2027 03:32:06.175            55.998                 Moscow          1749.937
         8   01 Jun 2027 03:34:18.927   01 Jun 2027 03:34:48.836            29.909                 Moscow           934.656
         9   01 Jun 2027 03:49:36.084   01 Jun 2027 03:52:00.543           144.459               CapeTown          4514.344
        10   01 Jun 2027 04:47:06.286   01 Jun 2027 04:47:18.315            12.029                Anadyr2           375.906
        11   01 Jun 2027 05:02:32.928   01 Jun 2027 05:02:36.806             3.878                Norilsk           121.188
        12   01 Jun 2027 05:02:49.374   01 Jun 2027 05:02:56.670             7.296                Novosib           228.000
        13   01 Jun 2027 05:02:59.051   01 Jun 2027 05:03:51.511            52.460                Norilsk          1639.375
        14   01 Jun 2027 05:04:01.753   01 Jun 2027 05:04:22.344            20.591                Norilsk           643.469
        15   01 Jun 2027 05:06:13.351   01 Jun 2027 05:06:18.025             4.674                 Moscow           146.062
        16   01 Jun 2027 05:06:51.453   01 Jun 2027 05:08:52.352           120.899                 Moscow          3778.094
        17   01 Jun 2027 05:09:04.734   01 Jun 2027 05:09:08.480             3.746                 Moscow           117.063
        18   01 Jun 2027 05:09:28.886   01 Jun 2027 05:09:36.043             7.157                 Moscow           223.656
        19   01 Jun 2027 05:10:43.715   01 Jun 2027 05:12:10.513            86.798                 Moscow          2712.437
        20   01 Jun 2027 05:25:37.985   01 Jun 2027 05:26:22.522            44.537               CapeTown          1391.781
        21   01 Jun 2027 05:26:31.272   01 Jun 2027 05:27:18.968            47.696               CapeTown          1490.500
        22   01 Jun 2027 05:28:40.087   01 Jun 2027 05:29:35.071            54.984               CapeTown          1718.250
        23   01 Jun 2027 05:31:58.136   01 Jun 2027 05:33:02.940            64.804               CapeTown          2025.125
        24   01 Jun 2027 05:33:35.501   01 Jun 2027 05:35:02.067            86.566               CapeTown          2705.188
        25   01 Jun 2027 06:26:11.475   01 Jun 2027 06:29:04.094           172.619                Anadyr2          5394.344
        26   01 Jun 2027 06:29:04.094   01 Jun 2027 06:30:41.400            97.306                Anadyr1          3040.813
        27   01 Jun 2027 06:32:37.375   01 Jun 2027 06:32:50.048            12.673                Anadyr1           396.031
        28   01 Jun 2027 08:04:48.673   01 Jun 2027 08:05:14.135            25.462                Irkutsk           795.687
        29   01 Jun 2027 08:05:34.339   01 Jun 2027 08:05:42.511             8.172                Norilsk           255.375
        30   01 Jun 2027 08:06:04.357   01 Jun 2027 08:08:34.856           150.499                Anadyr2          4703.094
        31   01 Jun 2027 09:34:49.445   01 Jun 2027 09:35:18.157            28.712               Magadan1           897.250
        32   01 Jun 2027 09:36:46.386   01 Jun 2027 09:37:50.736            64.350               Magadan1          2010.937
        33   01 Jun 2027 09:38:00.161   01 Jun 2027 09:39:20.672            80.511               Magadan2          2515.969
        34   01 Jun 2027 09:39:35.020   01 Jun 2027 09:42:32.443           177.423                Anadyr1          5544.469
        35   01 Jun 2027 09:43:35.876   01 Jun 2027 09:44:02.923            27.047               Magadan1           845.219
        36   01 Jun 2027 11:14:55.497   01 Jun 2027 11:15:57.395            61.898                Irkutsk          1934.313
        37   01 Jun 2027 11:16:09.633   01 Jun 2027 11:17:12.389            62.756                Norilsk          1961.125
        38   01 Jun 2027 11:17:17.112   01 Jun 2027 11:19:19.824           122.712              Murmansk2          3834.750
        39   01 Jun 2027 11:19:19.824   01 Jun 2027 11:20:09.662            49.838              Murmansk1          1557.437
        40   01 Jun 2027 11:55:40.938   01 Jun 2027 11:56:50.959            70.021            RioGallegos          2188.156
        41   01 Jun 2027 11:57:24.401   01 Jun 2027 11:57:45.861            21.460            RioGallegos           670.625
        42   01 Jun 2027 11:58:47.888   01 Jun 2027 12:00:03.784            75.896            RioGallegos          2371.750
        43   01 Jun 2027 12:29:59.468   01 Jun 2027 12:30:15.646            16.178                Sumatra           505.563
        44   01 Jun 2027 12:31:47.052   01 Jun 2027 12:34:44.122           177.070                Sumatra          5533.437
        45   01 Jun 2027 12:45:01.450   01 Jun 2027 12:45:36.476            35.026                Irkutsk          1094.562
        46   01 Jun 2027 12:47:02.704   01 Jun 2027 12:48:25.166            82.462                Irkutsk          2576.937
        47   01 Jun 2027 12:48:35.774   01 Jun 2027 12:49:09.112            33.338                Norilsk          1041.812
        48   01 Jun 2027 12:50:10.797   01 Jun 2027 12:51:11.050            60.253                Norilsk          1882.906
        49   01 Jun 2027 14:14:46.295   01 Jun 2027 14:16:34.245           107.950                  Delhi          3373.438
        50   01 Jun 2027 14:19:05.870   01 Jun 2027 14:20:02.419            56.549                  Delhi          1767.156
        51   01 Jun 2027 14:23:05.019   01 Jun 2027 14:26:24.463           199.444                Novosib          6232.625
        52   01 Jun 2027 14:26:51.919   01 Jun 2027 14:27:45.611            53.692                Norilsk          1677.875
        53   01 Jun 2027 14:27:48.875   01 Jun 2027 14:28:04.831            15.956                Novosib           498.625
        54   01 Jun 2027 14:31:11.193   01 Jun 2027 14:32:03.520            52.327                Norilsk          1635.219
        55   01 Jun 2027 15:58:21.834   01 Jun 2027 16:01:48.654           206.820                 Moscow          6463.125
        56   01 Jun 2027 16:01:53.321   01 Jun 2027 16:03:00.103            66.782              Murmansk2          2086.937
        57   01 Jun 2027 16:03:13.723   01 Jun 2027 16:03:43.545            29.822              Murmansk1           931.938
        58   01 Jun 2027 16:07:55.178   01 Jun 2027 16:12:15.948           260.770                Norilsk          8149.063
        59   01 Jun 2027 17:12:04.908   01 Jun 2027 17:12:33.684            28.776               CapeTown           899.250
        60   01 Jun 2027 17:37:08.038   01 Jun 2027 17:41:20.135           252.097                 Moscow          7878.031
        61   01 Jun 2027 17:44:44.838   01 Jun 2027 17:44:51.059             6.221              Murmansk1           194.406
        62   01 Jun 2027 18:48:10.662   01 Jun 2027 18:49:44.078            93.416               CapeTown          2919.250
        63   01 Jun 2027 18:51:53.788   01 Jun 2027 18:52:41.279            47.491               CapeTown          1484.094
        64   01 Jun 2027 19:20:01.185   01 Jun 2027 19:20:49.393            48.208              Murmansk1          1506.500
        65   01 Jun 2027 19:20:49.393   01 Jun 2027 19:24:39.759           230.366              Murmansk2          7198.937
        66   01 Jun 2027 19:31:07.256   01 Jun 2027 19:32:03.781            56.525               Magadan1          1766.406
        67   01 Jun 2027 19:32:03.781   01 Jun 2027 19:33:36.221            92.440               Magadan2          2888.750
        68   01 Jun 2027 21:04:15.022   01 Jun 2027 21:07:58.704           223.682                Anadyr2          6990.062
        69   01 Jun 2027 21:08:04.675   01 Jun 2027 21:09:10.089            65.414                Anadyr1          2044.187
        70   01 Jun 2027 21:09:42.788   01 Jun 2027 21:10:54.963            72.175               Magadan1          2255.469
        71   01 Jun 2027 21:11:12.960   01 Jun 2027 21:11:25.597            12.637               Magadan1           394.906
        72   01 Jun 2027 21:11:44.531   01 Jun 2027 21:13:02.312            77.781               Magadan1          2430.656
        73   01 Jun 2027 21:59:27.843   01 Jun 2027 22:02:27.913           180.070            RioGallegos          5627.187
        74   01 Jun 2027 22:40:00.648   01 Jun 2027 22:41:37.674            97.026                Anadyr2          3032.063
        75   01 Jun 2027 22:42:07.018   01 Jun 2027 22:43:42.331            95.313                Norilsk          2978.531
        76   01 Jun 2027 22:43:46.311   01 Jun 2027 22:44:50.417            64.106               Magadan1          2003.313
        77   01 Jun 2027 22:46:40.818   01 Jun 2027 22:47:37.762            56.944                Irkutsk          1779.500
        78   01 Jun 2027 22:48:42.506   01 Jun 2027 22:48:50.650             8.144                Irkutsk           254.500
        79   01 Jun 2027 22:49:10.537   01 Jun 2027 22:50:01.272            50.735                Irkutsk          1585.469
        80   01 Jun 2027 23:00:58.471   01 Jun 2027 23:03:48.534           170.063                Sumatra          5314.469
        81   02 Jun 2027 00:16:19.668   02 Jun 2027 00:17:29.304            69.636                Anadyr2          2176.125
        82   02 Jun 2027 00:17:29.304   02 Jun 2027 00:17:40.970            11.666                Anadyr1           364.563
        83   02 Jun 2027 00:17:59.177   02 Jun 2027 00:19:42.609           103.432                Norilsk          3232.250
        84   02 Jun 2027 00:19:51.690   02 Jun 2027 00:20:17.796            26.106               Magadan1           815.812
        85   02 Jun 2027 00:20:55.607   02 Jun 2027 00:21:32.575            36.968               Magadan2          1155.250
        86   02 Jun 2027 00:21:51.969   02 Jun 2027 00:22:46.055            54.086                Irkutsk          1690.187
        87   02 Jun 2027 00:23:27.011   02 Jun 2027 00:23:51.640            24.629                Novosib           769.656
        88   02 Jun 2027 00:24:18.497   02 Jun 2027 00:24:42.836            24.339                Novosib           760.594
        89   02 Jun 2027 00:25:37.713   02 Jun 2027 00:26:44.633            66.920                Novosib          2091.250
        90   02 Jun 2027 00:31:34.473   02 Jun 2027 00:32:06.690            32.217                  Delhi          1006.781
        91   02 Jun 2027 00:36:09.074   02 Jun 2027 00:37:02.414            53.340                Sumatra          1666.875
        92   02 Jun 2027 00:47:18.033   02 Jun 2027 00:47:36.930            18.897                Sumatra           590.531
        93   02 Jun 2027 01:10:05.851   02 Jun 2027 01:10:57.990            52.139            RioGallegos          1629.344
        94   02 Jun 2027 01:13:46.148   02 Jun 2027 01:14:04.734            18.586            RioGallegos           580.812
        95   02 Jun 2027 01:17:30.232   02 Jun 2027 01:17:38.119             7.887            RioGallegos           246.469
        96   02 Jun 2027 01:18:10.903   02 Jun 2027 01:18:33.587            22.684            RioGallegos           708.875
        97   02 Jun 2027 01:48:59.200   02 Jun 2027 01:50:00.040            60.840                Anadyr2          1901.250
        98   02 Jun 2027 01:50:33.104   02 Jun 2027 01:51:05.993            32.889                Anadyr1          1027.781
        99   02 Jun 2027 01:53:59.995   02 Jun 2027 01:55:38.292            98.297                Norilsk          3071.781
       100   02 Jun 2027 01:56:35.653   02 Jun 2027 01:58:07.364            91.711              Murmansk2          2865.969
       101   02 Jun 2027 01:58:09.543   02 Jun 2027 01:58:53.050            43.507                Irkutsk          1359.594
       102   02 Jun 2027 01:59:14.429   02 Jun 2027 01:59:34.147            19.718                Irkutsk           616.187
       103   02 Jun 2027 01:59:56.389   02 Jun 2027 02:01:00.306            63.917                Irkutsk          1997.406
       104   02 Jun 2027 02:07:57.161   02 Jun 2027 02:08:16.400            19.239                  Delhi           601.219
       105   02 Jun 2027 02:09:56.705   02 Jun 2027 02:10:57.023            60.318                  Delhi          1884.937
       106   02 Jun 2027 02:47:39.016   02 Jun 2027 02:51:00.560           201.544            RioGallegos          6298.250
       107   02 Jun 2027 02:52:09.769   02 Jun 2027 02:52:37.906            28.137            RioGallegos           879.281
       108   02 Jun 2027 03:38:42.152   02 Jun 2027 03:39:07.362            25.210              Murmansk1           787.813
       109   02 Jun 2027 03:39:37.826   02 Jun 2027 03:40:02.626            24.800              Murmansk2           775.000
       110   02 Jun 2027 03:40:06.097   02 Jun 2027 03:40:47.927            41.830                Norilsk          1307.188
       111   02 Jun 2027 03:40:52.777   02 Jun 2027 03:41:28.189            35.412              Murmansk1          1106.625
       112   02 Jun 2027 03:42:23.638   02 Jun 2027 03:43:30.164            66.526              Murmansk2          2078.938
       113   02 Jun 2027 03:44:04.669   02 Jun 2027 03:47:14.133           189.464                 Moscow          5920.750
       114   02 Jun 2027 04:00:57.970   02 Jun 2027 04:03:38.994           161.024               CapeTown          5032.000
       115   02 Jun 2027 05:16:57.507   02 Jun 2027 05:17:19.055            21.548              Murmansk1           673.375
       116   02 Jun 2027 05:18:40.770   02 Jun 2027 05:20:58.276           137.506              Murmansk1          4297.063
       117   02 Jun 2027 05:22:48.941   02 Jun 2027 05:24:08.712            79.771                 Moscow          2492.844
       118   02 Jun 2027 06:32:32.703   02 Jun 2027 06:34:36.912           124.209               Magadan1          3881.531
       119   02 Jun 2027 06:38:25.471   02 Jun 2027 06:39:13.002            47.531               Magadan2          1485.344
       120   02 Jun 2027 06:39:13.002   02 Jun 2027 06:39:35.269            22.267               Magadan1           695.844
       121   02 Jun 2027 06:39:46.857   02 Jun 2027 06:42:41.554           174.697                Anadyr2          5459.281
       122   02 Jun 2027 06:44:01.715   02 Jun 2027 06:44:51.434            49.719                Anadyr2          1553.719
       123   02 Jun 2027 08:16:07.087   02 Jun 2027 08:17:54.487           107.400                Anadyr2          3356.250
       124   02 Jun 2027 08:20:07.928   02 Jun 2027 08:20:32.383            24.455                Anadyr2           764.219
       125   02 Jun 2027 09:49:37.690   02 Jun 2027 09:50:11.781            34.091                Novosib          1065.344
       126   02 Jun 2027 09:50:30.323   02 Jun 2027 09:54:33.374           243.051               Magadan1          7595.344
       127   02 Jun 2027 09:55:11.516   02 Jun 2027 09:55:19.842             8.326              Murmansk2           260.187
       128   02 Jun 2027 09:55:20.999   02 Jun 2027 09:55:46.894            25.895                Novosib           809.219
       129   02 Jun 2027 09:55:49.554   02 Jun 2027 09:55:59.502             9.948                Irkutsk           310.875
       130   02 Jun 2027 09:56:09.533   02 Jun 2027 09:56:27.420            17.887                Norilsk           558.969
       131   02 Jun 2027 09:58:20.223   02 Jun 2027 09:58:21.180             0.957              Murmansk1            29.906
       132   02 Jun 2027 09:58:21.180   02 Jun 2027 09:58:44.257            23.077              Murmansk2           721.156
       133   02 Jun 2027 10:30:54.657   02 Jun 2027 10:31:51.320            56.663            RioGallegos          1770.719
       134   02 Jun 2027 10:40:27.508   02 Jun 2027 10:41:32.569            65.061            RioGallegos          2033.156
       135   02 Jun 2027 11:06:43.718   02 Jun 2027 11:07:33.620            49.902                Sumatra          1559.437
       136   02 Jun 2027 11:26:03.406   02 Jun 2027 11:27:37.535            94.129                Irkutsk          2941.531
       137   02 Jun 2027 11:27:50.248   02 Jun 2027 11:27:53.463             3.215                Novosib           100.469
       138   02 Jun 2027 11:27:57.893   02 Jun 2027 11:27:59.648             1.755                Norilsk            54.844
       139   02 Jun 2027 11:28:49.565   02 Jun 2027 11:29:35.608            46.043                Norilsk          1438.844
       140   02 Jun 2027 11:29:38.378   02 Jun 2027 11:30:07.440            29.062              Murmansk1           908.187
       141   02 Jun 2027 11:30:11.982   02 Jun 2027 11:31:04.516            52.534                Irkutsk          1641.688
       142   02 Jun 2027 11:31:14.136   02 Jun 2027 11:31:18.015             3.879                Norilsk           121.219
       143   02 Jun 2027 11:31:18.845   02 Jun 2027 11:31:34.399            15.554                Novosib           486.062
       144   02 Jun 2027 11:31:37.679   02 Jun 2027 11:32:06.889            29.210                Novosib           912.812
       145   02 Jun 2027 11:32:13.438   02 Jun 2027 11:32:32.508            19.070              Murmansk2           595.938
       146   02 Jun 2027 12:08:06.597   02 Jun 2027 12:08:39.671            33.074            RioGallegos          1033.563
       147   02 Jun 2027 12:09:39.207   02 Jun 2027 12:10:42.312            63.105            RioGallegos          1972.031
       148   02 Jun 2027 12:42:20.663   02 Jun 2027 12:43:43.684            83.021                Sumatra          2594.406
       149   02 Jun 2027 12:56:52.927   02 Jun 2027 12:58:09.600            76.673                Novosib          2396.031
       150   02 Jun 2027 13:00:03.009   02 Jun 2027 13:00:24.890            21.881                Novosib           683.781
       151   02 Jun 2027 13:00:48.283   02 Jun 2027 13:03:10.274           141.991                Norilsk          4437.219
       152   02 Jun 2027 14:27:20.555   02 Jun 2027 14:30:07.332           166.777                  Delhi          5211.781
       153   02 Jun 2027 14:35:33.940   02 Jun 2027 14:36:03.130            29.190                 Moscow           912.188
       154   02 Jun 2027 14:36:37.348   02 Jun 2027 14:43:39.180           421.832                Novosib         13182.250
       155   02 Jun 2027 16:10:31.090   02 Jun 2027 16:10:56.191            25.101                 Moscow           784.406
       156   02 Jun 2027 16:11:43.149   02 Jun 2027 16:12:20.384            37.235                 Moscow          1163.594
       157   02 Jun 2027 16:14:01.932   02 Jun 2027 16:14:40.246            38.314              Murmansk1          1197.312
       158   02 Jun 2027 16:21:06.007   02 Jun 2027 16:23:09.088           123.081                Norilsk          3846.281
       159   02 Jun 2027 16:29:48.015   02 Jun 2027 16:30:21.428            33.413                Anadyr1          1044.156
       160   02 Jun 2027 17:23:57.258   02 Jun 2027 17:25:46.026           108.768               CapeTown          3399.000
       161   02 Jun 2027 17:32:10.055   02 Jun 2027 17:32:39.003            28.948               CapeTown           904.625
       162   02 Jun 2027 17:49:56.747   02 Jun 2027 17:53:20.418           203.671                 Moscow          6364.719
       163   02 Jun 2027 17:56:53.327   02 Jun 2027 17:57:12.147            18.820              Murmansk1           588.125
       164   02 Jun 2027 17:57:40.491   02 Jun 2027 17:58:06.412            25.921              Murmansk2           810.031
       165   02 Jun 2027 18:05:04.509   02 Jun 2027 18:05:21.832            17.323                Anadyr2           541.344
       166   02 Jun 2027 18:05:42.236   02 Jun 2027 18:06:03.882            21.646                Anadyr2           676.438
       167   02 Jun 2027 18:06:24.195   02 Jun 2027 18:06:27.533             3.338                Anadyr2           104.312
       168   02 Jun 2027 18:11:51.732   02 Jun 2027 18:11:54.585             2.853                Anadyr2            89.156
       169   02 Jun 2027 18:11:54.585   02 Jun 2027 18:11:59.482             4.897                Anadyr1           153.031
       170   02 Jun 2027 18:12:49.143   02 Jun 2027 18:13:06.756            17.613                Anadyr2           550.406
       171   02 Jun 2027 18:13:29.108   02 Jun 2027 18:13:41.783            12.675                Anadyr2           396.094
       172   02 Jun 2027 19:00:28.348   02 Jun 2027 19:01:36.397            68.049               CapeTown          2126.531
       173   02 Jun 2027 19:03:45.350   02 Jun 2027 19:04:28.964            43.614               CapeTown          1362.937
       174   02 Jun 2027 19:32:56.889   02 Jun 2027 19:37:25.284           268.395              Murmansk1          8387.344
       175   02 Jun 2027 19:37:29.782   02 Jun 2027 19:37:45.969            16.187              Murmansk2           505.844
       176   02 Jun 2027 19:43:00.676   02 Jun 2027 19:43:49.258            48.582               Magadan2          1518.187
       177   02 Jun 2027 19:47:22.055   02 Jun 2027 19:48:14.650            52.595               Magadan2          1643.594
       178   02 Jun 2027 19:51:48.619   02 Jun 2027 19:52:25.236            36.617               Magadan2          1144.281
       179   02 Jun 2027 21:16:16.368   02 Jun 2027 21:21:26.200           309.832                Anadyr1          9682.250
       180   02 Jun 2027 21:21:32.261   02 Jun 2027 21:22:48.077            75.816               Magadan2          2369.250
       181   02 Jun 2027 21:23:27.779   02 Jun 2027 21:23:33.262             5.483               Magadan2           171.344
       182   02 Jun 2027 21:24:33.109   02 Jun 2027 21:25:02.640            29.531               Magadan1           922.844
       183   02 Jun 2027 21:30:25.432   02 Jun 2027 21:30:28.597             3.165               Magadan1            98.906
       184   02 Jun 2027 22:11:06.631   02 Jun 2027 22:13:43.087           156.456            RioGallegos          4889.250
       185   02 Jun 2027 22:16:10.710   02 Jun 2027 22:16:36.176            25.466            RioGallegos           795.812
       186   02 Jun 2027 22:17:17.177   02 Jun 2027 22:17:35.021            17.844            RioGallegos           557.625
       187   02 Jun 2027 22:51:58.951   02 Jun 2027 22:52:57.823            58.872                Anadyr1          1839.750
       188   02 Jun 2027 22:53:04.165   02 Jun 2027 22:53:21.822            17.657                Anadyr1           551.781
       189   02 Jun 2027 22:53:59.615   02 Jun 2027 22:54:10.623            11.008                Anadyr1           344.000
       190   02 Jun 2027 22:54:33.525   02 Jun 2027 22:56:19.685           106.160               Magadan1          3317.500
       191   02 Jun 2027 22:56:53.142   02 Jun 2027 22:57:33.932            40.790               Magadan1          1274.687
       192   02 Jun 2027 22:58:30.128   02 Jun 2027 22:59:37.523            67.395                Irkutsk          2106.094
       193   02 Jun 2027 23:01:25.585   02 Jun 2027 23:01:48.268            22.683                Irkutsk           708.844
       194   02 Jun 2027 23:07:09.890   02 Jun 2027 23:07:57.954            48.064                Irkutsk          1502.000
       195   02 Jun 2027 23:12:31.231   02 Jun 2027 23:13:41.373            70.142                Sumatra          2191.937
       196   02 Jun 2027 23:22:22.898   02 Jun 2027 23:23:14.229            51.331                Sumatra          1604.094
       197   02 Jun 2027 23:56:27.795   02 Jun 2027 23:57:26.112            58.317            RioGallegos          1822.406
       198   03 Jun 2027 00:26:56.818   03 Jun 2027 00:27:14.008            17.190                Anadyr2           537.187
       199   03 Jun 2027 00:27:40.628   03 Jun 2027 00:28:17.193            36.565                Anadyr1          1142.656
       200   03 Jun 2027 00:28:29.984   03 Jun 2027 00:28:56.393            26.409                Anadyr1           825.281
       201   03 Jun 2027 00:29:14.339   03 Jun 2027 00:29:28.520            14.181                Anadyr1           443.156
       202   03 Jun 2027 00:30:01.377   03 Jun 2027 00:31:44.597           103.220                Norilsk          3225.625
       203   03 Jun 2027 00:32:30.397   03 Jun 2027 00:32:45.623            15.226               Magadan1           475.812
       204   03 Jun 2027 00:33:53.518   03 Jun 2027 00:37:11.313           197.795                Irkutsk          6181.094
       205   03 Jun 2027 00:42:26.828   03 Jun 2027 00:42:51.395            24.567                  Delhi           767.719
       206   03 Jun 2027 00:45:40.019   03 Jun 2027 00:46:03.918            23.899                  Delhi           746.844
       207   03 Jun 2027 00:52:06.501   03 Jun 2027 00:52:24.150            17.649                Sumatra           551.531
       208   03 Jun 2027 00:53:50.774   03 Jun 2027 00:54:06.942            16.168                Sumatra           505.250
       209   03 Jun 2027 00:56:20.768   03 Jun 2027 00:58:32.702           131.934                Sumatra          4122.938
       210   03 Jun 2027 02:00:40.937   03 Jun 2027 02:01:19.821            38.884                Anadyr2          1215.125
       211   03 Jun 2027 02:02:14.004   03 Jun 2027 02:02:25.349            11.345                Anadyr2           354.531
       212   03 Jun 2027 02:03:01.320   03 Jun 2027 02:03:18.518            17.198                Anadyr1           537.437
       213   03 Jun 2027 02:06:01.948   03 Jun 2027 02:07:38.775            96.827                Norilsk          3025.844
       214   03 Jun 2027 02:08:30.146   03 Jun 2027 02:09:26.963            56.817              Murmansk1          1775.531
       215   03 Jun 2027 02:09:48.338   03 Jun 2027 02:10:26.208            37.870                Novosib          1183.437
       216   03 Jun 2027 02:10:46.302   03 Jun 2027 02:10:49.534             3.232              Murmansk1           101.000
       217   03 Jun 2027 02:11:11.277   03 Jun 2027 02:12:18.426            67.149                Irkutsk          2098.406
       218   03 Jun 2027 02:15:35.075   03 Jun 2027 02:15:37.720             2.645                Novosib            82.656
       219   03 Jun 2027 02:15:59.572   03 Jun 2027 02:16:57.886            58.314                Irkutsk          1822.312
       220   03 Jun 2027 02:26:01.992   03 Jun 2027 02:26:09.981             7.989                  Delhi           249.656
       221   03 Jun 2027 02:26:57.247   03 Jun 2027 02:27:29.313            32.066                  Delhi          1002.063
       222   03 Jun 2027 03:00:22.915   03 Jun 2027 03:00:46.070            23.155            RioGallegos           723.594
       223   03 Jun 2027 03:01:58.146   03 Jun 2027 03:02:49.482            51.336            RioGallegos          1604.250
       224   03 Jun 2027 03:03:14.081   03 Jun 2027 03:03:21.472             7.391            RioGallegos           230.969
       225   03 Jun 2027 03:52:01.006   03 Jun 2027 03:52:47.445            46.439              Murmansk1          1451.219
       226   03 Jun 2027 03:52:52.181   03 Jun 2027 03:53:34.476            42.295                Novosib          1321.719
       227   03 Jun 2027 03:53:50.595   03 Jun 2027 03:54:05.474            14.879                Novosib           464.969
       228   03 Jun 2027 03:54:06.320   03 Jun 2027 03:54:36.828            30.508                 Moscow           953.375
       229   03 Jun 2027 03:54:51.739   03 Jun 2027 03:55:26.286            34.547              Murmansk2          1079.594
       230   03 Jun 2027 03:58:09.196   03 Jun 2027 03:58:57.840            48.644                 Moscow          1520.125
       231   03 Jun 2027 05:27:37.642   03 Jun 2027 05:27:42.816             5.174              Murmansk1           161.688
       232   03 Jun 2027 05:27:42.816   03 Jun 2027 05:28:31.170            48.354              Murmansk2          1511.062
       233   03 Jun 2027 05:29:06.666   03 Jun 2027 05:29:23.317            16.651              Murmansk2           520.344
       234   03 Jun 2027 05:29:23.317   03 Jun 2027 05:29:43.628            20.311              Murmansk1           634.719
       235   03 Jun 2027 05:30:20.644   03 Jun 2027 05:31:12.798            52.154              Murmansk1          1629.813
       236   03 Jun 2027 05:31:58.863   03 Jun 2027 05:32:19.591            20.728              Murmansk1           647.750
       237   03 Jun 2027 05:32:49.168   03 Jun 2027 05:33:03.380            14.212              Murmansk2           444.125
       238   03 Jun 2027 05:47:32.328   03 Jun 2027 05:49:18.538           106.210               CapeTown          3319.063
       239   03 Jun 2027 06:50:23.190   03 Jun 2027 06:50:31.740             8.550               Magadan2           267.188
       240   03 Jun 2027 06:50:33.032   03 Jun 2027 06:50:42.047             9.015               Magadan1           281.719
       241   03 Jun 2027 06:50:42.047   03 Jun 2027 06:51:22.109            40.062               Magadan2          1251.937
       242   03 Jun 2027 06:51:44.776   03 Jun 2027 06:52:23.466            38.690                Anadyr1          1209.063
       243   03 Jun 2027 06:52:32.956   03 Jun 2027 06:52:49.765            16.809                Anadyr1           525.281
       244   03 Jun 2027 06:53:07.461   03 Jun 2027 06:53:57.260            49.799                Anadyr1          1556.219
       245   03 Jun 2027 06:54:23.232   03 Jun 2027 06:54:46.503            23.271                Norilsk           727.219
       246   03 Jun 2027 06:56:02.557   03 Jun 2027 06:56:06.764             4.207              Murmansk2           131.469
       247   03 Jun 2027 06:57:28.118   03 Jun 2027 06:57:35.439             7.321              Murmansk2           228.781
       248   03 Jun 2027 06:59:41.347   03 Jun 2027 06:59:42.764             1.417                 Moscow            44.281
       249   03 Jun 2027 07:00:21.157   03 Jun 2027 07:00:28.385             7.228                 Moscow           225.875
       250   03 Jun 2027 07:05:14.431   03 Jun 2027 07:05:23.744             9.313                 Moscow           291.031
       251   03 Jun 2027 07:09:08.781   03 Jun 2027 07:09:21.405            12.624                 Moscow           394.500
       252   03 Jun 2027 08:26:26.296   03 Jun 2027 08:27:45.752            79.456                Anadyr1          2483.000
       253   03 Jun 2027 08:27:52.183   03 Jun 2027 08:28:44.850            52.667               Magadan2          1645.844
       254   03 Jun 2027 08:28:53.589   03 Jun 2027 08:30:57.915           124.326                Anadyr2          3885.188
       255   03 Jun 2027 10:01:39.335   03 Jun 2027 10:02:41.124            61.789               Magadan2          1930.906
       256   03 Jun 2027 10:02:48.556   03 Jun 2027 10:02:56.661             8.105                Irkutsk           253.281
       257   03 Jun 2027 10:03:01.643   03 Jun 2027 10:03:16.857            15.214               Magadan1           475.437
       258   03 Jun 2027 10:03:20.734   03 Jun 2027 10:03:37.615            16.881                Norilsk           527.531
       259   03 Jun 2027 10:03:40.730   03 Jun 2027 10:03:43.886             3.156                Norilsk            98.625
       260   03 Jun 2027 10:04:05.324   03 Jun 2027 10:05:17.385            72.061                Irkutsk          2251.906
       261   03 Jun 2027 10:05:44.122   03 Jun 2027 10:05:47.556             3.434                Norilsk           107.312
       262   03 Jun 2027 10:05:53.907   03 Jun 2027 10:06:02.217             8.310                Novosib           259.688
       263   03 Jun 2027 10:06:10.016   03 Jun 2027 10:06:39.027            29.011                Irkutsk           906.594
       264   03 Jun 2027 10:06:55.428   03 Jun 2027 10:07:46.138            50.710                Irkutsk          1584.688
       265   03 Jun 2027 10:07:51.745   03 Jun 2027 10:08:04.841            13.096                Norilsk           409.250
       266   03 Jun 2027 10:09:21.002   03 Jun 2027 10:09:32.857            11.855              Murmansk1           370.469
       267   03 Jun 2027 10:10:21.605   03 Jun 2027 10:11:08.138            46.533                Norilsk          1454.156
       268   03 Jun 2027 10:42:53.155   03 Jun 2027 10:43:57.972            64.817            RioGallegos          2025.531
       269   03 Jun 2027 11:18:20.771   03 Jun 2027 11:19:03.985            43.214                Sumatra          1350.438
       270   03 Jun 2027 11:34:41.070   03 Jun 2027 11:35:20.028            38.958                  Delhi          1217.438
       271   03 Jun 2027 11:37:51.575   03 Jun 2027 11:38:17.765            26.190                Novosib           818.438
       272   03 Jun 2027 11:38:22.957   03 Jun 2027 11:38:24.979             2.022                Norilsk            63.187
       273   03 Jun 2027 11:38:44.079   03 Jun 2027 11:39:29.755            45.676                Irkutsk          1427.375
       274   03 Jun 2027 11:39:34.523   03 Jun 2027 11:39:42.982             8.459                Norilsk           264.344
       275   03 Jun 2027 11:39:53.392   03 Jun 2027 11:40:20.553            27.161                Novosib           848.781
       276   03 Jun 2027 11:40:27.300   03 Jun 2027 11:40:29.908             2.608                Irkutsk            81.500
       277   03 Jun 2027 11:40:48.904   03 Jun 2027 11:41:31.243            42.339                Novosib          1323.094
       278   03 Jun 2027 11:41:36.597   03 Jun 2027 11:42:03.402            26.805                Norilsk           837.656
       279   03 Jun 2027 11:42:09.287   03 Jun 2027 11:42:18.043             8.756              Murmansk1           273.625
       280   03 Jun 2027 11:42:39.113   03 Jun 2027 11:42:48.905             9.792                Novosib           306.000
       281   03 Jun 2027 11:42:59.937   03 Jun 2027 11:44:10.176            70.239                Irkutsk          2194.969
       282   03 Jun 2027 12:20:37.883   03 Jun 2027 12:21:12.375            34.492            RioGallegos          1077.875
       283   03 Jun 2027 12:24:35.586   03 Jun 2027 12:25:43.886            68.300            RioGallegos          2134.375
       284   03 Jun 2027 12:54:50.966   03 Jun 2027 12:55:46.002            55.036                Sumatra          1719.875
       285   03 Jun 2027 12:57:34.383   03 Jun 2027 12:58:12.681            38.298                Sumatra          1196.812
       286   03 Jun 2027 13:08:17.213   03 Jun 2027 13:08:47.093            29.880                  Delhi           933.750
       287   03 Jun 2027 13:09:38.763   03 Jun 2027 13:10:13.384            34.621                Novosib          1081.906
       288   03 Jun 2027 13:10:24.108   03 Jun 2027 13:11:08.985            44.877                Irkutsk          1402.406
       289   03 Jun 2027 13:13:01.141   03 Jun 2027 13:13:01.552             0.411                Novosib            12.844
       290   03 Jun 2027 13:13:02.610   03 Jun 2027 13:15:08.577           125.967                Norilsk          3936.469
       291   03 Jun 2027 14:40:07.042   03 Jun 2027 14:42:58.951           171.909                  Delhi          5372.156
       292   03 Jun 2027 14:47:09.127   03 Jun 2027 14:47:35.782            26.655                 Moscow           832.969
       293   03 Jun 2027 14:47:58.545   03 Jun 2027 14:48:09.928            11.383                 Moscow           355.719
       294   03 Jun 2027 14:49:16.296   03 Jun 2027 14:51:49.870           153.574                Novosib          4799.187
       295   03 Jun 2027 14:51:52.477   03 Jun 2027 14:52:10.582            18.105                Norilsk           565.781
       296   03 Jun 2027 14:53:31.017   03 Jun 2027 14:55:09.347            98.330                Norilsk          3072.812
       297   03 Jun 2027 16:03:45.109   03 Jun 2027 16:05:11.522            86.413               CapeTown          2700.406
       298   03 Jun 2027 16:06:11.961   03 Jun 2027 16:07:58.068           106.107               CapeTown          3315.844
       299   03 Jun 2027 16:26:12.347   03 Jun 2027 16:27:03.493            51.146              Murmansk1          1598.312
       300   03 Jun 2027 16:28:43.198   03 Jun 2027 16:29:09.077            25.879              Murmansk1           808.719
       301   03 Jun 2027 16:32:25.279   03 Jun 2027 16:32:54.492            29.213              Murmansk1           912.906
       302   03 Jun 2027 16:38:16.004   03 Jun 2027 16:38:45.011            29.007              Murmansk2           906.469
       303   03 Jun 2027 16:41:28.455   03 Jun 2027 16:42:34.729            66.274                Anadyr1          2071.062
       304   03 Jun 2027 16:42:50.752   03 Jun 2027 16:43:24.816            34.064                Anadyr1          1064.500
       305   03 Jun 2027 16:45:39.464   03 Jun 2027 16:45:49.012             9.548                Anadyr2           298.375
       306   03 Jun 2027 16:47:57.033   03 Jun 2027 16:48:09.295            12.262                Anadyr2           383.187
       307   03 Jun 2027 17:35:52.951   03 Jun 2027 17:36:41.301            48.350               CapeTown          1510.938
       308   03 Jun 2027 17:38:58.863   03 Jun 2027 17:39:35.153            36.290               CapeTown          1134.063
       309   03 Jun 2027 17:44:07.330   03 Jun 2027 17:44:30.964            23.634               CapeTown           738.562
       310   03 Jun 2027 17:48:00.713   03 Jun 2027 17:48:38.310            37.597               CapeTown          1174.906
       311   03 Jun 2027 18:02:57.599   03 Jun 2027 18:06:26.447           208.848                 Moscow          6526.500
       312   03 Jun 2027 18:17:24.349   03 Jun 2027 18:18:05.197            40.848                Anadyr2          1276.500
       313   03 Jun 2027 18:25:13.485   03 Jun 2027 18:25:20.862             7.377                Anadyr2           230.531
       314   03 Jun 2027 19:12:51.543   03 Jun 2027 19:13:55.676            64.133               CapeTown          2004.156
       315   03 Jun 2027 19:15:40.399   03 Jun 2027 19:16:43.374            62.975               CapeTown          1967.969
       316   03 Jun 2027 19:46:05.584   03 Jun 2027 19:49:21.123           195.539              Murmansk1          6110.594
       317   03 Jun 2027 19:54:55.850   03 Jun 2027 19:57:30.837           154.987               Magadan1          4843.344
       318   03 Jun 2027 19:59:23.221   03 Jun 2027 19:59:30.581             7.360               Magadan1           230.000
       319   03 Jun 2027 20:00:04.478   03 Jun 2027 20:00:15.871            11.393               Magadan2           356.031
       320   03 Jun 2027 20:00:33.845   03 Jun 2027 20:00:52.859            19.014               Magadan2           594.187
       321   03 Jun 2027 20:02:55.876   03 Jun 2027 20:03:22.059            26.183               Magadan2           818.219
       322   03 Jun 2027 20:04:34.708   03 Jun 2027 20:04:40.900             6.192               Magadan1           193.500
       323   03 Jun 2027 20:05:08.644   03 Jun 2027 20:05:26.290            17.646               Magadan1           551.438
       324   03 Jun 2027 21:28:17.506   03 Jun 2027 21:30:20.050           122.544                Anadyr2          3829.500
       325   03 Jun 2027 21:30:33.790   03 Jun 2027 21:34:36.718           242.928               Magadan1          7591.500
       326   03 Jun 2027 21:34:36.718   03 Jun 2027 21:35:17.901            41.183               Magadan2          1286.969
       327   03 Jun 2027 21:39:03.728   03 Jun 2027 21:39:38.313            34.585               Magadan1          1080.781
       328   03 Jun 2027 22:22:51.175   03 Jun 2027 22:25:22.329           151.154            RioGallegos          4723.562
       329   03 Jun 2027 22:25:47.788   03 Jun 2027 22:26:10.040            22.252            RioGallegos           695.375
       330   03 Jun 2027 22:28:46.800   03 Jun 2027 22:29:09.383            22.583            RioGallegos           705.719
       331   03 Jun 2027 23:03:56.560   03 Jun 2027 23:05:11.877            75.317                Anadyr1          2353.656
       332   03 Jun 2027 23:06:02.786   03 Jun 2027 23:06:36.247            33.461                Anadyr1          1045.656
       333   03 Jun 2027 23:06:36.568   03 Jun 2027 23:08:06.787            90.219               Magadan2          2819.344
       334   03 Jun 2027 23:09:03.621   03 Jun 2027 23:09:45.166            41.545               Magadan1          1298.281
       335   03 Jun 2027 23:10:22.193   03 Jun 2027 23:10:59.750            37.557                Irkutsk          1173.656
       336   03 Jun 2027 23:11:31.042   03 Jun 2027 23:12:02.527            31.485                Irkutsk           983.906
       337   03 Jun 2027 23:13:20.168   03 Jun 2027 23:15:01.308           101.140                Novosib          3160.625
       338   03 Jun 2027 23:26:00.307   03 Jun 2027 23:26:36.982            36.675                Sumatra          1146.094
       339   03 Jun 2027 23:28:10.614   03 Jun 2027 23:28:34.733            24.119                Sumatra           753.719
       340   03 Jun 2027 23:35:55.951   03 Jun 2027 23:36:23.470            27.519                Sumatra           859.969
       341   04 Jun 2027 00:07:26.352   04 Jun 2027 00:07:35.415             9.063            RioGallegos           283.219
       342   04 Jun 2027 00:07:57.375   04 Jun 2027 00:08:10.567            13.192            RioGallegos           412.250
       343   04 Jun 2027 00:09:00.489   04 Jun 2027 00:09:29.309            28.820            RioGallegos           900.625
       344   04 Jun 2027 00:38:45.872   04 Jun 2027 00:39:04.070            18.198                Anadyr2           568.687
       345   04 Jun 2027 00:39:24.512   04 Jun 2027 00:40:12.722            48.210                Anadyr1          1506.562
       346   04 Jun 2027 00:40:30.586   04 Jun 2027 00:40:57.734            27.148                Anadyr1           848.375
       347   04 Jun 2027 00:42:03.644   04 Jun 2027 00:43:46.484           102.840                Norilsk          3213.750
       348   04 Jun 2027 00:43:59.448   04 Jun 2027 00:44:19.471            20.023               Magadan1           625.719
       349   04 Jun 2027 00:45:44.825   04 Jun 2027 00:45:49.981             5.156                Norilsk           161.125
       350   04 Jun 2027 00:45:55.905   04 Jun 2027 00:47:59.452           123.547                Irkutsk          3860.844
       351   04 Jun 2027 00:51:41.075   04 Jun 2027 00:52:20.436            39.361                Novosib          1230.031
       352   04 Jun 2027 00:54:02.860   04 Jun 2027 00:54:47.644            44.784                  Delhi          1399.500
       353   04 Jun 2027 00:58:01.137   04 Jun 2027 00:59:00.942            59.805                  Delhi          1868.906
       354   04 Jun 2027 01:07:30.955   04 Jun 2027 01:08:02.857            31.902                Sumatra           996.938
       355   04 Jun 2027 01:35:05.826   04 Jun 2027 01:35:16.889            11.063            RioGallegos           345.719
       356   04 Jun 2027 01:35:21.772   04 Jun 2027 01:35:39.946            18.174            RioGallegos           567.937
       357   04 Jun 2027 01:38:26.120   04 Jun 2027 01:38:53.671            27.551            RioGallegos           860.969
       358   04 Jun 2027 01:42:09.117   04 Jun 2027 01:42:43.434            34.317            RioGallegos          1072.406
       359   04 Jun 2027 02:12:22.238   04 Jun 2027 02:13:19.114            56.876                Anadyr1          1777.375
       360   04 Jun 2027 02:14:49.791   04 Jun 2027 02:15:03.605            13.814                Anadyr2           431.688
       361   04 Jun 2027 02:18:03.762   04 Jun 2027 02:20:01.438           117.676                Norilsk          3677.375
       362   04 Jun 2027 02:20:26.577   04 Jun 2027 02:21:33.486            66.909              Murmansk2          2090.906
       363   04 Jun 2027 02:21:50.865   04 Jun 2027 02:22:50.108            59.243                Novosib          1851.344
       364   04 Jun 2027 02:27:51.131   04 Jun 2027 02:28:32.276            41.145                Irkutsk          1285.781
       365   04 Jun 2027 02:33:54.730   04 Jun 2027 02:34:21.933            27.203                  Delhi           850.094
       366   04 Jun 2027 02:37:08.878   04 Jun 2027 02:38:06.306            57.428                  Delhi          1794.625
       367   04 Jun 2027 04:03:26.785   04 Jun 2027 04:03:43.226            16.441                Norilsk           513.781
       368   04 Jun 2027 04:05:32.758   04 Jun 2027 04:09:07.635           214.877                 Moscow          6714.906
       369   04 Jun 2027 04:10:13.431   04 Jun 2027 04:10:41.107            27.676                 Moscow           864.875
       370   04 Jun 2027 04:11:11.348   04 Jun 2027 04:11:32.528            21.180                 Moscow           661.875
       371   04 Jun 2027 04:24:04.315   04 Jun 2027 04:26:34.582           150.267               CapeTown          4695.844
       372   04 Jun 2027 04:28:04.792   04 Jun 2027 04:28:30.109            25.317               CapeTown           791.156
       373   04 Jun 2027 04:29:37.832   04 Jun 2027 04:30:13.149            35.317               CapeTown          1103.656
       374   04 Jun 2027 04:34:20.205   04 Jun 2027 04:34:53.357            33.152               CapeTown          1036.000
       375   04 Jun 2027 05:39:15.815   04 Jun 2027 05:39:39.637            23.822              Murmansk1           744.437
       376   04 Jun 2027 05:39:39.637   04 Jun 2027 05:40:24.116            44.479              Murmansk2          1389.969
       377   04 Jun 2027 05:40:33.385   04 Jun 2027 05:41:14.073            40.688              Murmansk2          1271.500
       378   04 Jun 2027 05:41:41.380   04 Jun 2027 05:41:45.532             4.152              Murmansk2           129.750
       379   04 Jun 2027 05:41:46.785   04 Jun 2027 05:43:05.303            78.518                 Moscow          2453.687
       380   04 Jun 2027 05:44:36.274   04 Jun 2027 05:44:45.291             9.017              Murmansk1           281.781
       381   04 Jun 2027 05:59:51.916   04 Jun 2027 06:01:16.433            84.517               CapeTown          2641.156
       382   04 Jun 2027 07:02:31.068   04 Jun 2027 07:02:34.961             3.893               Magadan2           121.656
       383   04 Jun 2027 07:02:34.961   04 Jun 2027 07:04:24.456           109.495               Magadan1          3421.719
       384   04 Jun 2027 07:04:45.124   04 Jun 2027 07:05:31.914            46.790               Magadan1          1462.187
       385   04 Jun 2027 07:06:10.522   04 Jun 2027 07:06:40.333            29.811                Anadyr2           931.594
       386   04 Jun 2027 07:12:19.118   04 Jun 2027 07:12:37.609            18.491                 Moscow           577.844
       387   04 Jun 2027 07:15:46.563   04 Jun 2027 07:15:49.915             3.352                 Moscow           104.750
       388   04 Jun 2027 07:50:24.749   04 Jun 2027 07:50:37.673            12.924            RioGallegos           403.875
       389   04 Jun 2027 07:51:28.008   04 Jun 2027 07:51:35.750             7.742            RioGallegos           241.937
       390   04 Jun 2027 08:38:17.545   04 Jun 2027 08:40:14.813           117.268                Anadyr1          3664.625
       391   04 Jun 2027 08:40:28.904   04 Jun 2027 08:40:33.772             4.868               Magadan2           152.125
       392   04 Jun 2027 08:40:38.787   04 Jun 2027 08:40:51.516            12.729                Anadyr2           397.781
       393   04 Jun 2027 08:40:51.516   04 Jun 2027 08:41:18.740            27.224                Anadyr1           850.750
       394   04 Jun 2027 08:41:31.965   04 Jun 2027 08:42:37.417            65.452               Magadan1          2045.375
       395   04 Jun 2027 08:42:58.491   04 Jun 2027 08:44:23.556            85.065                Anadyr2          2658.281
       396   04 Jun 2027 10:13:10.578   04 Jun 2027 10:13:43.605            33.027                Irkutsk          1032.094
       397   04 Jun 2027 10:14:27.245   04 Jun 2027 10:14:54.713            27.468                Irkutsk           858.375
       398   04 Jun 2027 10:15:31.568   04 Jun 2027 10:18:32.994           181.426               Magadan2          5669.562
       399   04 Jun 2027 10:18:44.697   04 Jun 2027 10:19:41.163            56.466                Irkutsk          1764.563
       400   04 Jun 2027 10:19:45.292   04 Jun 2027 10:20:42.377            57.085                Novosib          1783.906
       401   04 Jun 2027 10:54:54.973   04 Jun 2027 10:55:54.881            59.908            RioGallegos          1872.125
       402   04 Jun 2027 11:30:05.213   04 Jun 2027 11:30:44.261            39.048                Sumatra          1220.250
       403   04 Jun 2027 11:40:10.292   04 Jun 2027 11:42:06.166           115.874                Sumatra          3621.062
       404   04 Jun 2027 11:49:48.053   04 Jun 2027 11:50:20.550            32.497                Norilsk          1015.531
       405   04 Jun 2027 11:50:37.834   04 Jun 2027 11:51:07.034            29.200                Norilsk           912.500
       406   04 Jun 2027 11:51:20.611   04 Jun 2027 11:53:36.278           135.667                Irkutsk          4239.594
       407   04 Jun 2027 11:53:47.432   04 Jun 2027 11:54:03.558            16.126              Murmansk2           503.938
       408   04 Jun 2027 11:54:04.093   04 Jun 2027 11:54:40.096            36.003                Norilsk          1125.094
       409   04 Jun 2027 11:54:58.520   04 Jun 2027 11:56:08.764            70.244                Irkutsk          2195.125
       410   04 Jun 2027 12:02:03.538   04 Jun 2027 12:02:40.175            36.637              Murmansk1          1144.906
       411   04 Jun 2027 12:03:18.809   04 Jun 2027 12:03:33.847            15.038              Murmansk1           469.937
       412   04 Jun 2027 12:33:29.025   04 Jun 2027 12:34:41.036            72.011            RioGallegos          2250.344
       413   04 Jun 2027 12:39:27.915   04 Jun 2027 12:41:50.098           142.183            RioGallegos          4443.219
       414   04 Jun 2027 13:23:20.885   04 Jun 2027 13:26:23.010           182.125                Irkutsk          5691.406
       415   04 Jun 2027 13:27:30.290   04 Jun 2027 13:27:49.951            19.661                Irkutsk           614.406
       416   04 Jun 2027 13:30:08.346   04 Jun 2027 13:30:18.919            10.573                Irkutsk           330.406
       417   04 Jun 2027 13:30:59.689   04 Jun 2027 13:31:03.617             3.928                Novosib           122.750
       418   04 Jun 2027 13:32:57.694   04 Jun 2027 13:33:26.055            28.361                Norilsk           886.281
       419   04 Jun 2027 13:35:06.739   04 Jun 2027 13:35:19.549            12.810                Norilsk           400.312
       420   04 Jun 2027 13:38:33.846   04 Jun 2027 13:38:47.035            13.189              Murmansk2           412.156
       421   04 Jun 2027 14:53:13.282   04 Jun 2027 14:56:59.273           225.991                  Delhi          7062.219
       422   04 Jun 2027 15:01:42.146   04 Jun 2027 15:03:49.123           126.977                Novosib          3968.031
       423   04 Jun 2027 15:04:26.765   04 Jun 2027 15:04:59.516            32.751                Norilsk          1023.469
       424   04 Jun 2027 15:05:38.975   04 Jun 2027 15:06:00.425            21.450                Novosib           670.312
       425   04 Jun 2027 15:07:23.971   04 Jun 2027 15:08:25.158            61.187                Norilsk          1912.094
       426   04 Jun 2027 16:14:26.577   04 Jun 2027 16:15:57.681            91.104               CapeTown          2847.000
       427   04 Jun 2027 16:20:35.298   04 Jun 2027 16:20:51.254            15.956               CapeTown           498.625
       428   04 Jun 2027 16:34:59.814   04 Jun 2027 16:35:49.407            49.593                 Moscow          1549.781
       429   04 Jun 2027 16:38:24.618   04 Jun 2027 16:39:04.922            40.304              Murmansk1          1259.500
       430   04 Jun 2027 16:41:11.115   04 Jun 2027 16:41:55.946            44.831              Murmansk2          1400.969
       431   04 Jun 2027 16:46:31.915   04 Jun 2027 16:47:00.261            28.346              Murmansk2           885.813
       432   04 Jun 2027 16:53:15.459   04 Jun 2027 16:54:17.895            62.436                Anadyr1          1951.125
       433   04 Jun 2027 16:54:36.101   04 Jun 2027 16:55:55.394            79.293                Anadyr2          2477.906
       434   04 Jun 2027 16:57:48.796   04 Jun 2027 16:58:46.900            58.104                Anadyr2          1815.750
       435   04 Jun 2027 17:54:27.910   04 Jun 2027 17:54:39.867            11.957               CapeTown           373.656
       436   04 Jun 2027 17:55:17.394   04 Jun 2027 17:55:44.516            27.122               CapeTown           847.563
       437   04 Jun 2027 17:57:26.947   04 Jun 2027 17:57:47.205            20.258               CapeTown           633.063
       438   04 Jun 2027 18:16:21.920   04 Jun 2027 18:19:30.044           188.124                 Moscow          5878.875
       439   04 Jun 2027 18:20:41.786   04 Jun 2027 18:22:02.792            81.006              Murmansk1          2531.437
       440   04 Jun 2027 18:33:04.104   04 Jun 2027 18:33:57.571            53.467               Magadan2          1670.844
       441   04 Jun 2027 18:33:57.571   04 Jun 2027 18:35:31.869            94.298               Magadan1          2946.812
       442   04 Jun 2027 19:28:28.995   04 Jun 2027 19:29:48.586            79.591               CapeTown          2487.219
       443   04 Jun 2027 20:04:23.702   04 Jun 2027 20:07:48.266           204.564                Anadyr2          6392.625
       444   04 Jun 2027 20:07:52.155   04 Jun 2027 20:08:44.197            52.042               Magadan1          1626.312
       445   04 Jun 2027 20:08:53.111   04 Jun 2027 20:09:19.986            26.875               Magadan1           839.844
       446   04 Jun 2027 20:11:10.954   04 Jun 2027 20:11:36.432            25.478               Magadan2           796.188
       447   04 Jun 2027 20:15:31.922   04 Jun 2027 20:15:55.278            23.356               Magadan2           729.875
       448   04 Jun 2027 20:18:29.794   04 Jun 2027 20:18:33.869             4.075               Magadan1           127.344
       449   04 Jun 2027 21:40:18.408   04 Jun 2027 21:42:21.767           123.359                Anadyr1          3854.969
       450   04 Jun 2027 21:42:33.764   04 Jun 2027 21:43:59.998            86.234                Anadyr2          2694.813
       451   04 Jun 2027 21:44:15.971   04 Jun 2027 21:46:11.491           115.520                Norilsk          3610.000
       452   04 Jun 2027 21:46:15.272   04 Jun 2027 21:46:58.236            42.964               Magadan1          1342.625
       453   04 Jun 2027 21:47:35.057   04 Jun 2027 21:48:10.346            35.289               Magadan2          1102.781
       454   04 Jun 2027 21:48:25.229   04 Jun 2027 21:48:56.392            31.163               Magadan1           973.844
       455   04 Jun 2027 21:49:29.914   04 Jun 2027 21:49:43.737            13.823               Magadan2           431.969
       456   04 Jun 2027 21:54:03.841   04 Jun 2027 21:54:29.168            25.327               Magadan2           791.469
       457   04 Jun 2027 22:34:39.700   04 Jun 2027 22:36:50.462           130.762            RioGallegos          4086.313
       458   04 Jun 2027 22:40:23.291   04 Jun 2027 22:40:33.443            10.152            RioGallegos           317.250
       459   04 Jun 2027 22:42:47.132   04 Jun 2027 22:43:09.685            22.553            RioGallegos           704.781
       460   04 Jun 2027 23:15:53.400   04 Jun 2027 23:16:38.974            45.574                Anadyr2          1424.187
       461   04 Jun 2027 23:16:54.254   04 Jun 2027 23:17:04.686            10.432                Anadyr2           326.000
       462   04 Jun 2027 23:18:07.674   04 Jun 2027 23:19:48.136           100.462                Norilsk          3139.437
       463   04 Jun 2027 23:19:49.621   04 Jun 2027 23:20:26.564            36.943               Magadan2          1154.469
       464   04 Jun 2027 23:20:58.557   04 Jun 2027 23:21:33.132            34.575               Magadan1          1080.469
       465   04 Jun 2027 23:21:33.132   04 Jun 2027 23:21:43.212            10.080               Magadan2           315.000
       466   04 Jun 2027 23:22:16.415   04 Jun 2027 23:23:08.347            51.932                Irkutsk          1622.875
       467   04 Jun 2027 23:23:56.725   04 Jun 2027 23:24:49.807            53.082                Novosib          1658.812
       468   04 Jun 2027 23:25:43.269   04 Jun 2027 23:26:40.817            57.548                Novosib          1798.375
       469   04 Jun 2027 23:35:59.867   04 Jun 2027 23:36:39.462            39.595                Sumatra          1237.344
       470   04 Jun 2027 23:38:51.642   04 Jun 2027 23:39:09.053            17.411                Sumatra           544.094
       471   04 Jun 2027 23:44:18.038   04 Jun 2027 23:45:28.770            70.732                Sumatra          2210.375
       472   05 Jun 2027 00:15:02.023   05 Jun 2027 00:15:19.520            17.497            RioGallegos           546.781
       473   05 Jun 2027 00:16:05.716   05 Jun 2027 00:16:26.785            21.069            RioGallegos           658.406
       474   05 Jun 2027 00:20:03.107   05 Jun 2027 00:20:20.564            17.457            RioGallegos           545.531
       475   05 Jun 2027 00:21:40.965   05 Jun 2027 00:22:51.589            70.624            RioGallegos          2207.000
       476   05 Jun 2027 00:52:08.745   05 Jun 2027 00:52:30.881            22.136                Anadyr2           691.750
       477   05 Jun 2027 00:52:30.881   05 Jun 2027 00:52:48.099            17.218                Anadyr1           538.062
       478   05 Jun 2027 00:52:48.887   05 Jun 2027 00:52:51.219             2.332                Anadyr2            72.875
       479   05 Jun 2027 00:53:18.058   05 Jun 2027 00:53:19.544             1.486                Anadyr1            46.438
       480   05 Jun 2027 00:54:05.947   05 Jun 2027 00:55:48.243           102.296                Norilsk          3196.750
       481   05 Jun 2027 00:57:32.196   05 Jun 2027 00:57:52.200            20.004                Norilsk           625.125
       482   05 Jun 2027 00:57:59.072   05 Jun 2027 00:59:59.299           120.227                Irkutsk          3757.094
