uniorb/output/strategy_2/Drop/Drop_KinoSat_110409.txt

KinoSat_110409
-------------------------
    Access    *     Start Time (UTCG)     *     Stop Time (UTCG)  *   Duration (s)        *       Station  *  Data (Mbytes)
         1   01 Jun 2027 03:11:50.304   01 Jun 2027 03:12:02.485            12.181               Magadan2          1165.500
         2   01 Jun 2027 03:12:14.092   01 Jun 2027 03:13:40.412            86.320                Irkutsk          5803.500
         3   01 Jun 2027 03:13:49.494   01 Jun 2027 03:14:29.727            40.233               Magadan1          4541.000
         4   01 Jun 2027 03:14:36.605   01 Jun 2027 03:15:41.686            65.081               Magadan1          3439.000
         5   01 Jun 2027 03:15:53.083   01 Jun 2027 03:17:22.172            89.089                Irkutsk          5698.500
         6   01 Jun 2027 03:17:24.954   01 Jun 2027 03:17:47.456            22.502                Norilsk          1391.000
         7   01 Jun 2027 03:17:52.818   01 Jun 2027 03:18:17.268            24.450                Norilsk          2681.000
         8   01 Jun 2027 03:18:17.766   01 Jun 2027 03:18:29.104            11.338                Irkutsk           249.000
         9   01 Jun 2027 03:18:30.523   01 Jun 2027 03:19:03.348            32.825               Magadan1           709.500
        10   01 Jun 2027 03:19:08.447   01 Jun 2027 03:19:50.787            42.340                Novosib          2549.500
        11   01 Jun 2027 03:19:53.974   01 Jun 2027 03:20:14.012            20.038                Anadyr2          1593.500
        12   01 Jun 2027 03:20:22.396   01 Jun 2027 03:20:56.005            33.609              Murmansk1          2793.500
        13   01 Jun 2027 04:49:45.213   01 Jun 2027 04:51:44.280           119.067                Novosib         11442.500
        14   01 Jun 2027 04:51:49.961   01 Jun 2027 04:52:21.077            31.116               Magadan1          2840.500
        15   01 Jun 2027 04:52:21.406   01 Jun 2027 04:52:29.845             8.439               Magadan2           164.500
        16   01 Jun 2027 04:52:39.951   01 Jun 2027 04:53:24.236            44.285                Norilsk          5053.000
        17   01 Jun 2027 04:53:28.088   01 Jun 2027 04:53:49.048            20.960                Norilsk          1926.000
        18   01 Jun 2027 04:53:59.723   01 Jun 2027 04:54:34.886            35.163                Novosib          4395.375
        19   01 Jun 2027 04:54:35.835   01 Jun 2027 04:54:48.453            12.618               Magadan1          1416.625
        20   01 Jun 2027 04:54:56.023   01 Jun 2027 04:55:43.863            47.840                Novosib          3785.000
        21   01 Jun 2027 04:55:44.599   01 Jun 2027 04:55:53.432             8.833              Murmansk1           368.000
        22   01 Jun 2027 04:56:03.629   01 Jun 2027 04:57:20.278            76.649              Murmansk2          5098.500
        23   01 Jun 2027 06:26:05.418   01 Jun 2027 06:26:26.137            20.719                Irkutsk           124.500
        24   01 Jun 2027 06:26:32.719   01 Jun 2027 06:27:01.742            29.023                Irkutsk          3291.000
        25   01 Jun 2027 06:27:26.986   01 Jun 2027 06:29:21.998           115.012                Norilsk         12622.000
        26   01 Jun 2027 06:29:35.995   01 Jun 2027 06:30:49.963            73.968                Novosib          6998.500
        27   01 Jun 2027 06:30:53.940   01 Jun 2027 06:31:40.925            46.985                Norilsk          1988.500
        28   01 Jun 2027 06:31:45.323   01 Jun 2027 06:32:40.537            55.214              Murmansk2          2199.000
        29   01 Jun 2027 06:32:41.183   01 Jun 2027 06:32:43.882             2.699                Norilsk           323.000
        30   01 Jun 2027 08:04:08.412   01 Jun 2027 08:04:09.798             1.386                Irkutsk            36.500
        31   01 Jun 2027 08:04:15.226   01 Jun 2027 08:04:41.267            26.041                 Moscow          2714.000
        32   01 Jun 2027 08:04:43.996   01 Jun 2027 08:05:28.973            44.977              Murmansk1          1364.500
        33   01 Jun 2027 08:05:31.129   01 Jun 2027 08:05:47.904            16.775              Murmansk2          1078.000
        34   01 Jun 2027 08:06:05.041   01 Jun 2027 08:07:17.529            72.488                Norilsk          8568.500
        35   01 Jun 2027 08:07:28.922   01 Jun 2027 08:08:58.276            89.354                Novosib          5696.500
        36   01 Jun 2027 09:38:09.988   01 Jun 2027 09:39:36.680            86.692                 Moscow         10220.500
        37   01 Jun 2027 09:39:39.176   01 Jun 2027 09:39:49.284            10.108                 Moscow          1248.000
        38   01 Jun 2027 09:40:02.547   01 Jun 2027 09:41:25.584            83.037                 Moscow          6631.500
        39   01 Jun 2027 09:41:29.089   01 Jun 2027 09:41:50.427            21.338              Murmansk1          1752.500
        40   01 Jun 2027 09:42:02.647   01 Jun 2027 09:43:10.874            68.227                 Moscow          6110.000
        41   01 Jun 2027 09:43:12.648   01 Jun 2027 09:43:24.924            12.276                Norilsk           887.000
        42   01 Jun 2027 09:43:37.166   01 Jun 2027 09:44:44.157            66.991              Murmansk1          6121.000
        43   01 Jun 2027 09:44:52.488   01 Jun 2027 09:45:28.258            35.770              Murmansk1           723.000
        44   02 Jun 2027 03:23:19.058   02 Jun 2027 03:23:47.794            28.736               Magadan2           328.000
        45   02 Jun 2027 03:23:51.573   02 Jun 2027 03:24:36.375            44.802                Irkutsk          1889.500
        46   02 Jun 2027 03:24:47.977   02 Jun 2027 03:26:00.168            72.191               Magadan1          5801.000
        47   02 Jun 2027 03:26:08.077   02 Jun 2027 03:26:32.537            24.460               Magadan2          3057.500
        48   02 Jun 2027 03:26:34.770   02 Jun 2027 03:26:54.477            19.707               Magadan2          2013.500
        49   02 Jun 2027 03:27:00.357   02 Jun 2027 03:27:46.589            46.232                Anadyr1          2940.000
        50   02 Jun 2027 03:27:54.604   02 Jun 2027 03:28:40.150            45.546                Irkutsk          4007.500
        51   02 Jun 2027 03:28:40.644   02 Jun 2027 03:29:03.902            23.258                Novosib           247.000
        52   02 Jun 2027 03:29:04.588   02 Jun 2027 03:29:21.143            16.555               Magadan2           343.000
        53   02 Jun 2027 03:29:22.178   02 Jun 2027 03:29:30.800             8.622                Norilsk           517.500
        54   02 Jun 2027 03:29:30.850   02 Jun 2027 03:29:34.888             4.038                Irkutsk            25.000
        55   02 Jun 2027 03:29:35.751   02 Jun 2027 03:30:54.771            79.020                Anadyr2           431.500
        56   02 Jun 2027 03:30:59.483   02 Jun 2027 03:31:37.288            37.805                Anadyr2          2356.000
        57   02 Jun 2027 03:31:47.956   02 Jun 2027 03:31:55.235             7.279                Anadyr2           378.500
        58   02 Jun 2027 03:32:07.890   02 Jun 2027 03:33:10.051            62.161              Murmansk2          6327.500
        59   02 Jun 2027 05:01:29.674   02 Jun 2027 05:02:34.690            65.016                Irkutsk          6598.500
        60   02 Jun 2027 05:02:37.367   02 Jun 2027 05:03:18.017            40.650               Magadan1          1338.500
        61   02 Jun 2027 05:03:37.738   02 Jun 2027 05:05:32.425           114.687                Irkutsk          9860.500
        62   02 Jun 2027 05:05:49.305   02 Jun 2027 05:06:59.763            70.458                Novosib          8440.000
        63   02 Jun 2027 05:07:06.591   02 Jun 2027 05:07:44.734            38.143              Murmansk1          3414.000
        64   02 Jun 2027 05:08:04.515   02 Jun 2027 05:09:15.843            71.328                Norilsk          8916.000
        65   02 Jun 2027 05:09:16.188   02 Jun 2027 05:09:45.845            29.657              Murmansk2           974.500
        66   02 Jun 2027 06:38:17.616   02 Jun 2027 06:38:48.121            30.505                Irkutsk          2874.000
        67   02 Jun 2027 06:38:52.927   02 Jun 2027 06:39:22.977            30.050                Norilsk          2403.000
        68   02 Jun 2027 06:39:42.485   02 Jun 2027 06:41:11.413            88.928                Novosib          9754.000
        69   02 Jun 2027 06:41:14.936   02 Jun 2027 06:42:02.068            47.132                Irkutsk          1761.500
        70   02 Jun 2027 06:42:03.982   02 Jun 2027 06:42:37.290            33.308                Irkutsk           957.000
        71   02 Jun 2027 06:42:47.385   02 Jun 2027 06:43:46.513            59.128                Irkutsk          5047.500
        72   02 Jun 2027 06:43:51.398   02 Jun 2027 06:44:25.381            33.983                Novosib            11.500
        73   02 Jun 2027 06:44:32.304   02 Jun 2027 06:45:00.185            27.881              Murmansk2          3461.500
        74   02 Jun 2027 08:16:02.177   02 Jun 2027 08:16:15.837            13.660                 Moscow          1707.500
        75   02 Jun 2027 08:16:22.161   02 Jun 2027 08:17:32.001            69.840                Norilsk          5418.000
        76   02 Jun 2027 08:17:32.506   02 Jun 2027 08:17:47.740            15.234              Murmansk2           252.500
        77   02 Jun 2027 08:17:53.725   02 Jun 2027 08:18:24.787            31.062                Norilsk          2992.500
        78   02 Jun 2027 08:18:29.130   02 Jun 2027 08:19:06.001            36.871              Murmansk2          2171.500
        79   02 Jun 2027 08:19:06.480   02 Jun 2027 08:19:16.125             9.645              Murmansk2           239.500
        80   02 Jun 2027 08:19:18.109   02 Jun 2027 08:19:53.462            35.353                Norilsk           992.000
        81   02 Jun 2027 08:19:55.409   02 Jun 2027 08:20:02.541             7.132                Norilsk           891.500
        82   02 Jun 2027 08:20:17.271   02 Jun 2027 08:21:45.681            88.410              Murmansk1          6931.500
        83   02 Jun 2027 09:50:20.976   02 Jun 2027 09:51:10.535            49.559              Murmansk2          5622.500
        84   02 Jun 2027 09:51:25.703   02 Jun 2027 09:52:18.614            52.911                 Moscow          6137.500
        85   02 Jun 2027 09:52:36.712   02 Jun 2027 09:54:20.876           104.164              Murmansk1          9049.000
        86   02 Jun 2027 09:54:24.595   02 Jun 2027 09:54:41.369            16.774                 Moscow          1859.500
        87   02 Jun 2027 09:54:45.022   02 Jun 2027 09:55:11.516            26.494              Murmansk1          1826.500
        88   02 Jun 2027 09:55:13.774   02 Jun 2027 09:55:51.879            38.105                 Moscow          1129.000
        89   03 Jun 2027 03:36:29.378   03 Jun 2027 03:37:39.844            70.466               Magadan1          8597.000
        90   03 Jun 2027 03:37:46.316   03 Jun 2027 03:38:34.365            48.049               Magadan2          3236.000
        91   03 Jun 2027 03:38:35.345   03 Jun 2027 03:39:28.892            53.547               Magadan1           490.000
        92   03 Jun 2027 03:39:29.067   03 Jun 2027 03:39:33.279             4.212               Magadan1            87.500
        93   03 Jun 2027 03:39:37.006   03 Jun 2027 03:39:50.657            13.651                Norilsk          1706.375
        94   03 Jun 2027 03:39:54.667   03 Jun 2027 03:40:15.005            20.338                Anadyr2          2162.125
        95   03 Jun 2027 03:40:18.005   03 Jun 2027 03:40:33.591            15.586                Anadyr2          1500.000
        96   03 Jun 2027 03:40:37.925   03 Jun 2027 03:41:02.685            24.760                Novosib          2167.000
        97   03 Jun 2027 03:41:18.225   03 Jun 2027 03:42:29.294            71.069                Norilsk          7770.000
        98   03 Jun 2027 03:42:38.323   03 Jun 2027 03:43:32.563            54.240               Magadan2          4514.500
        99   03 Jun 2027 03:43:36.277   03 Jun 2027 03:43:50.753            14.476                Anadyr1          1809.500
       100   03 Jun 2027 03:43:54.047   03 Jun 2027 03:44:09.250            15.203              Murmansk1          1694.500
       101   03 Jun 2027 03:44:13.781   03 Jun 2027 03:44:45.793            32.012               Magadan2          2265.500
       102   03 Jun 2027 03:44:46.844   03 Jun 2027 03:44:52.821             5.977                Norilsk           495.500
       103   03 Jun 2027 05:13:47.081   03 Jun 2027 05:14:12.112            25.031                Norilsk          3128.875
       104   03 Jun 2027 05:14:15.714   03 Jun 2027 05:14:23.755             8.041                Novosib          1005.125
       105   03 Jun 2027 05:14:29.984   03 Jun 2027 05:14:47.246            17.262                Novosib          2157.750
       106   03 Jun 2027 05:14:56.792   03 Jun 2027 05:15:48.261            51.469                Irkutsk          6433.625
       107   03 Jun 2027 05:15:56.663   03 Jun 2027 05:16:51.979            55.316                Norilsk          5830.625
       108   03 Jun 2027 05:16:56.862   03 Jun 2027 05:17:21.092            24.230                Norilsk          2441.500
       109   03 Jun 2027 05:17:21.924   03 Jun 2027 05:17:44.705            22.781                Novosib           416.000
       110   03 Jun 2027 05:17:48.257   03 Jun 2027 05:18:07.266            19.009               Magadan1          1776.000
       111   03 Jun 2027 05:18:08.707   03 Jun 2027 05:18:15.014             6.307              Murmansk2           720.500
       112   03 Jun 2027 05:18:22.458   03 Jun 2027 05:19:13.262            50.804                Norilsk          3722.000
       113   03 Jun 2027 05:19:13.350   03 Jun 2027 05:19:25.272            11.922              Murmansk1            44.000
       114   03 Jun 2027 05:19:44.528   03 Jun 2027 05:21:03.761            79.233              Murmansk2          9628.000
       115   03 Jun 2027 06:50:45.449   03 Jun 2027 06:51:18.326            32.877                Norilsk          2077.500
       116   03 Jun 2027 06:51:51.643   03 Jun 2027 06:54:12.583           140.940                Norilsk         16658.500
       117   03 Jun 2027 06:54:14.339   03 Jun 2027 06:55:13.371            59.032              Murmansk2           878.000
       118   03 Jun 2027 06:55:28.423   03 Jun 2027 06:56:18.550            50.127                Norilsk          5333.500
       119   03 Jun 2027 06:56:23.144   03 Jun 2027 06:56:47.461            24.317              Murmansk1          2297.000
       120   03 Jun 2027 08:27:35.728   03 Jun 2027 08:28:21.736            46.008              Murmansk1          4595.500
       121   03 Jun 2027 08:28:24.601   03 Jun 2027 08:28:43.471            18.870                Norilsk          1432.500
       122   03 Jun 2027 08:29:07.135   03 Jun 2027 08:31:46.180           159.045                Novosib         11832.000
       123   03 Jun 2027 08:31:47.292   03 Jun 2027 08:32:22.126            34.834                Novosib           556.000
       124   03 Jun 2027 10:02:46.149   03 Jun 2027 10:03:04.163            18.014                 Moscow          1684.500
       125   03 Jun 2027 10:04:26.175   03 Jun 2027 10:05:35.066            68.891                 Moscow           933.500
       126   03 Jun 2027 10:05:39.783   03 Jun 2027 10:06:21.583            41.800              Murmansk2          2358.500
       127   03 Jun 2027 10:06:43.386   03 Jun 2027 10:07:03.753            20.367                 Moscow          2545.875
       128   03 Jun 2027 10:07:16.172   03 Jun 2027 10:09:33.504           137.332                 Moscow         13245.125
       129   04 Jun 2027 03:49:12.081   04 Jun 2027 03:51:01.135           109.054               Magadan1         12459.500
       130   04 Jun 2027 03:51:19.170   04 Jun 2027 03:52:49.325            90.155               Magadan1          9017.500
       131   04 Jun 2027 03:52:50.983   04 Jun 2027 03:53:01.885            10.902                Novosib           829.000
       132   04 Jun 2027 03:53:13.169   04 Jun 2027 03:53:55.065            41.896                Norilsk          5237.000
       133   04 Jun 2027 03:54:15.491   04 Jun 2027 03:55:49.098            93.607                Novosib         10618.000
       134   04 Jun 2027 03:55:55.361   04 Jun 2027 03:56:27.128            31.767               Magadan1          3131.500
       135   04 Jun 2027 03:56:33.414   04 Jun 2027 03:57:33.195            59.781                Novosib          3143.000
       136   04 Jun 2027 05:25:57.272   04 Jun 2027 05:26:26.601            29.329                Novosib          3359.500
       137   04 Jun 2027 05:26:39.206   04 Jun 2027 05:27:46.780            67.574                Irkutsk          6302.500
       138   04 Jun 2027 05:27:48.230   04 Jun 2027 05:28:03.231            15.001                Irkutsk           725.000
       139   04 Jun 2027 05:28:10.702   04 Jun 2027 05:28:44.056            33.354                Norilsk          3735.500
       140   04 Jun 2027 05:28:56.045   04 Jun 2027 05:30:05.177            69.132                Norilsk          5994.500
       141   04 Jun 2027 05:30:07.608   04 Jun 2027 05:30:55.390            47.782              Murmansk1          1215.500
       142   04 Jun 2027 05:30:57.621   04 Jun 2027 05:31:12.290            14.669                Irkutsk          1115.500
       143   04 Jun 2027 05:31:23.403   04 Jun 2027 05:31:38.843            15.440                Norilsk          1930.000
       144   04 Jun 2027 05:31:43.955   04 Jun 2027 05:32:49.714            65.759              Murmansk2          6182.500
       145   04 Jun 2027 07:02:47.330   04 Jun 2027 07:03:13.003            25.673                Norilsk            75.500
       146   04 Jun 2027 07:03:27.528   04 Jun 2027 07:05:06.766            99.238                Irkutsk          7262.500
       147   04 Jun 2027 07:05:08.054   04 Jun 2027 07:06:15.037            66.983                Irkutsk           644.000
       148   04 Jun 2027 07:06:16.313   04 Jun 2027 07:07:11.465            55.152              Murmansk2           638.000
       149   04 Jun 2027 07:07:21.784   04 Jun 2027 07:07:59.389            37.605                Novosib          4700.625
       150   04 Jun 2027 07:08:03.038   04 Jun 2027 07:08:13.160            10.122              Murmansk2           458.875
       151   04 Jun 2027 08:39:35.052   04 Jun 2027 08:40:00.093            25.041                Norilsk           966.500
       152   04 Jun 2027 08:40:06.593   04 Jun 2027 08:40:45.335            38.742                Norilsk          3250.000
       153   04 Jun 2027 08:40:59.863   04 Jun 2027 08:42:35.070            95.207                Novosib          7264.000
       154   04 Jun 2027 08:42:37.700   04 Jun 2027 08:43:35.979            58.279              Murmansk1          1315.000
       155   04 Jun 2027 08:43:47.526   04 Jun 2027 08:44:39.577            52.051                Norilsk          5773.500
       156   04 Jun 2027 08:44:43.422   04 Jun 2027 08:45:18.582            35.160                Novosib           392.000
       157   04 Jun 2027 10:17:47.618   04 Jun 2027 10:18:39.854            52.236                 Moscow           472.000
       158   04 Jun 2027 10:18:40.415   04 Jun 2027 10:19:18.040            37.625                 Moscow           280.500
       159   05 Jun 2027 04:02:06.196   05 Jun 2027 04:02:36.369            30.173               Magadan1          3743.000
       160   05 Jun 2027 04:02:40.856   05 Jun 2027 04:03:06.095            25.239               Magadan2          2243.500
       161   05 Jun 2027 04:03:19.771   05 Jun 2027 04:04:03.504            43.733                Novosib          5466.625
       162   05 Jun 2027 04:04:04.399   05 Jun 2027 04:04:11.475             7.076                Norilsk           884.500
       163   05 Jun 2027 04:04:22.901   05 Jun 2027 04:05:25.590            62.689               Magadan2          6647.375
       164   05 Jun 2027 04:05:26.145   05 Jun 2027 04:05:36.069             9.924                Norilsk           277.500
       165   05 Jun 2027 04:05:40.965   05 Jun 2027 04:06:06.496            25.531                Norilsk          2448.000
       166   05 Jun 2027 04:06:21.459   05 Jun 2027 04:07:35.341            73.882                Novosib          7481.500
       167   05 Jun 2027 04:07:44.193   05 Jun 2027 04:07:54.628            10.435                Novosib          1304.375
       168   05 Jun 2027 04:07:56.837   05 Jun 2027 04:08:32.008            35.171              Murmansk2          4226.125
       169   05 Jun 2027 04:08:46.098   05 Jun 2027 04:09:43.354            57.256                Novosib          6633.500
       170   05 Jun 2027 05:38:40.903   05 Jun 2027 05:40:11.619            90.716                Novosib         10007.000
       171   05 Jun 2027 05:40:11.864   05 Jun 2027 05:40:36.794            24.930                Norilsk           122.500
       172   05 Jun 2027 05:40:50.781   05 Jun 2027 05:41:49.065            58.284                Irkutsk          6993.500
       173   05 Jun 2027 05:41:51.410   05 Jun 2027 05:42:55.832            64.422                Novosib          1172.500
       174   05 Jun 2027 05:42:57.377   05 Jun 2027 05:43:34.049            36.672              Murmansk2           772.500
       175   05 Jun 2027 05:43:34.162   05 Jun 2027 05:43:39.963             5.801                Novosib            56.500
       176   05 Jun 2027 05:43:41.111   05 Jun 2027 05:44:04.997            23.886              Murmansk2           574.000
       177   05 Jun 2027 05:44:11.602   05 Jun 2027 05:44:40.120            28.518              Murmansk1          3302.500
       178   05 Jun 2027 07:15:49.917   05 Jun 2027 07:16:20.343            30.426              Murmansk1           516.500
       179   05 Jun 2027 07:16:32.142   05 Jun 2027 07:18:20.218           108.076                Irkutsk          5899.500
       180   05 Jun 2027 07:18:31.151   05 Jun 2027 07:19:13.018            41.867                Novosib          5233.375
       181   05 Jun 2027 07:19:16.553   05 Jun 2027 07:19:48.511            31.958              Murmansk2          2000.625
       182   05 Jun 2027 07:19:56.937   05 Jun 2027 07:20:35.436            38.499                Norilsk          4213.000
       183   05 Jun 2027 08:51:57.477   05 Jun 2027 08:52:15.044            17.567              Murmansk1          1008.500
       184   05 Jun 2027 08:52:25.578   05 Jun 2027 08:53:26.094            60.516                 Moscow          5267.000
       185   05 Jun 2027 08:53:29.861   05 Jun 2027 08:53:51.146            21.285                Norilsk          1883.500
       186   05 Jun 2027 08:53:55.782   05 Jun 2027 08:54:14.833            19.051              Murmansk1          2318.000
       187   05 Jun 2027 08:54:34.934   05 Jun 2027 08:55:55.477            80.543                Norilsk         10050.500
       188   05 Jun 2027 08:56:01.786   05 Jun 2027 08:56:37.534            35.748                Norilsk          3154.500
       189   06 Jun 2027 04:14:10.967   06 Jun 2027 04:14:27.099            16.132               Magadan1          1734.000
       190   06 Jun 2027 04:14:38.283   06 Jun 2027 04:15:34.405            56.122               Magadan1          5592.000
       191   06 Jun 2027 04:15:38.679   06 Jun 2027 04:16:05.514            26.835                Norilsk          2137.000
       192   06 Jun 2027 04:16:19.496   06 Jun 2027 04:17:31.478            71.982                Novosib          6991.000
       193   06 Jun 2027 04:17:40.740   06 Jun 2027 04:19:00.603            79.863                Norilsk          4631.000
       194   06 Jun 2027 04:19:03.097   06 Jun 2027 04:19:25.372            22.275                Norilsk          1247.000
       195   06 Jun 2027 04:19:29.426   06 Jun 2027 04:19:57.980            28.554              Murmansk1          2027.000
       196   06 Jun 2027 04:20:08.106   06 Jun 2027 04:20:58.036            49.930                Novosib          5063.000
       197   06 Jun 2027 05:50:10.931   06 Jun 2027 05:50:58.870            47.939                Novosib          2378.000
       198   06 Jun 2027 05:51:03.539   06 Jun 2027 05:51:40.046            36.507                Irkutsk          2334.500
       199   06 Jun 2027 05:51:44.868   06 Jun 2027 05:52:04.284            19.416                Norilsk          2411.000
       200   06 Jun 2027 05:52:13.213   06 Jun 2027 05:52:55.501            42.288                Norilsk          4464.500
       201   06 Jun 2027 05:52:57.652   06 Jun 2027 05:53:36.566            38.914                Irkutsk          1075.500
       202   06 Jun 2027 05:53:39.424   06 Jun 2027 05:54:01.692            22.268                Novosib          1429.000
       203   06 Jun 2027 05:54:02.053   06 Jun 2027 05:54:05.666             3.613              Murmansk2           180.500
       204   06 Jun 2027 05:54:11.097   06 Jun 2027 05:54:38.902            27.805                Norilsk          2715.500
       205   06 Jun 2027 05:54:39.859   06 Jun 2027 05:54:50.514            10.655              Murmansk2           478.500
       206   06 Jun 2027 05:55:03.082   06 Jun 2027 05:55:27.620            24.538                Norilsk          3067.250
       207   06 Jun 2027 05:55:33.126   06 Jun 2027 05:56:52.962            79.836                Norilsk          5969.750
       208   06 Jun 2027 07:27:57.465   06 Jun 2027 07:28:26.470            29.005                Irkutsk          1068.500
       209   06 Jun 2027 07:28:27.768   06 Jun 2027 07:28:35.488             7.720              Murmansk2           649.000
       210   06 Jun 2027 07:28:41.282   06 Jun 2027 07:29:55.877            74.595                Norilsk          2897.000
       211   06 Jun 2027 07:29:58.720   06 Jun 2027 07:30:15.038            16.318                Norilsk          1421.500
       212   06 Jun 2027 07:30:19.843   06 Jun 2027 07:30:53.940            34.097              Murmansk2          2402.500
       213   06 Jun 2027 07:31:02.040   06 Jun 2027 07:31:36.628            34.588                Novosib          4050.000
       214   06 Jun 2027 07:31:40.794   06 Jun 2027 07:32:08.980            28.186              Murmansk1          2083.000
       215   06 Jun 2027 07:32:20.234   06 Jun 2027 07:32:28.988             8.754                Norilsk          1094.250
       216   06 Jun 2027 07:32:33.676   06 Jun 2027 07:33:42.502            68.826                 Moscow          4532.750
       217   06 Jun 2027 09:04:09.657   06 Jun 2027 09:05:04.598            54.941              Murmansk2          6256.500
       218   06 Jun 2027 09:05:11.195   06 Jun 2027 09:06:34.935            83.740                Novosib          3298.500
       219   06 Jun 2027 09:06:35.529   06 Jun 2027 09:07:26.834            51.305              Murmansk2           297.000
       220   06 Jun 2027 09:07:29.958   06 Jun 2027 09:07:43.741            13.783                Norilsk          1562.000
       221   06 Jun 2027 09:07:48.896   06 Jun 2027 09:08:10.468            21.572              Murmansk1          2577.500
       222   06 Jun 2027 09:08:18.288   06 Jun 2027 09:08:44.387            26.099                Novosib          2981.000
       223   06 Jun 2027 09:08:52.333   06 Jun 2027 09:09:43.617            51.284                Norilsk          3973.000
       224   07 Jun 2027 04:26:03.470   07 Jun 2027 04:27:25.149            81.679                Norilsk         10209.875
       225   07 Jun 2027 04:27:34.399   07 Jun 2027 04:29:26.830           112.431               Magadan2         10698.625
       226   07 Jun 2027 04:29:33.768   07 Jun 2027 04:30:11.756            37.988                Irkutsk          3469.000
       227   07 Jun 2027 04:30:27.572   07 Jun 2027 04:31:34.145            66.573                Irkutsk          7908.000
       228   07 Jun 2027 04:31:58.914   07 Jun 2027 04:33:57.626           118.712              Murmansk1         12384.500
       229   07 Jun 2027 06:02:10.088   07 Jun 2027 06:03:20.812            70.724                Novosib          1032.500
       230   07 Jun 2027 06:03:33.695   07 Jun 2027 06:04:27.734            54.039                Novosib          6441.500
       231   07 Jun 2027 06:04:41.805   07 Jun 2027 06:05:44.141            62.336                Novosib          7035.500
       232   07 Jun 2027 06:05:49.098   07 Jun 2027 06:06:12.309            23.211                Norilsk          2478.500
       233   07 Jun 2027 06:06:12.431   07 Jun 2027 06:06:24.319            11.888                Irkutsk            61.000
       234   07 Jun 2027 06:06:27.628   07 Jun 2027 06:06:55.965            28.337                Norilsk          1654.500
       235   07 Jun 2027 06:07:08.591   07 Jun 2027 06:08:18.660            70.069              Murmansk1          6313.000
       236   07 Jun 2027 06:08:23.663   07 Jun 2027 06:08:46.231            22.568                 Moscow          2501.500
       237   07 Jun 2027 07:40:34.304   07 Jun 2027 07:41:55.335            81.031                Norilsk          4193.000
       238   07 Jun 2027 07:42:03.950   07 Jun 2027 07:43:06.531            62.581              Murmansk2          4307.500
       239   07 Jun 2027 07:43:12.250   07 Jun 2027 07:43:39.211            26.961              Murmansk2          2859.500
       240   07 Jun 2027 07:43:40.296   07 Jun 2027 07:44:30.944            50.648                Novosib           542.500
       241   07 Jun 2027 09:14:05.769   07 Jun 2027 09:15:42.228            96.459                 Moscow         10223.500
       242   07 Jun 2027 09:15:56.406   07 Jun 2027 09:16:42.014            45.608                Novosib          5592.000
       243   07 Jun 2027 09:16:52.345   07 Jun 2027 09:18:19.960            87.615                 Moscow          5165.500
       244   07 Jun 2027 09:18:25.184   07 Jun 2027 09:19:24.340            59.156                Norilsk          2612.000
       245   07 Jun 2027 09:19:42.572   07 Jun 2027 09:21:14.236            91.664                Norilsk          9116.000
       246   07 Jun 2027 09:21:15.470   07 Jun 2027 09:21:43.756            28.286                Norilsk           617.000
       247   08 Jun 2027 03:00:49.477   08 Jun 2027 03:01:37.140            47.663                Irkutsk          3700.000
       248   08 Jun 2027 03:01:40.952   08 Jun 2027 03:02:07.173            26.221                Anadyr2          1906.000
       249   08 Jun 2027 03:02:29.937   08 Jun 2027 03:03:05.997            36.060                Anadyr2          2636.000
       250   08 Jun 2027 03:03:08.075   08 Jun 2027 03:03:32.624            24.549               Magadan2          1039.000
       251   08 Jun 2027 03:03:36.801   08 Jun 2027 03:04:05.795            28.994                Irkutsk          2088.500
       252   08 Jun 2027 03:04:17.414   08 Jun 2027 03:04:50.072            32.658                Norilsk          4082.250
       253   08 Jun 2027 03:04:55.545   08 Jun 2027 03:05:15.717            20.172               Magadan2          2521.500
       254   08 Jun 2027 03:05:15.717   08 Jun 2027 03:05:31.737            16.020               Magadan1          1942.250
       255   08 Jun 2027 03:05:41.956   08 Jun 2027 03:07:10.291            88.335                Anadyr2          5109.500
       256   08 Jun 2027 03:07:11.997   08 Jun 2027 03:08:09.175            57.178                Anadyr2           853.000
       257   08 Jun 2027 04:37:35.132   08 Jun 2027 04:38:27.737            52.605               Magadan1          4509.500
       258   08 Jun 2027 04:38:40.225   08 Jun 2027 04:39:31.574            51.349               Magadan2          6244.000
       259   08 Jun 2027 04:40:01.562   08 Jun 2027 04:42:14.567           133.005                Irkutsk         14994.000
       260   08 Jun 2027 04:42:16.166   08 Jun 2027 04:42:43.505            27.339                Novosib           799.500
       261   08 Jun 2027 04:42:44.629   08 Jun 2027 04:42:50.826             6.197                Norilsk           562.000
       262   08 Jun 2027 04:42:51.281   08 Jun 2027 04:43:30.837            39.556               Magadan2           227.500
       263   08 Jun 2027 04:43:34.746   08 Jun 2027 04:44:03.691            28.945               Magadan1          1954.500
       264   08 Jun 2027 04:44:18.573   08 Jun 2027 04:44:38.019            19.446                Novosib          2430.750
       265   08 Jun 2027 04:44:39.947   08 Jun 2027 04:44:54.323            14.376                Irkutsk          1797.000
       266   08 Jun 2027 04:45:29.897   08 Jun 2027 04:46:06.653            36.756                Novosib          4432.250
       267   08 Jun 2027 06:14:31.447   08 Jun 2027 06:15:18.118            46.671                Irkutsk          1227.000
       268   08 Jun 2027 06:15:18.677   08 Jun 2027 06:15:28.052             9.375                Novosib           279.500
       269   08 Jun 2027 06:15:47.184   08 Jun 2027 06:17:05.866            78.682                Novosib          9566.000
       270   08 Jun 2027 06:17:08.723   08 Jun 2027 06:17:41.565            32.842                Irkutsk          1428.500
       271   08 Jun 2027 06:17:48.366   08 Jun 2027 06:18:17.590            29.224                Novosib          3400.500
       272   08 Jun 2027 06:18:18.303   08 Jun 2027 06:18:49.612            31.309                Novosib           356.500
       273   08 Jun 2027 06:18:54.362   08 Jun 2027 06:19:06.498            12.136                 Moscow          1517.000
       274   08 Jun 2027 06:19:12.026   08 Jun 2027 06:21:15.025           122.999                Novosib          3622.000
       275   08 Jun 2027 07:52:28.009   08 Jun 2027 07:53:07.911            39.902              Murmansk1          2434.000
       276   08 Jun 2027 07:53:15.370   08 Jun 2027 07:53:53.447            38.077                Irkutsk          3729.500
       277   08 Jun 2027 07:53:57.981   08 Jun 2027 07:54:38.568            40.587                Norilsk          2267.000
       278   08 Jun 2027 07:54:42.575   08 Jun 2027 07:55:43.566            60.991                Novosib          2003.500
       279   08 Jun 2027 07:55:44.204   08 Jun 2027 07:56:01.306            17.102              Murmansk2           319.000
       280   08 Jun 2027 07:56:07.844   08 Jun 2027 07:56:36.903            29.059                Norilsk          3269.000
       281   08 Jun 2027 09:26:03.922   08 Jun 2027 09:28:30.144           146.222                 Moscow         13478.000
       282   08 Jun 2027 09:28:39.421   08 Jun 2027 09:29:42.390            62.969                 Moscow          4638.500
       283   08 Jun 2027 09:29:46.041   08 Jun 2027 09:30:31.417            45.376                Novosib          1825.500
       284   08 Jun 2027 09:30:31.849   08 Jun 2027 09:31:01.134            29.285                 Moscow           216.000
       285   08 Jun 2027 09:31:15.607   08 Jun 2027 09:32:30.659            75.052              Murmansk1          7236.500
       286   08 Jun 2027 09:32:33.123   08 Jun 2027 09:33:11.954            38.831                 Moscow          1232.000
       287   08 Jun 2027 09:33:14.555   08 Jun 2027 09:33:45.264            30.709                Norilsk          1300.500
       288   09 Jun 2027 03:12:05.294   09 Jun 2027 03:12:17.147            11.853               Magadan1          1481.625
       289   09 Jun 2027 03:12:29.955   09 Jun 2027 03:13:58.904            88.949                Irkutsk          6421.875
       290   09 Jun 2027 03:14:05.070   09 Jun 2027 03:14:39.798            34.728               Magadan1          3083.000
       291   09 Jun 2027 03:14:40.255   09 Jun 2027 03:14:45.025             4.770               Magadan2           228.500
       292   09 Jun 2027 03:14:53.124   09 Jun 2027 03:15:56.335            63.211               Magadan1          4049.500
       293   09 Jun 2027 03:16:08.101   09 Jun 2027 03:17:36.421            88.320                Irkutsk          5883.000
       294   09 Jun 2027 03:17:41.148   09 Jun 2027 03:19:10.532            89.384                Anadyr2          2363.500
       295   09 Jun 2027 03:19:13.303   09 Jun 2027 03:20:07.875            54.572                Anadyr1          1385.500
       296   09 Jun 2027 03:20:08.666   09 Jun 2027 03:20:22.218            13.552                Novosib           395.500
       297   09 Jun 2027 03:20:23.742   09 Jun 2027 03:20:52.377            28.635               Magadan2           762.000
       298   09 Jun 2027 04:49:54.106   09 Jun 2027 04:51:10.546            76.440                Novosib          8680.500
       299   09 Jun 2027 04:51:11.887   09 Jun 2027 04:52:19.478            67.591                Novosib           670.500
       300   09 Jun 2027 04:52:23.172   09 Jun 2027 04:52:55.645            32.473                Norilsk          1847.000
       301   09 Jun 2027 04:52:56.299   09 Jun 2027 04:53:14.385            18.086                Norilsk           327.000
       302   09 Jun 2027 04:53:21.308   09 Jun 2027 04:54:13.950            52.642                Novosib          3461.500
       303   09 Jun 2027 04:54:33.901   09 Jun 2027 04:55:44.300            70.399               Magadan1          8799.875
       304   09 Jun 2027 04:55:46.762   09 Jun 2027 04:56:13.027            26.265              Murmansk1          2406.625
       305   09 Jun 2027 04:56:20.657   09 Jun 2027 04:57:36.688            76.031              Murmansk1          3815.000
       306   09 Jun 2027 06:26:19.990   09 Jun 2027 06:26:40.377            20.387                Irkutsk           251.500
       307   09 Jun 2027 06:26:47.951   09 Jun 2027 06:28:22.105            94.154                Irkutsk          3787.000
       308   09 Jun 2027 06:28:50.647   09 Jun 2027 06:31:05.303           134.656                Novosib         14271.000
       309   09 Jun 2027 06:31:08.586   09 Jun 2027 06:31:56.068            47.482                Norilsk          1641.500
       310   09 Jun 2027 06:31:57.986   09 Jun 2027 06:32:34.639            36.653                 Moscow           959.000
       311   09 Jun 2027 06:32:56.112   09 Jun 2027 06:34:04.741            68.629                Novosib          8578.625
       312   09 Jun 2027 06:34:08.859   09 Jun 2027 06:34:20.049            11.190              Murmansk1           902.375
       313   09 Jun 2027 08:04:23.298   09 Jun 2027 08:04:43.998            20.700                Norilsk           118.000
       314   09 Jun 2027 08:04:54.101   09 Jun 2027 08:05:39.548            45.447                Novosib          5051.500
       315   09 Jun 2027 08:05:45.980   09 Jun 2027 08:06:23.637            37.657              Murmansk1          3216.000
       316   09 Jun 2027 08:06:41.762   09 Jun 2027 08:08:31.559           109.797                 Moscow          9062.500
       317   09 Jun 2027 08:08:35.366   09 Jun 2027 08:08:55.491            20.125                Norilsk           420.000
       318   09 Jun 2027 09:38:24.645   09 Jun 2027 09:39:50.800            86.155                 Moscow          9861.000
       319   09 Jun 2027 09:39:54.012   09 Jun 2027 09:40:16.811            22.799                 Moscow          1606.000
       320   09 Jun 2027 09:40:29.144   09 Jun 2027 09:41:38.265            69.121                 Moscow          6166.500
       321   09 Jun 2027 09:41:43.951   09 Jun 2027 09:42:35.077            51.126              Murmansk2          2843.000
       322   09 Jun 2027 09:42:44.290   09 Jun 2027 09:43:25.533            41.243                 Moscow          4606.500
       323   09 Jun 2027 09:43:27.897   09 Jun 2027 09:43:41.505            13.608                Norilsk          1182.000
       324   09 Jun 2027 09:43:51.985   09 Jun 2027 09:44:39.923            47.938              Murmansk2          5240.000
       325   09 Jun 2027 09:44:41.581   09 Jun 2027 09:45:32.595            51.014                 Moscow           829.000
       326   10 Jun 2027 03:24:02.324   10 Jun 2027 03:26:15.911           133.587               Magadan1         14849.000
       327   10 Jun 2027 03:26:22.739   10 Jun 2027 03:26:51.377            28.638               Magadan2          3414.000
       328   10 Jun 2027 03:27:05.937   10 Jun 2027 03:27:54.827            48.890                Norilsk          6111.250
       329   10 Jun 2027 03:28:01.744   10 Jun 2027 03:28:45.709            43.965                Anadyr1          4627.250
       330   10 Jun 2027 03:28:47.659   10 Jun 2027 03:28:55.479             7.820                Novosib           975.000
       331   10 Jun 2027 03:29:05.306   10 Jun 2027 03:30:12.820            67.514               Magadan1          4913.500
       332   10 Jun 2027 03:30:19.932   10 Jun 2027 03:31:07.535            47.603                Novosib          3556.000
       333   10 Jun 2027 03:31:07.841   10 Jun 2027 03:31:39.156            31.315                Irkutsk           153.000
       334   10 Jun 2027 03:31:46.067   10 Jun 2027 03:31:50.202             4.135                Norilsk           516.875
       335   10 Jun 2027 03:31:53.050   10 Jun 2027 03:32:01.856             8.806                Anadyr2           872.125
       336   10 Jun 2027 03:32:03.547   10 Jun 2027 03:32:11.229             7.682                Anadyr2           845.500
       337   10 Jun 2027 03:32:15.385   10 Jun 2027 03:32:46.555            31.170                Norilsk          2078.000
       338   10 Jun 2027 03:32:47.527   10 Jun 2027 03:33:03.537            16.010               Magadan2           486.000
       339   10 Jun 2027 05:01:48.500   10 Jun 2027 05:03:02.677            74.177               Magadan2          8709.500
       340   10 Jun 2027 05:03:16.227   10 Jun 2027 05:04:24.726            68.499                Novosib          6775.000
       341   10 Jun 2027 05:04:32.465   10 Jun 2027 05:05:23.069            50.604               Magadan1          3869.500
       342   10 Jun 2027 05:05:24.805   10 Jun 2027 05:06:32.659            67.854               Magadan1           868.000
       343   10 Jun 2027 05:06:34.836   10 Jun 2027 05:07:22.125            47.289              Murmansk2          1088.500
       344   10 Jun 2027 05:07:32.687   10 Jun 2027 05:08:17.963            45.276              Murmansk1          5281.000
       345   10 Jun 2027 05:08:22.722   10 Jun 2027 05:09:30.679            67.957              Murmansk1          2379.500
       346   10 Jun 2027 06:38:34.773   10 Jun 2027 06:39:28.734            53.961                Irkutsk          3617.000
       347   10 Jun 2027 06:39:40.263   10 Jun 2027 06:40:19.862            39.599                Norilsk          4949.875
       348   10 Jun 2027 06:40:20.877   10 Jun 2027 06:40:50.384            29.507                Irkutsk          1322.125
       349   10 Jun 2027 06:40:55.987   10 Jun 2027 06:41:25.787            29.800                Novosib          2801.500
       350   10 Jun 2027 06:41:27.380   10 Jun 2027 06:41:55.696            28.316                Norilsk           796.500
       351   10 Jun 2027 06:41:56.912   10 Jun 2027 06:42:06.575             9.663              Murmansk1           608.000
       352   10 Jun 2027 06:42:08.504   10 Jun 2027 06:42:29.231            20.727                 Moscow           964.500
       353   10 Jun 2027 06:42:30.130   10 Jun 2027 06:43:30.505            60.375              Murmansk2           449.500
       354   10 Jun 2027 06:43:31.507   10 Jun 2027 06:43:51.559            20.052              Murmansk1           501.000
       355   10 Jun 2027 06:44:06.615   10 Jun 2027 06:44:39.831            33.216                Novosib           862.000
       356   10 Jun 2027 06:44:48.132   10 Jun 2027 06:45:45.793            57.661              Murmansk2          4150.500
       357   10 Jun 2027 08:16:02.993   10 Jun 2027 08:16:19.976            16.983              Murmansk1           996.500
       358   10 Jun 2027 08:16:24.434   10 Jun 2027 08:17:14.120            49.686                Novosib          2229.000
       359   10 Jun 2027 08:17:30.698   10 Jun 2027 08:18:45.551            74.853              Murmansk1          8289.000
       360   10 Jun 2027 08:18:47.288   10 Jun 2027 08:19:52.085            64.797                Novosib           868.500
       361   10 Jun 2027 08:19:57.694   10 Jun 2027 08:20:32.020            34.326              Murmansk2          2804.500
       362   10 Jun 2027 09:50:26.159   10 Jun 2027 09:50:56.862            30.703                 Moscow           736.500
       363   10 Jun 2027 09:51:07.202   10 Jun 2027 09:52:04.629            57.427                 Moscow          5170.000
       364   10 Jun 2027 09:52:21.545   10 Jun 2027 09:54:07.479           105.934                 Moscow          6317.000
       365   10 Jun 2027 09:54:35.529   10 Jun 2027 09:56:31.273           115.744              Murmansk1         14025.000
       366   11 Jun 2027 03:36:45.510   11 Jun 2027 03:38:00.947            75.437               Magadan2          9417.500
       367   11 Jun 2027 03:38:12.824   11 Jun 2027 03:39:26.065            73.241                Norilsk          5938.500
       368   11 Jun 2027 03:39:28.634   11 Jun 2027 03:40:16.737            48.103                Novosib          1284.500
       369   11 Jun 2027 03:40:20.698   11 Jun 2027 03:40:49.748            29.050                Anadyr2          1980.500
       370   11 Jun 2027 03:40:52.873   11 Jun 2027 03:41:19.278            26.405                Novosib          1562.500
       371   11 Jun 2027 03:41:35.056   11 Jun 2027 03:42:44.374            69.318                Norilsk          7889.000
       372   11 Jun 2027 03:42:53.389   11 Jun 2027 03:43:48.122            54.733               Magadan1          4507.500
       373   11 Jun 2027 03:43:52.266   11 Jun 2027 03:44:05.037            12.771                Anadyr1          1596.375
       374   11 Jun 2027 03:44:09.535   11 Jun 2027 03:45:08.879            59.344              Murmansk2          2724.625
       375   11 Jun 2027 05:14:04.032   11 Jun 2027 05:15:23.224            79.192                Norilsk          5774.500
       376   11 Jun 2027 05:15:30.314   11 Jun 2027 05:16:02.959            32.645                Irkutsk          3545.000
       377   11 Jun 2027 05:16:13.423   11 Jun 2027 05:16:24.385            10.962                Norilsk          1370.250
       378   11 Jun 2027 05:16:25.425   11 Jun 2027 05:17:44.913            79.488                Irkutsk          4381.750
       379   11 Jun 2027 05:18:00.722   11 Jun 2027 05:18:23.171            22.449                Novosib          2806.125
       380   11 Jun 2027 05:18:23.198   11 Jun 2027 05:19:17.060            53.862              Murmansk2          5111.875
       381   11 Jun 2027 05:19:27.879   11 Jun 2027 05:20:13.042            45.163              Murmansk2          5409.500
       382   11 Jun 2027 05:20:24.704   11 Jun 2027 05:20:50.096            25.392                Novosib          3174.000
       383   11 Jun 2027 05:20:52.300   11 Jun 2027 05:21:18.256            25.956              Murmansk1          2657.000
       384   11 Jun 2027 06:51:01.369   11 Jun 2027 06:51:35.551            34.182                Norilsk          2666.000
       385   11 Jun 2027 06:52:06.993   11 Jun 2027 06:54:09.410           122.417                Norilsk         15302.125
       386   11 Jun 2027 06:54:09.548   11 Jun 2027 06:54:23.183            13.635                Irkutsk           487.875
       387   11 Jun 2027 06:54:24.163   11 Jun 2027 06:55:21.073            56.910                Irkutsk           490.000
       388   11 Jun 2027 06:55:28.080   11 Jun 2027 06:56:00.239            32.159                Novosib          1953.000
       389   11 Jun 2027 06:56:02.432   11 Jun 2027 06:56:24.755            22.323                 Moscow          1096.500
       390   11 Jun 2027 06:56:32.468   11 Jun 2027 06:57:54.773            82.305                Novosib          3856.500
       391   11 Jun 2027 08:27:41.836   11 Jun 2027 08:27:54.949            13.113                Norilsk           140.500
       392   11 Jun 2027 08:28:04.529   11 Jun 2027 08:29:23.200            78.671                Novosib          4790.000
       393   11 Jun 2027 08:29:26.934   11 Jun 2027 08:30:05.998            39.064                 Moscow          1867.000
       394   11 Jun 2027 08:30:24.721   11 Jun 2027 08:32:36.667           131.946                 Moscow          9361.500
       395   11 Jun 2027 10:03:00.844   11 Jun 2027 10:03:18.529            17.685                 Moscow          1632.500
       396   11 Jun 2027 10:04:40.360   11 Jun 2027 10:05:01.193            20.833              Murmansk2           582.500
       397   11 Jun 2027 10:05:08.295   11 Jun 2027 10:05:46.900            38.605              Murmansk1          3551.000
       398   11 Jun 2027 10:05:49.642   11 Jun 2027 10:06:19.228            29.586                 Moscow          1371.000
       399   11 Jun 2027 10:06:36.238   11 Jun 2027 10:07:45.734            69.496              Murmansk1          8505.000
       400   12 Jun 2027 03:49:26.954   12 Jun 2027 03:51:15.741           108.787               Magadan1         12012.500
       401   12 Jun 2027 03:51:17.862   12 Jun 2027 03:52:18.927            61.065                Novosib          1060.500
       402   12 Jun 2027 03:52:19.431   12 Jun 2027 03:52:23.914             4.483                Novosib           252.000
       403   12 Jun 2027 03:52:24.730   12 Jun 2027 03:52:28.388             3.658               Magadan1           408.000
       404   12 Jun 2027 03:52:31.128   12 Jun 2027 03:53:09.427            38.299                Anadyr2          1370.000
       405   12 Jun 2027 03:53:09.945   12 Jun 2027 03:53:39.140            29.195               Magadan2           259.000
       406   12 Jun 2027 03:53:39.730   12 Jun 2027 03:53:44.636             4.906                Irkutsk           295.000
       407   12 Jun 2027 03:53:45.105   12 Jun 2027 03:53:47.931             2.826                Norilsk           234.500
       408   12 Jun 2027 03:53:48.660   12 Jun 2027 03:54:37.523            48.863                Anadyr1           364.500
       409   12 Jun 2027 03:54:44.082   12 Jun 2027 03:55:07.121            23.039               Magadan1          2879.875
       410   12 Jun 2027 03:55:07.121   12 Jun 2027 03:55:24.494            17.373               Magadan2           399.625
       411   12 Jun 2027 03:55:32.737   12 Jun 2027 03:56:17.741            45.004                Norilsk          4121.500
       412   12 Jun 2027 03:56:26.719   12 Jun 2027 03:56:50.243            23.524                Novosib          2940.500
       413   12 Jun 2027 03:56:58.937   12 Jun 2027 03:58:08.344            69.407              Murmansk1          5527.500
       414   12 Jun 2027 05:26:16.352   12 Jun 2027 05:26:41.845            25.493                Novosib          3186.625
       415   12 Jun 2027 05:26:43.781   12 Jun 2027 05:27:16.814            33.033                Norilsk          3546.375
       416   12 Jun 2027 05:28:01.462   12 Jun 2027 05:31:02.618           181.156                Irkutsk         22324.000
       417   12 Jun 2027 05:31:06.428   12 Jun 2027 05:31:31.814            25.386                Novosib          1905.000
       418   12 Jun 2027 05:31:38.954   12 Jun 2027 05:31:56.074            17.120                Norilsk          2140.000
       419   12 Jun 2027 05:32:01.124   12 Jun 2027 05:33:06.205            65.081              Murmansk1          3955.000
       420   12 Jun 2027 07:03:02.557   12 Jun 2027 07:04:04.158            61.601                Norilsk           137.500
       421   12 Jun 2027 07:04:11.418   12 Jun 2027 07:05:02.849            51.431                 Moscow          3630.000
       422   12 Jun 2027 07:05:04.532   12 Jun 2027 07:05:36.772            32.240                Norilsk           841.500
       423   12 Jun 2027 07:05:51.563   12 Jun 2027 07:07:13.832            82.269                 Moscow          7395.500
       424   12 Jun 2027 07:07:19.114   12 Jun 2027 07:07:36.991            17.877                Novosib          2234.625
       425   12 Jun 2027 07:07:37.203   12 Jun 2027 07:07:46.575             9.372              Murmansk2           512.375
       426   12 Jun 2027 07:07:49.861   12 Jun 2027 07:08:24.147            34.286                Norilsk          1643.000
       427   12 Jun 2027 08:39:49.798   12 Jun 2027 08:40:15.270            25.472                Norilsk          1109.000
       428   12 Jun 2027 08:40:16.810   12 Jun 2027 08:40:25.503             8.693              Murmansk2           770.000
       429   12 Jun 2027 08:40:30.139   12 Jun 2027 08:40:59.995            29.856                Norilsk          2318.000
       430   12 Jun 2027 08:41:14.645   12 Jun 2027 08:42:49.794            95.149                Novosib          7325.000
       431   12 Jun 2027 08:42:52.329   12 Jun 2027 08:43:51.204            58.875              Murmansk2          1267.500
       432   12 Jun 2027 08:44:03.973   12 Jun 2027 08:45:25.736            81.763                Norilsk          6384.500
       433   12 Jun 2027 10:18:02.096   12 Jun 2027 10:18:54.036            51.940                 Moscow            32.000
       434   12 Jun 2027 10:18:55.076   12 Jun 2027 10:19:32.676            37.600                 Moscow           520.000
       435   13 Jun 2027 04:02:21.045   13 Jun 2027 04:02:43.283            22.238               Magadan1          2779.750
       436   13 Jun 2027 04:02:43.283   13 Jun 2027 04:02:53.108             9.825               Magadan2           769.250
       437   13 Jun 2027 04:02:56.140   13 Jun 2027 04:03:20.596            24.456               Magadan2          1516.000
       438   13 Jun 2027 04:03:36.652   13 Jun 2027 04:03:52.026            15.374                Novosib          1921.750
       439   13 Jun 2027 04:03:55.256   13 Jun 2027 04:04:59.260            64.004                Irkutsk          7721.250
       440   13 Jun 2027 04:05:03.144   13 Jun 2027 04:05:40.320            37.176               Magadan1          1942.000
       441   13 Jun 2027 04:05:40.743   13 Jun 2027 04:05:51.133            10.390                Norilsk           211.500
       442   13 Jun 2027 04:05:56.683   13 Jun 2027 04:06:21.588            24.905                Norilsk          2775.000
       443   13 Jun 2027 04:06:39.035   13 Jun 2027 04:08:16.659            97.624               Magadan1          8723.500
       444   13 Jun 2027 04:08:29.637   13 Jun 2027 04:09:24.798            55.161              Murmansk1          6489.000
       445   13 Jun 2027 05:38:56.221   13 Jun 2027 05:40:25.978            89.757                Novosib         10162.500
       446   13 Jun 2027 05:40:32.373   13 Jun 2027 05:41:05.615            33.242                Irkutsk          3197.500
       447   13 Jun 2027 05:41:10.241   13 Jun 2027 05:41:49.542            39.301                Norilsk          2313.000
       448   13 Jun 2027 05:41:50.282   13 Jun 2027 05:42:02.448            12.166                Irkutsk           370.000
       449   13 Jun 2027 05:42:06.316   13 Jun 2027 05:43:10.756            64.440                Novosib          1934.000
       450   13 Jun 2027 05:43:11.926   13 Jun 2027 05:43:48.793            36.867              Murmansk2           585.000
       451   13 Jun 2027 05:43:53.366   13 Jun 2027 05:44:10.835            17.469                Novosib          2183.625
       452   13 Jun 2027 05:44:13.986   13 Jun 2027 05:45:04.079            50.093                Irkutsk          1678.375
       453   13 Jun 2027 07:16:04.417   13 Jun 2027 07:16:37.556            33.139              Murmansk1           503.000
       454   13 Jun 2027 07:16:46.397   13 Jun 2027 07:17:22.747            36.350                Irkutsk          4420.500
       455   13 Jun 2027 07:17:28.195   13 Jun 2027 07:18:10.020            41.825                Norilsk          2724.000
       456   13 Jun 2027 07:18:18.510   13 Jun 2027 07:18:58.642            40.132                Norilsk          4245.000
       457   13 Jun 2027 07:19:01.645   13 Jun 2027 07:19:14.723            13.078                Irkutsk          1501.500
       458   13 Jun 2027 07:19:27.786   13 Jun 2027 07:19:45.646            17.860                Novosib          2232.500
       459   13 Jun 2027 07:19:48.727   13 Jun 2027 07:20:40.440            51.713                Norilsk          5839.500
       460   13 Jun 2027 08:52:15.501   13 Jun 2027 08:53:29.099            73.598              Murmansk1          2461.000
       461   13 Jun 2027 08:53:33.399   13 Jun 2027 08:53:55.090            21.691                Novosib          2150.000
       462   13 Jun 2027 08:54:03.665   13 Jun 2027 08:54:50.971            47.306              Murmansk2          4287.500
       463   13 Jun 2027 08:54:51.037   13 Jun 2027 08:55:47.926            56.889              Murmansk2            33.000
       464   13 Jun 2027 08:55:53.286   13 Jun 2027 08:56:28.768            35.482                Novosib          2680.000
