uniorb/output/strategy_2/Drop/Drop_KinoSat_111307.txt

KinoSat_111307
-------------------------
    Access    *     Start Time (UTCG)     *     Stop Time (UTCG)  *   Duration (s)        *       Station  *  Data (Mbytes)
         1   01 Jun 2027 03:10:31.949   01 Jun 2027 03:12:10.684            98.735              Murmansk1          3085.469
         2   01 Jun 2027 03:12:10.684   01 Jun 2027 03:13:30.123            79.439              Murmansk2          2482.469
         3   01 Jun 2027 03:14:10.127   01 Jun 2027 03:14:53.540            43.413              Murmansk2          1356.656
         4   01 Jun 2027 03:15:27.008   01 Jun 2027 03:17:25.468           118.460                 Moscow          3701.875
         5   01 Jun 2027 03:29:59.323   01 Jun 2027 03:33:29.735           210.412               CapeTown          6575.375
         6   01 Jun 2027 04:26:27.120   01 Jun 2027 04:28:54.657           147.537                Anadyr2          4610.531
         7   01 Jun 2027 04:28:54.657   01 Jun 2027 04:30:02.398            67.741                Anadyr1          2116.906
         8   01 Jun 2027 04:30:02.398   01 Jun 2027 04:30:43.718            41.320                Anadyr2          1291.250
         9   01 Jun 2027 04:33:33.445   01 Jun 2027 04:33:58.580            25.135                Anadyr2           785.469
        10   01 Jun 2027 04:33:59.696   01 Jun 2027 04:34:17.648            17.952                Anadyr2           561.000
        11   01 Jun 2027 04:34:33.048   01 Jun 2027 04:36:10.886            97.838               Magadan2          3057.438
        12   01 Jun 2027 04:36:10.886   01 Jun 2027 04:36:30.243            19.357               Magadan1           604.906
        13   01 Jun 2027 04:45:24.001   01 Jun 2027 04:46:09.682            45.681                Norilsk          1427.531
        14   01 Jun 2027 06:10:04.811   01 Jun 2027 06:10:34.205            29.394                Norilsk           918.563
        15   01 Jun 2027 06:10:45.463   01 Jun 2027 06:12:34.209           108.746                Anadyr1          3398.312
        16   01 Jun 2027 06:12:41.550   01 Jun 2027 06:13:01.737            20.187               Magadan1           630.844
        17   01 Jun 2027 06:13:20.622   01 Jun 2027 06:13:38.934            18.312                Anadyr1           572.250
        18   01 Jun 2027 07:42:58.949   01 Jun 2027 07:43:48.036            49.087                Irkutsk          1533.969
        19   01 Jun 2027 07:44:31.832   01 Jun 2027 07:47:05.865           154.033                Anadyr2          4813.531
        20   01 Jun 2027 07:47:31.040   01 Jun 2027 07:47:44.931            13.891                Anadyr1           434.094
        21   01 Jun 2027 07:47:47.953   01 Jun 2027 07:48:44.326            56.373                Anadyr1          1761.656
        22   01 Jun 2027 07:50:13.894   01 Jun 2027 07:50:30.397            16.503                Novosib           515.719
        23   01 Jun 2027 07:50:44.629   01 Jun 2027 07:50:47.157             2.528                Norilsk            79.000
        24   01 Jun 2027 07:51:03.723   01 Jun 2027 07:51:31.920            28.197                Norilsk           881.156
        25   01 Jun 2027 07:53:13.320   01 Jun 2027 07:53:29.021            15.701              Murmansk1           490.656
        26   01 Jun 2027 08:26:15.815   01 Jun 2027 08:26:44.548            28.733            RioGallegos           897.906
        27   01 Jun 2027 09:21:05.953   01 Jun 2027 09:21:27.267            21.314                Norilsk           666.063
        28   01 Jun 2027 09:21:28.986   01 Jun 2027 09:22:44.779            75.793                Irkutsk          2368.531
        29   01 Jun 2027 09:22:46.516   01 Jun 2027 09:23:36.582            50.066                Irkutsk          1564.563
        30   01 Jun 2027 09:23:50.296   01 Jun 2027 09:24:16.990            26.694                Norilsk           834.188
        31   01 Jun 2027 09:24:23.545   01 Jun 2027 09:25:02.399            38.854                Norilsk          1214.187
        32   01 Jun 2027 09:25:02.893   01 Jun 2027 09:26:26.974            84.081              Murmansk2          2627.531
        33   01 Jun 2027 09:26:54.336   01 Jun 2027 09:27:02.745             8.409                Novosib           262.781
        34   01 Jun 2027 09:27:06.826   01 Jun 2027 09:28:11.046            64.220              Murmansk2          2006.875
        35   01 Jun 2027 09:30:53.981   01 Jun 2027 09:31:25.306            31.325              Murmansk2           978.906
        36   01 Jun 2027 10:01:25.926   01 Jun 2027 10:03:27.971           122.045            RioGallegos          3813.906
        37   01 Jun 2027 10:05:35.896   01 Jun 2027 10:05:42.930             7.034            RioGallegos           219.812
        38   01 Jun 2027 10:36:14.059   01 Jun 2027 10:39:23.674           189.615                Sumatra          5925.469
        39   01 Jun 2027 10:58:19.457   01 Jun 2027 11:00:31.356           131.899                Novosib          4121.844
        40   01 Jun 2027 11:00:50.083   01 Jun 2027 11:01:46.891            56.808                 Moscow          1775.250
        41   01 Jun 2027 11:01:48.688   01 Jun 2027 11:02:44.592            55.904              Murmansk2          1747.000
        42   01 Jun 2027 11:02:44.592   01 Jun 2027 11:03:52.635            68.043              Murmansk1          2126.344
        43   01 Jun 2027 11:40:58.107   01 Jun 2027 11:41:07.849             9.742            RioGallegos           304.437
        44   01 Jun 2027 11:43:24.962   01 Jun 2027 11:44:39.092            74.130            RioGallegos          2316.563
        45   01 Jun 2027 12:16:09.652   01 Jun 2027 12:16:19.540             9.888                Sumatra           309.000
        46   01 Jun 2027 12:17:33.083   01 Jun 2027 12:19:17.198           104.115                Sumatra          3253.594
        47   01 Jun 2027 12:23:34.788   01 Jun 2027 12:24:43.810            69.022                  Delhi          2156.938
        48   01 Jun 2027 12:28:06.180   01 Jun 2027 12:29:23.242            77.062                Novosib          2408.188
        49   01 Jun 2027 12:32:10.078   01 Jun 2027 12:33:48.812            98.734                Norilsk          3085.438
        50   01 Jun 2027 12:34:17.576   01 Jun 2027 12:35:51.976            94.400                Norilsk          2950.000
        51   01 Jun 2027 14:04:50.621   01 Jun 2027 14:06:12.738            82.117                 Moscow          2566.156
        52   01 Jun 2027 14:08:14.429   01 Jun 2027 14:12:03.096           228.667              Murmansk1          7145.844
        53   01 Jun 2027 14:12:04.202   01 Jun 2027 14:13:24.859            80.657                Norilsk          2520.531
        54   01 Jun 2027 14:15:23.682   01 Jun 2027 14:16:42.628            78.946                Norilsk          2467.063
        55   01 Jun 2027 15:19:42.806   01 Jun 2027 15:21:03.343            80.537               CapeTown          2516.781
        56   01 Jun 2027 15:41:54.852   01 Jun 2027 15:43:00.735            65.883                 Moscow          2058.844
        57   01 Jun 2027 15:45:09.359   01 Jun 2027 15:49:26.169           256.810              Murmansk2          8025.313
        58   01 Jun 2027 15:59:23.882   01 Jun 2027 16:00:55.654            91.772                Anadyr2          2867.875
        59   01 Jun 2027 16:54:16.033   01 Jun 2027 16:56:28.407           132.374               CapeTown          4136.687
        60   01 Jun 2027 17:24:16.326   01 Jun 2027 17:25:18.319            61.993              Murmansk2          1937.281
        61   01 Jun 2027 17:29:16.703   01 Jun 2027 17:29:38.787            22.084              Murmansk1           690.125
        62   01 Jun 2027 17:34:52.685   01 Jun 2027 17:36:48.594           115.909                Anadyr1          3622.156
        63   01 Jun 2027 17:38:31.027   01 Jun 2027 17:39:36.051            65.024               Magadan1          2032.000
        64   01 Jun 2027 19:10:47.096   01 Jun 2027 19:12:41.732           114.636                Anadyr1          3582.375
        65   01 Jun 2027 19:12:52.280   01 Jun 2027 19:14:51.165           118.885                Anadyr2          3715.156
        66   01 Jun 2027 19:15:11.057   01 Jun 2027 19:15:37.699            26.642               Magadan1           832.562
        67   01 Jun 2027 19:16:12.592   01 Jun 2027 19:16:52.530            39.938               Magadan1          1248.063
        68   01 Jun 2027 19:18:30.939   01 Jun 2027 19:18:49.273            18.334               Magadan2           572.937
        69   01 Jun 2027 19:19:37.431   01 Jun 2027 19:19:55.200            17.769               Magadan2           555.281
        70   01 Jun 2027 19:20:58.509   01 Jun 2027 19:21:09.514            11.005               Magadan1           343.906
        71   01 Jun 2027 20:46:39.413   01 Jun 2027 20:48:48.308           128.895                Anadyr2          4027.969
        72   01 Jun 2027 20:48:48.468   01 Jun 2027 20:50:22.101            93.633                Anadyr1          2926.031
        73   01 Jun 2027 20:50:33.248   01 Jun 2027 20:52:31.052           117.804                Norilsk          3681.375
        74   01 Jun 2027 20:52:46.511   01 Jun 2027 20:53:15.381            28.870               Magadan1           902.187
        75   01 Jun 2027 20:53:20.479   01 Jun 2027 20:54:20.256            59.777               Magadan2          1868.031
        76   01 Jun 2027 20:54:34.097   01 Jun 2027 20:56:11.688            97.591                Irkutsk          3049.719
        77   01 Jun 2027 20:57:06.890   01 Jun 2027 20:57:16.489             9.599                Irkutsk           299.969
        78   01 Jun 2027 21:11:18.613   01 Jun 2027 21:11:54.922            36.309                Sumatra          1134.656
        79   01 Jun 2027 21:13:09.989   01 Jun 2027 21:14:28.175            78.186                Sumatra          2443.313
        80   01 Jun 2027 21:40:48.272   01 Jun 2027 21:42:25.932            97.660            RioGallegos          3051.875
        81   01 Jun 2027 21:43:21.349   01 Jun 2027 21:43:44.289            22.940            RioGallegos           716.875
        82   01 Jun 2027 22:22:06.256   01 Jun 2027 22:23:00.452            54.196                Anadyr2          1693.625
        83   01 Jun 2027 22:23:09.947   01 Jun 2027 22:24:04.037            54.090                Anadyr1          1690.312
        84   01 Jun 2027 22:24:31.056   01 Jun 2027 22:26:30.975           119.919                Norilsk          3747.469
        85   01 Jun 2027 22:27:02.261   01 Jun 2027 22:27:08.197             5.936               Magadan2           185.500
        86   01 Jun 2027 22:28:31.587   01 Jun 2027 22:31:05.250           153.663                Irkutsk          4801.969
        87   01 Jun 2027 22:33:06.286   01 Jun 2027 22:33:16.607            10.321                Novosib           322.531
        88   01 Jun 2027 22:42:13.326   01 Jun 2027 22:42:56.752            43.426                Sumatra          1357.062
        89   01 Jun 2027 22:44:50.420   01 Jun 2027 22:45:10.010            19.590                Sumatra           612.188
        90   01 Jun 2027 23:16:26.580   01 Jun 2027 23:17:28.148            61.568            RioGallegos          1924.000
        91   01 Jun 2027 23:56:30.882   01 Jun 2027 23:58:38.247           127.365                Anadyr2          3980.156
        92   01 Jun 2027 23:59:08.810   01 Jun 2027 23:59:17.689             8.879                Anadyr1           277.469
        93   02 Jun 2027 00:00:30.500   02 Jun 2027 00:00:48.925            18.425                Norilsk           575.781
        94   02 Jun 2027 00:01:08.257   02 Jun 2027 00:02:26.373            78.116               Magadan2          2441.125
        95   02 Jun 2027 00:04:16.568   02 Jun 2027 00:04:49.663            33.095              Murmansk2          1034.219
        96   02 Jun 2027 00:04:56.350   02 Jun 2027 00:06:48.329           111.979              Murmansk1          3499.344
        97   02 Jun 2027 00:11:49.489   02 Jun 2027 00:13:24.687            95.198                  Delhi          2974.938
        98   02 Jun 2027 00:14:05.224   02 Jun 2027 00:14:36.871            31.647                  Delhi           988.969
        99   02 Jun 2027 00:53:33.220   02 Jun 2027 00:53:50.765            17.545            RioGallegos           548.281
       100   02 Jun 2027 01:29:52.898   02 Jun 2027 01:31:15.232            82.334                Anadyr2          2572.938
       101   02 Jun 2027 01:31:44.332   02 Jun 2027 01:31:56.495            12.163                Anadyr2           380.094
       102   02 Jun 2027 01:32:09.071   02 Jun 2027 01:32:28.592            19.521                Anadyr2           610.031
       103   02 Jun 2027 01:32:50.490   02 Jun 2027 01:32:52.755             2.265                Anadyr1            70.781
       104   02 Jun 2027 01:33:04.800   02 Jun 2027 01:33:12.322             7.522                Anadyr2           235.063
       105   02 Jun 2027 01:36:04.509   02 Jun 2027 01:38:24.996           140.487               Magadan1          4390.219
       106   02 Jun 2027 01:38:44.424   02 Jun 2027 01:39:07.956            23.532              Murmansk1           735.375
       107   02 Jun 2027 01:40:04.886   02 Jun 2027 01:41:04.231            59.345              Murmansk1          1854.531
       108   02 Jun 2027 01:41:46.504   02 Jun 2027 01:42:20.614            34.110              Murmansk2          1065.937
       109   02 Jun 2027 01:42:34.199   02 Jun 2027 01:42:44.206            10.007                Novosib           312.719
       110   02 Jun 2027 01:42:52.986   02 Jun 2027 01:43:39.366            46.380                 Moscow          1449.375
       111   02 Jun 2027 01:45:59.885   02 Jun 2027 01:46:20.545            20.660                 Moscow           645.625
       112   02 Jun 2027 02:10:31.630   02 Jun 2027 02:11:26.683            55.053               CapeTown          1720.406
       113   02 Jun 2027 03:23:05.895   02 Jun 2027 03:23:14.993             9.098                Novosib           284.312
       114   02 Jun 2027 03:23:23.071   02 Jun 2027 03:23:46.294            23.223                 Moscow           725.719
       115   02 Jun 2027 03:23:52.563   02 Jun 2027 03:25:35.505           102.942              Murmansk1          3216.937
       116   02 Jun 2027 03:25:35.505   02 Jun 2027 03:26:11.589            36.084              Murmansk2          1127.625
       117   02 Jun 2027 03:26:11.589   02 Jun 2027 03:26:13.077             1.488              Murmansk1            46.500
       118   02 Jun 2027 03:26:16.900   02 Jun 2027 03:26:54.756            37.856              Murmansk1          1183.000
       119   02 Jun 2027 03:41:50.172   02 Jun 2027 03:45:07.430           197.258               CapeTown          6164.313
       120   02 Jun 2027 04:38:27.312   02 Jun 2027 04:39:50.097            82.785                Anadyr2          2587.031
       121   02 Jun 2027 04:44:45.183   02 Jun 2027 04:45:10.541            25.358               Magadan1           792.438
       122   02 Jun 2027 04:45:20.278   02 Jun 2027 04:47:23.730           123.452               Magadan1          3857.875
       123   02 Jun 2027 06:21:13.142   02 Jun 2027 06:22:29.377            76.235               Magadan1          2382.344
       124   02 Jun 2027 06:22:46.716   02 Jun 2027 06:22:47.352             0.636                Norilsk            19.875
       125   02 Jun 2027 06:23:09.475   02 Jun 2027 06:26:35.101           205.626               Magadan2          6425.812
       126   02 Jun 2027 06:26:41.214   02 Jun 2027 06:27:14.356            33.142                Anadyr1          1035.687
       127   02 Jun 2027 07:55:20.895   02 Jun 2027 07:56:52.023            91.128               Magadan1          2847.750
       128   02 Jun 2027 07:57:09.208   02 Jun 2027 07:57:31.216            22.008               Magadan1           687.750
       129   02 Jun 2027 07:57:31.216   02 Jun 2027 07:57:58.181            26.965               Magadan2           842.656
       130   02 Jun 2027 07:58:26.290   02 Jun 2027 07:59:38.920            72.630                Irkutsk          2269.687
       131   02 Jun 2027 07:59:46.488   02 Jun 2027 08:02:09.861           143.373                Anadyr2          4480.406
       132   02 Jun 2027 08:02:09.861   02 Jun 2027 08:02:16.885             7.024                Anadyr1           219.500
       133   02 Jun 2027 08:02:36.238   02 Jun 2027 08:02:46.282            10.044                Norilsk           313.875
       134   02 Jun 2027 08:02:54.813   02 Jun 2027 08:03:13.016            18.203              Murmansk1           568.844
       135   02 Jun 2027 08:03:33.695   02 Jun 2027 08:03:37.609             3.914              Murmansk2           122.313
       136   02 Jun 2027 08:05:08.021   02 Jun 2027 08:05:20.892            12.871              Murmansk1           402.219
       137   02 Jun 2027 08:05:34.830   02 Jun 2027 08:06:01.212            26.382                Norilsk           824.438
       138   02 Jun 2027 08:06:09.477   02 Jun 2027 08:06:23.146            13.669              Murmansk2           427.156
       139   02 Jun 2027 08:09:02.619   02 Jun 2027 08:09:09.385             6.766              Murmansk1           211.438
       140   02 Jun 2027 08:09:09.385   02 Jun 2027 08:09:21.727            12.342              Murmansk2           385.688
       141   02 Jun 2027 08:11:35.981   02 Jun 2027 08:12:20.036            44.055              Murmansk1          1376.719
       142   02 Jun 2027 08:38:00.287   02 Jun 2027 08:39:10.164            69.877            RioGallegos          2183.656
       143   02 Jun 2027 09:16:14.366   02 Jun 2027 09:17:34.853            80.487                Sumatra          2515.219
       144   02 Jun 2027 09:31:28.338   02 Jun 2027 09:32:08.098            39.760               Magadan2          1242.500
       145   02 Jun 2027 09:32:36.319   02 Jun 2027 09:32:41.400             5.081                Novosib           158.781
       146   02 Jun 2027 09:32:50.975   02 Jun 2027 09:32:55.588             4.613                Irkutsk           144.156
       147   02 Jun 2027 09:33:07.809   02 Jun 2027 09:33:13.706             5.897                Irkutsk           184.281
       148   02 Jun 2027 09:33:17.391   02 Jun 2027 09:34:41.806            84.415                Novosib          2637.969
       149   02 Jun 2027 09:34:51.637   02 Jun 2027 09:35:27.520            35.883                Irkutsk          1121.344
       150   02 Jun 2027 09:35:30.740   02 Jun 2027 09:35:48.170            17.430                Irkutsk           544.688
       151   02 Jun 2027 09:36:19.152   02 Jun 2027 09:36:56.802            37.650               Magadan2          1176.563
       152   02 Jun 2027 09:37:00.778   02 Jun 2027 09:37:21.003            20.225              Murmansk1           632.031
       153   02 Jun 2027 09:37:21.003   02 Jun 2027 09:37:48.436            27.433              Murmansk2           857.281
       154   02 Jun 2027 09:38:00.353   02 Jun 2027 09:38:02.691             2.338                Irkutsk            73.063
       155   02 Jun 2027 09:38:05.559   02 Jun 2027 09:38:22.094            16.535                Irkutsk           516.719
       156   02 Jun 2027 09:38:31.960   02 Jun 2027 09:38:46.203            14.243                Norilsk           445.094
       157   02 Jun 2027 09:39:08.480   02 Jun 2027 09:39:11.189             2.709              Murmansk1            84.656
       158   02 Jun 2027 09:39:58.660   02 Jun 2027 09:40:13.595            14.935              Murmansk1           466.719
       159   02 Jun 2027 09:42:07.468   02 Jun 2027 09:42:43.913            36.445              Murmansk2          1138.906
       160   02 Jun 2027 10:13:36.910   02 Jun 2027 10:14:05.151            28.241            RioGallegos           882.531
       161   02 Jun 2027 10:14:54.229   02 Jun 2027 10:15:25.575            31.346            RioGallegos           979.562
       162   02 Jun 2027 10:17:17.365   02 Jun 2027 10:17:43.964            26.599            RioGallegos           831.219
       163   02 Jun 2027 10:48:13.990   02 Jun 2027 10:48:31.640            17.650                Sumatra           551.562
       164   02 Jun 2027 10:50:18.702   02 Jun 2027 10:50:58.487            39.785                Sumatra          1243.281
       165   02 Jun 2027 10:58:12.423   02 Jun 2027 10:58:24.102            11.679                  Delhi           364.969
       166   02 Jun 2027 11:08:07.908   02 Jun 2027 11:08:32.765            24.857                  Delhi           776.781
       167   02 Jun 2027 11:08:56.109   02 Jun 2027 11:09:17.485            21.376                Novosib           668.000
       168   02 Jun 2027 11:09:35.035   02 Jun 2027 11:09:42.130             7.095                Irkutsk           221.719
       169   02 Jun 2027 11:10:02.351   02 Jun 2027 11:10:07.104             4.753                Norilsk           148.531
       170   02 Jun 2027 11:10:23.569   02 Jun 2027 11:11:07.389            43.820                Novosib          1369.375
       171   02 Jun 2027 11:11:08.818   02 Jun 2027 11:11:11.473             2.655                 Moscow            82.969
       172   02 Jun 2027 11:11:17.348   02 Jun 2027 11:11:55.518            38.170                Novosib          1192.813
       173   02 Jun 2027 11:12:01.697   02 Jun 2027 11:12:24.889            23.192                Novosib           724.750
       174   02 Jun 2027 11:12:28.448   02 Jun 2027 11:13:00.403            31.955                Irkutsk           998.594
       175   02 Jun 2027 11:13:16.822   02 Jun 2027 11:14:09.402            52.580                Novosib          1643.125
       176   02 Jun 2027 11:14:21.743   02 Jun 2027 11:15:23.794            62.051                Novosib          1939.094
       177   02 Jun 2027 11:54:08.932   02 Jun 2027 11:54:39.417            30.485            RioGallegos           952.656
       178   02 Jun 2027 11:56:37.610   02 Jun 2027 11:57:12.935            35.325            RioGallegos          1103.906
       179   02 Jun 2027 12:34:00.227   02 Jun 2027 12:34:41.350            41.123                  Delhi          1285.094
       180   02 Jun 2027 12:35:30.607   02 Jun 2027 12:36:22.496            51.889                  Delhi          1621.531
       181   02 Jun 2027 12:40:29.410   02 Jun 2027 12:40:57.958            28.548                Novosib           892.125
       182   02 Jun 2027 12:41:56.963   02 Jun 2027 12:42:13.062            16.099                Novosib           503.094
       183   02 Jun 2027 12:42:51.696   02 Jun 2027 12:44:27.839            96.143                Novosib          3004.469
       184   02 Jun 2027 12:44:31.408   02 Jun 2027 12:44:50.404            18.996                Norilsk           593.625
       185   02 Jun 2027 12:45:06.354   02 Jun 2027 12:45:10.761             4.407              Murmansk1           137.719
       186   02 Jun 2027 12:45:25.298   02 Jun 2027 12:45:31.055             5.757                Norilsk           179.906
       187   02 Jun 2027 12:45:44.067   02 Jun 2027 12:46:15.227            31.160              Murmansk1           973.750
       188   02 Jun 2027 12:53:56.537   02 Jun 2027 12:54:23.734            27.197                Norilsk           849.906
       189   02 Jun 2027 14:16:49.741   02 Jun 2027 14:19:50.563           180.822                 Moscow          5650.688
       190   02 Jun 2027 14:20:01.136   02 Jun 2027 14:20:43.503            42.367                 Moscow          1323.969
       191   02 Jun 2027 14:21:40.106   02 Jun 2027 14:23:06.794            86.688              Murmansk1          2709.000
       192   02 Jun 2027 14:23:37.620   02 Jun 2027 14:24:06.277            28.657              Murmansk1           895.531
       193   02 Jun 2027 14:24:09.890   02 Jun 2027 14:24:15.052             5.162              Murmansk1           161.313
       194   02 Jun 2027 14:24:33.176   02 Jun 2027 14:26:09.652            96.476                Norilsk          3014.875
       195   02 Jun 2027 15:31:17.460   02 Jun 2027 15:34:25.785           188.325               CapeTown          5885.156
       196   02 Jun 2027 15:54:21.663   02 Jun 2027 15:55:12.385            50.722                 Moscow          1585.063
       197   02 Jun 2027 15:57:26.698   02 Jun 2027 15:57:42.916            16.218              Murmansk1           506.813
       198   02 Jun 2027 15:58:40.813   02 Jun 2027 15:59:19.459            38.646              Murmansk1          1207.688
       199   02 Jun 2027 15:59:55.490   02 Jun 2027 16:00:24.193            28.703              Murmansk1           896.969
       200   02 Jun 2027 16:11:18.351   02 Jun 2027 16:13:01.546           103.195                Anadyr2          3224.844
       201   02 Jun 2027 16:14:03.414   02 Jun 2027 16:14:05.778             2.364                Anadyr2            73.875
       202   02 Jun 2027 16:16:00.053   02 Jun 2027 16:16:53.325            53.272                Anadyr1          1664.750
       203   02 Jun 2027 17:07:08.440   02 Jun 2027 17:07:35.130            26.690               CapeTown           834.062
       204   02 Jun 2027 17:09:16.988   02 Jun 2027 17:10:32.164            75.176               CapeTown          2349.250
       205   02 Jun 2027 17:36:54.410   02 Jun 2027 17:38:50.845           116.435              Murmansk1          3638.594
       206   02 Jun 2027 17:41:38.038   02 Jun 2027 17:41:48.840            10.802              Murmansk2           337.563
       207   02 Jun 2027 17:41:57.399   02 Jun 2027 17:42:27.849            30.450              Murmansk1           951.563
       208   02 Jun 2027 17:46:53.415   02 Jun 2027 17:47:17.398            23.983                Anadyr2           749.469
       209   02 Jun 2027 17:47:29.678   02 Jun 2027 17:48:14.879            45.201                Anadyr1          1412.531
       210   02 Jun 2027 17:48:34.908   02 Jun 2027 17:48:49.498            14.590                Anadyr2           455.937
       211   02 Jun 2027 17:50:11.803   02 Jun 2027 17:51:29.584            77.781               Magadan1          2430.656
       212   02 Jun 2027 17:51:29.584   02 Jun 2027 17:52:16.944            47.360               Magadan2          1480.000
       213   02 Jun 2027 17:52:39.850   02 Jun 2027 17:52:51.131            11.281               Magadan2           352.531
       214   02 Jun 2027 19:22:48.648   02 Jun 2027 19:24:41.936           113.288                Anadyr1          3540.250
       215   02 Jun 2027 19:24:53.871   02 Jun 2027 19:26:45.999           112.128                Anadyr2          3504.000
       216   02 Jun 2027 19:27:09.456   02 Jun 2027 19:28:43.583            94.127               Magadan1          2941.469
       217   02 Jun 2027 19:29:02.722   02 Jun 2027 19:29:49.387            46.665               Magadan1          1458.281
       218   02 Jun 2027 19:31:19.218   02 Jun 2027 19:32:04.227            45.009               Magadan2          1406.531
       219   02 Jun 2027 20:19:56.662   02 Jun 2027 20:21:48.846           112.184            RioGallegos          3505.750
       220   02 Jun 2027 20:58:39.279   02 Jun 2027 20:59:06.802            27.523                Anadyr1           860.094
       221   02 Jun 2027 21:00:03.683   02 Jun 2027 21:00:55.320            51.637                Anadyr2          1613.656
       222   02 Jun 2027 21:01:01.553   02 Jun 2027 21:02:29.023            87.470               Magadan2          2733.437
       223   02 Jun 2027 21:02:29.023   02 Jun 2027 21:02:46.270            17.247               Magadan1           538.969
       224   02 Jun 2027 21:03:20.080   02 Jun 2027 21:03:51.651            31.571               Magadan2           986.594
       225   02 Jun 2027 21:04:08.068   02 Jun 2027 21:04:28.709            20.641               Magadan1           645.031
       226   02 Jun 2027 21:04:28.709   02 Jun 2027 21:04:40.477            11.768               Magadan2           367.750
       227   02 Jun 2027 21:06:01.573   02 Jun 2027 21:06:56.459            54.886                Irkutsk          1715.188
       228   02 Jun 2027 21:07:47.436   02 Jun 2027 21:08:07.736            20.300                Norilsk           634.375
       229   02 Jun 2027 21:08:12.953   02 Jun 2027 21:09:02.090            49.137                Irkutsk          1535.531
       230   02 Jun 2027 21:10:14.644   02 Jun 2027 21:11:54.423            99.779                Irkutsk          3118.094
       231   02 Jun 2027 21:21:30.808   02 Jun 2027 21:23:17.797           106.989                Sumatra          3343.406
       232   02 Jun 2027 22:34:49.526   02 Jun 2027 22:35:01.351            11.825                Anadyr1           369.531
       233   02 Jun 2027 22:35:51.968   02 Jun 2027 22:36:29.355            37.387                Anadyr2          1168.344
       234   02 Jun 2027 22:36:32.546   02 Jun 2027 22:38:15.140           102.594                Norilsk          3206.063
       235   02 Jun 2027 22:38:50.930   02 Jun 2027 22:39:09.531            18.601               Magadan2           581.281
       236   02 Jun 2027 22:40:29.591   02 Jun 2027 22:41:43.756            74.165                Irkutsk          2317.656
       237   02 Jun 2027 22:42:05.325   02 Jun 2027 22:44:06.813           121.488                Novosib          3796.500
       238   02 Jun 2027 22:53:09.733   02 Jun 2027 22:53:19.932            10.199                  Delhi           318.719
       239   02 Jun 2027 22:54:23.648   02 Jun 2027 22:54:29.901             6.253                  Delhi           195.406
       240   02 Jun 2027 22:59:04.287   02 Jun 2027 23:00:06.643            62.356                Sumatra          1948.625
       241   03 Jun 2027 00:08:15.369   03 Jun 2027 00:08:23.298             7.929                Anadyr1           247.781
       242   03 Jun 2027 00:09:11.730   03 Jun 2027 00:10:29.942            78.212                Anadyr2          2444.125
       243   03 Jun 2027 00:11:07.310   03 Jun 2027 00:11:17.921            10.611                Anadyr2           331.594
       244   03 Jun 2027 00:12:32.592   03 Jun 2027 00:14:35.483           122.891                Norilsk          3840.344
       245   03 Jun 2027 00:15:00.004   03 Jun 2027 00:15:18.696            18.692               Magadan1           584.125
       246   03 Jun 2027 00:15:43.914   03 Jun 2027 00:18:05.311           141.397              Murmansk1          4418.656
       247   03 Jun 2027 00:18:31.760   03 Jun 2027 00:19:23.233            51.473              Murmansk1          1608.531
       248   03 Jun 2027 00:23:44.041   03 Jun 2027 00:24:18.190            34.149                  Delhi          1067.156
       249   03 Jun 2027 00:29:29.427   03 Jun 2027 00:29:46.527            17.100                  Delhi           534.375
       250   03 Jun 2027 00:31:37.260   03 Jun 2027 00:32:13.697            36.437                  Delhi          1138.656
       251   03 Jun 2027 00:32:20.232   03 Jun 2027 00:32:23.717             3.485                  Delhi           108.906
       252   03 Jun 2027 01:05:23.214   03 Jun 2027 01:06:09.288            46.074            RioGallegos          1439.813
       253   03 Jun 2027 01:10:54.776   03 Jun 2027 01:10:57.833             3.057            RioGallegos            95.531
       254   03 Jun 2027 01:11:31.177   03 Jun 2027 01:12:05.699            34.522            RioGallegos          1078.813
       255   03 Jun 2027 01:41:34.269   03 Jun 2027 01:41:53.599            19.330                Anadyr1           604.062
       256   03 Jun 2027 01:42:23.290   03 Jun 2027 01:42:43.754            20.464                Anadyr2           639.500
       257   03 Jun 2027 01:43:14.144   03 Jun 2027 01:43:45.825            31.681                Anadyr2           990.031
       258   03 Jun 2027 01:44:43.563   03 Jun 2027 01:44:59.296            15.733                Anadyr2           491.656
       259   03 Jun 2027 01:46:34.366   03 Jun 2027 01:47:19.040            44.674                Anadyr1          1396.063
       260   03 Jun 2027 01:47:43.004   03 Jun 2027 01:48:41.381            58.377               Magadan2          1824.281
       261   03 Jun 2027 01:48:43.535   03 Jun 2027 01:48:49.090             5.555                Norilsk           173.594
       262   03 Jun 2027 01:49:37.558   03 Jun 2027 01:49:54.018            16.460               Magadan2           514.375
       263   03 Jun 2027 01:50:26.077   03 Jun 2027 01:50:35.624             9.547                Norilsk           298.344
       264   03 Jun 2027 01:50:44.224   03 Jun 2027 01:51:09.623            25.399              Murmansk2           793.719
       265   03 Jun 2027 01:51:12.602   03 Jun 2027 01:52:39.297            86.695              Murmansk1          2709.219
       266   03 Jun 2027 01:53:55.436   03 Jun 2027 01:54:49.420            53.984                Novosib          1687.000
       267   03 Jun 2027 01:58:06.314   03 Jun 2027 01:58:29.062            22.748                 Moscow           710.875
       268   03 Jun 2027 02:04:18.280   03 Jun 2027 02:04:33.664            15.384                  Delhi           480.750
       269   03 Jun 2027 02:06:56.159   03 Jun 2027 02:07:26.671            30.512                  Delhi           953.500
       270   03 Jun 2027 02:21:20.329   03 Jun 2027 02:22:55.845            95.516               CapeTown          2984.875
       271   03 Jun 2027 03:35:17.732   03 Jun 2027 03:35:22.918             5.186                Norilsk           162.063
       272   03 Jun 2027 03:36:08.666   03 Jun 2027 03:38:12.906           124.240              Murmansk2          3882.500
       273   03 Jun 2027 03:38:12.906   03 Jun 2027 03:38:46.581            33.675              Murmansk1          1052.344
       274   03 Jun 2027 04:56:59.329   03 Jun 2027 04:57:13.358            14.029               Magadan2           438.406
       275   03 Jun 2027 04:57:22.124   03 Jun 2027 05:00:10.773           168.649               Magadan1          5270.281
       276   03 Jun 2027 05:00:23.513   03 Jun 2027 05:00:39.808            16.295               Magadan2           509.219
       277   03 Jun 2027 05:00:58.762   03 Jun 2027 05:01:26.017            27.255                Anadyr2           851.719
       278   03 Jun 2027 05:02:07.387   03 Jun 2027 05:02:59.107            51.720               Magadan1          1616.250
       279   03 Jun 2027 06:33:28.406   03 Jun 2027 06:33:34.507             6.101               Magadan2           190.656
       280   03 Jun 2027 06:33:56.259   03 Jun 2027 06:34:02.115             5.856                Anadyr2           183.000
       281   03 Jun 2027 06:34:02.255   03 Jun 2027 06:35:06.031            63.776               Magadan2          1993.000
       282   03 Jun 2027 06:35:06.031   03 Jun 2027 06:35:16.079            10.048               Magadan1           314.000
       283   03 Jun 2027 06:35:21.920   03 Jun 2027 06:37:02.435           100.515               Magadan2          3141.094
       284   03 Jun 2027 06:44:34.325   03 Jun 2027 06:44:45.862            11.537                 Moscow           360.531
       285   03 Jun 2027 07:17:17.780   03 Jun 2027 07:18:16.885            59.105            RioGallegos          1847.031
       286   03 Jun 2027 08:07:27.288   03 Jun 2027 08:07:48.213            20.925               Magadan1           653.906
       287   03 Jun 2027 08:08:28.331   03 Jun 2027 08:08:41.451            13.120               Magadan2           410.000
       288   03 Jun 2027 08:08:47.384   03 Jun 2027 08:09:33.403            46.019               Magadan2          1438.094
       289   03 Jun 2027 08:09:46.638   03 Jun 2027 08:10:51.949            65.311                Anadyr2          2040.969
       290   03 Jun 2027 08:11:07.673   03 Jun 2027 08:11:25.817            18.144               Magadan2           567.000
       291   03 Jun 2027 08:11:25.817   03 Jun 2027 08:12:09.971            44.154               Magadan1          1379.813
       292   03 Jun 2027 08:12:14.420   03 Jun 2027 08:12:56.271            41.851               Magadan2          1307.844
       293   03 Jun 2027 08:13:06.682   03 Jun 2027 08:13:19.358            12.676               Magadan1           396.125
       294   03 Jun 2027 08:13:25.325   03 Jun 2027 08:13:57.387            32.062                Anadyr1          1001.937
       295   03 Jun 2027 08:14:00.619   03 Jun 2027 08:14:43.799            43.180              Murmansk2          1349.375
       296   03 Jun 2027 08:14:56.727   03 Jun 2027 08:15:13.721            16.994              Murmansk2           531.063
       297   03 Jun 2027 08:17:03.410   03 Jun 2027 08:17:04.687             1.277              Murmansk2            39.906
       298   03 Jun 2027 08:17:13.768   03 Jun 2027 08:17:30.750            16.982              Murmansk1           530.688
       299   03 Jun 2027 08:49:47.985   03 Jun 2027 08:50:29.323            41.338            RioGallegos          1291.812
       300   03 Jun 2027 08:50:45.107   03 Jun 2027 08:50:59.548            14.441            RioGallegos           451.281
       301   03 Jun 2027 09:01:00.258   03 Jun 2027 09:01:20.948            20.690            RioGallegos           646.562
       302   03 Jun 2027 09:26:57.059   03 Jun 2027 09:28:04.100            67.041                Sumatra          2095.031
       303   03 Jun 2027 09:44:32.825   03 Jun 2027 09:45:59.496            86.671               Magadan1          2708.469
       304   03 Jun 2027 09:46:06.880   03 Jun 2027 09:46:32.369            25.489                Norilsk           796.531
       305   03 Jun 2027 09:46:55.969   03 Jun 2027 09:47:05.426             9.457                Irkutsk           295.531
       306   03 Jun 2027 09:47:15.735   03 Jun 2027 09:47:20.994             5.259                Novosib           164.344
       307   03 Jun 2027 09:47:24.580   03 Jun 2027 09:47:57.565            32.985               Magadan1          1030.781
       308   03 Jun 2027 09:48:03.186   03 Jun 2027 09:48:04.454             1.268                Norilsk            39.625
       309   03 Jun 2027 09:48:27.515   03 Jun 2027 09:48:48.335            20.820              Murmansk1           650.625
       310   03 Jun 2027 09:49:11.883   03 Jun 2027 09:49:50.397            38.514                Norilsk          1203.562
       311   03 Jun 2027 09:49:53.850   03 Jun 2027 09:50:25.334            31.484                Norilsk           983.875
       312   03 Jun 2027 09:50:30.151   03 Jun 2027 09:50:47.776            17.625                Norilsk           550.781
       313   03 Jun 2027 09:51:10.163   03 Jun 2027 09:51:24.211            14.048              Murmansk2           439.000
       314   03 Jun 2027 09:53:32.258   03 Jun 2027 09:53:35.137             2.879              Murmansk2            89.969
       315   03 Jun 2027 09:54:04.760   03 Jun 2027 09:54:33.132            28.372              Murmansk2           886.625
       316   03 Jun 2027 10:25:51.808   03 Jun 2027 10:26:41.661            49.853            RioGallegos          1557.906
       317   03 Jun 2027 10:30:25.568   03 Jun 2027 10:30:29.674             4.106            RioGallegos           128.312
       318   03 Jun 2027 11:00:19.593   03 Jun 2027 11:02:41.054           141.461                Sumatra          4420.656
       319   03 Jun 2027 11:20:56.131   03 Jun 2027 11:21:13.381            17.250                Novosib           539.063
       320   03 Jun 2027 11:21:15.329   03 Jun 2027 11:21:45.082            29.753                Irkutsk           929.781
       321   03 Jun 2027 11:22:14.072   03 Jun 2027 11:22:33.375            19.303              Murmansk1           603.219
       322   03 Jun 2027 11:22:37.741   03 Jun 2027 11:22:53.789            16.048              Murmansk1           501.500
       323   03 Jun 2027 11:22:56.469   03 Jun 2027 11:23:10.358            13.889                Norilsk           434.031
       324   03 Jun 2027 11:23:11.319   03 Jun 2027 11:24:09.722            58.403              Murmansk1          1825.094
       325   03 Jun 2027 11:24:22.754   03 Jun 2027 11:24:39.444            16.690                Norilsk           521.563
       326   03 Jun 2027 11:24:42.534   03 Jun 2027 11:25:30.008            47.474              Murmansk2          1483.563
       327   03 Jun 2027 11:25:46.115   03 Jun 2027 11:26:06.963            20.848                Irkutsk           651.500
       328   03 Jun 2027 11:26:07.384   03 Jun 2027 11:26:26.486            19.102                Novosib           596.937
       329   03 Jun 2027 11:26:31.866   03 Jun 2027 11:26:37.249             5.383                Norilsk           168.219
       330   03 Jun 2027 11:26:37.516   03 Jun 2027 11:26:41.547             4.031              Murmansk1           125.969
       331   03 Jun 2027 11:27:04.592   03 Jun 2027 11:27:15.005            10.413                Novosib           325.406
       332   03 Jun 2027 11:27:36.104   03 Jun 2027 11:27:53.718            17.614                Norilsk           550.437
       333   03 Jun 2027 12:08:11.907   03 Jun 2027 12:10:10.054           118.147            RioGallegos          3692.094
       334   03 Jun 2027 12:44:51.753   03 Jun 2027 12:45:26.265            34.512                  Delhi          1078.500
       335   03 Jun 2027 12:49:42.017   03 Jun 2027 12:49:44.042             2.025                  Delhi            63.281
       336   03 Jun 2027 12:52:57.231   03 Jun 2027 12:53:44.661            47.430                Novosib          1482.188
       337   03 Jun 2027 12:54:54.985   03 Jun 2027 12:56:33.377            98.392                Novosib          3074.750
       338   03 Jun 2027 12:56:42.417   03 Jun 2027 12:57:27.145            44.728              Murmansk1          1397.750
       339   03 Jun 2027 12:58:03.936   03 Jun 2027 12:59:07.200            63.264                Norilsk          1977.000
       340   03 Jun 2027 14:28:51.746   03 Jun 2027 14:32:52.829           241.083                 Moscow          7533.844
       341   03 Jun 2027 14:33:43.218   03 Jun 2027 14:35:24.116           100.898              Murmansk1          3153.062
       342   03 Jun 2027 14:35:34.051   03 Jun 2027 14:35:39.429             5.378              Murmansk2           168.063
       343   03 Jun 2027 14:35:58.246   03 Jun 2027 14:37:35.706            97.460              Murmansk2          3045.625
       344   03 Jun 2027 14:38:11.356   03 Jun 2027 14:38:28.424            17.068                Norilsk           533.375
       345   03 Jun 2027 14:41:55.847   03 Jun 2027 14:42:00.902             5.055                Norilsk           157.969
       346   03 Jun 2027 15:42:59.069   03 Jun 2027 15:45:28.215           149.146               CapeTown          4660.813
       347   03 Jun 2027 16:06:53.582   03 Jun 2027 16:07:27.514            33.932                 Moscow          1060.375
       348   03 Jun 2027 16:08:27.755   03 Jun 2027 16:08:31.386             3.631                 Moscow           113.469
       349   03 Jun 2027 16:09:46.157   03 Jun 2027 16:10:53.532            67.375              Murmansk2          2105.469
       350   03 Jun 2027 16:13:22.680   03 Jun 2027 16:13:42.780            20.100              Murmansk2           628.125
       351   03 Jun 2027 16:23:14.388   03 Jun 2027 16:25:17.181           122.793                Anadyr2          3837.281
       352   03 Jun 2027 16:26:43.929   03 Jun 2027 16:26:59.696            15.767                Anadyr2           492.719
       353   03 Jun 2027 16:28:25.726   03 Jun 2027 16:28:32.437             6.711                Anadyr2           209.719
       354   03 Jun 2027 16:29:08.194   03 Jun 2027 16:29:13.325             5.131                Anadyr2           160.344
       355   03 Jun 2027 16:31:51.949   03 Jun 2027 16:32:07.915            15.966                Anadyr2           498.937
       356   03 Jun 2027 17:18:30.548   03 Jun 2027 17:20:09.920            99.372               CapeTown          3105.375
       357   03 Jun 2027 17:49:36.392   03 Jun 2027 17:53:40.243           243.851              Murmansk2          7620.344
       358   03 Jun 2027 17:58:54.407   03 Jun 2027 17:59:25.316            30.909                Anadyr2           965.906
       359   03 Jun 2027 18:01:58.110   03 Jun 2027 18:03:20.916            82.806               Magadan1          2587.688
       360   03 Jun 2027 18:04:05.691   03 Jun 2027 18:04:38.200            32.509               Magadan1          1015.906
       361   03 Jun 2027 18:06:54.705   03 Jun 2027 18:06:57.998             3.293               Magadan1           102.906
       362   03 Jun 2027 18:10:18.125   03 Jun 2027 18:11:02.915            44.790               Magadan1          1399.688
       363   03 Jun 2027 19:34:50.127   03 Jun 2027 19:36:41.787           111.660                Anadyr1          3489.375
       364   03 Jun 2027 19:36:58.443   03 Jun 2027 19:37:10.233            11.790                Anadyr2           368.438
       365   03 Jun 2027 19:37:37.038   03 Jun 2027 19:40:53.544           196.506               Magadan2          6140.813
       366   03 Jun 2027 19:41:52.090   03 Jun 2027 19:42:47.608            55.518               Magadan1          1734.938
       367   03 Jun 2027 19:48:02.128   03 Jun 2027 19:48:07.881             5.753               Magadan1           179.781
       368   03 Jun 2027 19:48:46.064   03 Jun 2027 19:49:07.612            21.548               Magadan1           673.375
       369   03 Jun 2027 20:30:51.031   03 Jun 2027 20:33:27.694           156.663            RioGallegos          4895.719
       370   03 Jun 2027 20:36:19.189   03 Jun 2027 20:36:43.240            24.051            RioGallegos           751.594
       371   03 Jun 2027 21:10:38.709   03 Jun 2027 21:11:08.665            29.956                Anadyr2           936.125
       372   03 Jun 2027 21:11:58.355   03 Jun 2027 21:12:04.522             6.167                Anadyr2           192.719
       373   03 Jun 2027 21:12:21.079   03 Jun 2027 21:12:56.972            35.893                Anadyr2          1121.656
       374   03 Jun 2027 21:13:03.959   03 Jun 2027 21:14:30.568            86.609               Magadan2          2706.531
       375   03 Jun 2027 21:14:35.426   03 Jun 2027 21:15:54.777            79.351                Norilsk          2479.719
       376   03 Jun 2027 21:16:27.047   03 Jun 2027 21:16:28.809             1.762                Norilsk            55.063
       377   03 Jun 2027 21:17:39.324   03 Jun 2027 21:18:33.147            53.823                Irkutsk          1681.969
       378   03 Jun 2027 21:19:58.431   03 Jun 2027 21:20:16.846            18.415                Norilsk           575.469
       379   03 Jun 2027 21:20:47.245   03 Jun 2027 21:20:51.317             4.072                Irkutsk           127.250
       380   03 Jun 2027 21:21:55.209   03 Jun 2027 21:22:27.384            32.175                Irkutsk          1005.469
       381   03 Jun 2027 21:23:10.573   03 Jun 2027 21:23:54.469            43.896                Irkutsk          1371.750
       382   03 Jun 2027 21:32:29.568   03 Jun 2027 21:34:51.008           141.440                Sumatra          4420.000
       383   03 Jun 2027 22:46:22.415   03 Jun 2027 22:46:32.132             9.717                Anadyr1           303.656
       384   03 Jun 2027 22:46:49.624   03 Jun 2027 22:47:01.932            12.308                Anadyr1           384.625
       385   03 Jun 2027 22:48:34.254   03 Jun 2027 22:50:34.938           120.684                Norilsk          3771.375
       386   03 Jun 2027 22:50:43.115   03 Jun 2027 22:51:10.227            27.112               Magadan2           847.250
       387   03 Jun 2027 22:52:28.741   03 Jun 2027 22:53:39.726            70.985                Irkutsk          2218.281
       388   03 Jun 2027 22:53:47.956   03 Jun 2027 22:56:03.573           135.617                Novosib          4238.031
       389   03 Jun 2027 23:02:50.938   03 Jun 2027 23:02:58.472             7.534                  Delhi           235.437
       390   03 Jun 2027 23:05:51.896   03 Jun 2027 23:07:06.789            74.893                  Delhi          2340.406
       391   04 Jun 2027 00:19:58.828   04 Jun 2027 00:21:09.779            70.951                Anadyr2          2217.219
       392   04 Jun 2027 00:21:46.524   04 Jun 2027 00:22:14.325            27.801                Anadyr1           868.781
       393   04 Jun 2027 00:22:31.079   04 Jun 2027 00:22:41.478            10.399                Anadyr2           324.969
       394   04 Jun 2027 00:22:58.908   04 Jun 2027 00:22:59.606             0.698                Anadyr2            21.813
       395   04 Jun 2027 00:24:34.630   04 Jun 2027 00:26:37.722           123.092                Norilsk          3846.625
       396   04 Jun 2027 00:27:11.220   04 Jun 2027 00:27:22.983            11.763               Magadan2           367.594
       397   04 Jun 2027 00:27:27.302   04 Jun 2027 00:28:47.757            80.455              Murmansk2          2514.219
       398   04 Jun 2027 00:28:48.866   04 Jun 2027 00:29:16.221            27.355              Murmansk1           854.844
       399   04 Jun 2027 00:29:51.223   04 Jun 2027 00:30:33.282            42.059              Murmansk1          1314.344
       400   04 Jun 2027 00:31:24.819   04 Jun 2027 00:31:59.785            34.966              Murmansk1          1092.687
       401   04 Jun 2027 00:41:39.012   04 Jun 2027 00:42:30.067            51.055                  Delhi          1595.469
       402   04 Jun 2027 00:45:07.089   04 Jun 2027 00:45:17.419            10.330                  Delhi           322.813
       403   04 Jun 2027 00:45:35.067   04 Jun 2027 00:47:45.507           130.440                  Delhi          4076.250
       404   04 Jun 2027 01:53:16.087   04 Jun 2027 01:53:42.841            26.754                Anadyr1           836.063
       405   04 Jun 2027 01:54:56.296   04 Jun 2027 01:55:57.287            60.991                Anadyr2          1905.969
       406   04 Jun 2027 01:59:17.593   04 Jun 2027 02:00:12.795            55.202               Magadan1          1725.062
       407   04 Jun 2027 02:00:29.722   04 Jun 2027 02:00:51.503            21.781                Norilsk           680.656
       408   04 Jun 2027 02:01:55.643   04 Jun 2027 02:02:30.246            34.603               Magadan2          1081.344
       409   04 Jun 2027 02:02:44.550   04 Jun 2027 02:03:11.232            26.682              Murmansk1           833.813
       410   04 Jun 2027 02:03:42.102   04 Jun 2027 02:04:41.347            59.245              Murmansk2          1851.406
       411   04 Jun 2027 02:06:02.334   04 Jun 2027 02:06:30.301            27.967                Irkutsk           873.969
       412   04 Jun 2027 02:07:37.272   04 Jun 2027 02:07:41.073             3.801                Novosib           118.781
       413   04 Jun 2027 02:09:29.770   04 Jun 2027 02:10:14.561            44.791                Novosib          1399.719
       414   04 Jun 2027 02:14:22.760   04 Jun 2027 02:14:55.508            32.748                  Delhi          1023.375
       415   04 Jun 2027 02:32:27.780   04 Jun 2027 02:33:05.886            38.106               CapeTown          1190.812
       416   04 Jun 2027 02:36:15.386   04 Jun 2027 02:36:48.379            32.993               CapeTown          1031.031
       417   04 Jun 2027 03:48:20.661   04 Jun 2027 03:48:59.753            39.092              Murmansk1          1221.625
       418   04 Jun 2027 03:48:59.753   04 Jun 2027 03:49:22.179            22.426              Murmansk2           700.812
       419   04 Jun 2027 03:49:41.463   04 Jun 2027 03:51:09.723            88.260              Murmansk2          2758.125
       420   04 Jun 2027 05:09:16.092   04 Jun 2027 05:11:20.492           124.400               Magadan2          3887.500
       421   04 Jun 2027 05:11:20.492   04 Jun 2027 05:12:33.894            73.402               Magadan1          2293.813
       422   04 Jun 2027 05:12:33.894   04 Jun 2027 05:12:40.917             7.023               Magadan2           219.469
       423   04 Jun 2027 05:13:19.123   04 Jun 2027 05:13:47.323            28.200                Anadyr2           881.250
       424   04 Jun 2027 05:14:13.076   04 Jun 2027 05:15:22.253            69.177                Anadyr2          2161.781
       425   04 Jun 2027 06:45:16.978   04 Jun 2027 06:45:57.955            40.977                Anadyr2          1280.531
       426   04 Jun 2027 06:46:02.331   04 Jun 2027 06:46:14.727            12.396               Magadan2           387.375
       427   04 Jun 2027 06:46:14.727   04 Jun 2027 06:46:59.106            44.379               Magadan1          1386.844
       428   04 Jun 2027 06:47:18.271   04 Jun 2027 06:47:20.910             2.639               Magadan2            82.469
       429   04 Jun 2027 06:47:20.910   04 Jun 2027 06:48:27.966            67.056               Magadan1          2095.500
       430   04 Jun 2027 06:48:49.660   04 Jun 2027 06:49:43.323            53.663                Anadyr2          1676.969
       431   04 Jun 2027 07:29:13.426   04 Jun 2027 07:30:08.875            55.449            RioGallegos          1732.781
       432   04 Jun 2027 08:19:10.694   04 Jun 2027 08:19:31.129            20.435                Irkutsk           638.594
       433   04 Jun 2027 08:20:21.580   04 Jun 2027 08:20:32.284            10.704               Magadan1           334.500
       434   04 Jun 2027 08:20:41.116   04 Jun 2027 08:21:35.313            54.197               Magadan2          1693.656
       435   04 Jun 2027 08:21:43.306   04 Jun 2027 08:22:40.560            57.254                Anadyr1          1789.188
       436   04 Jun 2027 08:23:06.324   04 Jun 2027 08:23:28.743            22.419               Magadan2           700.594
       437   04 Jun 2027 08:23:43.042   04 Jun 2027 08:23:52.572             9.530                Norilsk           297.813
       438   04 Jun 2027 08:24:01.299   04 Jun 2027 08:24:06.401             5.102               Magadan2           159.437
       439   04 Jun 2027 08:24:19.242   04 Jun 2027 08:24:48.143            28.901                Irkutsk           903.156
       440   04 Jun 2027 08:25:07.123   04 Jun 2027 08:25:17.344            10.221                Irkutsk           319.406
       441   04 Jun 2027 08:25:20.366   04 Jun 2027 08:25:54.870            34.504               Magadan2          1078.250
       442   04 Jun 2027 08:25:59.704   04 Jun 2027 08:26:30.561            30.857                Novosib           964.281
       443   04 Jun 2027 08:26:32.201   04 Jun 2027 08:27:14.639            42.438              Murmansk1          1326.188
       444   04 Jun 2027 08:28:04.553   04 Jun 2027 08:28:39.724            35.171              Murmansk2          1099.094
       445   04 Jun 2027 09:01:38.880   04 Jun 2027 09:01:58.979            20.099            RioGallegos           628.094
       446   04 Jun 2027 09:02:28.791   04 Jun 2027 09:02:45.569            16.778            RioGallegos           524.313
       447   04 Jun 2027 09:38:06.609   04 Jun 2027 09:38:19.933            13.324                Sumatra           416.375
       448   04 Jun 2027 09:40:40.708   04 Jun 2027 09:41:23.751            43.043                Sumatra          1345.094
       449   04 Jun 2027 09:47:00.554   04 Jun 2027 09:47:11.532            10.978                Sumatra           343.063
       450   04 Jun 2027 09:56:26.157   04 Jun 2027 09:56:40.497            14.340                Novosib           448.125
       451   04 Jun 2027 09:56:53.652   04 Jun 2027 09:56:56.829             3.177                Irkutsk            99.281
       452   04 Jun 2027 09:56:59.408   04 Jun 2027 09:57:06.029             6.621                Norilsk           206.906
       453   04 Jun 2027 09:57:26.565   04 Jun 2027 09:57:28.425             1.860                Novosib            58.125
       454   04 Jun 2027 09:58:25.645   04 Jun 2027 09:58:50.925            25.280                Novosib           790.000
       455   04 Jun 2027 09:58:57.213   04 Jun 2027 09:58:57.653             0.440                Novosib            13.750
       456   04 Jun 2027 09:58:59.534   04 Jun 2027 10:00:10.363            70.829                Irkutsk          2213.406
       457   04 Jun 2027 10:00:15.000   04 Jun 2027 10:00:20.412             5.412              Murmansk2           169.125
       458   04 Jun 2027 10:00:26.295   04 Jun 2027 10:00:36.224             9.929              Murmansk2           310.281
       459   04 Jun 2027 10:00:36.224   04 Jun 2027 10:01:03.507            27.283              Murmansk1           852.594
       460   04 Jun 2027 10:01:15.786   04 Jun 2027 10:01:55.808            40.022                Irkutsk          1250.687
       461   04 Jun 2027 10:02:08.331   04 Jun 2027 10:02:13.944             5.613              Murmansk1           175.406
       462   04 Jun 2027 10:02:20.487   04 Jun 2027 10:02:39.510            19.023                Novosib           594.469
       463   04 Jun 2027 10:03:11.838   04 Jun 2027 10:03:33.279            21.441              Murmansk2           670.031
       464   04 Jun 2027 10:38:10.950   04 Jun 2027 10:38:22.777            11.827            RioGallegos           369.594
       465   04 Jun 2027 10:39:00.910   04 Jun 2027 10:39:30.770            29.860            RioGallegos           933.125
       466   04 Jun 2027 10:40:12.476   04 Jun 2027 10:40:24.448            11.972            RioGallegos           374.125
       467   04 Jun 2027 10:42:44.989   04 Jun 2027 10:43:01.172            16.183            RioGallegos           505.719
       468   04 Jun 2027 11:12:31.198   04 Jun 2027 11:12:51.335            20.137                Sumatra           629.281
       469   04 Jun 2027 11:14:30.196   04 Jun 2027 11:15:09.453            39.257                Sumatra          1226.781
       470   04 Jun 2027 11:21:47.757   04 Jun 2027 11:22:48.877            61.120                  Delhi          1910.000
       471   04 Jun 2027 11:33:46.015   04 Jun 2027 11:34:23.151            37.136                Novosib          1160.500
       472   04 Jun 2027 11:34:27.476   04 Jun 2027 11:34:29.070             1.594                Norilsk            49.812
       473   04 Jun 2027 11:34:29.778   04 Jun 2027 11:34:46.986            17.208              Murmansk1           537.750
       474   04 Jun 2027 11:35:04.382   04 Jun 2027 11:35:07.974             3.592              Murmansk1           112.250
       475   04 Jun 2027 11:35:13.030   04 Jun 2027 11:36:06.956            53.926              Murmansk2          1685.187
       476   04 Jun 2027 11:36:13.805   04 Jun 2027 11:36:55.686            41.881              Murmansk1          1308.781
       477   04 Jun 2027 11:37:00.499   04 Jun 2027 11:38:04.231            63.732                Novosib          1991.625
       478   04 Jun 2027 11:38:09.803   04 Jun 2027 11:38:09.998             0.195                 Moscow             6.094
       479   04 Jun 2027 11:38:14.591   04 Jun 2027 11:38:27.584            12.993                Norilsk           406.031
       480   04 Jun 2027 11:38:29.964   04 Jun 2027 11:38:31.760             1.796              Murmansk2            56.125
       481   04 Jun 2027 11:41:07.527   04 Jun 2027 11:41:40.731            33.204              Murmansk1          1037.625
       482   04 Jun 2027 12:57:14.256   04 Jun 2027 12:59:02.321           108.065                  Delhi          3377.031
