uniorb/output/strategy_2/Drop/Drop_KinoSat_111004.txt

KinoSat_111004
-------------------------
    Access    *     Start Time (UTCG)     *     Stop Time (UTCG)  *   Duration (s)        *       Station  *  Data (Mbytes)
         1   01 Jun 2027 03:37:32.108   01 Jun 2027 03:37:46.269            14.161               Magadan1           442.531
         2   01 Jun 2027 03:38:03.974   01 Jun 2027 03:39:33.572            89.598                Anadyr1          2799.937
         3   01 Jun 2027 03:39:37.585   01 Jun 2027 03:41:13.471            95.886               Magadan1          2996.438
         4   01 Jun 2027 03:41:13.471   01 Jun 2027 03:41:28.664            15.193               Magadan2           474.781
         5   01 Jun 2027 03:41:30.538   01 Jun 2027 03:41:34.700             4.162               Magadan2           130.063
         6   01 Jun 2027 03:42:12.223   01 Jun 2027 03:42:22.479            10.256                Anadyr1           320.500
         7   01 Jun 2027 03:42:48.276   01 Jun 2027 03:43:19.873            31.597               Magadan1           987.406
         8   01 Jun 2027 05:16:04.857   01 Jun 2027 05:17:38.990            94.133                Anadyr2          2941.656
         9   01 Jun 2027 05:17:44.524   01 Jun 2027 05:17:58.411            13.887                Anadyr2           433.969
        10   01 Jun 2027 05:18:56.787   01 Jun 2027 05:19:33.918            37.131                Anadyr1          1160.344
        11   01 Jun 2027 06:49:36.121   01 Jun 2027 06:50:02.918            26.797               Magadan2           837.406
        12   01 Jun 2027 06:50:02.918   01 Jun 2027 06:51:38.676            95.758               Magadan1          2992.438
        13   01 Jun 2027 06:52:00.776   01 Jun 2027 06:54:19.374           138.598                Anadyr1          4331.188
        14   01 Jun 2027 06:54:33.853   01 Jun 2027 06:54:39.152             5.299                Irkutsk           165.594
        15   01 Jun 2027 06:54:53.910   01 Jun 2027 06:55:19.550            25.640              Murmansk1           801.250
        16   01 Jun 2027 06:56:15.577   01 Jun 2027 06:56:34.462            18.885              Murmansk1           590.156
        17   01 Jun 2027 06:57:28.582   01 Jun 2027 06:57:37.658             9.076                Norilsk           283.625
        18   01 Jun 2027 06:58:09.054   01 Jun 2027 06:58:38.138            29.084                Norilsk           908.875
        19   01 Jun 2027 06:59:13.249   01 Jun 2027 06:59:29.179            15.930                Norilsk           497.812
        20   01 Jun 2027 07:30:46.642   01 Jun 2027 07:31:31.572            44.930            RioGallegos          1404.062
        21   01 Jun 2027 07:33:43.247   01 Jun 2027 07:34:25.199            41.952            RioGallegos          1311.000
        22   01 Jun 2027 07:36:03.240   01 Jun 2027 07:36:18.398            15.158            RioGallegos           473.687
        23   01 Jun 2027 07:37:02.301   01 Jun 2027 07:37:43.569            41.268            RioGallegos          1289.625
        24   01 Jun 2027 08:09:03.534   01 Jun 2027 08:10:26.562            83.028                Sumatra          2594.625
        25   01 Jun 2027 08:11:00.559   01 Jun 2027 08:12:24.289            83.730                Sumatra          2616.562
        26   01 Jun 2027 08:25:28.873   01 Jun 2027 08:25:50.364            21.491                Irkutsk           671.594
        27   01 Jun 2027 08:26:40.023   01 Jun 2027 08:27:06.731            26.708                Irkutsk           834.625
        28   01 Jun 2027 08:27:32.635   01 Jun 2027 08:27:48.854            16.219                Irkutsk           506.844
        29   01 Jun 2027 08:27:49.924   01 Jun 2027 08:28:22.693            32.769                Norilsk          1024.031
        30   01 Jun 2027 08:28:22.732   01 Jun 2027 08:28:51.498            28.766               Magadan1           898.938
        31   01 Jun 2027 08:28:59.366   01 Jun 2027 08:31:12.377           133.011              Murmansk2          4156.594
        32   01 Jun 2027 08:31:53.693   01 Jun 2027 08:31:59.354             5.661                Novosib           176.906
        33   01 Jun 2027 09:06:10.462   01 Jun 2027 09:06:45.796            35.334            RioGallegos          1104.187
        34   01 Jun 2027 09:07:31.419   01 Jun 2027 09:07:31.790             0.371            RioGallegos            11.594
        35   01 Jun 2027 09:08:43.771   01 Jun 2027 09:08:49.655             5.884            RioGallegos           183.875
        36   01 Jun 2027 09:09:19.572   01 Jun 2027 09:10:02.244            42.672            RioGallegos          1333.500
        37   01 Jun 2027 09:40:39.183   01 Jun 2027 09:41:04.718            25.535                Sumatra           797.969
        38   01 Jun 2027 09:43:40.615   01 Jun 2027 09:44:15.299            34.684                Sumatra          1083.875
        39   01 Jun 2027 09:45:10.753   01 Jun 2027 09:46:18.223            67.470                Sumatra          2108.437
        40   01 Jun 2027 10:02:56.612   01 Jun 2027 10:03:26.665            30.053                Irkutsk           939.156
        41   01 Jun 2027 10:03:49.921   01 Jun 2027 10:05:54.094           124.173              Murmansk2          3880.406
        42   01 Jun 2027 10:05:54.094   01 Jun 2027 10:06:47.120            53.026              Murmansk1          1657.062
        43   01 Jun 2027 10:06:47.120   01 Jun 2027 10:06:50.238             3.118              Murmansk2            97.438
        44   01 Jun 2027 10:06:51.900   01 Jun 2027 10:07:25.046            33.146                Novosib          1035.812
        45   01 Jun 2027 10:07:26.641   01 Jun 2027 10:08:34.116            67.475                Novosib          2108.594
        46   01 Jun 2027 10:50:04.299   01 Jun 2027 10:50:26.191            21.892            RioGallegos           684.125
        47   01 Jun 2027 11:25:10.057   01 Jun 2027 11:26:52.481           102.424                  Delhi          3200.750
        48   01 Jun 2027 11:29:48.650   01 Jun 2027 11:30:22.512            33.862                  Delhi          1058.188
        49   01 Jun 2027 11:39:12.502   01 Jun 2027 11:40:52.511           100.009                 Moscow          3125.281
        50   01 Jun 2027 11:40:55.392   01 Jun 2027 11:41:23.872            28.480              Murmansk2           890.000
        51   01 Jun 2027 11:41:25.167   01 Jun 2027 11:41:54.544            29.377                 Moscow           918.031
        52   01 Jun 2027 11:42:02.898   01 Jun 2027 11:42:09.889             6.991                 Moscow           218.469
        53   01 Jun 2027 11:42:13.706   01 Jun 2027 11:42:16.730             3.024                Norilsk            94.500
        54   01 Jun 2027 11:42:21.442   01 Jun 2027 11:42:30.331             8.889                Norilsk           277.781
        55   01 Jun 2027 11:42:31.923   01 Jun 2027 11:43:56.076            84.153                Novosib          2629.781
        56   01 Jun 2027 11:44:00.755   01 Jun 2027 11:44:03.235             2.480              Murmansk2            77.500
        57   01 Jun 2027 11:44:30.550   01 Jun 2027 11:44:38.124             7.574                 Moscow           236.687
        58   01 Jun 2027 11:44:45.810   01 Jun 2027 11:45:27.298            41.488              Murmansk2          1296.500
        59   01 Jun 2027 11:46:46.351   01 Jun 2027 11:47:07.292            20.941                Norilsk           654.406
        60   01 Jun 2027 13:09:12.012   01 Jun 2027 13:13:26.778           254.766                 Moscow          7961.437
        61   01 Jun 2027 13:13:31.143   01 Jun 2027 13:16:54.728           203.585              Murmansk2          6362.031
        62   01 Jun 2027 13:17:36.464   01 Jun 2027 13:19:50.983           134.519                Norilsk          4203.719
        63   01 Jun 2027 14:23:22.209   01 Jun 2027 14:26:49.568           207.359               CapeTown          6479.969
        64   01 Jun 2027 14:47:10.140   01 Jun 2027 14:47:25.907            15.767                 Moscow           492.719
        65   01 Jun 2027 14:50:04.481   01 Jun 2027 14:50:53.843            49.362              Murmansk1          1542.563
        66   01 Jun 2027 14:51:57.594   01 Jun 2027 14:53:47.686           110.092              Murmansk2          3440.375
        67   01 Jun 2027 15:03:36.200   01 Jun 2027 15:05:59.320           143.120                Anadyr1          4472.500
        68   01 Jun 2027 15:09:18.807   01 Jun 2027 15:09:28.274             9.467                Anadyr2           295.844
        69   01 Jun 2027 15:11:03.570   01 Jun 2027 15:12:29.390            85.820                Anadyr1          2681.875
        70   01 Jun 2027 15:58:49.683   01 Jun 2027 16:00:07.862            78.179               CapeTown          2443.094
        71   01 Jun 2027 16:29:52.386   01 Jun 2027 16:31:08.912            76.526              Murmansk1          2391.438
        72   01 Jun 2027 16:31:47.187   01 Jun 2027 16:32:00.417            13.230              Murmansk1           413.438
        73   01 Jun 2027 16:32:00.417   01 Jun 2027 16:32:33.976            33.559              Murmansk2          1048.719
        74   01 Jun 2027 16:39:15.125   01 Jun 2027 16:39:57.073            41.948                Anadyr1          1310.875
        75   01 Jun 2027 16:40:16.252   01 Jun 2027 16:41:54.309            98.057                Anadyr2          3064.281
        76   01 Jun 2027 16:42:21.232   01 Jun 2027 16:45:53.994           212.762               Magadan2          6648.813
        77   01 Jun 2027 16:50:41.744   01 Jun 2027 16:51:19.986            38.242               Magadan1          1195.062
        78   01 Jun 2027 18:15:10.452   01 Jun 2027 18:19:09.036           238.584                Anadyr2          7455.750
        79   01 Jun 2027 18:19:14.058   01 Jun 2027 18:19:34.120            20.062               Magadan2           626.938
        80   01 Jun 2027 18:20:21.564   01 Jun 2027 18:20:51.572            30.008                Anadyr1           937.750
        81   01 Jun 2027 18:20:55.037   01 Jun 2027 18:23:09.573           134.536               Magadan1          4204.250
        82   01 Jun 2027 19:11:19.363   01 Jun 2027 19:13:57.871           158.508            RioGallegos          4953.375
        83   01 Jun 2027 19:15:23.722   01 Jun 2027 19:15:54.614            30.892            RioGallegos           965.375
        84   01 Jun 2027 19:16:01.067   01 Jun 2027 19:17:06.439            65.372            RioGallegos          2042.875
        85   01 Jun 2027 19:53:09.801   01 Jun 2027 19:56:31.318           201.517                Norilsk          6297.406
        86   01 Jun 2027 19:58:03.359   01 Jun 2027 19:59:34.237            90.878                Irkutsk          2839.937
        87   01 Jun 2027 20:00:27.155   01 Jun 2027 20:01:22.547            55.392                Irkutsk          1731.000
        88   01 Jun 2027 20:03:26.182   01 Jun 2027 20:04:20.606            54.424                Irkutsk          1700.750
        89   01 Jun 2027 20:12:57.153   01 Jun 2027 20:15:19.970           142.817                Sumatra          4463.031
        90   01 Jun 2027 20:16:23.644   01 Jun 2027 20:17:13.635            49.991                Sumatra          1562.219
        91   01 Jun 2027 20:19:42.909   01 Jun 2027 20:20:59.017            76.108                Sumatra          2378.375
        92   01 Jun 2027 21:30:36.621   01 Jun 2027 21:30:46.531             9.910                Norilsk           309.687
        93   01 Jun 2027 21:32:43.723   01 Jun 2027 21:33:19.576            35.853               Magadan2          1120.406
        94   01 Jun 2027 21:33:29.648   01 Jun 2027 21:35:06.241            96.593                Novosib          3018.531
        95   01 Jun 2027 21:37:55.448   01 Jun 2027 21:37:56.402             0.954                Irkutsk            29.813
        96   01 Jun 2027 21:38:40.555   01 Jun 2027 21:39:17.264            36.709                Novosib          1147.156
        97   01 Jun 2027 21:39:35.247   01 Jun 2027 21:39:39.127             3.880                Novosib           121.250
        98   01 Jun 2027 21:41:22.862   01 Jun 2027 21:41:49.445            26.583                Irkutsk           830.719
        99   01 Jun 2027 21:42:59.727   01 Jun 2027 21:43:36.745            37.018                Novosib          1156.812
       100   01 Jun 2027 21:44:01.009   01 Jun 2027 21:45:15.288            74.279                  Delhi          2321.219
       101   01 Jun 2027 21:45:57.364   01 Jun 2027 21:49:01.695           184.331                  Delhi          5760.344
       102   01 Jun 2027 23:04:55.122   01 Jun 2027 23:05:01.833             6.711                Norilsk           209.719
       103   01 Jun 2027 23:05:27.858   01 Jun 2027 23:06:30.330            62.472               Magadan2          1952.250
       104   01 Jun 2027 23:06:45.044   01 Jun 2027 23:08:10.191            85.147                Norilsk          2660.844
       105   01 Jun 2027 23:08:30.461   01 Jun 2027 23:09:50.341            79.880              Murmansk2          2496.250
       106   01 Jun 2027 23:10:34.549   01 Jun 2027 23:11:29.479            54.930              Murmansk1          1716.562
       107   01 Jun 2027 23:15:57.890   01 Jun 2027 23:16:07.346             9.456                Novosib           295.500
       108   01 Jun 2027 23:16:42.864   01 Jun 2027 23:17:26.978            44.114                Novosib          1378.562
       109   01 Jun 2027 23:18:14.264   01 Jun 2027 23:19:36.664            82.400                Novosib          2575.000
       110   01 Jun 2027 23:23:00.681   01 Jun 2027 23:23:32.677            31.996                  Delhi           999.875
       111   01 Jun 2027 23:25:07.315   01 Jun 2027 23:25:37.759            30.444                  Delhi           951.375
       112   01 Jun 2027 23:26:08.328   01 Jun 2027 23:27:58.407           110.079                  Delhi          3439.969
       113   02 Jun 2027 00:36:06.273   02 Jun 2027 00:36:14.773             8.500                Anadyr2           265.625
       114   02 Jun 2027 00:36:26.007   02 Jun 2027 00:36:41.273            15.266                Anadyr2           477.062
       115   02 Jun 2027 00:38:07.428   02 Jun 2027 00:38:26.030            18.602                Anadyr2           581.313
       116   02 Jun 2027 00:38:54.281   02 Jun 2027 00:39:26.574            32.293                Anadyr2          1009.156
       117   02 Jun 2027 00:39:39.422   02 Jun 2027 00:40:07.504            28.082               Magadan2           877.562
       118   02 Jun 2027 00:40:07.504   02 Jun 2027 00:40:26.045            18.541               Magadan1           579.406
       119   02 Jun 2027 00:40:36.863   02 Jun 2027 00:40:45.233             8.370               Magadan2           261.563
       120   02 Jun 2027 00:40:50.144   02 Jun 2027 00:40:57.735             7.591                Norilsk           237.219
       121   02 Jun 2027 00:41:30.111   02 Jun 2027 00:42:15.365            45.254               Magadan2          1414.187
       122   02 Jun 2027 00:43:05.714   02 Jun 2027 00:45:44.908           159.194              Murmansk1          4974.812
       123   02 Jun 2027 00:48:15.542   02 Jun 2027 00:48:58.105            42.563                 Moscow          1330.094
       124   02 Jun 2027 00:52:36.614   02 Jun 2027 00:52:40.585             3.971              Murmansk1           124.094
       125   02 Jun 2027 00:52:41.488   02 Jun 2027 00:52:52.086            10.598                 Moscow           331.187
       126   02 Jun 2027 00:53:21.781   02 Jun 2027 00:53:37.702            15.921              Murmansk2           497.531
       127   02 Jun 2027 00:54:24.663   02 Jun 2027 00:56:17.642           112.979                 Moscow          3530.594
       128   02 Jun 2027 01:16:23.935   02 Jun 2027 01:16:50.530            26.595               CapeTown           831.094
       129   02 Jun 2027 01:20:06.522   02 Jun 2027 01:21:23.816            77.294               CapeTown          2415.438
       130   02 Jun 2027 02:09:32.601   02 Jun 2027 02:09:36.487             3.886                Anadyr2           121.437
       131   02 Jun 2027 02:10:02.932   02 Jun 2027 02:10:35.473            32.541                Anadyr1          1016.906
       132   02 Jun 2027 02:11:18.557   02 Jun 2027 02:12:29.687            71.130               Magadan1          2222.813
       133   02 Jun 2027 02:15:03.962   02 Jun 2027 02:15:21.468            17.506               Magadan1           547.062
       134   02 Jun 2027 02:16:15.362   02 Jun 2027 02:16:42.107            26.745               Magadan2           835.781
       135   02 Jun 2027 02:17:35.088   02 Jun 2027 02:17:51.115            16.027               Magadan1           500.844
       136   02 Jun 2027 02:18:15.117   02 Jun 2027 02:18:22.527             7.410                Norilsk           231.562
       137   02 Jun 2027 02:18:36.309   02 Jun 2027 02:18:39.155             2.846                Norilsk            88.938
       138   02 Jun 2027 02:19:01.005   02 Jun 2027 02:19:55.293            54.288              Murmansk2          1696.500
       139   02 Jun 2027 02:20:08.115   02 Jun 2027 02:20:42.389            34.274              Murmansk1          1071.062
       140   02 Jun 2027 02:22:51.330   02 Jun 2027 02:22:58.425             7.095                Novosib           221.719
       141   02 Jun 2027 02:23:37.891   02 Jun 2027 02:23:41.414             3.523                 Moscow           110.094
       142   02 Jun 2027 02:23:49.441   02 Jun 2027 02:24:16.216            26.775              Murmansk1           836.719
       143   02 Jun 2027 02:26:06.156   02 Jun 2027 02:26:17.557            11.401                Novosib           356.281
       144   02 Jun 2027 02:26:19.096   02 Jun 2027 02:27:17.878            58.782              Murmansk1          1836.938
       145   02 Jun 2027 02:31:05.569   02 Jun 2027 02:31:45.443            39.874              Murmansk2          1246.062
       146   02 Jun 2027 02:34:44.198   02 Jun 2027 02:35:08.305            24.107                 Moscow           753.344
       147   02 Jun 2027 02:52:55.966   02 Jun 2027 02:53:05.532             9.566               CapeTown           298.937
       148   02 Jun 2027 02:55:45.300   02 Jun 2027 02:56:26.034            40.734               CapeTown          1272.938
       149   02 Jun 2027 02:58:37.436   02 Jun 2027 02:58:54.098            16.662               CapeTown           520.687
       150   02 Jun 2027 03:50:04.952   02 Jun 2027 03:50:21.382            16.430                Anadyr2           513.437
       151   02 Jun 2027 03:50:21.382   02 Jun 2027 03:51:49.571            88.189                Anadyr1          2755.906
       152   02 Jun 2027 03:51:52.441   02 Jun 2027 03:55:22.641           210.200               Magadan1          6568.750
       153   02 Jun 2027 05:28:15.768   02 Jun 2027 05:30:08.184           112.416                Anadyr1          3513.000
       154   02 Jun 2027 05:30:08.184   02 Jun 2027 05:30:12.420             4.236                Anadyr2           132.375
       155   02 Jun 2027 05:31:17.324   02 Jun 2027 05:31:20.330             3.006               Magadan1            93.937
       156   02 Jun 2027 05:33:39.431   02 Jun 2027 05:34:15.246            35.815                Norilsk          1119.219
       157   02 Jun 2027 06:11:44.799   02 Jun 2027 06:12:18.111            33.312            RioGallegos          1041.000
       158   02 Jun 2027 07:00:37.534   02 Jun 2027 07:01:21.704            44.170                Irkutsk          1380.312
       159   02 Jun 2027 07:02:55.532   02 Jun 2027 07:05:47.838           172.306                Anadyr1          5384.562
       160   02 Jun 2027 07:06:10.334   02 Jun 2027 07:06:36.447            26.113              Murmansk2           816.031
       161   02 Jun 2027 07:06:36.447   02 Jun 2027 07:07:03.473            27.026              Murmansk1           844.563
       162   02 Jun 2027 07:07:13.267   02 Jun 2027 07:07:46.540            33.273                Novosib          1039.781
       163   02 Jun 2027 07:08:33.826   02 Jun 2027 07:09:33.801            59.975              Murmansk1          1874.219
       164   02 Jun 2027 07:10:22.120   02 Jun 2027 07:10:25.534             3.414              Murmansk2           106.688
       165   02 Jun 2027 07:10:25.534   02 Jun 2027 07:10:52.000            26.466              Murmansk1           827.063
       166   02 Jun 2027 07:11:27.749   02 Jun 2027 07:11:56.554            28.805                Norilsk           900.156
       167   02 Jun 2027 07:14:00.246   02 Jun 2027 07:14:07.979             7.733              Murmansk1           241.656
       168   02 Jun 2027 07:42:00.420   02 Jun 2027 07:42:18.554            18.134            RioGallegos           566.688
       169   02 Jun 2027 07:44:59.926   02 Jun 2027 07:45:21.331            21.405            RioGallegos           668.906
       170   02 Jun 2027 07:47:05.255   02 Jun 2027 07:47:30.160            24.905            RioGallegos           778.281
       171   02 Jun 2027 07:48:03.177   02 Jun 2027 07:49:03.714            60.537            RioGallegos          1891.781
       172   02 Jun 2027 08:18:33.117   02 Jun 2027 08:19:30.108            56.991                Sumatra          1780.969
       173   02 Jun 2027 08:20:45.820   02 Jun 2027 08:21:10.189            24.369                Sumatra           761.531
       174   02 Jun 2027 08:23:02.095   02 Jun 2027 08:24:46.024           103.929                Sumatra          3247.781
       175   02 Jun 2027 08:38:13.136   02 Jun 2027 08:38:56.505            43.369                Irkutsk          1355.281
       176   02 Jun 2027 08:38:58.522   02 Jun 2027 08:39:02.080             3.558                Novosib           111.187
       177   02 Jun 2027 08:39:06.204   02 Jun 2027 08:40:19.592            73.388                Norilsk          2293.375
       178   02 Jun 2027 08:40:21.274   02 Jun 2027 08:40:57.474            36.200                Norilsk          1131.250
       179   02 Jun 2027 08:41:06.800   02 Jun 2027 08:41:56.736            49.936                Novosib          1560.500
       180   02 Jun 2027 08:41:56.792   02 Jun 2027 08:42:17.681            20.889                Novosib           652.781
       181   02 Jun 2027 08:42:27.730   02 Jun 2027 08:42:33.588             5.858                Norilsk           183.063
       182   02 Jun 2027 08:42:50.749   02 Jun 2027 08:43:07.043            16.294                Irkutsk           509.187
       183   02 Jun 2027 08:43:47.118   02 Jun 2027 08:45:02.163            75.045              Murmansk2          2345.156
       184   02 Jun 2027 08:45:58.415   02 Jun 2027 08:46:19.786            21.371              Murmansk2           667.844
       185   02 Jun 2027 09:18:28.916   02 Jun 2027 09:19:34.302            65.386            RioGallegos          2043.312
       186   02 Jun 2027 09:52:49.796   02 Jun 2027 09:54:18.653            88.857                Sumatra          2776.781
       187   02 Jun 2027 10:01:39.942   02 Jun 2027 10:02:33.621            53.679                  Delhi          1677.469
       188   02 Jun 2027 10:13:50.769   02 Jun 2027 10:14:33.438            42.669                Irkutsk          1333.406
       189   02 Jun 2027 10:14:38.931   02 Jun 2027 10:14:54.894            15.963                Novosib           498.844
       190   02 Jun 2027 10:15:59.240   02 Jun 2027 10:16:04.511             5.271                Norilsk           164.719
       191   02 Jun 2027 10:16:04.687   02 Jun 2027 10:16:27.122            22.435                 Moscow           701.094
       192   02 Jun 2027 10:16:28.268   02 Jun 2027 10:16:58.285            30.017              Murmansk2           938.031
       193   02 Jun 2027 10:16:59.369   02 Jun 2027 10:17:24.034            24.665                 Moscow           770.781
       194   02 Jun 2027 10:17:30.651   02 Jun 2027 10:17:31.906             1.255              Murmansk1            39.219
       195   02 Jun 2027 10:17:31.906   02 Jun 2027 10:17:35.422             3.516              Murmansk2           109.875
       196   02 Jun 2027 10:17:41.189   02 Jun 2027 10:18:56.178            74.989                 Moscow          2343.406
       197   02 Jun 2027 11:37:31.445   02 Jun 2027 11:39:32.556           121.111                  Delhi          3784.719
       198   02 Jun 2027 11:41:34.864   02 Jun 2027 11:41:52.425            17.561                  Delhi           548.781
       199   02 Jun 2027 11:50:17.812   02 Jun 2027 11:51:25.567            67.755              Murmansk1          2117.344
       200   02 Jun 2027 11:51:27.316   02 Jun 2027 11:52:30.386            63.070                 Moscow          1970.938
       201   02 Jun 2027 11:52:33.609   02 Jun 2027 11:53:00.087            26.478                Norilsk           827.438
       202   02 Jun 2027 11:53:22.512   02 Jun 2027 11:53:57.036            34.524                 Moscow          1078.875
       203   02 Jun 2027 11:54:02.976   02 Jun 2027 11:54:28.798            25.822              Murmansk2           806.938
       204   02 Jun 2027 11:54:45.170   02 Jun 2027 11:55:26.037            40.867                 Moscow          1277.094
       205   02 Jun 2027 13:21:16.521   02 Jun 2027 13:25:39.856           263.335                 Moscow          8229.219
       206   02 Jun 2027 13:25:59.412   02 Jun 2027 13:26:19.568            20.156                 Moscow           629.875
       207   02 Jun 2027 13:26:31.567   02 Jun 2027 13:29:01.950           150.383              Murmansk1          4699.469
       208   02 Jun 2027 13:30:29.765   02 Jun 2027 13:31:47.442            77.677                Norilsk          2427.406
       209   02 Jun 2027 13:36:20.361   02 Jun 2027 13:37:08.138            47.777              Murmansk1          1493.031
       210   02 Jun 2027 13:42:00.883   02 Jun 2027 13:42:18.631            17.748                Anadyr1           554.625
       211   02 Jun 2027 13:42:56.284   02 Jun 2027 13:43:55.550            59.266                Anadyr1          1852.063
       212   02 Jun 2027 14:36:24.065   02 Jun 2027 14:37:17.615            53.550               CapeTown          1673.437
       213   02 Jun 2027 14:42:46.776   02 Jun 2027 14:42:50.466             3.690               CapeTown           115.313
       214   02 Jun 2027 14:42:53.593   02 Jun 2027 14:43:32.685            39.092               CapeTown          1221.625
       215   02 Jun 2027 14:45:54.631   02 Jun 2027 14:47:08.590            73.959               CapeTown          2311.219
       216   02 Jun 2027 15:03:58.661   02 Jun 2027 15:04:05.376             6.715              Murmansk1           209.844
       217   02 Jun 2027 15:04:19.751   02 Jun 2027 15:05:20.411            60.660              Murmansk2          1895.625
       218   02 Jun 2027 15:09:40.297   02 Jun 2027 15:09:47.757             7.460              Murmansk1           233.125
       219   02 Jun 2027 15:09:56.038   02 Jun 2027 15:11:37.087           101.049              Murmansk2          3157.781
       220   02 Jun 2027 15:15:33.120   02 Jun 2027 15:16:01.359            28.239                Anadyr1           882.469
       221   02 Jun 2027 15:16:21.422   02 Jun 2027 15:16:26.161             4.739                Anadyr1           148.094
       222   02 Jun 2027 15:16:38.903   02 Jun 2027 15:17:04.631            25.728                Anadyr2           804.000
       223   02 Jun 2027 15:19:01.820   02 Jun 2027 15:19:56.065            54.245                Anadyr2          1695.156
       224   02 Jun 2027 16:19:20.350   02 Jun 2027 16:20:47.186            86.836               CapeTown          2713.625
       225   02 Jun 2027 16:42:38.466   02 Jun 2027 16:43:48.532            70.066              Murmansk1          2189.562
       226   02 Jun 2027 16:44:02.361   02 Jun 2027 16:44:39.938            37.577              Murmansk2          1174.281
       227   02 Jun 2027 16:51:16.148   02 Jun 2027 16:52:58.004           101.856                Anadyr1          3183.000
       228   02 Jun 2027 16:54:10.539   02 Jun 2027 16:56:49.332           158.793               Magadan2          4962.281
       229   02 Jun 2027 17:03:11.240   02 Jun 2027 17:03:38.452            27.212               Magadan1           850.375
       230   02 Jun 2027 18:27:11.703   02 Jun 2027 18:29:02.402           110.699                Anadyr2          3459.344
       231   02 Jun 2027 18:29:29.342   02 Jun 2027 18:33:27.542           238.200               Magadan1          7443.750
       232   02 Jun 2027 18:36:46.676   02 Jun 2027 18:37:28.988            42.312               Magadan2          1322.250
       233   02 Jun 2027 19:22:40.847   02 Jun 2027 19:25:42.870           182.023            RioGallegos          5688.219
       234   02 Jun 2027 19:27:55.166   02 Jun 2027 19:28:23.176            28.010            RioGallegos           875.313
       235   02 Jun 2027 19:29:19.068   02 Jun 2027 19:29:53.356            34.288            RioGallegos          1071.500
       236   02 Jun 2027 20:05:07.478   02 Jun 2027 20:06:50.450           102.972                Norilsk          3217.875
       237   02 Jun 2027 20:07:40.811   02 Jun 2027 20:09:01.587            80.776                Norilsk          2524.250
       238   02 Jun 2027 20:09:46.325   02 Jun 2027 20:12:44.093           177.768                Irkutsk          5555.250
       239   02 Jun 2027 20:19:03.469   02 Jun 2027 20:19:10.400             6.931                Irkutsk           216.594
       240   02 Jun 2027 20:24:12.818   02 Jun 2027 20:25:36.747            83.929                Sumatra          2622.781
       241   02 Jun 2027 20:28:06.839   02 Jun 2027 20:29:33.548            86.709                Sumatra          2709.656
       242   02 Jun 2027 20:31:19.306   02 Jun 2027 20:31:28.117             8.811                Sumatra           275.344
       243   02 Jun 2027 21:41:32.963   02 Jun 2027 21:41:49.253            16.290               Magadan2           509.062
       244   02 Jun 2027 21:41:55.581   02 Jun 2027 21:42:15.733            20.152               Magadan2           629.750
       245   02 Jun 2027 21:43:00.693   02 Jun 2027 21:43:17.456            16.763                Norilsk           523.844
       246   02 Jun 2027 21:44:49.444   02 Jun 2027 21:45:55.557            66.113                Irkutsk          2066.031
       247   02 Jun 2027 21:46:09.055   02 Jun 2027 21:48:23.365           134.310                Novosib          4197.187
       248   02 Jun 2027 21:54:20.267   02 Jun 2027 21:55:30.762            70.495                  Delhi          2202.969
       249   02 Jun 2027 21:56:39.066   02 Jun 2027 21:56:52.542            13.476                  Delhi           421.125
       250   02 Jun 2027 21:59:21.571   02 Jun 2027 22:00:19.645            58.074                  Delhi          1814.812
       251   02 Jun 2027 23:16:31.357   02 Jun 2027 23:16:43.483            12.126                Anadyr2           378.938
       252   02 Jun 2027 23:16:56.949   02 Jun 2027 23:17:31.286            34.337                Norilsk          1073.031
       253   02 Jun 2027 23:17:31.387   02 Jun 2027 23:18:40.249            68.862               Magadan2          2151.938
       254   02 Jun 2027 23:19:40.234   02 Jun 2027 23:21:50.644           130.410              Murmansk1          4075.313
       255   02 Jun 2027 23:23:00.451   02 Jun 2027 23:23:27.868            27.417              Murmansk2           856.781
       256   02 Jun 2027 23:23:54.461   02 Jun 2027 23:25:17.614            83.153              Murmansk2          2598.531
       257   02 Jun 2027 23:33:48.068   02 Jun 2027 23:34:20.922            32.854                  Delhi          1026.687
       258   02 Jun 2027 23:37:12.272   02 Jun 2027 23:37:28.430            16.158                  Delhi           504.937
       259   02 Jun 2027 23:37:36.346   02 Jun 2027 23:37:41.209             4.863                  Delhi           151.969
       260   03 Jun 2027 00:14:45.335   03 Jun 2027 00:15:17.971            32.636            RioGallegos          1019.875
       261   03 Jun 2027 00:45:20.929   03 Jun 2027 00:45:47.469            26.540                Anadyr1           829.375
       262   03 Jun 2027 00:46:07.897   03 Jun 2027 00:46:32.355            24.458                Anadyr1           764.312
       263   03 Jun 2027 00:47:19.917   03 Jun 2027 00:47:42.751            22.834                Anadyr2           713.563
       264   03 Jun 2027 00:48:01.755   03 Jun 2027 00:48:36.150            34.395                Anadyr1          1074.844
       265   03 Jun 2027 00:50:56.462   03 Jun 2027 00:51:09.348            12.886                Anadyr2           402.687
       266   03 Jun 2027 00:51:11.561   03 Jun 2027 00:52:31.929            80.368               Magadan1          2511.500
       267   03 Jun 2027 00:52:47.711   03 Jun 2027 00:53:16.183            28.472               Magadan1           889.750
       268   03 Jun 2027 00:55:06.246   03 Jun 2027 00:57:51.200           164.954              Murmansk1          5154.812
       269   03 Jun 2027 00:58:57.049   03 Jun 2027 00:59:45.974            48.925                 Moscow          1528.906
       270   03 Jun 2027 01:07:34.191   03 Jun 2027 01:07:52.703            18.512                  Delhi           578.500
       271   03 Jun 2027 01:08:54.829   03 Jun 2027 01:09:18.918            24.089                 Moscow           752.781
       272   03 Jun 2027 01:24:11.971   03 Jun 2027 01:24:54.398            42.427               CapeTown          1325.844
       273   03 Jun 2027 01:28:04.048   03 Jun 2027 01:28:56.966            52.918               CapeTown          1653.688
       274   03 Jun 2027 02:19:21.238   03 Jun 2027 02:20:27.339            66.101                Anadyr1          2065.656
       275   03 Jun 2027 02:20:45.638   03 Jun 2027 02:21:41.577            55.939                Anadyr2          1748.094
       276   03 Jun 2027 02:23:02.902   03 Jun 2027 02:23:15.900            12.998               Magadan2           406.188
       277   03 Jun 2027 02:23:44.635   03 Jun 2027 02:24:04.529            19.894               Magadan2           621.687
       278   03 Jun 2027 02:24:59.290   03 Jun 2027 02:25:45.028            45.738               Magadan1          1429.313
       279   03 Jun 2027 02:30:06.988   03 Jun 2027 02:30:26.857            19.869                Norilsk           620.906
       280   03 Jun 2027 02:31:02.771   03 Jun 2027 02:32:41.496            98.725              Murmansk1          3085.156
       281   03 Jun 2027 02:33:46.867   03 Jun 2027 02:34:17.351            30.484                Novosib           952.625
       282   03 Jun 2027 02:38:10.334   03 Jun 2027 02:38:28.308            17.974                Novosib           561.688
       283   03 Jun 2027 02:41:36.804   03 Jun 2027 02:41:41.539             4.735                 Moscow           147.969
       284   03 Jun 2027 02:42:12.576   03 Jun 2027 02:42:27.900            15.324                 Moscow           478.875
       285   03 Jun 2027 02:44:41.605   03 Jun 2027 02:45:54.571            72.966                 Moscow          2280.187
       286   03 Jun 2027 03:07:54.690   03 Jun 2027 03:08:00.110             5.420               CapeTown           169.375
       287   03 Jun 2027 03:08:32.988   03 Jun 2027 03:08:35.375             2.387               CapeTown            74.594
       288   03 Jun 2027 04:01:47.324   03 Jun 2027 04:02:02.400            15.076               Magadan2           471.125
       289   03 Jun 2027 04:02:10.805   03 Jun 2027 04:02:40.123            29.318                Anadyr1           916.187
       290   03 Jun 2027 04:03:27.246   03 Jun 2027 04:03:35.751             8.505               Magadan1           265.781
       291   03 Jun 2027 04:03:43.358   03 Jun 2027 04:04:10.109            26.751                Norilsk           835.969
       292   03 Jun 2027 04:04:14.839   03 Jun 2027 04:07:48.141           213.302                Anadyr2          6665.688
       293   03 Jun 2027 05:37:26.869   03 Jun 2027 05:38:14.769            47.900                Irkutsk          1496.875
       294   03 Jun 2027 05:38:52.655   03 Jun 2027 05:39:58.502            65.847                Irkutsk          2057.719
       295   03 Jun 2027 07:13:53.087   03 Jun 2027 07:14:00.108             7.021                Norilsk           219.406
       296   03 Jun 2027 07:14:14.751   03 Jun 2027 07:15:16.332            61.581               Magadan1          1924.406
       297   03 Jun 2027 07:15:32.068   03 Jun 2027 07:17:23.732           111.664               Magadan2          3489.500
       298   03 Jun 2027 07:17:34.351   03 Jun 2027 07:17:52.956            18.605                Norilsk           581.406
       299   03 Jun 2027 07:18:03.428   03 Jun 2027 07:18:30.715            27.287              Murmansk1           852.719
       300   03 Jun 2027 07:18:32.355   03 Jun 2027 07:18:51.895            19.540              Murmansk1           610.625
       301   03 Jun 2027 07:18:51.895   03 Jun 2027 07:18:54.989             3.094              Murmansk2            96.687
       302   03 Jun 2027 07:19:05.612   03 Jun 2027 07:19:16.156            10.544              Murmansk1           329.500
       303   03 Jun 2027 07:19:24.594   03 Jun 2027 07:20:06.542            41.948                Norilsk          1310.875
       304   03 Jun 2027 07:23:57.951   03 Jun 2027 07:24:05.831             7.880              Murmansk2           246.250
       305   03 Jun 2027 07:53:54.036   03 Jun 2027 07:54:37.225            43.189            RioGallegos          1349.656
       306   03 Jun 2027 07:55:52.306   03 Jun 2027 07:56:39.863            47.557            RioGallegos          1486.156
       307   03 Jun 2027 08:29:55.566   03 Jun 2027 08:30:42.738            47.172                Sumatra          1474.125
       308   03 Jun 2027 08:34:05.954   03 Jun 2027 08:34:52.995            47.041                Sumatra          1470.031
       309   03 Jun 2027 08:48:59.434   03 Jun 2027 08:49:16.966            17.532                Norilsk           547.875
       310   03 Jun 2027 08:49:27.620   03 Jun 2027 08:50:00.105            32.485                Irkutsk          1015.156
       311   03 Jun 2027 08:50:29.711   03 Jun 2027 08:50:53.953            24.242                Norilsk           757.563
       312   03 Jun 2027 08:51:09.168   03 Jun 2027 08:51:28.436            19.268                Norilsk           602.125
       313   03 Jun 2027 08:51:51.971   03 Jun 2027 08:51:56.582             4.611                Irkutsk           144.094
       314   03 Jun 2027 08:52:07.180   03 Jun 2027 08:52:22.773            15.593              Murmansk1           487.281
       315   03 Jun 2027 08:52:23.096   03 Jun 2027 08:53:24.166            61.070                Novosib          1908.437
       316   03 Jun 2027 08:53:35.409   03 Jun 2027 08:53:38.370             2.961              Murmansk2            92.531
       317   03 Jun 2027 08:53:39.800   03 Jun 2027 08:53:56.999            17.199                Irkutsk           537.469
       318   03 Jun 2027 08:54:04.273   03 Jun 2027 08:54:11.490             7.217              Murmansk2           225.531
       319   03 Jun 2027 08:54:20.151   03 Jun 2027 08:54:40.844            20.693                Irkutsk           646.656
       320   03 Jun 2027 08:54:44.153   03 Jun 2027 08:55:17.052            32.899                Norilsk          1028.094
       321   03 Jun 2027 08:56:39.294   03 Jun 2027 08:56:56.331            17.037              Murmansk1           532.406
       322   03 Jun 2027 08:59:15.695   03 Jun 2027 08:59:19.610             3.915              Murmansk1           122.344
       323   03 Jun 2027 09:30:51.987   03 Jun 2027 09:31:21.451            29.464            RioGallegos           920.750
       324   03 Jun 2027 09:33:02.432   03 Jun 2027 09:33:44.879            42.447            RioGallegos          1326.469
       325   03 Jun 2027 10:05:07.019   03 Jun 2027 10:06:33.020            86.001                Sumatra          2687.531
       326   03 Jun 2027 10:16:07.822   03 Jun 2027 10:16:35.036            27.214                  Delhi           850.438
       327   03 Jun 2027 10:26:28.771   03 Jun 2027 10:26:43.100            14.329              Murmansk2           447.781
       328   03 Jun 2027 10:26:44.003   03 Jun 2027 10:26:53.116             9.113                Novosib           284.781
       329   03 Jun 2027 10:27:01.418   03 Jun 2027 10:27:05.466             4.048              Murmansk2           126.500
       330   03 Jun 2027 10:27:07.159   03 Jun 2027 10:28:00.548            53.389                Norilsk          1668.406
       331   03 Jun 2027 10:28:08.412   03 Jun 2027 10:28:33.079            24.667                Novosib           770.844
       332   03 Jun 2027 10:28:41.506   03 Jun 2027 10:28:44.621             3.115                Norilsk            97.344
       333   03 Jun 2027 10:28:48.383   03 Jun 2027 10:29:15.794            27.411                 Moscow           856.594
       334   03 Jun 2027 10:29:21.160   03 Jun 2027 10:30:18.896            57.736                Norilsk          1804.250
       335   03 Jun 2027 10:30:29.332   03 Jun 2027 10:30:43.405            14.073                Norilsk           439.781
       336   03 Jun 2027 10:30:52.206   03 Jun 2027 10:30:55.369             3.163                 Moscow            98.844
       337   03 Jun 2027 10:31:27.630   03 Jun 2027 10:31:46.643            19.013              Murmansk1           594.156
       338   03 Jun 2027 11:50:00.882   03 Jun 2027 11:53:14.730           193.848                  Delhi          6057.750
       339   03 Jun 2027 12:08:05.493   03 Jun 2027 12:08:15.420             9.927              Murmansk1           310.219
       340   03 Jun 2027 12:08:24.100   03 Jun 2027 12:08:51.558            27.458              Murmansk2           858.063
       341   03 Jun 2027 12:10:39.781   03 Jun 2027 12:11:05.562            25.781              Murmansk2           805.656
       342   03 Jun 2027 12:13:39.714   03 Jun 2027 12:13:42.176             2.462              Murmansk1            76.938
       343   03 Jun 2027 13:33:24.093   03 Jun 2027 13:35:09.126           105.033                 Moscow          3282.281
       344   03 Jun 2027 13:36:21.818   03 Jun 2027 13:37:52.320            90.502                 Moscow          2828.188
       345   03 Jun 2027 13:38:05.421   03 Jun 2027 13:39:31.259            85.838              Murmansk1          2682.438
       346   03 Jun 2027 13:39:31.259   03 Jun 2027 13:40:56.594            85.335              Murmansk2          2666.719
       347   03 Jun 2027 13:42:43.131   03 Jun 2027 13:42:49.817             6.686              Murmansk1           208.937
       348   03 Jun 2027 13:43:22.339   03 Jun 2027 13:43:56.164            33.825              Murmansk2          1057.031
       349   03 Jun 2027 13:44:23.026   03 Jun 2027 13:44:50.233            27.207                Norilsk           850.219
       350   03 Jun 2027 13:45:58.331   03 Jun 2027 13:46:22.431            24.100                Norilsk           753.125
       351   03 Jun 2027 13:53:03.811   03 Jun 2027 13:57:31.437           267.626                Anadyr2          8363.312
       352   03 Jun 2027 15:18:11.828   03 Jun 2027 15:19:32.802            80.974              Murmansk1          2530.438
       353   03 Jun 2027 15:27:31.013   03 Jun 2027 15:29:07.835            96.822                Anadyr2          3025.687
       354   03 Jun 2027 15:32:19.809   03 Jun 2027 15:32:56.548            36.739                Anadyr2          1148.094
       355   03 Jun 2027 15:33:15.746   03 Jun 2027 15:33:38.595            22.849                Anadyr1           714.031
       356   03 Jun 2027 15:38:05.381   03 Jun 2027 15:38:13.544             8.163                Anadyr1           255.094
       357   03 Jun 2027 15:38:24.396   03 Jun 2027 15:38:30.306             5.910                Anadyr1           184.687
       358   03 Jun 2027 16:33:00.694   03 Jun 2027 16:33:32.112            31.418               CapeTown           981.812
       359   03 Jun 2027 16:55:30.781   03 Jun 2027 16:57:56.744           145.963              Murmansk1          4561.344
       360   03 Jun 2027 17:03:17.344   03 Jun 2027 17:04:57.554           100.210                Anadyr2          3131.563
       361   03 Jun 2027 17:04:57.554   03 Jun 2027 17:05:00.807             3.253                Anadyr1           101.656
       362   03 Jun 2027 17:05:56.584   03 Jun 2027 17:06:33.446            36.862                Anadyr2          1151.937
       363   03 Jun 2027 17:06:45.571   03 Jun 2027 17:08:30.981           105.410               Magadan1          3294.063
       364   03 Jun 2027 18:39:12.816   03 Jun 2027 18:43:10.288           237.472                Anadyr2          7421.000
       365   03 Jun 2027 18:43:26.332   03 Jun 2027 18:45:13.542           107.210               Magadan2          3350.312
       366   03 Jun 2027 18:45:13.542   03 Jun 2027 18:45:48.199            34.657               Magadan1          1083.031
       367   03 Jun 2027 18:53:02.958   03 Jun 2027 18:53:29.813            26.855               Magadan1           839.219
       368   03 Jun 2027 19:34:15.271   03 Jun 2027 19:37:31.621           196.350            RioGallegos          6135.937
       369   03 Jun 2027 19:39:36.293   03 Jun 2027 19:40:47.141            70.848            RioGallegos          2214.000
       370   03 Jun 2027 20:14:56.144   03 Jun 2027 20:15:18.233            22.089                Anadyr2           690.281
       371   03 Jun 2027 20:17:06.226   03 Jun 2027 20:19:18.867           132.641                Norilsk          4145.031
       372   03 Jun 2027 20:19:42.507   03 Jun 2027 20:20:49.260            66.753                Norilsk          2086.031
       373   03 Jun 2027 20:21:33.640   03 Jun 2027 20:22:50.660            77.020                Irkutsk          2406.875
       374   03 Jun 2027 20:23:10.799   03 Jun 2027 20:23:34.132            23.333                Irkutsk           729.156
       375   03 Jun 2027 20:35:40.887   03 Jun 2027 20:37:55.233           134.346                Sumatra          4198.312
       376   03 Jun 2027 20:41:26.961   03 Jun 2027 20:41:46.454            19.493                Sumatra           609.156
       377   03 Jun 2027 20:42:19.917   03 Jun 2027 20:42:29.270             9.353                Sumatra           292.281
       378   03 Jun 2027 20:44:19.151   03 Jun 2027 20:44:56.465            37.314                Sumatra          1166.062
       379   03 Jun 2027 21:53:46.408   03 Jun 2027 21:53:53.620             7.212               Magadan1           225.375
       380   03 Jun 2027 21:54:28.725   03 Jun 2027 21:54:56.360            27.635               Magadan2           863.594
       381   03 Jun 2027 21:56:35.113   03 Jun 2027 21:56:42.411             7.298               Magadan2           228.062
       382   03 Jun 2027 21:56:50.244   03 Jun 2027 21:58:02.460            72.216                Irkutsk          2256.750
       383   03 Jun 2027 21:58:39.287   03 Jun 2027 22:00:01.668            82.381                Novosib          2574.406
       384   03 Jun 2027 22:05:40.014   03 Jun 2027 22:08:11.077           151.063                  Delhi          4720.719
       385   03 Jun 2027 23:26:50.558   03 Jun 2027 23:27:14.542            23.984                Anadyr1           749.500
       386   03 Jun 2027 23:28:32.501   03 Jun 2027 23:28:57.559            25.058                Anadyr1           783.063
       387   03 Jun 2027 23:28:58.666   03 Jun 2027 23:30:41.246           102.580                Norilsk          3205.625
       388   03 Jun 2027 23:31:32.797   03 Jun 2027 23:33:51.322           138.525              Murmansk2          4328.906
       389   03 Jun 2027 23:34:27.660   03 Jun 2027 23:35:18.761            51.101              Murmansk1          1596.906
       390   03 Jun 2027 23:35:54.943   03 Jun 2027 23:36:17.101            22.158              Murmansk2           692.438
       391   03 Jun 2027 23:37:18.333   03 Jun 2027 23:37:31.611            13.278              Murmansk2           414.938
       392   03 Jun 2027 23:38:08.646   03 Jun 2027 23:38:52.716            44.070              Murmansk1          1377.187
       393   03 Jun 2027 23:45:46.379   03 Jun 2027 23:46:27.861            41.482                  Delhi          1296.313
       394   04 Jun 2027 00:26:48.238   04 Jun 2027 00:27:02.107            13.869            RioGallegos           433.406
       395   04 Jun 2027 00:57:03.989   04 Jun 2027 00:58:00.369            56.380                Anadyr2          1761.875
       396   04 Jun 2027 00:58:30.957   04 Jun 2027 00:59:13.977            43.020                Anadyr2          1344.375
       397   04 Jun 2027 00:59:49.172   04 Jun 2027 01:00:08.902            19.730                Anadyr2           616.563
       398   04 Jun 2027 01:02:25.269   04 Jun 2027 01:02:48.587            23.318                Anadyr1           728.688
       399   04 Jun 2027 01:03:49.127   04 Jun 2027 01:05:11.522            82.395               Magadan2          2574.844
       400   04 Jun 2027 01:07:07.123   04 Jun 2027 01:09:38.534           151.411              Murmansk1          4731.594
       401   04 Jun 2027 01:10:38.746   04 Jun 2027 01:11:13.526            34.780                 Moscow          1086.875
       402   04 Jun 2027 01:13:16.831   04 Jun 2027 01:13:20.441             3.610                 Moscow           112.812
       403   04 Jun 2027 01:14:24.572   04 Jun 2027 01:14:25.776             1.204                 Moscow            37.625
       404   04 Jun 2027 01:16:04.241   04 Jun 2027 01:16:17.633            13.392                 Moscow           418.500
       405   04 Jun 2027 01:17:03.876   04 Jun 2027 01:17:15.930            12.054                 Moscow           376.688
       406   04 Jun 2027 01:17:56.944   04 Jun 2027 01:19:43.657           106.713                 Moscow          3334.781
       407   04 Jun 2027 01:46:00.835   04 Jun 2027 01:46:31.152            30.317               CapeTown           947.406
       408   04 Jun 2027 02:31:14.235   04 Jun 2027 02:32:26.760            72.525                Anadyr2          2266.406
       409   04 Jun 2027 02:33:42.765   04 Jun 2027 02:33:58.136            15.371                Anadyr2           480.344
       410   04 Jun 2027 02:34:21.392   04 Jun 2027 02:35:31.972            70.580               Magadan1          2205.625
       411   04 Jun 2027 02:36:34.957   04 Jun 2027 02:37:05.393            30.436               Magadan2           951.125
       412   04 Jun 2027 02:40:29.085   04 Jun 2027 02:40:34.236             5.151                Norilsk           160.969
       413   04 Jun 2027 02:42:16.911   04 Jun 2027 02:42:18.112             1.201                Norilsk            37.531
       414   04 Jun 2027 02:42:24.396   04 Jun 2027 02:43:21.437            57.041               Magadan1          1782.531
       415   04 Jun 2027 02:43:45.558   04 Jun 2027 02:44:40.177            54.619              Murmansk2          1706.844
       416   04 Jun 2027 02:44:53.322   04 Jun 2027 02:45:17.667            24.345              Murmansk2           760.781
       417   04 Jun 2027 02:46:05.164   04 Jun 2027 02:46:19.347            14.183                Novosib           443.219
       418   04 Jun 2027 02:48:37.149   04 Jun 2027 02:48:47.878            10.729                Novosib           335.281
       419   04 Jun 2027 02:49:33.439   04 Jun 2027 02:50:02.896            29.457                Novosib           920.531
       420   04 Jun 2027 02:56:34.119   04 Jun 2027 02:56:38.538             4.419                 Moscow           138.094
       421   04 Jun 2027 02:56:44.081   04 Jun 2027 02:57:24.073            39.992                 Moscow          1249.750
       422   04 Jun 2027 03:14:56.674   04 Jun 2027 03:15:09.916            13.242               CapeTown           413.812
       423   04 Jun 2027 04:14:36.716   04 Jun 2027 04:16:37.435           120.719                Anadyr2          3772.469
       424   04 Jun 2027 04:16:37.435   04 Jun 2027 04:17:10.842            33.407                Anadyr1          1043.969
       425   04 Jun 2027 04:17:10.842   04 Jun 2027 04:17:52.977            42.135                Anadyr2          1316.719
       426   04 Jun 2027 04:18:00.030   04 Jun 2027 04:18:27.158            27.128               Magadan1           847.750
       427   04 Jun 2027 05:51:42.622   04 Jun 2027 05:53:01.786            79.164                Anadyr1          2473.875
       428   04 Jun 2027 07:25:31.933   04 Jun 2027 07:26:26.632            54.699                Irkutsk          1709.344
       429   04 Jun 2027 07:27:13.275   04 Jun 2027 07:27:17.995             4.720               Magadan1           147.500
       430   04 Jun 2027 07:27:41.450   04 Jun 2027 07:27:46.585             5.135               Magadan2           160.469
       431   04 Jun 2027 07:27:48.003   04 Jun 2027 07:28:23.658            35.655                Novosib          1114.219
       432   04 Jun 2027 07:28:27.108   04 Jun 2027 07:28:50.307            23.199                Irkutsk           724.969
       433   04 Jun 2027 07:29:14.830   04 Jun 2027 07:29:22.819             7.989                Norilsk           249.656
       434   04 Jun 2027 07:29:23.890   04 Jun 2027 07:29:43.659            19.769               Magadan2           617.781
       435   04 Jun 2027 07:29:45.318   04 Jun 2027 07:30:18.436            33.118              Murmansk2          1034.938
       436   04 Jun 2027 07:30:18.436   04 Jun 2027 07:30:42.103            23.667              Murmansk1           739.594
       437   04 Jun 2027 07:30:50.829   04 Jun 2027 07:31:57.457            66.628              Murmansk1          2082.125
       438   04 Jun 2027 08:05:50.846   04 Jun 2027 08:06:00.358             9.512            RioGallegos           297.250
       439   04 Jun 2027 08:06:46.369   04 Jun 2027 08:07:27.663            41.294            RioGallegos          1290.438
       440   04 Jun 2027 08:41:28.434   04 Jun 2027 08:43:13.383           104.949                Sumatra          3279.656
       441   04 Jun 2027 09:01:09.189   04 Jun 2027 09:01:10.916             1.727                Irkutsk            53.969
       442   04 Jun 2027 09:01:12.370   04 Jun 2027 09:01:40.321            27.951                Norilsk           873.469
       443   04 Jun 2027 09:01:44.262   04 Jun 2027 09:02:10.925            26.663                Novosib           833.219
       444   04 Jun 2027 09:02:33.420   04 Jun 2027 09:02:53.042            19.622                Norilsk           613.187
       445   04 Jun 2027 09:03:13.623   04 Jun 2027 09:03:18.968             5.345                Norilsk           167.031
       446   04 Jun 2027 09:03:20.624   04 Jun 2027 09:03:24.672             4.048                Irkutsk           126.500
       447   04 Jun 2027 09:03:34.069   04 Jun 2027 09:03:48.088            14.019                Novosib           438.094
       448   04 Jun 2027 09:04:04.569   04 Jun 2027 09:04:35.960            31.391                Novosib           980.969
       449   04 Jun 2027 09:04:48.730   04 Jun 2027 09:05:10.843            22.113              Murmansk2           691.031
       450   04 Jun 2027 09:05:14.030   04 Jun 2027 09:05:14.076             0.046                Norilsk             1.438
       451   04 Jun 2027 09:05:36.844   04 Jun 2027 09:05:39.985             3.141              Murmansk2            98.156
       452   04 Jun 2027 09:05:49.982   04 Jun 2027 09:05:53.185             3.203                Irkutsk           100.094
       453   04 Jun 2027 09:06:04.408   04 Jun 2027 09:07:06.281            61.873              Murmansk1          1933.531
       454   04 Jun 2027 09:43:20.277   04 Jun 2027 09:43:49.805            29.528            RioGallegos           922.750
       455   04 Jun 2027 09:45:27.455   04 Jun 2027 09:45:41.014            13.559            RioGallegos           423.719
       456   04 Jun 2027 10:17:32.227   04 Jun 2027 10:18:30.795            58.568                Sumatra          1830.250
       457   04 Jun 2027 10:21:40.444   04 Jun 2027 10:22:36.741            56.297                Sumatra          1759.281
       458   04 Jun 2027 10:38:18.340   04 Jun 2027 10:38:42.010            23.670              Murmansk1           739.687
       459   04 Jun 2027 10:38:43.091   04 Jun 2027 10:38:59.500            16.409              Murmansk1           512.781
       460   04 Jun 2027 10:39:17.449   04 Jun 2027 10:39:35.933            18.484              Murmansk1           577.625
       461   04 Jun 2027 10:39:35.933   04 Jun 2027 10:40:23.996            48.063              Murmansk2          1501.969
       462   04 Jun 2027 10:40:35.595   04 Jun 2027 10:41:10.486            34.891              Murmansk2          1090.344
       463   04 Jun 2027 10:41:14.752   04 Jun 2027 10:41:16.820             2.068                Norilsk            64.625
       464   04 Jun 2027 10:41:29.267   04 Jun 2027 10:41:31.096             1.829              Murmansk2            57.156
       465   04 Jun 2027 10:41:31.096   04 Jun 2027 10:41:34.902             3.806              Murmansk1           118.937
       466   04 Jun 2027 10:41:37.910   04 Jun 2027 10:41:58.557            20.647              Murmansk2           645.219
       467   04 Jun 2027 10:42:00.519   04 Jun 2027 10:42:26.107            25.588              Murmansk2           799.625
       468   04 Jun 2027 10:42:31.074   04 Jun 2027 10:42:36.903             5.829                Norilsk           182.156
       469   04 Jun 2027 10:42:39.250   04 Jun 2027 10:42:45.553             6.303                Novosib           196.969
       470   04 Jun 2027 10:42:47.109   04 Jun 2027 10:42:49.832             2.723                Norilsk            85.094
       471   04 Jun 2027 10:44:16.836   04 Jun 2027 10:44:26.852            10.016              Murmansk2           313.000
       472   04 Jun 2027 10:46:18.749   04 Jun 2027 10:46:31.347            12.598              Murmansk1           393.687
       473   04 Jun 2027 12:02:40.697   04 Jun 2027 12:04:37.919           117.222                  Delhi          3663.188
       474   04 Jun 2027 12:05:49.985   04 Jun 2027 12:07:06.284            76.299                  Delhi          2384.344
       475   04 Jun 2027 12:11:07.299   04 Jun 2027 12:12:15.387            68.088                 Moscow          2127.750
       476   04 Jun 2027 12:14:26.277   04 Jun 2027 12:14:36.504            10.227              Murmansk1           319.594
       477   04 Jun 2027 12:15:50.657   04 Jun 2027 12:16:07.903            17.246              Murmansk1           538.938
       478   04 Jun 2027 12:18:18.852   04 Jun 2027 12:18:33.316            14.464                Norilsk           452.000
       479   04 Jun 2027 12:20:06.864   04 Jun 2027 12:20:38.632            31.768              Murmansk1           992.750
       480   04 Jun 2027 12:23:21.807   04 Jun 2027 12:24:00.373            38.566                Norilsk          1205.187
       481   04 Jun 2027 13:45:34.879   04 Jun 2027 13:47:07.158            92.279                 Moscow          2883.719
       482   04 Jun 2027 13:49:04.852   04 Jun 2027 13:51:18.533           133.681              Murmansk2          4177.531
