uniorb/output/strategy_2/Drop/Drop_KinoSat_111710.txt

KinoSat_111710
-------------------------
    Access    *     Start Time (UTCG)     *     Stop Time (UTCG)  *   Duration (s)        *       Station  *  Data (Mbytes)
         1   01 Jun 2027 04:00:48.752   01 Jun 2027 04:00:54.410             5.658                Irkutsk           176.813
         2   01 Jun 2027 04:01:02.858   01 Jun 2027 04:01:18.655            15.797              Murmansk2           493.656
         3   01 Jun 2027 04:01:34.439   01 Jun 2027 04:01:44.472            10.033              Murmansk2           313.531
         4   01 Jun 2027 04:02:29.136   01 Jun 2027 04:02:51.269            22.133              Murmansk2           691.656
         5   01 Jun 2027 04:03:54.408   01 Jun 2027 04:04:22.881            28.473                Novosib           889.781
         6   01 Jun 2027 04:04:24.982   01 Jun 2027 04:05:30.076            65.094                 Moscow          2034.187
         7   01 Jun 2027 04:05:45.563   01 Jun 2027 04:06:12.655            27.092                Novosib           846.625
         8   01 Jun 2027 04:07:08.620   01 Jun 2027 04:10:39.231           210.611                  Delhi          6581.594
         9   01 Jun 2027 04:26:18.114   01 Jun 2027 04:28:28.579           130.465               CapeTown          4077.031
        10   01 Jun 2027 04:29:28.595   01 Jun 2027 04:30:21.464            52.869               CapeTown          1652.156
        11   01 Jun 2027 04:32:00.777   01 Jun 2027 04:32:47.941            47.164               CapeTown          1473.875
        12   01 Jun 2027 04:33:41.744   01 Jun 2027 04:33:54.734            12.990               CapeTown           405.938
        13   01 Jun 2027 05:40:05.835   01 Jun 2027 05:40:38.946            33.111                 Moscow          1034.719
        14   01 Jun 2027 05:40:44.563   01 Jun 2027 05:41:10.038            25.475                 Moscow           796.094
        15   01 Jun 2027 05:41:33.219   01 Jun 2027 05:41:36.915             3.696              Murmansk1           115.500
        16   01 Jun 2027 05:41:57.159   01 Jun 2027 05:43:32.300            95.141              Murmansk2          2973.156
        17   01 Jun 2027 05:44:06.717   01 Jun 2027 05:45:23.767            77.050                 Moscow          2407.813
        18   01 Jun 2027 06:09:25.595   01 Jun 2027 06:10:26.614            61.019               CapeTown          1906.844
        19   01 Jun 2027 07:01:50.051   01 Jun 2027 07:07:02.766           312.715               Magadan2          9772.344
        20   01 Jun 2027 08:39:28.050   01 Jun 2027 08:40:33.069            65.019                Anadyr1          2031.844
        21   01 Jun 2027 08:40:33.069   01 Jun 2027 08:42:37.225           124.156                Anadyr2          3879.875
        22   01 Jun 2027 08:42:50.857   01 Jun 2027 08:43:03.548            12.691               Magadan2           396.594
        23   01 Jun 2027 10:12:29.390   01 Jun 2027 10:13:00.084            30.694               Magadan1           959.187
        24   01 Jun 2027 10:13:51.714   01 Jun 2027 10:16:59.064           187.350               Magadan1          5854.687
        25   01 Jun 2027 10:17:37.753   01 Jun 2027 10:18:33.810            56.057               Magadan1          1751.781
        26   01 Jun 2027 11:49:40.557   01 Jun 2027 11:50:01.306            20.749                Irkutsk           648.406
        27   01 Jun 2027 11:50:57.428   01 Jun 2027 11:53:36.975           159.547                Novosib          4985.844
        28   01 Jun 2027 11:53:38.545   01 Jun 2027 11:53:43.722             5.177              Murmansk1           161.781
        29   01 Jun 2027 11:53:52.707   01 Jun 2027 11:54:22.085            29.378              Murmansk1           918.063
        30   01 Jun 2027 11:54:27.727   01 Jun 2027 11:56:21.479           113.752                Norilsk          3554.750
        31   01 Jun 2027 11:56:38.168   01 Jun 2027 11:57:29.808            51.640              Murmansk1          1613.750
        32   01 Jun 2027 12:30:36.690   01 Jun 2027 12:35:32.688           295.998            RioGallegos          9249.938
        33   01 Jun 2027 13:04:51.485   01 Jun 2027 13:06:29.419            97.934                Sumatra          3060.437
        34   01 Jun 2027 13:09:16.122   01 Jun 2027 13:10:00.883            44.761                Sumatra          1398.781
        35   01 Jun 2027 13:12:54.407   01 Jun 2027 13:13:13.394            18.987                  Delhi           593.344
        36   01 Jun 2027 13:13:37.876   01 Jun 2027 13:14:44.713            66.837                  Delhi          2088.656
        37   01 Jun 2027 13:20:06.561   01 Jun 2027 13:23:20.521           193.960                Irkutsk          6061.250
        38   01 Jun 2027 13:24:54.765   01 Jun 2027 13:25:49.541            54.776                Irkutsk          1711.750
        39   01 Jun 2027 14:49:48.828   01 Jun 2027 14:55:45.280           356.452                  Delhi         11139.125
        40   01 Jun 2027 14:58:13.892   01 Jun 2027 15:00:18.239           124.347                Novosib          3885.844
        41   01 Jun 2027 15:03:18.275   01 Jun 2027 15:04:12.589            54.314                Novosib          1697.312
        42   01 Jun 2027 15:10:57.973   01 Jun 2027 15:11:40.067            42.094                Norilsk          1315.438
        43   01 Jun 2027 16:33:04.279   01 Jun 2027 16:36:53.014           228.735                 Moscow          7147.969
        44   01 Jun 2027 16:37:20.232   01 Jun 2027 16:38:41.436            81.204                 Moscow          2537.625
        45   01 Jun 2027 16:41:36.177   01 Jun 2027 16:42:12.813            36.636              Murmansk2          1144.875
        46   01 Jun 2027 16:43:17.781   01 Jun 2027 16:43:44.582            26.801                 Moscow           837.531
        47   01 Jun 2027 16:44:24.233   01 Jun 2027 16:45:42.394            78.161                 Moscow          2442.531
        48   01 Jun 2027 16:45:50.881   01 Jun 2027 16:46:32.906            42.025                Norilsk          1313.281
        49   01 Jun 2027 16:49:15.488   01 Jun 2027 16:49:17.760             2.272              Murmansk1            71.000
        50   01 Jun 2027 16:52:26.833   01 Jun 2027 16:52:35.139             8.306                Anadyr2           259.563
        51   01 Jun 2027 16:52:59.977   01 Jun 2027 16:53:14.430            14.453                Anadyr2           451.656
        52   01 Jun 2027 16:53:44.755   01 Jun 2027 16:54:07.171            22.416                Anadyr2           700.500
        53   01 Jun 2027 16:54:32.274   01 Jun 2027 16:54:56.474            24.200                Anadyr2           756.250
        54   01 Jun 2027 16:55:30.878   01 Jun 2027 16:55:46.236            15.358                Anadyr1           479.937
        55   01 Jun 2027 16:56:07.522   01 Jun 2027 16:56:35.320            27.798                Anadyr1           868.687
        56   01 Jun 2027 16:56:54.428   01 Jun 2027 16:57:23.755            29.327                Anadyr1           916.469
        57   01 Jun 2027 17:49:16.470   01 Jun 2027 17:49:20.022             3.552               CapeTown           111.000
        58   01 Jun 2027 17:49:39.538   01 Jun 2027 17:50:08.962            29.424               CapeTown           919.500
        59   01 Jun 2027 17:52:38.398   01 Jun 2027 17:52:42.523             4.125               CapeTown           128.906
        60   01 Jun 2027 17:53:26.722   01 Jun 2027 17:54:37.252            70.530               CapeTown          2204.062
        61   01 Jun 2027 17:55:26.940   01 Jun 2027 17:56:03.561            36.621               CapeTown          1144.406
        62   01 Jun 2027 17:56:34.758   01 Jun 2027 17:57:44.109            69.351               CapeTown          2167.219
        63   01 Jun 2027 18:12:22.290   01 Jun 2027 18:13:41.809            79.519                 Moscow          2484.969
        64   01 Jun 2027 18:16:58.958   01 Jun 2027 18:17:35.519            36.561              Murmansk2          1142.531
        65   01 Jun 2027 18:19:21.267   01 Jun 2027 18:19:44.949            23.682              Murmansk2           740.062
        66   01 Jun 2027 18:20:18.483   01 Jun 2027 18:21:01.688            43.205              Murmansk2          1350.156
        67   01 Jun 2027 18:22:58.725   01 Jun 2027 18:24:58.153           119.428              Murmansk1          3732.125
        68   01 Jun 2027 18:24:58.153   01 Jun 2027 18:25:13.501            15.348              Murmansk2           479.625
        69   01 Jun 2027 18:34:21.349   01 Jun 2027 18:34:30.813             9.464                Anadyr2           295.750
        70   01 Jun 2027 18:34:45.251   01 Jun 2027 18:35:18.680            33.429                Anadyr1          1044.656
        71   01 Jun 2027 18:35:43.884   01 Jun 2027 18:36:12.172            28.288                Anadyr2           884.000
        72   01 Jun 2027 18:36:40.447   01 Jun 2027 18:37:16.268            35.821                Anadyr1          1119.406
        73   01 Jun 2027 18:38:05.396   01 Jun 2027 18:38:27.927            22.531                Anadyr1           704.094
        74   01 Jun 2027 19:27:23.873   01 Jun 2027 19:28:25.084            61.211               CapeTown          1912.844
        75   01 Jun 2027 19:29:55.359   01 Jun 2027 19:31:42.804           107.445               CapeTown          3357.656
        76   01 Jun 2027 19:32:51.518   01 Jun 2027 19:33:26.334            34.816               CapeTown          1088.000
        77   01 Jun 2027 19:55:20.816   01 Jun 2027 20:00:24.791           303.975              Murmansk2          9499.219
        78   01 Jun 2027 20:12:30.695   01 Jun 2027 20:12:49.200            18.505                Anadyr2           578.281
        79   01 Jun 2027 20:13:26.197   01 Jun 2027 20:13:54.823            28.626               Magadan2           894.563
        80   01 Jun 2027 20:14:17.589   01 Jun 2027 20:14:22.353             4.764                Anadyr2           148.875
        81   01 Jun 2027 20:14:27.303   01 Jun 2027 20:14:35.674             8.371                Anadyr2           261.594
        82   01 Jun 2027 20:14:45.136   01 Jun 2027 20:15:35.941            50.805                Anadyr2          1587.656
        83   01 Jun 2027 21:38:51.326   01 Jun 2027 21:44:04.113           312.787                Anadyr1          9774.594
        84   01 Jun 2027 21:44:23.534   01 Jun 2027 21:45:34.253            70.719               Magadan1          2209.969
        85   01 Jun 2027 21:46:32.442   01 Jun 2027 21:47:36.123            63.681                Anadyr1          1990.031
        86   01 Jun 2027 21:48:55.878   01 Jun 2027 21:49:12.068            16.190               Magadan2           505.938
        87   01 Jun 2027 21:49:48.035   01 Jun 2027 21:50:28.606            40.571               Magadan1          1267.844
        88   01 Jun 2027 21:51:08.710   01 Jun 2027 21:51:17.690             8.980               Magadan1           280.625
        89   01 Jun 2027 21:51:24.932   01 Jun 2027 21:51:46.323            21.391               Magadan1           668.469
        90   01 Jun 2027 21:52:01.949   01 Jun 2027 21:52:04.061             2.112               Magadan2            66.000
        91   01 Jun 2027 21:52:06.908   01 Jun 2027 21:52:26.018            19.110               Magadan2           597.187
        92   01 Jun 2027 21:53:03.363   01 Jun 2027 21:53:42.742            39.379               Magadan2          1230.594
        93   01 Jun 2027 22:37:15.986   01 Jun 2027 22:38:02.826            46.840            RioGallegos          1463.750
        94   01 Jun 2027 22:38:49.025   01 Jun 2027 22:39:06.707            17.682            RioGallegos           552.562
        95   01 Jun 2027 22:40:12.470   01 Jun 2027 22:40:20.956             8.486            RioGallegos           265.187
        96   01 Jun 2027 22:40:53.478   01 Jun 2027 22:41:18.832            25.354            RioGallegos           792.313
        97   01 Jun 2027 22:41:50.528   01 Jun 2027 22:42:24.664            34.136            RioGallegos          1066.750
        98   01 Jun 2027 23:14:34.609   01 Jun 2027 23:18:06.553           211.944                Anadyr2          6623.250
        99   01 Jun 2027 23:18:47.384   01 Jun 2027 23:18:59.885            12.501               Magadan1           390.656
       100   01 Jun 2027 23:19:58.731   01 Jun 2027 23:20:11.313            12.582               Magadan2           393.187
       101   01 Jun 2027 23:20:25.495   01 Jun 2027 23:20:27.275             1.780                Anadyr2            55.625
       102   01 Jun 2027 23:20:46.447   01 Jun 2027 23:21:14.334            27.887                Anadyr2           871.469
       103   01 Jun 2027 23:21:48.856   01 Jun 2027 23:22:03.896            15.040               Magadan2           470.000
       104   01 Jun 2027 23:22:12.621   01 Jun 2027 23:22:42.420            29.799               Magadan1           931.219
       105   01 Jun 2027 23:23:46.031   01 Jun 2027 23:24:01.133            15.102               Magadan1           471.938
       106   01 Jun 2027 23:24:22.132   01 Jun 2027 23:24:33.523            11.391               Magadan1           355.969
       107   01 Jun 2027 23:24:45.604   01 Jun 2027 23:24:55.222             9.618               Magadan2           300.563
       108   01 Jun 2027 23:25:36.582   01 Jun 2027 23:25:51.441            14.859                Norilsk           464.344
       109   01 Jun 2027 23:25:57.794   01 Jun 2027 23:26:39.100            41.306                Irkutsk          1290.813
       110   01 Jun 2027 23:27:31.146   01 Jun 2027 23:27:58.609            27.463               Magadan2           858.219
       111   01 Jun 2027 23:29:43.530   01 Jun 2027 23:31:02.535            79.005                Irkutsk          2468.906
       112   01 Jun 2027 23:43:39.887   01 Jun 2027 23:44:59.898            80.011                Sumatra          2500.344
       113   02 Jun 2027 00:16:07.741   02 Jun 2027 00:16:43.738            35.997            RioGallegos          1124.906
       114   02 Jun 2027 00:17:41.953   02 Jun 2027 00:17:45.624             3.671            RioGallegos           114.719
       115   02 Jun 2027 00:18:08.857   02 Jun 2027 00:18:25.494            16.637            RioGallegos           519.906
       116   02 Jun 2027 00:19:05.519   02 Jun 2027 00:20:00.785            55.266            RioGallegos          1727.063
       117   02 Jun 2027 00:49:34.022   02 Jun 2027 00:49:54.800            20.778                Anadyr1           649.313
       118   02 Jun 2027 00:50:13.109   02 Jun 2027 00:50:52.806            39.697                Anadyr2          1240.531
       119   02 Jun 2027 00:51:52.421   02 Jun 2027 00:51:56.998             4.577                Anadyr2           143.031
       120   02 Jun 2027 00:52:03.825   02 Jun 2027 00:52:17.191            13.366                Anadyr2           417.688
       121   02 Jun 2027 00:52:35.947   02 Jun 2027 00:53:45.456            69.509                Norilsk          2172.156
       122   02 Jun 2027 00:53:55.613   02 Jun 2027 00:54:31.780            36.167               Magadan2          1130.219
       123   02 Jun 2027 00:56:05.775   02 Jun 2027 00:56:16.900            11.125               Magadan2           347.656
       124   02 Jun 2027 00:56:28.278   02 Jun 2027 00:56:35.216             6.938                Irkutsk           216.812
       125   02 Jun 2027 00:56:47.098   02 Jun 2027 00:57:06.463            19.365                Novosib           605.156
       126   02 Jun 2027 00:58:25.691   02 Jun 2027 00:59:09.099            43.408                Novosib          1356.500
       127   02 Jun 2027 01:00:43.766   02 Jun 2027 01:00:56.287            12.521               Magadan2           391.281
       128   02 Jun 2027 01:01:24.551   02 Jun 2027 01:01:25.842             1.291                Novosib            40.344
       129   02 Jun 2027 01:01:50.798   02 Jun 2027 01:02:10.371            19.573                Novosib           611.656
       130   02 Jun 2027 01:02:43.702   02 Jun 2027 01:02:48.125             4.423                Novosib           138.219
       131   02 Jun 2027 01:03:00.397   02 Jun 2027 01:03:08.193             7.796                Irkutsk           243.625
       132   02 Jun 2027 01:03:21.035   02 Jun 2027 01:04:08.491            47.456                Irkutsk          1483.000
       133   02 Jun 2027 01:06:28.794   02 Jun 2027 01:06:34.566             5.772                Irkutsk           180.375
       134   02 Jun 2027 01:07:41.995   02 Jun 2027 01:08:03.932            21.937                Irkutsk           685.531
       135   02 Jun 2027 01:08:37.567   02 Jun 2027 01:09:20.080            42.513                Irkutsk          1328.531
       136   02 Jun 2027 01:14:20.330   02 Jun 2027 01:15:06.929            46.599                  Delhi          1456.219
       137   02 Jun 2027 01:15:23.132   02 Jun 2027 01:16:20.034            56.902                Sumatra          1778.188
       138   02 Jun 2027 01:18:56.814   02 Jun 2027 01:20:54.197           117.383                Sumatra          3668.219
       139   02 Jun 2027 01:55:37.770   02 Jun 2027 01:55:57.888            20.118            RioGallegos           628.687
       140   02 Jun 2027 02:26:17.284   02 Jun 2027 02:26:20.212             2.928                Anadyr2            91.500
       141   02 Jun 2027 02:26:47.259   02 Jun 2027 02:27:35.741            48.482                Anadyr1          1515.062
       142   02 Jun 2027 02:28:36.694   02 Jun 2027 02:29:07.422            30.728                Norilsk           960.250
       143   02 Jun 2027 02:30:36.999   02 Jun 2027 02:30:53.997            16.998               Magadan1           531.187
       144   02 Jun 2027 02:31:45.443   02 Jun 2027 02:32:29.003            43.560              Murmansk1          1361.250
       145   02 Jun 2027 02:33:54.870   02 Jun 2027 02:34:27.218            32.348                Irkutsk          1010.875
       146   02 Jun 2027 02:36:29.730   02 Jun 2027 02:36:57.882            28.152                Irkutsk           879.750
       147   02 Jun 2027 02:38:42.147   02 Jun 2027 02:39:09.137            26.990                Irkutsk           843.438
       148   02 Jun 2027 02:40:07.560   02 Jun 2027 02:40:36.970            29.410                Novosib           919.063
       149   02 Jun 2027 02:42:28.506   02 Jun 2027 02:42:40.113            11.607                Novosib           362.719
       150   02 Jun 2027 02:43:54.284   02 Jun 2027 02:44:02.160             7.876                Novosib           246.125
       151   02 Jun 2027 02:44:38.138   02 Jun 2027 02:45:30.398            52.260                  Delhi          1633.125
       152   02 Jun 2027 02:48:42.975   02 Jun 2027 02:49:28.862            45.887                  Delhi          1433.969
       153   02 Jun 2027 02:51:18.884   02 Jun 2027 02:52:12.247            53.363                  Delhi          1667.594
       154   02 Jun 2027 03:22:48.894   02 Jun 2027 03:23:11.901            23.007            RioGallegos           718.969
       155   02 Jun 2027 03:24:14.104   02 Jun 2027 03:24:46.141            32.037            RioGallegos          1001.156
       156   02 Jun 2027 03:24:53.293   02 Jun 2027 03:26:11.617            78.324            RioGallegos          2447.625
       157   02 Jun 2027 04:13:01.303   02 Jun 2027 04:14:14.428            73.125                Novosib          2285.156
       158   02 Jun 2027 04:15:30.729   02 Jun 2027 04:16:00.089            29.360              Murmansk2           917.500
       159   02 Jun 2027 04:16:28.567   02 Jun 2027 04:18:22.179           113.612              Murmansk2          3550.375
       160   02 Jun 2027 04:44:22.006   02 Jun 2027 04:44:34.396            12.390               CapeTown           387.188
       161   02 Jun 2027 04:44:36.024   02 Jun 2027 04:45:13.665            37.641               CapeTown          1176.281
       162   02 Jun 2027 04:46:11.141   02 Jun 2027 04:46:12.617             1.476               CapeTown            46.125
       163   02 Jun 2027 05:41:00.520   02 Jun 2027 05:41:59.483            58.963               Magadan2          1842.594
       164   02 Jun 2027 05:51:37.698   02 Jun 2027 05:52:40.047            62.349              Murmansk1          1948.406
       165   02 Jun 2027 05:52:40.047   02 Jun 2027 05:54:12.375            92.328              Murmansk2          2885.250
       166   02 Jun 2027 05:54:12.375   02 Jun 2027 05:55:37.721            85.346              Murmansk1          2667.062
       167   02 Jun 2027 05:56:23.531   02 Jun 2027 05:57:00.894            37.363                 Moscow          1167.594
       168   02 Jun 2027 07:14:11.278   02 Jun 2027 07:18:27.124           255.846                Anadyr2          7995.188
       169   02 Jun 2027 07:18:27.124   02 Jun 2027 07:19:27.610            60.486                Anadyr1          1890.188
       170   02 Jun 2027 08:50:12.411   02 Jun 2027 08:50:19.077             6.666                Anadyr2           208.312
       171   02 Jun 2027 08:50:19.077   02 Jun 2027 08:51:27.051            67.974                Anadyr1          2124.188
       172   02 Jun 2027 08:51:54.959   02 Jun 2027 08:52:02.580             7.621               Magadan1           238.156
       173   02 Jun 2027 08:52:19.812   02 Jun 2027 08:55:04.867           165.055                Anadyr2          5157.969
       174   02 Jun 2027 08:59:55.350   02 Jun 2027 09:00:54.051            58.701                 Moscow          1834.406
       175   02 Jun 2027 10:23:15.319   02 Jun 2027 10:24:18.029            62.710               Magadan2          1959.687
       176   02 Jun 2027 10:25:28.269   02 Jun 2027 10:25:45.480            17.211               Magadan1           537.844
       177   02 Jun 2027 10:25:45.480   02 Jun 2027 10:30:26.785           281.305               Magadan2          8790.781
       178   02 Jun 2027 11:05:28.293   02 Jun 2027 11:06:22.472            54.179            RioGallegos          1693.094
       179   02 Jun 2027 11:40:59.263   02 Jun 2027 11:42:22.543            83.280                Sumatra          2602.500
       180   02 Jun 2027 12:04:41.047   02 Jun 2027 12:05:30.824            49.777                Irkutsk          1555.531
       181   02 Jun 2027 12:11:47.466   02 Jun 2027 12:12:30.124            42.658              Murmansk1          1333.062
       182   02 Jun 2027 12:48:11.113   02 Jun 2027 12:49:03.375            52.262            RioGallegos          1633.188
       183   02 Jun 2027 12:49:39.219   02 Jun 2027 12:50:09.991            30.772            RioGallegos           961.625
       184   02 Jun 2027 12:53:24.048   02 Jun 2027 12:53:32.677             8.629            RioGallegos           269.656
       185   02 Jun 2027 13:18:14.524   02 Jun 2027 13:20:20.963           126.439                Sumatra          3951.219
       186   02 Jun 2027 13:24:00.449   02 Jun 2027 13:24:49.535            49.086                Sumatra          1533.937
       187   02 Jun 2027 13:32:50.388   02 Jun 2027 13:34:47.692           117.304                Irkutsk          3665.750
       188   02 Jun 2027 13:40:38.416   02 Jun 2027 13:41:26.353            47.937                Irkutsk          1498.031
       189   02 Jun 2027 15:02:32.879   02 Jun 2027 15:04:07.205            94.326                  Delhi          2947.688
       190   02 Jun 2027 15:05:30.803   02 Jun 2027 15:07:18.070           107.267                  Delhi          3352.094
       191   02 Jun 2027 15:11:02.964   02 Jun 2027 15:15:34.956           271.992                Novosib          8499.750
       192   02 Jun 2027 16:26:42.628   02 Jun 2027 16:26:53.574            10.946               CapeTown           342.063
       193   02 Jun 2027 16:28:44.895   02 Jun 2027 16:30:07.085            82.190               CapeTown          2568.438
       194   02 Jun 2027 16:48:07.871   02 Jun 2027 16:48:59.982            52.111                 Moscow          1628.469
       195   02 Jun 2027 16:50:17.925   02 Jun 2027 16:51:14.761            56.836              Murmansk2          1776.125
       196   02 Jun 2027 16:54:27.325   02 Jun 2027 16:55:02.597            35.272                 Moscow          1102.250
       197   02 Jun 2027 17:00:47.834   02 Jun 2027 17:01:19.870            32.036              Murmansk2          1001.125
       198   02 Jun 2027 17:04:05.816   02 Jun 2027 17:04:50.809            44.993                Anadyr2          1406.031
       199   02 Jun 2027 17:05:58.980   02 Jun 2027 17:06:27.005            28.025                Anadyr2           875.781
       200   02 Jun 2027 17:07:22.303   02 Jun 2027 17:07:46.698            24.395                Anadyr2           762.344
       201   02 Jun 2027 17:09:36.044   02 Jun 2027 17:10:01.257            25.213                Anadyr2           787.906
       202   02 Jun 2027 17:58:48.924   02 Jun 2027 17:59:19.330            30.406               CapeTown           950.188
       203   02 Jun 2027 18:02:02.454   02 Jun 2027 18:02:10.970             8.516               CapeTown           266.125
       204   02 Jun 2027 18:05:06.304   02 Jun 2027 18:05:22.472            16.168               CapeTown           505.250
       205   02 Jun 2027 18:06:59.768   02 Jun 2027 18:07:47.933            48.165               CapeTown          1505.156
       206   02 Jun 2027 18:25:20.542   02 Jun 2027 18:29:02.924           222.382                 Moscow          6949.437
       207   02 Jun 2027 18:39:06.070   02 Jun 2027 18:39:40.139            34.069                Anadyr1          1064.656
       208   02 Jun 2027 18:40:27.388   02 Jun 2027 18:40:40.551            13.163                Anadyr1           411.344
       209   02 Jun 2027 18:47:46.844   02 Jun 2027 18:48:40.204            53.360                Anadyr1          1667.500
       210   02 Jun 2027 18:49:07.529   02 Jun 2027 18:49:15.116             7.587                Anadyr1           237.094
       211   02 Jun 2027 18:49:47.841   02 Jun 2027 18:50:16.079            28.238                Anadyr1           882.437
       212   02 Jun 2027 19:35:22.360   02 Jun 2027 19:35:34.727            12.367               CapeTown           386.469
       213   02 Jun 2027 19:35:44.881   02 Jun 2027 19:36:23.066            38.185               CapeTown          1193.281
       214   02 Jun 2027 19:39:16.482   02 Jun 2027 19:40:35.676            79.194               CapeTown          2474.813
       215   02 Jun 2027 20:08:26.103   02 Jun 2027 20:12:03.288           217.185              Murmansk2          6787.031
       216   02 Jun 2027 20:17:31.500   02 Jun 2027 20:17:39.526             8.026               Magadan2           250.813
       217   02 Jun 2027 20:17:52.504   02 Jun 2027 20:18:13.572            21.068               Magadan2           658.375
       218   02 Jun 2027 20:19:34.420   02 Jun 2027 20:20:06.520            32.100               Magadan1          1003.125
       219   02 Jun 2027 20:23:40.650   02 Jun 2027 20:23:48.467             7.817               Magadan1           244.281
       220   02 Jun 2027 20:25:08.877   02 Jun 2027 20:25:44.827            35.950               Magadan1          1123.437
       221   02 Jun 2027 21:50:52.555   02 Jun 2027 21:54:47.414           234.859                Anadyr2          7339.344
       222   02 Jun 2027 21:55:10.600   02 Jun 2027 21:56:01.792            51.192               Magadan1          1599.750
       223   02 Jun 2027 21:56:01.792   02 Jun 2027 21:57:55.637           113.845               Magadan2          3557.656
       224   02 Jun 2027 21:58:35.172   02 Jun 2027 21:59:13.609            38.437               Magadan2          1201.156
       225   02 Jun 2027 22:03:08.138   02 Jun 2027 22:03:13.633             5.495               Magadan1           171.719
       226   02 Jun 2027 22:03:32.581   02 Jun 2027 22:04:02.798            30.217               Magadan2           944.281
       227   02 Jun 2027 22:45:28.409   02 Jun 2027 22:47:42.905           134.496            RioGallegos          4203.000
       228   02 Jun 2027 22:48:12.974   02 Jun 2027 22:48:47.192            34.218            RioGallegos          1069.312
       229   02 Jun 2027 23:26:32.396   02 Jun 2027 23:27:26.567            54.171                Anadyr2          1692.844
       230   02 Jun 2027 23:27:36.636   02 Jun 2027 23:29:50.582           133.946                Anadyr1          4185.813
       231   02 Jun 2027 23:29:53.326   02 Jun 2027 23:30:21.244            27.918                Norilsk           872.438
       232   02 Jun 2027 23:30:24.466   02 Jun 2027 23:31:40.296            75.830               Magadan1          2369.688
       233   02 Jun 2027 23:32:58.353   02 Jun 2027 23:34:13.676            75.323                Irkutsk          2353.844
       234   02 Jun 2027 23:35:35.866   02 Jun 2027 23:35:50.972            15.106                Novosib           472.062
       235   02 Jun 2027 23:37:23.772   02 Jun 2027 23:37:45.141            21.369                Novosib           667.781
       236   02 Jun 2027 23:46:50.033   02 Jun 2027 23:47:24.793            34.760                Sumatra          1086.250
       237   02 Jun 2027 23:48:32.401   02 Jun 2027 23:49:08.795            36.394                Sumatra          1137.313
       238   02 Jun 2027 23:49:49.760   02 Jun 2027 23:50:10.404            20.644                Sumatra           645.125
       239   02 Jun 2027 23:53:12.560   02 Jun 2027 23:53:16.697             4.137                Sumatra           129.281
       240   02 Jun 2027 23:54:01.229   02 Jun 2027 23:54:16.416            15.187                Sumatra           474.594
       241   02 Jun 2027 23:58:42.430   02 Jun 2027 23:58:56.252            13.822                Sumatra           431.937
       242   03 Jun 2027 00:24:21.878   03 Jun 2027 00:24:40.001            18.123            RioGallegos           566.344
       243   03 Jun 2027 00:26:02.963   03 Jun 2027 00:26:24.407            21.444            RioGallegos           670.125
       244   03 Jun 2027 00:28:35.197   03 Jun 2027 00:29:03.663            28.466            RioGallegos           889.562
       245   03 Jun 2027 01:01:23.338   03 Jun 2027 01:03:38.499           135.161                Anadyr2          4223.781
       246   03 Jun 2027 01:04:00.489   03 Jun 2027 01:04:01.963             1.474                Anadyr2            46.063
       247   03 Jun 2027 01:04:38.257   03 Jun 2027 01:06:21.792           103.535                Norilsk          3235.469
       248   03 Jun 2027 01:06:31.234   03 Jun 2027 01:06:53.390            22.156               Magadan1           692.375
       249   03 Jun 2027 01:08:30.580   03 Jun 2027 01:10:29.482           118.902                Irkutsk          3715.688
       250   03 Jun 2027 01:13:36.782   03 Jun 2027 01:13:53.782            17.000                Irkutsk           531.250
       251   03 Jun 2027 01:15:59.018   03 Jun 2027 01:16:11.352            12.334                Novosib           385.438
       252   03 Jun 2027 01:17:14.104   03 Jun 2027 01:17:31.875            17.771                Novosib           555.344
       253   03 Jun 2027 01:20:37.612   03 Jun 2027 01:21:13.596            35.984                  Delhi          1124.500
       254   03 Jun 2027 01:23:38.585   03 Jun 2027 01:24:16.993            38.408                Sumatra          1200.250
       255   03 Jun 2027 01:25:43.111   03 Jun 2027 01:27:21.966            98.855                Sumatra          3089.219
       256   03 Jun 2027 02:04:41.002   03 Jun 2027 02:05:17.532            36.530            RioGallegos          1141.562
       257   03 Jun 2027 02:35:00.919   03 Jun 2027 02:35:49.243            48.324                Anadyr1          1510.125
       258   03 Jun 2027 02:40:38.587   03 Jun 2027 02:42:14.660            96.073                Norilsk          3002.281
       259   03 Jun 2027 02:43:01.807   03 Jun 2027 02:44:29.963            88.156              Murmansk2          2754.875
       260   03 Jun 2027 02:44:51.245   03 Jun 2027 02:45:09.560            18.315                Novosib           572.344
       261   03 Jun 2027 02:45:28.583   03 Jun 2027 02:45:54.730            26.147                Irkutsk           817.094
       262   03 Jun 2027 02:46:49.782   03 Jun 2027 02:47:54.522            64.740                Irkutsk          2023.125
       263   03 Jun 2027 02:54:35.179   03 Jun 2027 02:56:16.722           101.543                  Delhi          3173.219
       264   03 Jun 2027 04:27:17.128   03 Jun 2027 04:27:29.131            12.003                Norilsk           375.094
       265   03 Jun 2027 04:27:34.696   03 Jun 2027 04:28:01.534            26.838              Murmansk1           838.688
       266   03 Jun 2027 04:28:01.534   03 Jun 2027 04:30:40.602           159.068              Murmansk2          4970.875
       267   03 Jun 2027 04:30:45.745   03 Jun 2027 04:31:42.980            57.235                 Moscow          1788.594
       268   03 Jun 2027 04:32:49.522   03 Jun 2027 04:33:02.458            12.936                 Moscow           404.250
       269   03 Jun 2027 06:02:34.273   03 Jun 2027 06:02:59.414            25.141              Murmansk2           785.656
       270   03 Jun 2027 06:03:08.699   03 Jun 2027 06:03:44.164            35.465                 Moscow          1108.281
       271   03 Jun 2027 06:03:54.413   03 Jun 2027 06:05:24.328            89.915                 Moscow          2809.844
       272   03 Jun 2027 06:07:00.923   03 Jun 2027 06:07:29.976            29.053                 Moscow           907.906
       273   03 Jun 2027 06:08:36.744   03 Jun 2027 06:09:28.069            51.325                 Moscow          1603.906
       274   03 Jun 2027 06:22:23.142   03 Jun 2027 06:22:49.123            25.981               CapeTown           811.906
       275   03 Jun 2027 06:22:51.643   03 Jun 2027 06:23:46.379            54.736               CapeTown          1710.500
       276   03 Jun 2027 07:25:20.401   03 Jun 2027 07:25:46.587            26.186               Magadan1           818.313
       277   03 Jun 2027 07:25:46.587   03 Jun 2027 07:26:58.304            71.717               Magadan2          2241.156
       278   03 Jun 2027 07:27:17.264   03 Jun 2027 07:28:06.469            49.205               Magadan2          1537.656
       279   03 Jun 2027 07:28:43.114   03 Jun 2027 07:29:17.219            34.105                Anadyr1          1065.781
       280   03 Jun 2027 08:13:19.502   03 Jun 2027 08:13:39.177            19.675            RioGallegos           614.844
       281   03 Jun 2027 08:14:34.543   03 Jun 2027 08:15:23.574            49.031            RioGallegos          1532.219
       282   03 Jun 2027 09:00:55.812   03 Jun 2027 09:02:57.518           121.706                Anadyr2          3803.313
       283   03 Jun 2027 09:03:01.794   03 Jun 2027 09:03:18.927            17.133               Magadan2           535.406
       284   03 Jun 2027 09:03:25.248   03 Jun 2027 09:05:47.004           141.756                Anadyr2          4429.875
       285   03 Jun 2027 09:05:47.004   03 Jun 2027 09:07:00.067            73.063                Anadyr1          2283.219
       286   03 Jun 2027 10:36:02.356   03 Jun 2027 10:38:24.882           142.526               Magadan1          4453.937
       287   03 Jun 2027 10:38:39.926   03 Jun 2027 10:42:17.276           217.350               Magadan1          6792.187
       288   03 Jun 2027 10:42:37.144   03 Jun 2027 10:42:46.497             9.353              Murmansk2           292.281
       289   03 Jun 2027 10:42:48.011   03 Jun 2027 10:43:46.162            58.151              Murmansk2          1817.219
       290   03 Jun 2027 11:17:29.552   03 Jun 2027 11:18:30.544            60.992            RioGallegos          1906.000
       291   03 Jun 2027 11:52:42.543   03 Jun 2027 11:53:21.917            39.374                Sumatra          1230.437
       292   03 Jun 2027 12:06:06.484   03 Jun 2027 12:07:55.839           109.355                Irkutsk          3417.344
       293   03 Jun 2027 12:10:03.896   03 Jun 2027 12:10:04.156             0.260                Irkutsk             8.125
       294   03 Jun 2027 12:10:52.839   03 Jun 2027 12:12:24.438            91.599                Novosib          2862.469
       295   03 Jun 2027 12:21:41.417   03 Jun 2027 12:21:46.510             5.093              Murmansk1           159.156
       296   03 Jun 2027 12:21:46.510   03 Jun 2027 12:22:39.080            52.570              Murmansk2          1642.813
       297   03 Jun 2027 12:55:43.751   03 Jun 2027 12:58:29.629           165.878            RioGallegos          5183.687
       298   03 Jun 2027 13:30:00.773   03 Jun 2027 13:30:20.922            20.149                Sumatra           629.656
       299   03 Jun 2027 13:33:19.235   03 Jun 2027 13:34:51.828            92.593                Sumatra          2893.531
       300   03 Jun 2027 13:45:19.870   03 Jun 2027 13:46:37.019            77.149                Novosib          2410.906
       301   03 Jun 2027 13:46:43.918   03 Jun 2027 13:50:04.729           200.811                Irkutsk          6275.344
       302   03 Jun 2027 15:15:34.746   03 Jun 2027 15:17:22.870           108.124                  Delhi          3378.875
       303   03 Jun 2027 15:24:04.360   03 Jun 2027 15:27:29.345           204.985                Novosib          6405.781
       304   03 Jun 2027 15:30:00.716   03 Jun 2027 15:30:17.718            17.002                Novosib           531.313
       305   03 Jun 2027 15:30:37.223   03 Jun 2027 15:31:00.251            23.028                Norilsk           719.625
       306   03 Jun 2027 15:31:55.922   03 Jun 2027 15:32:09.375            13.453                Norilsk           420.406
       307   03 Jun 2027 16:38:31.713   03 Jun 2027 16:39:10.206            38.493               CapeTown          1202.906
       308   03 Jun 2027 16:57:31.838   03 Jun 2027 16:58:14.219            42.381                 Moscow          1324.406
       309   03 Jun 2027 17:00:06.115   03 Jun 2027 17:00:44.079            37.964                 Moscow          1186.375
       310   03 Jun 2027 17:01:41.438   03 Jun 2027 17:03:12.948            91.510              Murmansk2          2859.688
       311   03 Jun 2027 17:15:52.067   03 Jun 2027 17:16:53.544            61.477                Anadyr1          1921.156
       312   03 Jun 2027 17:17:26.133   03 Jun 2027 17:17:31.875             5.742                Anadyr2           179.437
       313   03 Jun 2027 17:17:49.558   03 Jun 2027 17:18:18.399            28.841                Anadyr2           901.281
       314   03 Jun 2027 17:18:27.213   03 Jun 2027 17:18:34.212             6.999                Anadyr2           218.719
       315   03 Jun 2027 17:18:51.521   03 Jun 2027 17:19:31.495            39.974                Anadyr1          1249.187
       316   03 Jun 2027 18:10:26.800   03 Jun 2027 18:11:06.413            39.613               CapeTown          1237.906
       317   03 Jun 2027 18:19:11.542   03 Jun 2027 18:20:01.736            50.194               CapeTown          1568.563
       318   03 Jun 2027 18:38:38.822   03 Jun 2027 18:41:45.163           186.341                 Moscow          5823.156
       319   03 Jun 2027 18:43:07.225   03 Jun 2027 18:43:53.644            46.419              Murmansk2          1450.594
       320   03 Jun 2027 18:51:36.902   03 Jun 2027 18:52:02.965            26.063                Anadyr1           814.469
       321   03 Jun 2027 18:55:48.506   03 Jun 2027 18:57:15.448            86.942               Magadan1          2716.937
       322   03 Jun 2027 18:58:10.614   03 Jun 2027 18:58:20.901            10.287               Magadan2           321.469
       323   03 Jun 2027 19:47:52.043   03 Jun 2027 19:48:32.487            40.444               CapeTown          1263.875
       324   03 Jun 2027 19:51:03.727   03 Jun 2027 19:52:58.536           114.809               CapeTown          3587.781
       325   03 Jun 2027 20:22:15.166   03 Jun 2027 20:23:00.059            44.893              Murmansk1          1402.906
       326   03 Jun 2027 20:29:27.902   03 Jun 2027 20:31:02.633            94.731               Magadan1          2960.344
       327   03 Jun 2027 20:31:02.633   03 Jun 2027 20:31:55.798            53.165               Magadan2          1661.406
       328   03 Jun 2027 20:32:03.017   03 Jun 2027 20:32:37.845            34.828               Magadan1          1088.375
       329   03 Jun 2027 20:35:12.249   03 Jun 2027 20:35:24.260            12.011               Magadan2           375.344
       330   03 Jun 2027 20:37:17.147   03 Jun 2027 20:37:57.964            40.817               Magadan1          1275.531
       331   03 Jun 2027 22:02:53.557   03 Jun 2027 22:04:51.178           117.621                Anadyr1          3675.656
       332   03 Jun 2027 22:04:51.854   03 Jun 2027 22:06:36.542           104.688                Anadyr2          3271.500
       333   03 Jun 2027 22:07:12.033   03 Jun 2027 22:10:05.238           173.205               Magadan2          5412.656
       334   03 Jun 2027 22:10:05.238   03 Jun 2027 22:11:12.929            67.691               Magadan1          2115.344
       335   03 Jun 2027 22:16:44.792   03 Jun 2027 22:16:47.268             2.476               Magadan2            77.375
       336   03 Jun 2027 22:57:16.399   03 Jun 2027 23:00:18.277           181.878            RioGallegos          5683.688
       337   03 Jun 2027 23:38:29.426   03 Jun 2027 23:40:29.237           119.811                Anadyr2          3744.094
       338   03 Jun 2027 23:40:42.400   03 Jun 2027 23:42:23.337           100.937                Norilsk          3154.281
       339   03 Jun 2027 23:42:32.331   03 Jun 2027 23:42:40.731             8.400               Magadan1           262.500
       340   03 Jun 2027 23:43:49.354   03 Jun 2027 23:43:58.954             9.600               Magadan2           300.000
       341   03 Jun 2027 23:44:40.030   03 Jun 2027 23:44:50.107            10.077               Magadan2           314.906
       342   03 Jun 2027 23:44:52.293   03 Jun 2027 23:45:43.888            51.595                Irkutsk          1612.344
       343   03 Jun 2027 23:46:12.437   03 Jun 2027 23:46:15.174             2.737                Irkutsk            85.531
       344   03 Jun 2027 23:46:37.927   03 Jun 2027 23:47:17.943            40.016                Novosib          1250.500
       345   03 Jun 2027 23:48:12.684   03 Jun 2027 23:49:14.846            62.162                Novosib          1942.563
       346   03 Jun 2027 23:58:36.676   03 Jun 2027 23:59:17.569            40.893                Sumatra          1277.906
       347   04 Jun 2027 00:02:10.877   04 Jun 2027 00:02:25.653            14.776                Sumatra           461.750
       348   04 Jun 2027 00:04:22.250   04 Jun 2027 00:04:51.468            29.218                Sumatra           913.062
       349   04 Jun 2027 00:34:30.419   04 Jun 2027 00:35:26.227            55.808            RioGallegos          1744.000
       350   04 Jun 2027 00:39:06.621   04 Jun 2027 00:39:27.102            20.481            RioGallegos           640.031
       351   04 Jun 2027 00:42:52.573   04 Jun 2027 00:43:23.053            30.480            RioGallegos           952.500
       352   04 Jun 2027 01:13:11.325   04 Jun 2027 01:13:48.095            36.770                Anadyr1          1149.063
       353   04 Jun 2027 01:13:50.245   04 Jun 2027 01:14:14.712            24.467                Anadyr1           764.594
       354   04 Jun 2027 01:14:55.466   04 Jun 2027 01:15:25.853            30.387                Anadyr1           949.594
       355   04 Jun 2027 01:16:40.616   04 Jun 2027 01:18:23.629           103.013                Norilsk          3219.156
       356   04 Jun 2027 01:18:30.029   04 Jun 2027 01:18:56.030            26.001               Magadan2           812.531
       357   04 Jun 2027 01:20:33.683   04 Jun 2027 01:22:29.066           115.383                Irkutsk          3605.719
       358   04 Jun 2027 01:22:49.121   04 Jun 2027 01:22:52.742             3.621                Novosib           113.156
       359   04 Jun 2027 01:23:22.774   04 Jun 2027 01:23:31.793             9.019                Novosib           281.844
       360   04 Jun 2027 01:24:11.818   04 Jun 2027 01:24:36.608            24.790                Novosib           774.687
       361   04 Jun 2027 01:25:41.007   04 Jun 2027 01:26:07.775            26.768                Irkutsk           836.500
       362   04 Jun 2027 01:30:14.298   04 Jun 2027 01:30:34.104            19.806                  Delhi           618.937
       363   04 Jun 2027 01:34:45.679   04 Jun 2027 01:35:07.420            21.741                  Delhi           679.406
       364   04 Jun 2027 01:36:27.839   04 Jun 2027 01:39:15.021           167.182                Sumatra          5224.438
       365   04 Jun 2027 02:16:22.067   04 Jun 2027 02:17:40.438            78.371            RioGallegos          2449.094
       366   04 Jun 2027 02:52:40.308   04 Jun 2027 02:53:31.549            51.241                Norilsk          1601.281
       367   04 Jun 2027 02:54:25.207   04 Jun 2027 02:54:35.179             9.972                Norilsk           311.625
       368   04 Jun 2027 02:54:59.503   04 Jun 2027 02:55:58.539            59.036              Murmansk2          1844.875
       369   04 Jun 2027 02:56:28.572   04 Jun 2027 02:56:48.801            20.229                Novosib           632.156
       370   04 Jun 2027 02:57:11.921   04 Jun 2027 02:58:13.248            61.327                Irkutsk          1916.469
       371   04 Jun 2027 03:00:16.947   04 Jun 2027 03:00:18.674             1.727              Murmansk2            53.969
       372   04 Jun 2027 03:00:44.340   04 Jun 2027 03:00:53.601             9.261              Murmansk1           289.406
       373   04 Jun 2027 03:01:07.505   04 Jun 2027 03:01:34.046            26.541                Norilsk           829.406
       374   04 Jun 2027 03:02:07.685   04 Jun 2027 03:02:37.232            29.547                 Moscow           923.344
       375   04 Jun 2027 03:02:38.315   04 Jun 2027 03:03:38.637            60.322              Murmansk1          1885.062
       376   04 Jun 2027 03:04:09.797   04 Jun 2027 03:06:18.196           128.399                  Delhi          4012.469
       377   04 Jun 2027 04:38:38.880   04 Jun 2027 04:40:23.143           104.263              Murmansk2          3258.219
       378   04 Jun 2027 04:41:01.680   04 Jun 2027 04:43:25.762           144.082                 Moscow          4502.562
       379   04 Jun 2027 04:44:51.251   04 Jun 2027 04:45:19.120            27.869                 Moscow           870.906
       380   04 Jun 2027 04:58:24.541   04 Jun 2027 05:01:43.920           199.379               CapeTown          6230.594
       381   04 Jun 2027 06:02:15.907   04 Jun 2027 06:04:57.274           161.367                Anadyr2          5042.719
       382   04 Jun 2027 06:05:18.942   04 Jun 2027 06:05:26.835             7.893                Anadyr2           246.656
       383   04 Jun 2027 06:13:19.343   04 Jun 2027 06:13:51.949            32.606              Murmansk2          1018.937
       384   04 Jun 2027 06:13:51.949   04 Jun 2027 06:14:16.337            24.388              Murmansk1           762.125
       385   04 Jun 2027 06:14:17.235   04 Jun 2027 06:14:24.666             7.431                Norilsk           232.219
       386   04 Jun 2027 06:14:50.758   04 Jun 2027 06:15:15.239            24.481                 Moscow           765.031
       387   04 Jun 2027 06:15:46.817   04 Jun 2027 06:17:03.856            77.039                 Moscow          2407.469
       388   04 Jun 2027 06:39:00.625   04 Jun 2027 06:40:01.347            60.722               CapeTown          1897.563
       389   04 Jun 2027 07:35:52.153   04 Jun 2027 07:36:41.605            49.452                Anadyr2          1545.375
       390   04 Jun 2027 07:37:22.686   04 Jun 2027 07:37:48.505            25.819               Magadan2           806.844
       391   04 Jun 2027 07:38:11.265   04 Jun 2027 07:38:46.913            35.648                Anadyr2          1114.000
       392   04 Jun 2027 07:38:58.017   04 Jun 2027 07:39:20.340            22.323               Magadan1           697.594
       393   04 Jun 2027 07:39:43.053   04 Jun 2027 07:40:12.021            28.968                Anadyr1           905.250
       394   04 Jun 2027 07:40:12.021   04 Jun 2027 07:40:58.424            46.403                Anadyr2          1450.094
       395   04 Jun 2027 07:42:13.704   04 Jun 2027 07:43:29.355            75.651                Anadyr1          2364.094
       396   04 Jun 2027 09:11:29.444   04 Jun 2027 09:11:34.760             5.316               Magadan2           166.125
       397   04 Jun 2027 09:11:40.620   04 Jun 2027 09:11:53.790            13.170                Anadyr2           411.562
       398   04 Jun 2027 09:12:07.580   04 Jun 2027 09:13:10.606            63.026               Magadan1          1969.563
       399   04 Jun 2027 09:13:54.518   04 Jun 2027 09:15:20.040            85.522               Magadan1          2672.563
       400   04 Jun 2027 09:15:24.945   04 Jun 2027 09:15:58.125            33.180                Anadyr1          1036.875
       401   04 Jun 2027 09:15:58.950   04 Jun 2027 09:17:24.677            85.727                Anadyr2          2678.969
       402   04 Jun 2027 09:17:39.256   04 Jun 2027 09:18:53.314            74.058                Anadyr2          2314.312
       403   04 Jun 2027 10:47:37.646   04 Jun 2027 10:47:55.847            18.201                Irkutsk           568.781
       404   04 Jun 2027 10:48:21.593   04 Jun 2027 10:48:26.216             4.623                Novosib           144.469
       405   04 Jun 2027 10:48:46.018   04 Jun 2027 10:49:04.062            18.044                Irkutsk           563.875
       406   04 Jun 2027 10:50:30.847   04 Jun 2027 10:52:58.363           147.516               Magadan1          4609.875
       407   04 Jun 2027 10:53:22.609   04 Jun 2027 10:53:30.256             7.647              Murmansk2           238.969
       408   04 Jun 2027 10:53:36.050   04 Jun 2027 10:54:07.540            31.490                Irkutsk           984.062
       409   04 Jun 2027 10:54:10.034   04 Jun 2027 10:54:26.204            16.170                Norilsk           505.313
       410   04 Jun 2027 10:54:30.646   04 Jun 2027 10:55:12.749            42.103              Murmansk1          1315.719
       411   04 Jun 2027 11:29:34.235   04 Jun 2027 11:30:27.684            53.449            RioGallegos          1670.281
       412   04 Jun 2027 11:36:54.749   04 Jun 2027 11:37:40.117            45.368            RioGallegos          1417.750
       413   04 Jun 2027 12:04:32.345   04 Jun 2027 12:05:11.702            39.357                Sumatra          1229.906
       414   04 Jun 2027 12:18:18.632   04 Jun 2027 12:19:54.149            95.517                Irkutsk          2984.906
       415   04 Jun 2027 12:20:24.310   04 Jun 2027 12:20:32.434             8.124                Novosib           253.875
       416   04 Jun 2027 12:21:48.024   04 Jun 2027 12:22:44.999            56.975                Irkutsk          1780.469
       417   04 Jun 2027 12:22:54.327   04 Jun 2027 12:23:21.807            27.480                Norilsk           858.750
       418   04 Jun 2027 12:24:00.373   04 Jun 2027 12:24:14.454            14.081                Norilsk           440.031
       419   04 Jun 2027 12:26:16.044   04 Jun 2027 12:26:52.139            36.095                Norilsk          1127.969
       420   04 Jun 2027 13:08:28.751   04 Jun 2027 13:10:15.010           106.259            RioGallegos          3320.594
       421   04 Jun 2027 13:43:01.981   04 Jun 2027 13:47:24.754           262.773                Sumatra          8211.656
       422   04 Jun 2027 13:56:05.038   04 Jun 2027 13:56:44.314            39.276                Novosib          1227.375
       423   04 Jun 2027 13:58:56.691   04 Jun 2027 14:01:50.523           173.832                Irkutsk          5432.250
       424   04 Jun 2027 15:31:59.958   04 Jun 2027 15:32:44.848            44.890                  Delhi          1402.813
       425   04 Jun 2027 15:34:00.137   04 Jun 2027 15:34:14.150            14.013                 Moscow           437.906
       426   04 Jun 2027 15:34:26.346   04 Jun 2027 15:35:06.451            40.105                 Moscow          1253.281
       427   04 Jun 2027 15:36:27.614   04 Jun 2027 15:37:12.374            44.760              Murmansk2          1398.750
       428   04 Jun 2027 15:37:29.917   04 Jun 2027 15:40:20.332           170.415                Novosib          5325.469
       429   04 Jun 2027 15:43:27.596   04 Jun 2027 15:43:56.394            28.798                Norilsk           899.937
       430   04 Jun 2027 16:48:22.855   04 Jun 2027 16:49:04.244            41.389               CapeTown          1293.406
       431   04 Jun 2027 16:55:46.170   04 Jun 2027 16:55:58.975            12.805               CapeTown           400.156
       432   04 Jun 2027 17:09:51.148   04 Jun 2027 17:10:16.807            25.659                 Moscow           801.844
       433   04 Jun 2027 17:13:11.336   04 Jun 2027 17:15:09.965           118.629              Murmansk2          3707.156
       434   04 Jun 2027 17:24:40.913   04 Jun 2027 17:25:23.889            42.976              Murmansk2          1343.000
       435   04 Jun 2027 17:27:42.509   04 Jun 2027 17:28:14.959            32.450                Anadyr1          1014.063
       436   04 Jun 2027 17:28:14.959   04 Jun 2027 17:28:52.120            37.161                Anadyr2          1161.281
       437   04 Jun 2027 17:30:32.050   04 Jun 2027 17:30:47.939            15.889                Anadyr2           496.531
       438   04 Jun 2027 17:34:38.479   04 Jun 2027 17:34:47.447             8.968                Anadyr1           280.250
       439   04 Jun 2027 18:22:27.913   04 Jun 2027 18:24:45.061           137.148               CapeTown          4285.875
       440   04 Jun 2027 18:52:02.315   04 Jun 2027 18:55:16.036           193.721              Murmansk2          6053.781
       441   04 Jun 2027 18:56:28.679   04 Jun 2027 18:57:15.343            46.664              Murmansk1          1458.250
       442   04 Jun 2027 19:04:11.554   04 Jun 2027 19:04:36.011            24.457                Anadyr1           764.281
       443   04 Jun 2027 19:07:04.345   04 Jun 2027 19:07:17.355            13.010               Magadan2           406.562
       444   04 Jun 2027 19:07:24.616   04 Jun 2027 19:07:56.422            31.806               Magadan1           993.938
       445   04 Jun 2027 19:08:00.954   04 Jun 2027 19:08:34.264            33.310               Magadan1          1040.938
       446   04 Jun 2027 20:00:34.318   04 Jun 2027 20:00:45.282            10.964               CapeTown           342.625
       447   04 Jun 2027 20:02:45.487   04 Jun 2027 20:04:12.934            87.447               CapeTown          2732.719
       448   04 Jun 2027 20:39:00.360   04 Jun 2027 20:40:38.793            98.433                Anadyr2          3076.031
       449   04 Jun 2027 20:40:40.511   04 Jun 2027 20:42:14.372            93.861                Anadyr1          2933.156
       450   04 Jun 2027 20:42:19.735   04 Jun 2027 20:42:23.746             4.011                Anadyr1           125.344
       451   04 Jun 2027 20:42:34.568   04 Jun 2027 20:43:57.229            82.661               Magadan1          2583.156
       452   04 Jun 2027 20:44:17.740   04 Jun 2027 20:44:42.248            24.508               Magadan1           765.875
       453   04 Jun 2027 20:46:14.325   04 Jun 2027 20:47:12.803            58.478               Magadan1          1827.438
       454   04 Jun 2027 22:14:54.274   04 Jun 2027 22:18:12.633           198.359                Anadyr2          6198.719
       455   04 Jun 2027 22:18:21.897   04 Jun 2027 22:21:36.427           194.530                Norilsk          6079.062
       456   04 Jun 2027 22:22:59.982   04 Jun 2027 22:23:03.495             3.513               Magadan1           109.781
       457   04 Jun 2027 22:23:10.714   04 Jun 2027 22:23:18.526             7.812               Magadan1           244.125
       458   04 Jun 2027 22:23:25.503   04 Jun 2027 22:24:07.840            42.337                Irkutsk          1323.031
       459   04 Jun 2027 22:25:13.242   04 Jun 2027 22:25:43.648            30.406                Irkutsk           950.188
       460   04 Jun 2027 23:09:07.488   04 Jun 2027 23:11:14.721           127.233            RioGallegos          3976.031
       461   04 Jun 2027 23:18:02.223   04 Jun 2027 23:18:36.435            34.212            RioGallegos          1069.125
       462   04 Jun 2027 23:50:25.600   04 Jun 2027 23:51:05.634            40.034                Anadyr1          1251.063
       463   04 Jun 2027 23:51:42.710   04 Jun 2027 23:52:18.244            35.534                Anadyr1          1110.437
       464   04 Jun 2027 23:53:02.137   04 Jun 2027 23:53:32.815            30.678                Anadyr1           958.688
       465   04 Jun 2027 23:53:48.035   04 Jun 2027 23:54:35.018            46.983               Magadan2          1468.219
       466   04 Jun 2027 23:54:48.311   04 Jun 2027 23:54:52.616             4.305               Magadan1           134.531
       467   04 Jun 2027 23:55:30.917   04 Jun 2027 23:55:47.540            16.623               Magadan1           519.469
       468   04 Jun 2027 23:55:55.808   04 Jun 2027 23:56:06.580            10.772                Norilsk           336.625
       469   04 Jun 2027 23:56:16.092   04 Jun 2027 23:56:16.811             0.719                Norilsk            22.469
       470   04 Jun 2027 23:56:19.145   04 Jun 2027 23:56:30.105            10.960               Magadan2           342.500
       471   04 Jun 2027 23:56:47.305   04 Jun 2027 23:57:41.096            53.791               Magadan1          1680.969
       472   04 Jun 2027 23:57:49.560   04 Jun 2027 23:58:44.274            54.714                Irkutsk          1709.812
       473   05 Jun 2027 00:00:25.583   05 Jun 2027 00:01:30.881            65.298                Irkutsk          2040.563
       474   05 Jun 2027 00:02:04.310   05 Jun 2027 00:02:04.917             0.607                Novosib            18.969
       475   05 Jun 2027 00:04:19.078   05 Jun 2027 00:04:56.501            37.423                Novosib          1169.469
       476   05 Jun 2027 00:10:29.489   05 Jun 2027 00:12:21.866           112.377                Sumatra          3511.781
       477   05 Jun 2027 00:45:08.359   05 Jun 2027 00:45:21.560            13.201            RioGallegos           412.531
       478   05 Jun 2027 00:50:40.787   05 Jun 2027 00:50:48.976             8.189            RioGallegos           255.906
       479   05 Jun 2027 00:51:39.709   05 Jun 2027 00:52:24.512            44.803            RioGallegos          1400.094
       480   05 Jun 2027 00:57:14.154   05 Jun 2027 00:57:23.044             8.890            RioGallegos           277.813
       481   05 Jun 2027 01:24:58.009   05 Jun 2027 01:25:44.153            46.144                Anadyr2          1442.000
       482   05 Jun 2027 01:26:56.796   05 Jun 2027 01:27:33.380            36.584                Anadyr2          1143.250
