uniorb/output/strategy_2/Drop/Drop_KinoSat_110209.txt

KinoSat_110209
-------------------------
    Access    *     Start Time (UTCG)     *     Stop Time (UTCG)  *   Duration (s)        *       Station  *  Data (Mbytes)
         1   01 Jun 2027 03:22:51.670   01 Jun 2027 03:23:39.214            47.544               Magadan1          3749.500
         2   01 Jun 2027 03:23:43.468   01 Jun 2027 03:24:06.441            22.973               Magadan1          2127.000
         3   01 Jun 2027 03:24:09.348   01 Jun 2027 03:24:22.641            13.293               Magadan2          1453.500
         4   01 Jun 2027 03:24:29.740   01 Jun 2027 03:25:10.242            40.502                Irkutsk          3549.500
         5   01 Jun 2027 03:25:11.966   01 Jun 2027 03:25:45.065            33.099               Magadan1           862.000
         6   01 Jun 2027 03:25:47.434   01 Jun 2027 03:26:23.608            36.174                Irkutsk          1184.500
         7   01 Jun 2027 03:26:30.673   01 Jun 2027 03:27:38.878            68.205               Magadan1          3532.500
         8   01 Jun 2027 03:27:45.131   01 Jun 2027 03:28:17.676            32.545                Norilsk          3126.500
         9   01 Jun 2027 03:28:22.194   01 Jun 2027 03:28:47.748            25.554                Novosib          2259.000
        10   01 Jun 2027 03:28:50.518   01 Jun 2027 03:29:35.371            44.853                Irkutsk          1385.000
        11   01 Jun 2027 03:29:41.953   01 Jun 2027 03:30:09.461            27.508              Murmansk1          3291.000
        12   01 Jun 2027 03:30:20.237   01 Jun 2027 03:30:47.189            26.952              Murmansk2           346.500
        13   01 Jun 2027 04:59:58.279   01 Jun 2027 05:01:23.196            84.917                Irkutsk          8391.500
        14   01 Jun 2027 05:01:30.918   01 Jun 2027 05:02:05.187            34.269                Norilsk          3861.000
        15   01 Jun 2027 05:02:06.966   01 Jun 2027 05:02:32.928            25.962                Norilsk           889.500
        16   01 Jun 2027 05:02:36.025   01 Jun 2027 05:02:49.374            13.349                Novosib          1548.500
        17   01 Jun 2027 05:02:56.670   01 Jun 2027 05:03:41.456            44.786                Novosib          3648.000
        18   01 Jun 2027 05:03:46.701   01 Jun 2027 05:04:11.619            24.918                 Moscow          2622.500
        19   01 Jun 2027 05:04:22.344   01 Jun 2027 05:05:01.159            38.815                Norilsk          4851.875
        20   01 Jun 2027 05:05:01.745   01 Jun 2027 05:05:36.765            35.020                 Moscow           803.625
        21   01 Jun 2027 05:05:39.587   01 Jun 2027 05:06:53.263            73.676              Murmansk1          1411.000
        22   01 Jun 2027 06:37:39.366   01 Jun 2027 06:38:17.602            38.236                Norilsk          2426.000
        23   01 Jun 2027 06:38:21.595   01 Jun 2027 06:38:47.278            25.683                Norilsk          1996.500
        24   01 Jun 2027 06:38:50.002   01 Jun 2027 06:39:14.647            24.645                Novosib          1362.000
        25   01 Jun 2027 06:39:15.868   01 Jun 2027 06:39:21.785             5.917                Norilsk           610.500
        26   01 Jun 2027 06:39:24.387   01 Jun 2027 06:39:51.439            27.052                 Moscow          1301.000
        27   01 Jun 2027 06:39:52.431   01 Jun 2027 06:40:05.370            12.939              Murmansk1           496.000
        28   01 Jun 2027 06:40:11.594   01 Jun 2027 06:40:50.892            39.298                 Moscow          3112.000
        29   01 Jun 2027 06:40:51.916   01 Jun 2027 06:41:09.728            17.812              Murmansk1           512.000
        30   01 Jun 2027 06:41:12.828   01 Jun 2027 06:42:07.763            54.935                 Moscow          1550.000
        31   01 Jun 2027 08:11:33.323   01 Jun 2027 08:13:39.749           126.426                 Moscow         15471.000
        32   01 Jun 2027 08:13:44.292   01 Jun 2027 08:15:14.290            89.998                 Moscow          2271.500
        33   01 Jun 2027 08:15:20.156   01 Jun 2027 08:16:00.798            40.642                Norilsk          2933.000
        34   01 Jun 2027 08:16:05.492   01 Jun 2027 08:16:41.528            36.036              Murmansk2          2347.000
        35   01 Jun 2027 08:16:42.705   01 Jun 2027 08:16:49.018             6.313              Murmansk1           588.500
        36   01 Jun 2027 08:16:52.452   01 Jun 2027 08:17:28.546            36.094                Norilsk          1717.000
        37   01 Jun 2027 08:17:29.929   01 Jun 2027 08:17:39.959            10.030                Norilsk           691.500
        38   01 Jun 2027 08:17:52.988   01 Jun 2027 08:19:22.389            89.401              Murmansk2          6514.500
        39   02 Jun 2027 03:34:51.633   02 Jun 2027 03:35:17.689            26.056                Norilsk          3063.500
        40   02 Jun 2027 03:35:17.927   02 Jun 2027 03:35:26.685             8.758               Magadan1           119.000
        41   02 Jun 2027 03:35:31.479   02 Jun 2027 03:36:00.340            28.861                Novosib          2397.000
        42   02 Jun 2027 03:36:08.687   02 Jun 2027 03:36:56.203            47.516               Magadan2          4173.500
        43   02 Jun 2027 03:37:05.064   02 Jun 2027 03:37:45.226            40.162               Magadan1          4430.500
        44   02 Jun 2027 03:37:53.566   02 Jun 2027 03:38:31.115            37.549               Magadan1          4170.000
        45   02 Jun 2027 03:38:32.167   02 Jun 2027 03:38:36.572             4.405                Irkutsk           526.000
        46   02 Jun 2027 03:38:39.034   02 Jun 2027 03:38:55.309            16.275                Novosib          1231.000
        47   02 Jun 2027 03:38:57.097   02 Jun 2027 03:39:06.556             9.459               Magadan1           894.000
        48   02 Jun 2027 03:39:13.344   02 Jun 2027 03:39:43.309            29.965                Novosib          3394.000
        49   02 Jun 2027 03:39:52.294   02 Jun 2027 03:40:12.299            20.005               Magadan1          2500.625
        50   02 Jun 2027 03:40:12.299   02 Jun 2027 03:40:34.322            22.023               Magadan2          1991.875
        51   02 Jun 2027 03:40:41.754   02 Jun 2027 03:41:29.741            47.987                Novosib          3716.000
        52   02 Jun 2027 03:41:33.157   02 Jun 2027 03:42:22.568            49.411                Norilsk          1708.000
        53   02 Jun 2027 05:11:38.818   02 Jun 2027 05:12:05.729            26.911                Novosib          2559.000
        54   02 Jun 2027 05:12:06.660   02 Jun 2027 05:12:19.585            12.925                Novosib           465.500
        55   02 Jun 2027 05:12:23.217   02 Jun 2027 05:12:41.261            18.044                Norilsk          1816.000
        56   02 Jun 2027 05:13:22.958   02 Jun 2027 05:16:01.385           158.427                Irkutsk         19803.375
        57   02 Jun 2027 05:16:14.763   02 Jun 2027 05:16:27.727            12.964                Norilsk          1620.500
        58   02 Jun 2027 05:16:37.121   02 Jun 2027 05:17:19.055            41.934              Murmansk2          5241.750
        59   02 Jun 2027 05:17:19.055   02 Jun 2027 05:18:03.577            44.522              Murmansk1          5565.250
        60   02 Jun 2027 05:18:07.263   02 Jun 2027 05:18:55.573            48.310                 Moscow          1846.625
        61   02 Jun 2027 06:49:41.218   02 Jun 2027 06:50:10.128            28.910                Norilsk          2700.000
        62   02 Jun 2027 06:50:18.742   02 Jun 2027 06:51:05.980            47.238                Norilsk          4307.000
        63   02 Jun 2027 06:51:08.268   02 Jun 2027 06:51:39.930            31.662              Murmansk2          1144.000
        64   02 Jun 2027 06:51:47.388   02 Jun 2027 06:52:48.421            61.033              Murmansk2          3729.000
        65   02 Jun 2027 06:53:05.446   02 Jun 2027 06:54:24.516            79.070              Murmansk1          8512.500
        66   02 Jun 2027 08:23:38.444   02 Jun 2027 08:24:43.459            65.015                 Moscow          5204.000
        67   02 Jun 2027 08:24:49.641   02 Jun 2027 08:25:26.996            37.355                 Moscow          3091.000
        68   02 Jun 2027 08:25:29.604   02 Jun 2027 08:25:57.690            28.086                 Moscow          1304.000
        69   02 Jun 2027 08:25:58.514   02 Jun 2027 08:26:03.997             5.483              Murmansk2           412.000
        70   02 Jun 2027 08:26:56.282   02 Jun 2027 08:31:05.529           249.247                 Moscow         26142.500
        71   03 Jun 2027 03:47:03.229   03 Jun 2027 03:48:14.609            71.380                Novosib          7197.000
        72   03 Jun 2027 03:48:32.481   03 Jun 2027 03:49:49.641            77.160                Novosib          8936.000
        73   03 Jun 2027 03:49:54.881   03 Jun 2027 03:50:59.897            65.016                Irkutsk          2620.000
        74   03 Jun 2027 03:51:06.002   03 Jun 2027 03:51:30.830            24.828                Norilsk          3052.500
        75   03 Jun 2027 03:51:44.777   03 Jun 2027 03:52:45.636            60.859              Murmansk2          6973.500
        76   03 Jun 2027 03:52:47.445   03 Jun 2027 03:52:57.988            10.543              Murmansk2           904.500
        77   03 Jun 2027 03:53:03.776   03 Jun 2027 03:53:34.288            30.512                Norilsk          2894.000
        78   03 Jun 2027 03:53:34.476   03 Jun 2027 03:53:50.595            16.119                Novosib            94.000
        79   03 Jun 2027 03:54:05.349   03 Jun 2027 03:54:15.412            10.063                Irkutsk          1257.875
        80   03 Jun 2027 03:54:19.396   03 Jun 2027 03:55:34.126            74.730                Novosib          6119.125
        81   03 Jun 2027 05:23:57.066   03 Jun 2027 05:25:16.523            79.457                Novosib          6690.000
        82   03 Jun 2027 05:25:21.698   03 Jun 2027 05:25:48.439            26.741                Irkutsk          2587.500
        83   03 Jun 2027 05:25:49.663   03 Jun 2027 05:25:56.692             7.029              Murmansk1           612.000
        84   03 Jun 2027 05:25:58.022   03 Jun 2027 05:26:53.901            55.879              Murmansk1           665.000
        85   03 Jun 2027 05:26:55.819   03 Jun 2027 05:27:10.770            14.951                Novosib           959.000
        86   03 Jun 2027 05:27:14.711   03 Jun 2027 05:27:37.642            22.931              Murmansk1          1970.500
        87   03 Jun 2027 05:27:39.038   03 Jun 2027 05:27:54.269            15.231                Norilsk           698.000
        88   03 Jun 2027 05:27:57.230   03 Jun 2027 05:28:29.697            32.467                 Moscow          1480.500
        89   03 Jun 2027 05:28:31.170   03 Jun 2027 05:28:41.147             9.977              Murmansk1           736.500
        90   03 Jun 2027 05:28:59.855   03 Jun 2027 05:29:13.566            13.711                Norilsk          1713.875
        91   03 Jun 2027 05:29:14.557   03 Jun 2027 05:29:34.508            19.951                 Moscow          2459.625
        92   03 Jun 2027 05:29:43.628   03 Jun 2027 05:30:20.644            37.016              Murmansk1          4560.000
        93   03 Jun 2027 07:01:05.358   03 Jun 2027 07:02:30.096            84.738              Murmansk1          7830.000
        94   03 Jun 2027 07:02:47.127   03 Jun 2027 07:04:00.825            73.698                Novosib          8515.500
        95   03 Jun 2027 07:04:07.114   03 Jun 2027 07:04:32.644            25.530                 Moscow          3144.500
        96   03 Jun 2027 07:04:37.569   03 Jun 2027 07:04:54.565            16.996                Novosib          2124.500
        97   03 Jun 2027 07:04:58.479   03 Jun 2027 07:05:33.583            35.104              Murmansk2          2295.000
        98   03 Jun 2027 07:05:37.277   03 Jun 2027 07:06:11.680            34.403              Murmansk1          1847.000
        99   03 Jun 2027 08:35:51.209   03 Jun 2027 08:36:06.454            15.245              Murmansk1           758.000
       100   03 Jun 2027 08:36:07.698   03 Jun 2027 08:36:34.725            27.027                 Moscow           622.000
       101   03 Jun 2027 08:36:45.951   03 Jun 2027 08:37:00.927            14.976              Murmansk1           252.500
       102   03 Jun 2027 08:37:39.875   03 Jun 2027 08:39:25.969           106.094                 Moscow          4234.500
       103   03 Jun 2027 08:39:27.064   03 Jun 2027 08:40:14.007            46.943                 Moscow           547.500
       104   03 Jun 2027 08:40:21.637   03 Jun 2027 08:41:08.141            46.504              Murmansk1          3815.000
       105   04 Jun 2027 03:59:16.354   04 Jun 2027 03:59:45.611            29.257                Norilsk           865.500
       106   04 Jun 2027 03:59:57.327   04 Jun 2027 04:00:49.868            52.541                Novosib          5858.000
       107   04 Jun 2027 04:01:04.375   04 Jun 2027 04:01:45.417            41.042                Norilsk          5130.250
       108   04 Jun 2027 04:01:57.863   04 Jun 2027 04:02:46.988            49.125               Magadan1          6140.625
       109   04 Jun 2027 04:02:58.949   04 Jun 2027 04:04:21.924            82.975                Irkutsk          8186.125
       110   04 Jun 2027 04:04:35.019   04 Jun 2027 04:05:46.552            71.533              Murmansk1          6547.500
       111   04 Jun 2027 04:06:07.315   04 Jun 2027 04:07:04.420            57.105                Norilsk          6668.000
       112   04 Jun 2027 05:36:28.079   04 Jun 2027 05:37:36.482            68.403                Norilsk          8482.000
       113   04 Jun 2027 05:37:37.463   04 Jun 2027 05:37:47.217             9.754              Murmansk1           490.500
       114   04 Jun 2027 05:37:50.557   04 Jun 2027 05:37:58.068             7.511                Novosib           938.875
       115   04 Jun 2027 05:37:58.807   04 Jun 2027 05:38:41.140            42.333              Murmansk2          1100.625
       116   04 Jun 2027 05:38:44.969   04 Jun 2027 05:39:13.363            28.394                 Moscow          1914.500
       117   04 Jun 2027 05:39:15.815   04 Jun 2027 05:39:38.860            23.045              Murmansk2          1226.000
       118   04 Jun 2027 05:39:39.637   04 Jun 2027 05:39:52.919            13.282              Murmansk1           388.500
       119   04 Jun 2027 05:39:57.214   04 Jun 2027 05:40:04.675             7.461                Norilsk           932.625
       120   04 Jun 2027 05:40:11.807   04 Jun 2027 05:41:06.049            54.242                 Moscow          4780.875
       121   04 Jun 2027 05:41:11.067   04 Jun 2027 05:41:41.380            30.313              Murmansk1          2509.000
       122   04 Jun 2027 05:41:45.532   04 Jun 2027 05:42:16.946            31.414              Murmansk2          2076.000
       123   04 Jun 2027 07:13:13.631   04 Jun 2027 07:14:43.410            89.779                Novosib          5942.000
       124   04 Jun 2027 07:14:43.490   04 Jun 2027 07:15:15.726            32.236              Murmansk2            40.000
       125   04 Jun 2027 07:15:16.051   04 Jun 2027 07:15:21.780             5.729              Murmansk2           162.500
       126   04 Jun 2027 07:15:21.805   04 Jun 2027 07:15:47.832            26.027                Novosib            12.500
       127   04 Jun 2027 07:15:49.915   04 Jun 2027 07:16:13.693            23.778                 Moscow          1041.500
       128   04 Jun 2027 07:16:29.444   04 Jun 2027 07:17:33.371            63.927                Norilsk          7875.500
       129   04 Jun 2027 07:17:37.500   04 Jun 2027 07:17:46.060             8.560              Murmansk2           215.000
       130   04 Jun 2027 08:50:47.395   04 Jun 2027 08:51:32.535            45.140              Murmansk2          4694.000
       131   04 Jun 2027 08:51:34.471   04 Jun 2027 08:51:47.965            13.494                 Moscow           968.000
       132   04 Jun 2027 08:51:51.895   04 Jun 2027 08:52:11.164            19.269              Murmansk1          1965.000
       133   04 Jun 2027 08:52:12.105   04 Jun 2027 08:53:06.523            54.418              Murmansk1           470.500
       134   05 Jun 2027 04:11:45.567   05 Jun 2027 04:12:59.984            74.417                Norilsk          9302.125
       135   05 Jun 2027 04:13:04.060   05 Jun 2027 04:13:12.850             8.790                Norilsk          1098.750
       136   05 Jun 2027 04:13:15.337   05 Jun 2027 04:13:40.232            24.895                Novosib          3111.875
       137   05 Jun 2027 04:13:48.656   05 Jun 2027 04:14:44.192            55.536                Novosib          6345.750
       138   05 Jun 2027 04:14:52.878   05 Jun 2027 04:16:00.914            68.036                Novosib          4343.000
       139   05 Jun 2027 04:16:01.692   05 Jun 2027 04:16:23.749            22.057              Murmansk1           389.000
       140   05 Jun 2027 04:16:24.815   05 Jun 2027 04:16:30.580             5.765              Murmansk1           533.000
       141   05 Jun 2027 04:16:36.024   05 Jun 2027 04:17:00.255            24.231                Norilsk          2722.000
       142   05 Jun 2027 04:17:03.629   05 Jun 2027 04:17:32.220            28.591              Murmansk2          1687.000
       143   05 Jun 2027 04:17:36.554   05 Jun 2027 04:18:04.940            28.386                Irkutsk          2167.000
       144   05 Jun 2027 05:49:15.516   05 Jun 2027 05:50:30.872            75.356                Irkutsk          7279.500
       145   05 Jun 2027 05:50:35.484   05 Jun 2027 05:51:08.172            32.688                Irkutsk          2306.000
       146   05 Jun 2027 05:51:13.280   05 Jun 2027 05:51:34.203            20.923                 Moscow          2554.000
       147   05 Jun 2027 05:51:37.031   05 Jun 2027 05:51:55.092            18.061              Murmansk2          1414.000
       148   05 Jun 2027 05:52:08.901   05 Jun 2027 05:53:23.984            75.083                Irkutsk          6904.500
       149   05 Jun 2027 05:53:30.556   05 Jun 2027 05:54:04.207            33.651                 Moscow          2671.000
       150   05 Jun 2027 07:25:08.669   05 Jun 2027 07:25:35.659            26.990                Norilsk          2090.500
       151   05 Jun 2027 07:25:37.464   05 Jun 2027 07:25:45.713             8.249                 Moscow           902.500
       152   05 Jun 2027 07:25:55.155   05 Jun 2027 07:27:04.862            69.707              Murmansk2          4721.000
       153   05 Jun 2027 07:27:13.150   05 Jun 2027 07:27:46.422            33.272                 Moscow          4144.000
       154   05 Jun 2027 07:27:47.597   05 Jun 2027 07:28:18.888            31.291                Norilsk           587.500
       155   05 Jun 2027 07:28:32.039   05 Jun 2027 07:29:23.068            51.029                Norilsk          6378.625
       156   05 Jun 2027 07:29:27.838   05 Jun 2027 07:30:37.855            70.017              Murmansk1          2581.875
       157   05 Jun 2027 09:03:50.251   05 Jun 2027 09:04:18.975            28.724                 Moscow           760.500
       158   06 Jun 2027 04:24:06.919   06 Jun 2027 04:25:25.887            78.968                Novosib          5003.500
       159   06 Jun 2027 04:25:33.405   06 Jun 2027 04:26:36.370            62.965                Irkutsk          3759.000
       160   06 Jun 2027 04:26:46.258   06 Jun 2027 04:27:06.751            20.493                Irkutsk          2561.625
       161   06 Jun 2027 04:27:07.851   06 Jun 2027 04:28:08.059            60.208                Novosib          2932.375
       162   06 Jun 2027 04:28:11.925   06 Jun 2027 04:28:53.267            41.342              Murmansk2          1933.000
       163   06 Jun 2027 04:29:04.155   06 Jun 2027 04:29:46.228            42.073                Novosib          5259.125
       164   06 Jun 2027 04:29:50.413   06 Jun 2027 04:30:30.639            40.226              Murmansk1          2277.375
       165   06 Jun 2027 06:01:23.844   06 Jun 2027 06:02:16.437            52.593              Murmansk1          4942.000
       166   06 Jun 2027 06:02:30.184   06 Jun 2027 06:03:32.670            62.486                Norilsk          6873.500
       167   06 Jun 2027 06:03:34.959   06 Jun 2027 06:03:57.315            22.356              Murmansk1          1144.500
       168   06 Jun 2027 06:04:00.228   06 Jun 2027 06:05:07.915            67.687                Irkutsk          1456.500
       169   06 Jun 2027 06:05:15.859   06 Jun 2027 06:06:07.514            51.655                 Moscow          3972.000
       170   06 Jun 2027 07:37:34.925   06 Jun 2027 07:38:34.060            59.135                Novosib          3987.000
       171   06 Jun 2027 07:38:40.480   06 Jun 2027 07:39:17.596            37.116                 Moscow          3210.000
       172   06 Jun 2027 07:39:18.019   06 Jun 2027 07:39:21.527             3.508              Murmansk2           211.500
       173   06 Jun 2027 07:39:23.791   06 Jun 2027 07:40:13.311            49.520                Novosib          1132.000
       174   06 Jun 2027 07:40:14.677   06 Jun 2027 07:40:24.954            10.277                 Moscow           683.000
       175   06 Jun 2027 07:40:40.123   06 Jun 2027 07:41:44.830            64.707                 Moscow          7584.500
       176   06 Jun 2027 07:41:58.692   06 Jun 2027 07:42:17.036            18.344                Norilsk          2293.000
       177   06 Jun 2027 07:42:28.139   06 Jun 2027 07:42:29.044             0.905                Novosib           113.125
       178   06 Jun 2027 07:42:29.202   06 Jun 2027 07:42:50.613            21.411              Murmansk1          2676.375
       179   06 Jun 2027 07:42:50.613   06 Jun 2027 07:43:11.091            20.478              Murmansk2          1848.500
       180   07 Jun 2027 03:00:11.558   07 Jun 2027 03:01:13.550            61.992               Magadan1          5779.000
       181   07 Jun 2027 03:01:22.120   07 Jun 2027 03:03:49.076           146.956                Irkutsk          4285.000
       182   07 Jun 2027 03:03:49.439   07 Jun 2027 03:03:55.294             5.855                Irkutsk           181.500
       183   07 Jun 2027 03:04:07.011   07 Jun 2027 03:04:19.252            12.241               Magadan2          1530.125
       184   07 Jun 2027 03:04:20.253   07 Jun 2027 03:05:10.616            50.363                Norilsk          4828.875
       185   07 Jun 2027 03:05:12.580   07 Jun 2027 03:05:46.009            33.429                Norilsk           982.000
       186   07 Jun 2027 03:05:46.567   07 Jun 2027 03:06:34.651            48.084                Norilsk           279.000
       187   07 Jun 2027 04:35:44.282   07 Jun 2027 04:35:50.338             6.056                Norilsk           757.000
       188   07 Jun 2027 04:35:51.281   07 Jun 2027 04:36:14.449            23.168                Novosib          2896.000
       189   07 Jun 2027 04:36:31.364   07 Jun 2027 04:38:19.540           108.176                Norilsk         12721.500
       190   07 Jun 2027 04:38:33.973   07 Jun 2027 04:39:37.029            63.056                Irkutsk          7216.500
       191   07 Jun 2027 04:39:45.102   07 Jun 2027 04:40:37.170            52.068              Murmansk2          4036.500
       192   07 Jun 2027 04:40:51.947   07 Jun 2027 04:41:35.758            43.811                Norilsk          5476.375
       193   07 Jun 2027 04:41:51.614   07 Jun 2027 04:43:25.181            93.567                Novosib          9840.125
       194   07 Jun 2027 06:13:33.713   07 Jun 2027 06:14:04.697            30.984              Murmansk1          1590.500
       195   07 Jun 2027 06:14:04.756   07 Jun 2027 06:14:50.814            46.058              Murmansk1            29.500
       196   07 Jun 2027 06:14:59.336   07 Jun 2027 06:15:45.734            46.398                Norilsk          4261.000
       197   07 Jun 2027 06:15:51.343   07 Jun 2027 06:16:20.334            28.991                Novosib          2804.500
       198   07 Jun 2027 06:16:24.020   07 Jun 2027 06:16:49.678            25.658                Norilsk          1843.000
       199   07 Jun 2027 06:16:49.872   07 Jun 2027 06:16:59.020             9.148                Novosib            97.000
       200   07 Jun 2027 06:17:00.201   07 Jun 2027 06:17:16.185            15.984                Norilsk           590.500
       201   07 Jun 2027 06:17:17.417   07 Jun 2027 06:17:26.340             8.923              Murmansk1           616.000
       202   07 Jun 2027 06:17:45.346   07 Jun 2027 06:19:09.271            83.925              Murmansk1          7536.000
       203   07 Jun 2027 07:49:13.046   07 Jun 2027 07:49:50.554            37.508              Murmansk2          1368.500
       204   07 Jun 2027 07:50:05.039   07 Jun 2027 07:51:14.202            69.163              Murmansk2          7242.500
       205   07 Jun 2027 07:51:19.037   07 Jun 2027 07:52:37.814            78.777              Murmansk1          2417.500
       206   07 Jun 2027 07:52:40.283   07 Jun 2027 07:52:51.890            11.607              Murmansk2          1234.500
       207   07 Jun 2027 07:53:02.694   07 Jun 2027 07:53:32.817            30.123                 Moscow          3765.375
       208   07 Jun 2027 07:53:35.873   07 Jun 2027 07:54:21.296            45.423              Murmansk2          2328.125
       209   07 Jun 2027 07:54:29.176   07 Jun 2027 07:55:04.638            35.462                Norilsk          3940.000
       210   08 Jun 2027 03:10:53.924   08 Jun 2027 03:11:27.544            33.620               Magadan1          1699.500
       211   08 Jun 2027 03:11:35.693   08 Jun 2027 03:12:08.843            33.150               Magadan2          4074.500
       212   08 Jun 2027 03:12:14.711   08 Jun 2027 03:13:14.801            60.090                Novosib          2934.000
       213   08 Jun 2027 03:13:17.849   08 Jun 2027 03:13:42.204            24.355                Irkutsk          1524.000
       214   08 Jun 2027 03:13:43.701   08 Jun 2027 03:13:59.070            15.369                Novosib           748.500
       215   08 Jun 2027 03:13:59.560   08 Jun 2027 03:15:18.841            79.281                Irkutsk           245.000
       216   08 Jun 2027 03:15:21.221   08 Jun 2027 03:15:37.054            15.833                Novosib          1190.000
       217   08 Jun 2027 03:15:37.905   08 Jun 2027 03:15:43.920             6.015                Norilsk           425.500
       218   08 Jun 2027 03:15:51.691   08 Jun 2027 03:16:23.719            32.028                Novosib          3885.500
       219   08 Jun 2027 03:16:26.500   08 Jun 2027 03:16:58.844            32.344               Magadan1          1390.500
       220   08 Jun 2027 03:16:59.652   08 Jun 2027 03:17:42.454            42.802                Novosib           404.000
       221   08 Jun 2027 03:17:46.495   08 Jun 2027 03:18:10.456            23.961              Murmansk2          2020.500
       222   08 Jun 2027 03:18:28.515   08 Jun 2027 03:19:31.066            62.551                Novosib          6899.000
       223   08 Jun 2027 04:47:52.407   08 Jun 2027 04:47:54.129             1.722                Novosib           215.250
       224   08 Jun 2027 04:48:18.183   08 Jun 2027 04:49:35.926            77.743                Irkutsk          9717.875
       225   08 Jun 2027 04:49:44.077   08 Jun 2027 04:50:49.316            65.239                Norilsk          6866.875
       226   08 Jun 2027 04:50:54.078   08 Jun 2027 04:51:25.191            31.113                Novosib          2381.000
       227   08 Jun 2027 04:51:28.165   08 Jun 2027 04:53:52.747           144.582                Irkutsk          1487.000
       228   08 Jun 2027 04:53:54.539   08 Jun 2027 04:54:11.766            17.227              Murmansk2           896.000
       229   08 Jun 2027 06:25:52.237   08 Jun 2027 06:26:31.324            39.087                Norilsk           114.000
       230   08 Jun 2027 06:26:34.241   08 Jun 2027 06:27:04.890            30.649                Novosib          1458.500
       231   08 Jun 2027 06:27:06.219   08 Jun 2027 06:27:32.246            26.027              Murmansk2           664.500
       232   08 Jun 2027 06:27:33.789   08 Jun 2027 06:27:42.182             8.393                Norilsk           771.500
       233   08 Jun 2027 06:27:42.425   08 Jun 2027 06:27:44.752             2.327                Norilsk           121.500
       234   08 Jun 2027 06:27:46.579   08 Jun 2027 06:28:01.754            15.175              Murmansk2           913.500
       235   08 Jun 2027 06:28:09.710   08 Jun 2027 06:29:11.527            61.817              Murmansk2          3978.000
       236   08 Jun 2027 06:29:15.805   08 Jun 2027 06:30:05.134            49.329                Novosib          2139.000
       237   08 Jun 2027 07:59:14.918   08 Jun 2027 08:00:29.744            74.826                 Moscow          4466.000
       238   08 Jun 2027 08:00:33.778   08 Jun 2027 08:01:06.764            32.986              Murmansk1          2017.000
       239   08 Jun 2027 08:01:16.210   08 Jun 2027 08:01:56.717            40.507                Novosib          4723.000
       240   08 Jun 2027 08:01:57.927   08 Jun 2027 08:02:07.056             9.129                 Moscow           605.000
       241   08 Jun 2027 08:02:15.971   08 Jun 2027 08:02:53.865            37.894                Novosib          4457.500
       242   08 Jun 2027 08:03:20.236   08 Jun 2027 08:05:09.214           108.978              Murmansk2         13185.500
       243   08 Jun 2027 08:05:20.075   08 Jun 2027 08:05:27.754             7.679                Novosib           959.875
       244   08 Jun 2027 08:05:31.904   08 Jun 2027 08:06:03.576            31.672                 Moscow          3959.000
       245   08 Jun 2027 08:06:05.649   08 Jun 2027 08:06:54.952            49.303                Norilsk          3623.125
       246   08 Jun 2027 08:07:03.818   08 Jun 2027 08:07:31.900            28.082              Murmansk2          1703.500
       247   09 Jun 2027 03:23:06.323   09 Jun 2027 03:23:10.155             3.832               Magadan2           479.000
       248   09 Jun 2027 03:23:22.406   09 Jun 2027 03:24:37.788            75.382               Magadan2          9277.500
       249   09 Jun 2027 03:24:47.386   09 Jun 2027 03:25:43.870            56.484                Irkutsk          4799.000
       250   09 Jun 2027 03:25:49.108   09 Jun 2027 03:26:28.031            38.923                Novosib          2619.000
       251   09 Jun 2027 03:26:36.757   09 Jun 2027 03:27:56.017            79.260                Novosib          4363.000
       252   09 Jun 2027 03:27:59.725   09 Jun 2027 03:28:32.762            33.037                Norilsk          1854.000
       253   09 Jun 2027 03:28:38.461   09 Jun 2027 03:29:06.133            27.672                Novosib          2849.500
       254   09 Jun 2027 03:29:06.567   09 Jun 2027 03:29:19.876            13.309                Norilsk           217.000
       255   09 Jun 2027 03:29:21.816   09 Jun 2027 03:29:34.637            12.821              Murmansk2           970.000
       256   09 Jun 2027 03:29:35.794   09 Jun 2027 03:29:44.800             9.006                Novosib           578.500
       257   09 Jun 2027 03:29:49.346   09 Jun 2027 03:30:40.772            51.426                Norilsk          2273.000
       258   09 Jun 2027 04:59:56.467   09 Jun 2027 05:00:24.114            27.647                Novosib             8.500
       259   09 Jun 2027 05:00:29.082   09 Jun 2027 05:00:58.917            29.835                Novosib          2484.000
       260   09 Jun 2027 05:01:01.382   09 Jun 2027 05:01:37.913            36.531                Irkutsk          1232.500
       261   09 Jun 2027 05:01:45.775   09 Jun 2027 05:02:20.878            35.103                Norilsk          3931.000
       262   09 Jun 2027 05:02:21.592   09 Jun 2027 05:02:47.553            25.961                Norilsk           357.000
       263   09 Jun 2027 05:02:50.524   09 Jun 2027 05:03:02.414            11.890                Novosib          1485.500
       264   09 Jun 2027 05:03:04.139   09 Jun 2027 05:03:11.662             7.523                Novosib           862.500
       265   09 Jun 2027 05:03:13.771   09 Jun 2027 05:03:47.521            33.750                Norilsk          1054.500
       266   09 Jun 2027 05:03:57.777   09 Jun 2027 05:04:41.659            43.882                Novosib          5128.000
       267   09 Jun 2027 05:04:50.057   09 Jun 2027 05:05:24.315            34.258                 Moscow          4199.000
       268   09 Jun 2027 05:05:28.561   09 Jun 2027 05:06:11.523            42.962                Irkutsk          2123.000
       269   09 Jun 2027 06:37:54.030   09 Jun 2027 06:38:32.264            38.234                Norilsk          2323.000
       270   09 Jun 2027 06:38:48.051   09 Jun 2027 06:40:04.758            76.707                Novosib          7893.500
       271   09 Jun 2027 06:40:05.529   09 Jun 2027 06:41:06.815            61.286              Murmansk2           385.500
       272   09 Jun 2027 06:41:26.812   09 Jun 2027 06:42:52.249            85.437              Murmansk1          9998.500
       273   09 Jun 2027 08:11:48.033   09 Jun 2027 08:13:54.297           126.264                 Moscow         15091.000
       274   09 Jun 2027 08:13:54.476   09 Jun 2027 08:14:26.604            32.128              Murmansk2            89.500
       275   09 Jun 2027 08:14:46.531   09 Jun 2027 08:15:04.505            17.974                Novosib          2246.750
       276   09 Jun 2027 08:15:19.051   09 Jun 2027 08:17:32.481           133.430              Murmansk2         14989.750
       277   09 Jun 2027 08:17:44.924   09 Jun 2027 08:18:33.637            48.713                Norilsk          6089.125
       278   09 Jun 2027 08:18:35.174   09 Jun 2027 08:19:37.483            62.309                 Moscow           900.875
       279   10 Jun 2027 03:35:07.159   10 Jun 2027 03:35:32.308            25.149                Norilsk          3143.625
       280   10 Jun 2027 03:35:33.980   10 Jun 2027 03:35:54.799            20.819               Magadan2           943.375
       281   10 Jun 2027 03:36:01.890   10 Jun 2027 03:36:34.067            32.177                Norilsk          3545.500
       282   10 Jun 2027 03:36:35.477   10 Jun 2027 03:36:41.866             6.389                Novosib           705.000
       283   10 Jun 2027 03:36:52.493   10 Jun 2027 03:37:01.641             9.148                Irkutsk          1143.500
       284   10 Jun 2027 03:37:02.818   10 Jun 2027 03:37:23.890            21.072                Norilsk          2634.000
       285   10 Jun 2027 03:37:27.922   10 Jun 2027 03:37:42.027            14.105                Norilsk          1763.125
       286   10 Jun 2027 03:37:44.703   10 Jun 2027 03:38:45.038            60.335                Irkutsk          3715.375
       287   10 Jun 2027 03:38:46.307   10 Jun 2027 03:39:18.691            32.384                Irkutsk           634.500
       288   10 Jun 2027 03:39:21.582   10 Jun 2027 03:39:54.292            32.710               Magadan2          1445.500
       289   10 Jun 2027 03:40:00.835   10 Jun 2027 03:40:58.260            57.425                Novosib          3271.500
       290   10 Jun 2027 03:41:03.611   10 Jun 2027 03:41:47.702            44.091                Novosib          2675.500
       291   10 Jun 2027 03:41:50.694   10 Jun 2027 03:42:38.997            48.303                Norilsk          1496.000
       292   10 Jun 2027 05:11:49.025   10 Jun 2027 05:12:48.953            59.928                Irkutsk           164.000
       293   10 Jun 2027 05:12:56.104   10 Jun 2027 05:13:37.658            41.554                Irkutsk          3575.500
       294   10 Jun 2027 05:13:47.569   10 Jun 2027 05:14:43.310            55.741                Norilsk          4955.500
       295   10 Jun 2027 05:14:46.243   10 Jun 2027 05:15:12.829            26.586                Norilsk          1466.500
       296   10 Jun 2027 05:15:15.389   10 Jun 2027 05:16:00.075            44.686                Norilsk          1280.000
       297   10 Jun 2027 05:16:00.116   10 Jun 2027 05:16:12.502            12.386                Norilsk            20.500
       298   10 Jun 2027 05:16:12.788   10 Jun 2027 05:16:42.859            30.071                 Moscow           143.000
       299   10 Jun 2027 05:16:52.618   10 Jun 2027 05:17:49.888            57.270              Murmansk1          4879.500
       300   10 Jun 2027 05:17:58.656   10 Jun 2027 05:18:22.836            24.180              Murmansk1          3022.500
       301   10 Jun 2027 05:18:22.836   10 Jun 2027 05:18:55.265            32.429              Murmansk2           958.000
       302   10 Jun 2027 06:49:55.882   10 Jun 2027 06:50:25.568            29.686                Norilsk          2273.500
       303   10 Jun 2027 06:50:33.402   10 Jun 2027 06:51:22.232            48.830                Norilsk          3917.000
       304   10 Jun 2027 06:51:22.650   10 Jun 2027 06:51:41.284            18.634                 Moscow           209.000
       305   10 Jun 2027 06:51:43.930   10 Jun 2027 06:52:03.884            19.954                Norilsk          1323.000
       306   10 Jun 2027 06:52:06.014   10 Jun 2027 06:53:03.347            57.333              Murmansk2          1065.000
       307   10 Jun 2027 06:53:20.001   10 Jun 2027 06:54:39.556            79.555              Murmansk1          8327.000
       308   10 Jun 2027 08:23:53.143   10 Jun 2027 08:24:58.147            65.004                 Moscow          5072.000
       309   10 Jun 2027 08:25:08.227   10 Jun 2027 08:25:22.140            13.913                 Moscow          1739.125
       310   10 Jun 2027 08:25:27.833   10 Jun 2027 08:26:18.857            51.024              Murmansk1          6147.375
       311   10 Jun 2027 08:27:10.284   10 Jun 2027 08:30:10.794           180.510                 Moscow         22563.750
       312   10 Jun 2027 08:30:27.536   10 Jun 2027 08:32:12.985           105.449              Murmansk2          9814.250
       313   11 Jun 2027 03:47:10.055   11 Jun 2027 03:48:11.284            61.229                Irkutsk          3107.500
       314   11 Jun 2027 03:48:25.831   11 Jun 2027 03:49:47.884            82.053               Magadan1          7273.500
       315   11 Jun 2027 03:49:50.595   11 Jun 2027 03:50:05.536            14.941               Magadan1          1355.500
       316   11 Jun 2027 03:50:09.073   11 Jun 2027 03:51:14.680            65.607                Irkutsk          1768.500
       317   11 Jun 2027 03:51:20.591   11 Jun 2027 03:51:44.237            23.646                Norilsk          2955.500
       318   11 Jun 2027 03:51:59.415   11 Jun 2027 03:53:00.210            60.795              Murmansk1          7589.000
       319   11 Jun 2027 03:53:00.365   11 Jun 2027 03:53:08.899             8.534                Norilsk            77.500
       320   11 Jun 2027 03:53:10.012   11 Jun 2027 03:53:30.537            20.525                Novosib           556.500
       321   11 Jun 2027 03:53:45.167   11 Jun 2027 03:54:36.014            50.847              Murmansk1          6355.875
       322   11 Jun 2027 03:54:36.014   11 Jun 2027 03:54:52.758            16.744              Murmansk2           959.125
       323   11 Jun 2027 05:24:11.659   11 Jun 2027 05:24:47.567            35.908                Novosib          4488.500
       324   11 Jun 2027 05:24:52.444   11 Jun 2027 05:25:39.119            46.675                Norilsk          4513.000
       325   11 Jun 2027 05:25:47.893   11 Jun 2027 05:26:35.274            47.381                Norilsk          4387.000
       326   11 Jun 2027 05:26:45.348   11 Jun 2027 05:27:55.142            69.794                Norilsk          5037.000
       327   11 Jun 2027 05:27:57.573   11 Jun 2027 05:28:08.705            11.132              Murmansk2          1215.500
       328   11 Jun 2027 05:28:09.062   11 Jun 2027 05:28:14.521             5.459                Norilsk           178.500
       329   11 Jun 2027 05:28:20.212   11 Jun 2027 05:28:44.057            23.845                 Moscow          2845.500
       330   11 Jun 2027 05:28:46.624   11 Jun 2027 05:29:24.441            37.817              Murmansk1          1283.500
       331   11 Jun 2027 05:29:26.886   11 Jun 2027 05:29:45.492            18.606                 Moscow          1222.500
       332   11 Jun 2027 05:29:45.893   11 Jun 2027 05:30:01.556            15.663                Novosib           200.500
       333   11 Jun 2027 05:30:05.972   11 Jun 2027 05:30:39.722            33.750              Murmansk1          2208.000
       334   11 Jun 2027 07:01:23.636   11 Jun 2027 07:02:46.189            82.553              Murmansk2          9502.000
       335   11 Jun 2027 07:03:01.805   11 Jun 2027 07:04:15.622            73.817                Novosib          7808.000
       336   11 Jun 2027 07:04:21.914   11 Jun 2027 07:04:47.690            25.776                 Moscow          3146.000
       337   11 Jun 2027 07:04:52.285   11 Jun 2027 07:05:09.783            17.498                Novosib          2187.250
       338   11 Jun 2027 07:05:10.194   11 Jun 2027 07:05:24.623            14.429                Norilsk           315.750
       339   11 Jun 2027 07:05:28.663   11 Jun 2027 07:06:38.862            70.199                 Moscow          2020.000
       340   11 Jun 2027 08:36:06.112   11 Jun 2027 08:36:21.133            15.021              Murmansk2           356.500
       341   11 Jun 2027 08:36:28.349   11 Jun 2027 08:37:01.782            33.433              Murmansk2          3608.000
       342   11 Jun 2027 08:37:51.522   11 Jun 2027 08:39:10.693            79.171              Murmansk2          2752.000
       343   11 Jun 2027 08:39:24.632   11 Jun 2027 08:40:27.179            62.547              Murmansk2          6969.500
       344   11 Jun 2027 08:40:36.778   11 Jun 2027 08:41:23.362            46.584              Murmansk2          4799.500
       345   12 Jun 2027 03:59:39.250   12 Jun 2027 04:01:31.035           111.785                Irkutsk          4852.000
       346   12 Jun 2027 04:01:33.181   12 Jun 2027 04:01:55.276            22.095                Novosib          1073.000
       347   12 Jun 2027 04:02:03.223   12 Jun 2027 04:02:59.397            56.174                Norilsk          3973.500
       348   12 Jun 2027 04:03:13.786   12 Jun 2027 04:04:36.318            82.532                Irkutsk          7194.500
       349   12 Jun 2027 04:04:49.583   12 Jun 2027 04:06:03.568            73.985              Murmansk1          6632.500
       350   12 Jun 2027 04:06:11.398   12 Jun 2027 04:06:31.994            20.596                Irkutsk          2574.500
       351   12 Jun 2027 04:06:34.577   12 Jun 2027 04:07:30.733            56.156                Novosib          1340.500
       352   12 Jun 2027 05:36:37.871   12 Jun 2027 05:36:43.482             5.611                Novosib           701.375
       353   12 Jun 2027 05:36:45.291   12 Jun 2027 05:37:27.968            42.677                Norilsk          5334.625
       354   12 Jun 2027 05:37:33.949   12 Jun 2027 05:38:06.349            32.400                Irkutsk          3813.500
       355   12 Jun 2027 05:38:16.134   12 Jun 2027 05:38:55.684            39.550              Murmansk1          4892.500
       356   12 Jun 2027 05:39:00.192   12 Jun 2027 05:39:30.183            29.991                 Moscow          2254.000
       357   12 Jun 2027 05:39:32.412   12 Jun 2027 05:39:54.406            21.994              Murmansk2          1114.500
       358   12 Jun 2027 05:39:55.191   12 Jun 2027 05:40:10.809            15.618              Murmansk2           392.500
       359   12 Jun 2027 05:40:14.980   12 Jun 2027 05:40:58.256            43.276                 Moscow          2085.500
       360   12 Jun 2027 05:41:05.592   12 Jun 2027 05:42:02.725            57.133                Norilsk          3668.000
       361   12 Jun 2027 05:42:02.736   12 Jun 2027 05:42:06.474             3.738                 Moscow             5.500
       362   12 Jun 2027 05:42:28.484   12 Jun 2027 05:43:46.021            77.537                Novosib          3239.500
       363   12 Jun 2027 07:13:17.095   12 Jun 2027 07:13:41.918            24.823              Murmansk1           296.000
       364   12 Jun 2027 07:13:44.371   12 Jun 2027 07:13:49.741             5.370                 Moscow           671.250
       365   12 Jun 2027 07:13:49.749   12 Jun 2027 07:13:59.661             9.912                Norilsk           559.250
       366   12 Jun 2027 07:14:05.767   12 Jun 2027 07:14:57.592            51.825                Novosib          3053.000
       367   12 Jun 2027 07:14:58.717   12 Jun 2027 07:15:30.823            32.106              Murmansk1           562.500
       368   12 Jun 2027 07:15:31.477   12 Jun 2027 07:15:37.948             6.471              Murmansk2           327.000
       369   12 Jun 2027 07:15:38.833   12 Jun 2027 07:15:47.842             9.009                 Moscow           442.500
       370   12 Jun 2027 07:15:53.461   12 Jun 2027 07:16:28.822            35.361                Norilsk          2809.500
       371   12 Jun 2027 07:16:33.190   12 Jun 2027 07:17:19.135            45.945                Norilsk          2184.000
       372   12 Jun 2027 07:17:23.401   12 Jun 2027 07:17:49.976            26.575                Norilsk          2133.000
       373   12 Jun 2027 08:51:04.704   12 Jun 2027 08:51:58.891            54.187              Murmansk1          5737.500
       374   12 Jun 2027 08:52:00.315   12 Jun 2027 08:52:25.797            25.482              Murmansk1           712.000
       375   12 Jun 2027 08:52:27.270   12 Jun 2027 08:53:23.101            55.831              Murmansk1           736.500
       376   13 Jun 2027 04:12:02.700   13 Jun 2027 04:13:20.136            77.436                Norilsk          9679.500
       377   13 Jun 2027 04:13:30.781   13 Jun 2027 04:14:52.465            81.684                Norilsk          9022.500
       378   13 Jun 2027 04:14:58.984   13 Jun 2027 04:15:06.849             7.865                Novosib           983.125
       379   13 Jun 2027 04:15:12.224   13 Jun 2027 04:16:51.759            99.535                Norilsk          4963.875
       380   13 Jun 2027 04:16:53.725   13 Jun 2027 04:17:17.678            23.953                Norilsk           983.000
       381   13 Jun 2027 04:17:19.374   13 Jun 2027 04:17:47.686            28.312              Murmansk2           848.000
       382   13 Jun 2027 04:17:59.440   13 Jun 2027 04:18:35.150            35.710                Novosib          4463.750
       383   13 Jun 2027 04:18:53.561   13 Jun 2027 04:19:11.562            18.001              Murmansk1          1413.250
       384   13 Jun 2027 05:49:30.163   13 Jun 2027 05:50:45.693            75.530                Irkutsk          6704.500
       385   13 Jun 2027 05:50:49.181   13 Jun 2027 05:51:23.518            34.337                Irkutsk          1744.000
       386   13 Jun 2027 05:51:28.280   13 Jun 2027 05:51:48.675            20.395                 Moscow          2381.000
       387   13 Jun 2027 05:51:48.677   13 Jun 2027 05:52:03.826            15.149                Norilsk             1.000
       388   13 Jun 2027 05:52:04.253   13 Jun 2027 05:52:07.967             3.714                Norilsk           213.500
       389   13 Jun 2027 05:52:12.984   13 Jun 2027 05:52:40.928            27.944              Murmansk2          2508.500
       390   13 Jun 2027 05:52:47.121   13 Jun 2027 05:53:31.833            44.712                 Moscow          3096.500
       391   13 Jun 2027 05:53:37.306   13 Jun 2027 05:54:04.323            27.017              Murmansk2          2736.500
       392   13 Jun 2027 07:25:23.966   13 Jun 2027 07:25:50.527            26.561                Norilsk          2459.000
       393   13 Jun 2027 07:25:55.357   13 Jun 2027 07:27:15.545            80.188                 Moscow          2415.000
       394   13 Jun 2027 07:27:19.646   13 Jun 2027 07:27:37.583            17.937              Murmansk1          2050.500
       395   13 Jun 2027 07:27:37.738   13 Jun 2027 07:28:24.406            46.668                Novosib            77.500
       396   13 Jun 2027 07:28:53.175   13 Jun 2027 07:30:51.983           118.808                 Moscow         14384.500
