uniorb/output/strategy_2/Drop/Drop_KinoSat_110804.txt

KinoSat_110804
-------------------------
    Access    *     Start Time (UTCG)     *     Stop Time (UTCG)  *   Duration (s)        *       Station  *  Data (Mbytes)
         1   01 Jun 2027 03:44:27.866   01 Jun 2027 03:44:46.766            18.900               Magadan1           590.625
         2   01 Jun 2027 03:45:35.443   01 Jun 2027 03:45:56.590            21.147               Magadan1           660.844
         3   01 Jun 2027 03:46:06.013   01 Jun 2027 03:47:39.106            93.093                Anadyr1          2909.156
         4   01 Jun 2027 03:47:58.178   01 Jun 2027 03:48:07.127             8.949               Magadan1           279.656
         5   01 Jun 2027 03:48:11.890   01 Jun 2027 03:48:20.640             8.750                Anadyr1           273.438
         6   01 Jun 2027 03:48:20.640   01 Jun 2027 03:49:20.654            60.014                Anadyr2          1875.438
         7   01 Jun 2027 03:49:20.654   01 Jun 2027 03:49:26.767             6.113                Anadyr1           191.031
         8   01 Jun 2027 03:50:05.662   01 Jun 2027 03:50:24.552            18.890                Anadyr1           590.313
         9   01 Jun 2027 03:50:24.552   01 Jun 2027 03:51:12.890            48.338                Anadyr2          1510.562
        10   01 Jun 2027 03:51:12.890   01 Jun 2027 03:51:46.865            33.975                Anadyr1          1061.719
        11   01 Jun 2027 04:31:56.948   01 Jun 2027 04:32:25.036            28.088            RioGallegos           877.750
        12   01 Jun 2027 05:22:06.876   01 Jun 2027 05:22:20.298            13.422               Magadan1           419.438
        13   01 Jun 2027 05:23:04.461   01 Jun 2027 05:27:07.007           242.546                Anadyr1          7579.563
        14   01 Jun 2027 05:28:00.708   01 Jun 2027 05:28:20.914            20.206                Norilsk           631.437
        15   01 Jun 2027 06:02:59.070   01 Jun 2027 06:04:04.737            65.667            RioGallegos          2052.094
        16   01 Jun 2027 06:04:49.699   01 Jun 2027 06:05:19.814            30.115            RioGallegos           941.094
        17   01 Jun 2027 06:05:44.827   01 Jun 2027 06:06:23.693            38.866            RioGallegos          1214.563
        18   01 Jun 2027 06:56:55.564   01 Jun 2027 06:57:25.154            29.590                Novosib           924.687
        19   01 Jun 2027 06:58:54.984   01 Jun 2027 07:00:02.646            67.662                Irkutsk          2114.437
        20   01 Jun 2027 07:00:39.866   01 Jun 2027 07:02:20.829           100.963                Novosib          3155.094
        21   01 Jun 2027 07:03:09.745   01 Jun 2027 07:03:10.080             0.335                Irkutsk            10.469
        22   01 Jun 2027 07:03:13.623   01 Jun 2027 07:04:37.219            83.596              Murmansk1          2612.375
        23   01 Jun 2027 07:04:37.219   01 Jun 2027 07:04:43.844             6.625              Murmansk2           207.031
        24   01 Jun 2027 07:05:03.809   01 Jun 2027 07:06:17.813            74.004                Norilsk          2312.625
        25   01 Jun 2027 07:07:09.920   01 Jun 2027 07:07:34.480            24.560              Murmansk2           767.500
        26   01 Jun 2027 07:07:55.211   01 Jun 2027 07:08:18.787            23.576              Murmansk1           736.750
        27   01 Jun 2027 07:08:27.017   01 Jun 2027 07:08:33.550             6.533              Murmansk2           204.156
        28   01 Jun 2027 07:09:29.268   01 Jun 2027 07:09:39.530            10.262              Murmansk2           320.687
        29   01 Jun 2027 07:10:13.551   01 Jun 2027 07:10:28.778            15.227              Murmansk1           475.844
        30   01 Jun 2027 07:37:54.003   01 Jun 2027 07:39:30.315            96.312            RioGallegos          3009.750
        31   01 Jun 2027 07:39:58.524   01 Jun 2027 07:40:54.575            56.051            RioGallegos          1751.594
        32   01 Jun 2027 07:42:35.277   01 Jun 2027 07:44:06.522            91.245            RioGallegos          2851.406
        33   01 Jun 2027 07:44:50.589   01 Jun 2027 07:45:06.420            15.831            RioGallegos           494.719
        34   01 Jun 2027 07:45:28.930   01 Jun 2027 07:46:38.309            69.379            RioGallegos          2168.094
        35   01 Jun 2027 08:12:49.645   01 Jun 2027 08:13:56.472            66.827                Sumatra          2088.344
        36   01 Jun 2027 08:15:22.080   01 Jun 2027 08:16:16.833            54.753                Sumatra          1711.031
        37   01 Jun 2027 08:17:02.414   01 Jun 2027 08:18:48.428           106.014                Sumatra          3312.938
        38   01 Jun 2027 08:23:55.289   01 Jun 2027 08:26:10.708           135.419                  Delhi          4231.844
        39   01 Jun 2027 08:35:43.279   01 Jun 2027 08:36:07.910            24.631                Irkutsk           769.719
        40   01 Jun 2027 08:36:27.365   01 Jun 2027 08:37:23.030            55.665                Irkutsk          1739.531
        41   01 Jun 2027 08:37:28.898   01 Jun 2027 08:38:06.864            37.966                Novosib          1186.437
        42   01 Jun 2027 08:38:12.098   01 Jun 2027 08:38:23.901            11.803              Murmansk2           368.844
        43   01 Jun 2027 08:38:23.901   01 Jun 2027 08:40:36.702           132.801              Murmansk1          4150.031
        44   01 Jun 2027 08:40:36.702   01 Jun 2027 08:41:39.821            63.119              Murmansk2          1972.469
        45   01 Jun 2027 08:41:39.821   01 Jun 2027 08:42:27.127            47.306              Murmansk1          1478.312
        46   01 Jun 2027 09:16:58.370   01 Jun 2027 09:17:07.945             9.575            RioGallegos           299.219
        47   01 Jun 2027 09:19:28.180   01 Jun 2027 09:20:00.243            32.063            RioGallegos          1001.969
        48   01 Jun 2027 09:20:25.074   01 Jun 2027 09:20:47.752            22.678            RioGallegos           708.688
        49   01 Jun 2027 09:24:50.585   01 Jun 2027 09:25:08.985            18.400            RioGallegos           575.000
        50   01 Jun 2027 09:51:34.482   01 Jun 2027 09:52:17.757            43.275                Sumatra          1352.344
        51   01 Jun 2027 09:53:08.385   01 Jun 2027 09:54:55.900           107.515                Sumatra          3359.844
        52   01 Jun 2027 09:56:56.479   01 Jun 2027 09:57:29.869            33.390                  Delhi          1043.438
        53   01 Jun 2027 10:13:19.678   01 Jun 2027 10:14:03.299            43.621              Murmansk2          1363.156
        54   01 Jun 2027 10:14:03.299   01 Jun 2027 10:16:24.959           141.660              Murmansk1          4426.875
        55   01 Jun 2027 10:16:24.959   01 Jun 2027 10:16:51.767            26.808              Murmansk2           837.750
        56   01 Jun 2027 10:16:52.659   01 Jun 2027 10:17:58.374            65.715                 Moscow          2053.594
        57   01 Jun 2027 10:18:26.804   01 Jun 2027 10:18:52.428            25.624              Murmansk1           800.750
        58   01 Jun 2027 10:19:51.564   01 Jun 2027 10:20:40.846            49.282              Murmansk2          1540.063
        59   01 Jun 2027 11:38:12.781   01 Jun 2027 11:40:35.043           142.262                  Delhi          4445.688
        60   01 Jun 2027 11:45:27.298   01 Jun 2027 11:45:58.049            30.751              Murmansk2           960.969
        61   01 Jun 2027 11:45:58.049   01 Jun 2027 11:46:33.759            35.710              Murmansk1          1115.937
        62   01 Jun 2027 11:46:49.954   01 Jun 2027 11:51:27.773           277.819              Murmansk2          8681.844
        63   01 Jun 2027 11:51:27.773   01 Jun 2027 11:52:05.402            37.629              Murmansk1          1175.906
        64   01 Jun 2027 11:52:19.382   01 Jun 2027 11:52:28.240             8.858              Murmansk1           276.812
        65   01 Jun 2027 11:53:09.407   01 Jun 2027 11:53:40.710            31.303                Norilsk           978.219
        66   01 Jun 2027 12:56:36.257   01 Jun 2027 12:59:33.823           177.566               CapeTown          5548.938
        67   01 Jun 2027 13:21:33.089   01 Jun 2027 13:24:04.774           151.685              Murmansk1          4740.156
        68   01 Jun 2027 13:36:02.376   01 Jun 2027 13:39:53.779           231.403                Anadyr1          7231.344
        69   01 Jun 2027 13:40:42.041   01 Jun 2027 13:43:04.564           142.523                Anadyr2          4453.844
        70   01 Jun 2027 15:00:29.035   01 Jun 2027 15:01:32.948            63.913              Murmansk2          1997.281
        71   01 Jun 2027 15:03:19.268   01 Jun 2027 15:04:09.273            50.005              Murmansk1          1562.656
        72   01 Jun 2027 15:04:09.273   01 Jun 2027 15:04:59.032            49.759              Murmansk2          1554.969
        73   01 Jun 2027 15:07:27.520   01 Jun 2027 15:07:54.641            27.121              Murmansk2           847.531
        74   01 Jun 2027 15:09:11.100   01 Jun 2027 15:09:27.708            16.608              Murmansk1           519.000
        75   01 Jun 2027 15:11:25.610   01 Jun 2027 15:13:01.237            95.627                Anadyr2          2988.344
        76   01 Jun 2027 15:13:35.125   01 Jun 2027 15:13:49.953            14.828                Anadyr1           463.375
        77   01 Jun 2027 15:14:13.351   01 Jun 2027 15:14:40.812            27.461                Anadyr1           858.156
        78   01 Jun 2027 15:15:21.728   01 Jun 2027 15:18:34.930           193.202               Magadan2          6037.562
        79   01 Jun 2027 15:18:51.587   01 Jun 2027 15:21:24.701           153.114               Magadan1          4784.812
        80   01 Jun 2027 16:47:18.822   01 Jun 2027 16:49:47.991           149.169                Anadyr1          4661.531
        81   01 Jun 2027 16:50:32.584   01 Jun 2027 16:50:37.972             5.388                Anadyr1           168.375
        82   01 Jun 2027 16:50:37.972   01 Jun 2027 16:51:29.804            51.832                Anadyr2          1619.750
        83   01 Jun 2027 16:51:40.323   01 Jun 2027 16:51:58.953            18.630               Magadan2           582.187
        84   01 Jun 2027 16:52:34.000   01 Jun 2027 16:53:48.263            74.263               Magadan2          2320.719
        85   01 Jun 2027 16:54:27.325   01 Jun 2027 16:55:39.368            72.043               Magadan2          2251.344
        86   01 Jun 2027 16:58:55.919   01 Jun 2027 16:59:19.192            23.273                Anadyr1           727.281
        87   01 Jun 2027 16:59:35.071   01 Jun 2027 17:00:00.780            25.709                Anadyr1           803.406
        88   01 Jun 2027 17:00:07.923   01 Jun 2027 17:00:51.717            43.794               Magadan2          1368.562
        89   01 Jun 2027 18:23:11.491   01 Jun 2027 18:24:45.944            94.453                Anadyr2          2951.656
        90   01 Jun 2027 18:24:55.801   01 Jun 2027 18:27:06.780           130.979                Anadyr1          4093.094
        91   01 Jun 2027 18:27:34.178   01 Jun 2027 18:31:25.435           231.257                Norilsk          7226.781
        92   01 Jun 2027 18:31:38.160   01 Jun 2027 18:34:13.670           155.510                Irkutsk          4859.688
        93   01 Jun 2027 18:35:01.893   01 Jun 2027 18:36:38.256            96.363                Irkutsk          3011.344
        94   01 Jun 2027 19:23:30.965   01 Jun 2027 19:24:09.920            38.955            RioGallegos          1217.344
        95   01 Jun 2027 19:25:02.805   01 Jun 2027 19:25:29.512            26.707            RioGallegos           834.594
        96   01 Jun 2027 19:25:53.687   01 Jun 2027 19:26:54.760            61.073            RioGallegos          1908.531
        97   01 Jun 2027 20:04:24.613   01 Jun 2027 20:05:15.012            50.399                Norilsk          1574.969
        98   01 Jun 2027 20:05:17.731   01 Jun 2027 20:07:00.106           102.375                Irkutsk          3199.219
        99   01 Jun 2027 20:07:48.932   01 Jun 2027 20:12:43.001           294.069                Novosib          9189.656
       100   01 Jun 2027 20:27:04.627   01 Jun 2027 20:28:20.546            75.919                Sumatra          2372.469
       101   01 Jun 2027 20:28:50.680   01 Jun 2027 20:29:17.970            27.290                Sumatra           852.812
       102   01 Jun 2027 21:40:17.654   01 Jun 2027 21:40:35.275            17.621               Magadan2           550.656
       103   01 Jun 2027 21:40:56.112   01 Jun 2027 21:41:09.396            13.284                Novosib           415.125
       104   01 Jun 2027 21:41:49.445   01 Jun 2027 21:43:38.013           108.568                Irkutsk          3392.750
       105   01 Jun 2027 21:45:47.234   01 Jun 2027 21:46:35.110            47.876                Novosib          1496.125
       106   01 Jun 2027 21:48:06.850   01 Jun 2027 21:48:28.072            21.222                Norilsk           663.188
       107   01 Jun 2027 21:48:45.347   01 Jun 2027 21:49:00.126            14.779                Novosib           461.844
       108   01 Jun 2027 21:49:20.991   01 Jun 2027 21:49:43.810            22.819                Norilsk           713.094
       109   01 Jun 2027 21:50:28.309   01 Jun 2027 21:52:21.725           113.416                Novosib          3544.250
       110   01 Jun 2027 21:55:34.395   01 Jun 2027 21:56:53.718            79.323                  Delhi          2478.844
       111   01 Jun 2027 21:59:25.148   01 Jun 2027 22:00:46.725            81.577                  Delhi          2549.281
       112   01 Jun 2027 23:10:48.140   01 Jun 2027 23:10:52.440             4.300                Anadyr1           134.375
       113   01 Jun 2027 23:11:51.299   01 Jun 2027 23:12:07.454            16.155                Anadyr2           504.844
       114   01 Jun 2027 23:12:44.103   01 Jun 2027 23:13:21.437            37.334               Magadan2          1166.687
       115   01 Jun 2027 23:13:21.437   01 Jun 2027 23:13:44.363            22.926               Magadan1           716.438
       116   01 Jun 2027 23:14:27.815   01 Jun 2027 23:15:01.195            33.380               Magadan2          1043.125
       117   01 Jun 2027 23:15:18.734   01 Jun 2027 23:17:16.623           117.889              Murmansk1          3684.031
       118   01 Jun 2027 23:18:05.130   01 Jun 2027 23:20:29.957           144.827              Murmansk2          4525.844
       119   01 Jun 2027 23:21:00.449   01 Jun 2027 23:21:22.071            21.622                 Moscow           675.688
       120   01 Jun 2027 23:22:05.389   01 Jun 2027 23:24:07.422           122.033                 Moscow          3813.531
       121   01 Jun 2027 23:48:03.966   01 Jun 2027 23:50:35.981           152.015               CapeTown          4750.469
       122   01 Jun 2027 23:51:31.014   01 Jun 2027 23:51:58.096            27.082               CapeTown           846.313
       123   02 Jun 2027 00:47:22.435   02 Jun 2027 00:48:30.408            67.973               Magadan2          2124.156
       124   02 Jun 2027 00:50:57.174   02 Jun 2027 00:51:06.916             9.742               Magadan2           304.437
       125   02 Jun 2027 00:51:08.705   02 Jun 2027 00:52:36.614            87.909              Murmansk1          2747.156
       126   02 Jun 2027 00:55:28.237   02 Jun 2027 00:56:49.098            80.861              Murmansk1          2526.906
       127   02 Jun 2027 01:00:53.403   02 Jun 2027 01:02:07.736            74.333              Murmansk2          2322.906
       128   02 Jun 2027 01:06:09.400   02 Jun 2027 01:06:36.013            26.613                 Moscow           831.656
       129   02 Jun 2027 01:23:49.294   02 Jun 2027 01:24:31.358            42.064               CapeTown          1314.500
       130   02 Jun 2027 01:26:37.018   02 Jun 2027 01:27:24.251            47.233               CapeTown          1476.031
       131   02 Jun 2027 01:29:32.839   02 Jun 2027 01:31:00.037            87.198               CapeTown          2724.938
       132   02 Jun 2027 02:18:05.661   02 Jun 2027 02:19:16.756            71.095               Magadan1          2221.719
       133   02 Jun 2027 02:22:32.913   02 Jun 2027 02:23:18.998            46.085               Magadan1          1440.156
       134   02 Jun 2027 02:25:33.273   02 Jun 2027 02:25:46.937            13.664                Norilsk           427.000
       135   02 Jun 2027 02:26:27.803   02 Jun 2027 02:26:47.952            20.149               Magadan2           629.656
       136   02 Jun 2027 02:27:06.727   02 Jun 2027 02:27:17.878            11.151              Murmansk2           348.469
       137   02 Jun 2027 02:28:02.540   02 Jun 2027 02:28:36.694            34.154                Norilsk          1067.312
       138   02 Jun 2027 02:30:16.247   02 Jun 2027 02:30:28.103            11.856              Murmansk1           370.500
       139   02 Jun 2027 02:31:05.569   02 Jun 2027 02:31:45.443            39.874              Murmansk1          1246.062
       140   02 Jun 2027 02:33:36.206   02 Jun 2027 02:33:56.326            20.120                Norilsk           628.750
       141   02 Jun 2027 02:34:37.110   02 Jun 2027 02:34:41.362             4.252              Murmansk1           132.875
       142   02 Jun 2027 02:35:57.100   02 Jun 2027 02:36:13.788            16.688              Murmansk1           521.500
       143   02 Jun 2027 02:36:33.459   02 Jun 2027 02:37:15.197            41.738                 Moscow          1304.312
       144   02 Jun 2027 02:39:49.842   02 Jun 2027 02:40:01.681            11.839              Murmansk2           369.969
       145   02 Jun 2027 02:40:45.807   02 Jun 2027 02:41:25.179            39.372                 Moscow          1230.375
       146   02 Jun 2027 03:02:32.250   02 Jun 2027 03:03:37.836            65.586               CapeTown          2049.562
       147   02 Jun 2027 03:55:56.786   02 Jun 2027 03:56:48.921            52.135                Anadyr2          1629.219
       148   02 Jun 2027 03:57:37.546   02 Jun 2027 03:59:40.253           122.707                Anadyr1          3834.594
       149   02 Jun 2027 03:59:42.296   02 Jun 2027 04:00:18.169            35.873               Magadan1          1121.031
       150   02 Jun 2027 04:01:01.118   02 Jun 2027 04:02:37.059            95.941               Magadan1          2998.156
       151   02 Jun 2027 04:02:37.059   02 Jun 2027 04:03:32.505            55.446               Magadan2          1732.687
       152   02 Jun 2027 04:43:01.323   02 Jun 2027 04:47:50.242           288.919            RioGallegos          9028.719
       153   02 Jun 2027 05:31:14.094   02 Jun 2027 05:32:21.937            67.843                Irkutsk          2120.094
       154   02 Jun 2027 05:33:52.982   02 Jun 2027 05:34:16.205            23.223                Irkutsk           725.719
       155   02 Jun 2027 05:35:06.687   02 Jun 2027 05:36:18.050            71.363               Magadan1          2230.094
       156   02 Jun 2027 05:36:18.050   02 Jun 2027 05:37:05.473            47.423               Magadan2          1481.969
       157   02 Jun 2027 05:37:10.825   02 Jun 2027 05:37:42.251            31.426               Magadan2           982.062
       158   02 Jun 2027 05:37:56.794   02 Jun 2027 05:39:06.433            69.639               Magadan1          2176.219
       159   02 Jun 2027 05:43:13.693   02 Jun 2027 05:43:53.981            40.288                Norilsk          1259.000
       160   02 Jun 2027 06:17:58.448   02 Jun 2027 06:18:19.095            20.647            RioGallegos           645.219
       161   02 Jun 2027 06:19:52.545   02 Jun 2027 06:20:53.785            61.240            RioGallegos          1913.750
       162   02 Jun 2027 06:21:22.165   02 Jun 2027 06:22:21.057            58.892            RioGallegos          1840.375
       163   02 Jun 2027 06:54:09.803   02 Jun 2027 06:54:32.147            22.344                Sumatra           698.250
       164   02 Jun 2027 07:10:23.839   02 Jun 2027 07:11:00.670            36.831                Irkutsk          1150.969
       165   02 Jun 2027 07:11:12.714   02 Jun 2027 07:11:28.887            16.173                Novosib           505.406
       166   02 Jun 2027 07:11:51.039   02 Jun 2027 07:12:30.714            39.675                Novosib          1239.844
       167   02 Jun 2027 07:12:38.483   02 Jun 2027 07:13:14.101            35.618                Irkutsk          1113.063
       168   02 Jun 2027 07:13:17.908   02 Jun 2027 07:13:56.001            38.093               Magadan1          1190.406
       169   02 Jun 2027 07:14:04.275   02 Jun 2027 07:14:47.415            43.140                Irkutsk          1348.125
       170   02 Jun 2027 07:14:59.936   02 Jun 2027 07:15:17.158            17.222                Novosib           538.187
       171   02 Jun 2027 07:15:20.407   02 Jun 2027 07:15:39.257            18.850              Murmansk2           589.062
       172   02 Jun 2027 07:16:06.275   02 Jun 2027 07:16:48.970            42.695                Norilsk          1334.219
       173   02 Jun 2027 07:18:53.711   02 Jun 2027 07:19:00.916             7.205              Murmansk2           225.156
       174   02 Jun 2027 07:19:27.669   02 Jun 2027 07:20:13.346            45.677                Norilsk          1427.406
       175   02 Jun 2027 07:21:41.273   02 Jun 2027 07:22:05.053            23.780              Murmansk1           743.125
       176   02 Jun 2027 07:50:02.642   02 Jun 2027 07:50:37.067            34.425            RioGallegos          1075.781
       177   02 Jun 2027 07:54:18.115   02 Jun 2027 07:54:58.477            40.362            RioGallegos          1261.313
       178   02 Jun 2027 08:24:46.024   02 Jun 2027 08:24:57.590            11.566                Sumatra           361.437
       179   02 Jun 2027 08:25:26.963   02 Jun 2027 08:26:09.270            42.307                Sumatra          1322.094
       180   02 Jun 2027 08:32:10.660   02 Jun 2027 08:33:12.574            61.914                Sumatra          1934.812
       181   02 Jun 2027 08:35:07.918   02 Jun 2027 08:36:07.916            59.998                  Delhi          1874.937
       182   02 Jun 2027 08:36:29.660   02 Jun 2027 08:37:48.804            79.144                  Delhi          2473.250
       183   02 Jun 2027 08:44:43.067   02 Jun 2027 08:44:51.731             8.664                  Delhi           270.750
       184   02 Jun 2027 08:46:34.260   02 Jun 2027 08:47:02.437            28.177                Irkutsk           880.531
       185   02 Jun 2027 08:47:06.047   02 Jun 2027 08:47:20.738            14.691              Murmansk2           459.094
       186   02 Jun 2027 08:47:21.291   02 Jun 2027 08:47:52.987            31.696                Norilsk           990.500
       187   02 Jun 2027 08:48:01.515   02 Jun 2027 08:48:20.196            18.681                Irkutsk           583.781
       188   02 Jun 2027 08:48:24.254   02 Jun 2027 08:48:42.432            18.178              Murmansk1           568.062
       189   02 Jun 2027 08:48:42.950   02 Jun 2027 08:49:05.092            22.142                Norilsk           691.938
       190   02 Jun 2027 08:49:11.285   02 Jun 2027 08:49:41.964            30.679                 Moscow           958.719
       191   02 Jun 2027 08:49:48.365   02 Jun 2027 08:50:29.502            41.137                Norilsk          1285.531
       192   02 Jun 2027 08:50:33.084   02 Jun 2027 08:50:54.220            21.136                Irkutsk           660.500
       193   02 Jun 2027 08:51:09.664   02 Jun 2027 08:51:12.534             2.870              Murmansk1            89.687
       194   02 Jun 2027 08:51:12.534   02 Jun 2027 08:52:32.896            80.362              Murmansk2          2511.312
       195   02 Jun 2027 08:56:07.321   02 Jun 2027 08:56:10.871             3.550              Murmansk2           110.937
       196   02 Jun 2027 08:56:30.477   02 Jun 2027 08:56:51.940            21.463              Murmansk2           670.719
       197   02 Jun 2027 09:29:57.685   02 Jun 2027 09:30:35.635            37.950            RioGallegos          1185.937
       198   02 Jun 2027 09:33:28.840   02 Jun 2027 09:33:43.493            14.653            RioGallegos           457.906
       199   02 Jun 2027 09:35:59.990   02 Jun 2027 09:36:07.695             7.705            RioGallegos           240.781
       200   02 Jun 2027 10:09:02.429   02 Jun 2027 10:10:21.221            78.792                  Delhi          2462.250
       201   02 Jun 2027 10:12:06.012   02 Jun 2027 10:13:25.206            79.194                  Delhi          2474.813
       202   02 Jun 2027 10:22:58.686   02 Jun 2027 10:24:17.374            78.688                Novosib          2459.000
       203   02 Jun 2027 10:24:32.966   02 Jun 2027 10:24:41.178             8.212              Murmansk2           256.625
       204   02 Jun 2027 10:24:42.082   02 Jun 2027 10:25:36.034            53.952                Norilsk          1686.000
       205   02 Jun 2027 10:25:38.277   02 Jun 2027 10:25:45.235             6.958                 Moscow           217.438
       206   02 Jun 2027 10:25:46.636   02 Jun 2027 10:25:51.058             4.422                Norilsk           138.188
       207   02 Jun 2027 10:26:00.790   02 Jun 2027 10:26:56.257            55.467              Murmansk2          1733.344
       208   02 Jun 2027 10:28:09.542   02 Jun 2027 10:28:18.343             8.801                Novosib           275.031
       209   02 Jun 2027 10:33:07.858   02 Jun 2027 10:33:14.694             6.836              Murmansk1           213.625
       210   02 Jun 2027 11:56:40.134   02 Jun 2027 11:56:55.500            15.366                 Moscow           480.187
       211   02 Jun 2027 11:57:08.714   02 Jun 2027 11:57:32.031            23.317              Murmansk2           728.656
       212   02 Jun 2027 11:57:38.636   02 Jun 2027 11:58:03.794            25.158                 Moscow           786.188
       213   02 Jun 2027 11:58:15.261   02 Jun 2027 11:58:56.661            41.400                 Moscow          1293.750
       214   02 Jun 2027 11:59:03.961   02 Jun 2027 11:59:55.102            51.141              Murmansk2          1598.156
       215   02 Jun 2027 12:00:09.145   02 Jun 2027 12:00:52.900            43.755              Murmansk2          1367.344
       216   02 Jun 2027 12:01:10.227   02 Jun 2027 12:01:17.956             7.729              Murmansk2           241.531
       217   02 Jun 2027 12:01:20.492   02 Jun 2027 12:01:41.292            20.800              Murmansk2           650.000
       218   02 Jun 2027 12:02:03.399   02 Jun 2027 12:02:38.187            34.788                Norilsk          1087.125
       219   02 Jun 2027 12:03:54.166   02 Jun 2027 12:04:21.042            26.876              Murmansk2           839.875
       220   02 Jun 2027 12:04:36.371   02 Jun 2027 12:04:55.817            19.446                Norilsk           607.688
       221   02 Jun 2027 12:05:15.983   02 Jun 2027 12:06:15.859            59.876                 Moscow          1871.125
       222   02 Jun 2027 12:07:23.842   02 Jun 2027 12:07:59.082            35.240              Murmansk2          1101.250
       223   02 Jun 2027 12:09:28.499   02 Jun 2027 12:09:39.914            11.415              Murmansk1           356.719
       224   02 Jun 2027 13:08:56.213   02 Jun 2027 13:09:34.510            38.297               CapeTown          1196.781
       225   02 Jun 2027 13:10:15.124   02 Jun 2027 13:11:14.526            59.402               CapeTown          1856.313
       226   02 Jun 2027 13:11:52.851   02 Jun 2027 13:13:10.980            78.129               CapeTown          2441.531
       227   02 Jun 2027 13:13:46.959   02 Jun 2027 13:14:56.097            69.138               CapeTown          2160.563
       228   02 Jun 2027 13:33:49.048   02 Jun 2027 13:34:36.178            47.130              Murmansk1          1472.812
       229   02 Jun 2027 13:34:57.020   02 Jun 2027 13:35:39.574            42.554              Murmansk2          1329.812
       230   02 Jun 2027 13:38:31.859   02 Jun 2027 13:38:55.973            24.114              Murmansk1           753.562
       231   02 Jun 2027 13:40:26.636   02 Jun 2027 13:40:48.795            22.159              Murmansk1           692.469
       232   02 Jun 2027 13:42:12.129   02 Jun 2027 13:43:14.250            62.121              Murmansk1          1941.281
       233   02 Jun 2027 13:47:55.317   02 Jun 2027 13:51:12.780           197.463                Anadyr2          6170.719
       234   02 Jun 2027 13:56:01.216   02 Jun 2027 13:57:13.663            72.447                Anadyr1          2263.969
       235   02 Jun 2027 15:13:41.184   02 Jun 2027 15:13:53.451            12.267              Murmansk2           383.344
       236   02 Jun 2027 15:14:48.970   02 Jun 2027 15:15:25.296            36.326              Murmansk2          1135.187
       237   02 Jun 2027 15:19:15.800   02 Jun 2027 15:19:31.712            15.912              Murmansk1           497.250
       238   02 Jun 2027 15:23:25.930   02 Jun 2027 15:25:38.164           132.234                Anadyr1          4132.313
       239   02 Jun 2027 15:26:24.266   02 Jun 2027 15:26:42.120            17.854                Anadyr1           557.938
       240   02 Jun 2027 15:26:56.861   02 Jun 2027 15:30:30.672           213.811               Magadan2          6681.594
       241   02 Jun 2027 15:30:35.819   02 Jun 2027 15:31:46.927            71.108               Magadan2          2222.125
       242   02 Jun 2027 15:33:20.661   02 Jun 2027 15:34:22.478            61.817               Magadan2          1931.781
       243   02 Jun 2027 17:01:42.623   02 Jun 2027 17:03:11.240            88.617               Magadan1          2769.281
       244   02 Jun 2027 17:03:48.984   02 Jun 2027 17:03:57.771             8.787               Magadan2           274.594
       245   02 Jun 2027 17:04:16.863   02 Jun 2027 17:04:36.694            19.831               Magadan2           619.719
       246   02 Jun 2027 17:04:45.516   02 Jun 2027 17:04:54.942             9.426               Magadan2           294.562
       247   02 Jun 2027 17:08:59.158   02 Jun 2027 17:09:25.691            26.533               Magadan1           829.156
       248   02 Jun 2027 17:09:30.021   02 Jun 2027 17:11:16.222           106.201               Magadan1          3318.781
       249   02 Jun 2027 18:35:11.383   02 Jun 2027 18:36:47.084            95.701                Anadyr2          2990.656
       250   02 Jun 2027 18:36:56.675   02 Jun 2027 18:39:06.070           129.395                Anadyr1          4043.594
       251   02 Jun 2027 18:40:04.153   02 Jun 2027 18:41:26.084            81.931                Norilsk          2560.344
       252   02 Jun 2027 18:42:53.804   02 Jun 2027 18:45:58.830           185.026                Irkutsk          5782.062
       253   02 Jun 2027 18:46:54.336   02 Jun 2027 18:48:50.791           116.455                Irkutsk          3639.219
       254   02 Jun 2027 18:58:57.757   02 Jun 2027 19:00:14.816            77.059                Sumatra          2408.094
       255   02 Jun 2027 19:01:10.127   02 Jun 2027 19:01:15.485             5.358                Sumatra           167.438
       256   02 Jun 2027 19:03:28.189   02 Jun 2027 19:04:20.411            52.222                Sumatra          1631.937
       257   02 Jun 2027 20:16:36.836   02 Jun 2027 20:17:16.683            39.847                Norilsk          1245.219
       258   02 Jun 2027 20:18:02.548   02 Jun 2027 20:19:51.828           109.280                Novosib          3415.000
       259   02 Jun 2027 20:20:28.921   02 Jun 2027 20:21:35.074            66.153                Novosib          2067.281
       260   02 Jun 2027 20:24:45.518   02 Jun 2027 20:25:33.620            48.102                Novosib          1503.187
       261   02 Jun 2027 20:30:46.307   02 Jun 2027 20:31:08.250            21.943                Sumatra           685.719
       262   02 Jun 2027 20:38:48.646   02 Jun 2027 20:40:05.608            76.962                Sumatra          2405.062
       263   02 Jun 2027 21:49:58.485   02 Jun 2027 21:50:37.720            39.235               Magadan1          1226.094
       264   02 Jun 2027 21:52:37.439   02 Jun 2027 21:55:50.841           193.402              Murmansk1          6043.812
       265   02 Jun 2027 22:00:19.645   02 Jun 2027 22:01:47.305            87.660                  Delhi          2739.375
       266   02 Jun 2027 22:09:07.281   02 Jun 2027 22:09:50.495            43.214                  Delhi          1350.438
       267   02 Jun 2027 23:22:50.658   02 Jun 2027 23:22:54.135             3.477                Anadyr2           108.656
       268   02 Jun 2027 23:24:25.216   02 Jun 2027 23:25:10.729            45.513               Magadan2          1422.281
       269   02 Jun 2027 23:25:43.157   02 Jun 2027 23:26:58.295            75.138               Magadan2          2348.063
       270   02 Jun 2027 23:27:17.870   02 Jun 2027 23:30:05.061           167.191              Murmansk1          5224.719
       271   02 Jun 2027 23:30:05.061   02 Jun 2027 23:31:54.855           109.794              Murmansk2          3431.063
       272   02 Jun 2027 23:33:25.474   02 Jun 2027 23:33:36.709            11.235                 Moscow           351.094
       273   02 Jun 2027 23:33:46.436   02 Jun 2027 23:33:55.085             8.649                 Moscow           270.281
       274   02 Jun 2027 23:34:28.395   02 Jun 2027 23:35:00.542            32.147                 Moscow          1004.594
       275   02 Jun 2027 23:36:36.156   02 Jun 2027 23:37:01.142            24.986                 Moscow           780.812
       276   02 Jun 2027 23:58:31.608   03 Jun 2027 00:00:13.271           101.663               CapeTown          3176.969
       277   03 Jun 2027 00:01:14.882   03 Jun 2027 00:02:30.658            75.776               CapeTown          2368.000
       278   03 Jun 2027 00:57:16.720   03 Jun 2027 00:57:30.199            13.479               Magadan1           421.219
       279   03 Jun 2027 00:59:58.439   03 Jun 2027 01:00:50.580            52.141               Magadan1          1629.406
       280   03 Jun 2027 01:03:10.316   03 Jun 2027 01:04:32.221            81.905              Murmansk1          2559.531
       281   03 Jun 2027 01:05:25.778   03 Jun 2027 01:05:46.987            21.209              Murmansk1           662.781
       282   03 Jun 2027 01:05:57.877   03 Jun 2027 01:06:16.852            18.975              Murmansk1           592.969
       283   03 Jun 2027 01:07:32.644   03 Jun 2027 01:07:57.450            24.806                Novosib           775.188
       284   03 Jun 2027 01:09:36.117   03 Jun 2027 01:09:51.505            15.388                 Moscow           480.875
       285   03 Jun 2027 01:12:00.640   03 Jun 2027 01:12:02.436             1.796                 Moscow            56.125
       286   03 Jun 2027 01:13:21.515   03 Jun 2027 01:13:52.458            30.943                 Moscow           966.969
       287   03 Jun 2027 01:17:24.607   03 Jun 2027 01:17:45.008            20.401                 Moscow           637.531
       288   03 Jun 2027 01:30:20.443   03 Jun 2027 01:31:18.591            58.148               CapeTown          1817.125
       289   03 Jun 2027 01:35:01.636   03 Jun 2027 01:36:13.663            72.027               CapeTown          2250.844
       290   03 Jun 2027 02:27:00.456   03 Jun 2027 02:27:41.519            41.063                Anadyr2          1283.219
       291   03 Jun 2027 02:27:59.004   03 Jun 2027 02:28:18.147            19.143                Anadyr1           598.219
       292   03 Jun 2027 02:28:31.234   03 Jun 2027 02:28:53.736            22.502               Magadan1           703.188
       293   03 Jun 2027 02:28:53.736   03 Jun 2027 02:29:25.302            31.566               Magadan2           986.437
       294   03 Jun 2027 02:30:45.491   03 Jun 2027 02:31:10.977            25.486               Magadan1           796.438
       295   03 Jun 2027 02:34:38.487   03 Jun 2027 02:35:21.646            43.159               Magadan2          1348.719
       296   03 Jun 2027 02:38:35.502   03 Jun 2027 02:39:08.114            32.612                Norilsk          1019.125
       297   03 Jun 2027 02:39:39.431   03 Jun 2027 02:40:21.805            42.374              Murmansk2          1324.188
       298   03 Jun 2027 02:42:15.021   03 Jun 2027 02:42:27.602            12.581              Murmansk1           393.156
       299   03 Jun 2027 02:42:27.900   03 Jun 2027 02:42:53.459            25.559                 Moscow           798.719
       300   03 Jun 2027 02:42:54.797   03 Jun 2027 02:43:01.807             7.010              Murmansk2           219.063
       301   03 Jun 2027 02:44:26.519   03 Jun 2027 02:44:41.605            15.086                 Moscow           471.438
       302   03 Jun 2027 02:46:34.425   03 Jun 2027 02:46:49.661            15.236                 Moscow           476.125
       303   03 Jun 2027 02:48:46.450   03 Jun 2027 02:49:32.449            45.999                 Moscow          1437.469
       304   03 Jun 2027 03:08:35.375   03 Jun 2027 03:08:54.524            19.149               CapeTown           598.406
       305   03 Jun 2027 03:11:18.297   03 Jun 2027 03:12:42.988            84.691               CapeTown          2646.594
       306   03 Jun 2027 04:07:57.694   03 Jun 2027 04:08:30.598            32.904                Anadyr2          1028.250
       307   03 Jun 2027 04:08:41.286   03 Jun 2027 04:11:31.361           170.075                Anadyr1          5314.844
       308   03 Jun 2027 04:11:41.581   03 Jun 2027 04:12:11.672            30.091                Anadyr2           940.344
       309   03 Jun 2027 04:12:14.101   03 Jun 2027 04:13:29.631            75.530                Anadyr2          2360.312
       310   03 Jun 2027 04:13:29.631   03 Jun 2027 04:13:49.591            19.960                Anadyr1           623.750
       311   03 Jun 2027 04:14:13.519   03 Jun 2027 04:14:47.049            33.530                Anadyr1          1047.813
       312   03 Jun 2027 04:54:14.428   03 Jun 2027 04:55:52.931            98.503            RioGallegos          3078.219
       313   03 Jun 2027 05:45:15.551   03 Jun 2027 05:49:25.385           249.834               Magadan2          7807.312
       314   03 Jun 2027 05:49:25.385   03 Jun 2027 05:50:56.473            91.088               Magadan1          2846.500
       315   03 Jun 2027 05:50:56.473   03 Jun 2027 05:51:18.431            21.958               Magadan2           686.187
       316   03 Jun 2027 07:20:35.233   03 Jun 2027 07:20:51.352            16.119                Novosib           503.719
       317   03 Jun 2027 07:21:06.911   03 Jun 2027 07:21:32.054            25.143               Magadan2           785.719
       318   03 Jun 2027 07:21:47.425   03 Jun 2027 07:22:10.491            23.066               Magadan2           720.813
       319   03 Jun 2027 07:22:27.800   03 Jun 2027 07:23:15.018            47.218               Magadan2          1475.563
       320   03 Jun 2027 07:23:15.845   03 Jun 2027 07:23:27.619            11.774                Norilsk           367.938
       321   03 Jun 2027 07:23:56.855   03 Jun 2027 07:24:55.011            58.156               Magadan2          1817.375
       322   03 Jun 2027 07:25:06.844   03 Jun 2027 07:25:15.911             9.067                Norilsk           283.344
       323   03 Jun 2027 07:25:19.607   03 Jun 2027 07:26:00.888            41.281                Novosib          1290.031
       324   03 Jun 2027 07:26:20.288   03 Jun 2027 07:26:49.093            28.805                Norilsk           900.156
       325   03 Jun 2027 07:26:52.177   03 Jun 2027 07:27:16.063            23.886              Murmansk1           746.437
       326   03 Jun 2027 07:29:33.402   03 Jun 2027 07:30:03.506            30.104              Murmansk1           940.750
       327   03 Jun 2027 07:30:03.506   03 Jun 2027 07:30:38.192            34.686              Murmansk2          1083.937
       328   03 Jun 2027 08:02:15.018   03 Jun 2027 08:02:41.955            26.937            RioGallegos           841.781
       329   03 Jun 2027 08:03:04.265   03 Jun 2027 08:03:05.829             1.564            RioGallegos            48.875
       330   03 Jun 2027 08:05:02.786   03 Jun 2027 08:05:28.163            25.377            RioGallegos           793.031
       331   03 Jun 2027 08:36:47.993   03 Jun 2027 08:36:55.787             7.794                Sumatra           243.562
       332   03 Jun 2027 08:39:54.604   03 Jun 2027 08:40:42.482            47.878                Sumatra          1496.187
       333   03 Jun 2027 08:46:31.206   03 Jun 2027 08:48:44.874           133.668                  Delhi          4177.125
       334   03 Jun 2027 08:52:17.116   03 Jun 2027 08:53:29.872            72.756                  Delhi          2273.625
       335   03 Jun 2027 08:57:31.432   03 Jun 2027 08:58:01.051            29.619                Norilsk           925.594
       336   03 Jun 2027 08:58:42.082   03 Jun 2027 08:58:54.796            12.714                Irkutsk           397.313
       337   03 Jun 2027 08:59:00.401   03 Jun 2027 08:59:57.858            57.457                Irkutsk          1795.531
       338   03 Jun 2027 09:00:05.185   03 Jun 2027 09:00:16.128            10.943                Irkutsk           341.969
       339   03 Jun 2027 09:00:35.907   03 Jun 2027 09:00:59.452            23.545              Murmansk1           735.781
       340   03 Jun 2027 09:01:02.020   03 Jun 2027 09:01:31.370            29.350                Irkutsk           917.187
       341   03 Jun 2027 09:01:39.923   03 Jun 2027 09:01:56.501            16.578                Norilsk           518.062
       342   03 Jun 2027 09:02:00.191   03 Jun 2027 09:02:25.467            25.276              Murmansk2           789.875
       343   03 Jun 2027 09:02:27.554   03 Jun 2027 09:02:48.179            20.625                Norilsk           644.531
       344   03 Jun 2027 09:03:03.515   03 Jun 2027 09:03:09.899             6.384                 Moscow           199.500
       345   03 Jun 2027 09:03:11.079   03 Jun 2027 09:03:41.173            30.094              Murmansk1           940.437
       346   03 Jun 2027 09:10:06.042   03 Jun 2027 09:10:16.626            10.584              Murmansk2           330.750
       347   03 Jun 2027 09:43:20.871   03 Jun 2027 09:44:24.404            63.533            RioGallegos          1985.406
       348   03 Jun 2027 09:45:32.980   03 Jun 2027 09:45:37.284             4.304            RioGallegos           134.500
       349   03 Jun 2027 10:21:14.107   03 Jun 2027 10:22:45.014            90.907                  Delhi          2840.844
       350   03 Jun 2027 10:26:26.542   03 Jun 2027 10:26:29.824             3.282                  Delhi           102.563
       351   03 Jun 2027 10:30:57.879   03 Jun 2027 10:31:02.447             4.568                  Delhi           142.750
       352   03 Jun 2027 10:34:11.638   03 Jun 2027 10:34:31.404            19.766                 Moscow           617.687
       353   03 Jun 2027 10:34:34.305   03 Jun 2027 10:35:17.647            43.342                 Moscow          1354.438
       354   03 Jun 2027 10:35:22.278   03 Jun 2027 10:36:04.719            42.441                Norilsk          1326.281
       355   03 Jun 2027 10:36:10.319   03 Jun 2027 10:36:32.979            22.660                Norilsk           708.125
       356   03 Jun 2027 10:36:35.059   03 Jun 2027 10:36:48.587            13.528              Murmansk2           422.750
       357   03 Jun 2027 10:36:50.948   03 Jun 2027 10:37:11.519            20.571                 Moscow           642.844
       358   03 Jun 2027 10:37:22.497   03 Jun 2027 10:38:12.942            50.445                Novosib          1576.406
       359   03 Jun 2027 10:38:17.920   03 Jun 2027 10:39:10.560            52.640                Novosib          1645.000
       360   03 Jun 2027 12:05:22.667   03 Jun 2027 12:07:36.644           133.977                 Moscow          4186.781
       361   03 Jun 2027 12:07:43.212   03 Jun 2027 12:08:41.593            58.381                 Moscow          1824.406
       362   03 Jun 2027 12:08:51.558   03 Jun 2027 12:09:04.679            13.121              Murmansk2           410.031
       363   03 Jun 2027 12:09:34.011   03 Jun 2027 12:09:43.208             9.197              Murmansk1           287.406
       364   03 Jun 2027 12:10:24.592   03 Jun 2027 12:10:39.781            15.189              Murmansk1           474.656
       365   03 Jun 2027 12:12:16.556   03 Jun 2027 12:13:10.324            53.768              Murmansk2          1680.250
       366   03 Jun 2027 12:18:28.951   03 Jun 2027 12:18:48.779            19.828              Murmansk1           619.625
       367   03 Jun 2027 12:21:27.529   03 Jun 2027 12:21:41.417            13.888              Murmansk2           434.000
       368   03 Jun 2027 13:19:42.549   03 Jun 2027 13:23:13.898           211.349               CapeTown          6604.656
       369   03 Jun 2027 13:26:03.793   03 Jun 2027 13:26:10.295             6.502               CapeTown           203.187
       370   03 Jun 2027 13:43:06.644   03 Jun 2027 13:43:06.903             0.259                 Moscow             8.094
       371   03 Jun 2027 13:46:07.071   03 Jun 2027 13:46:37.291            30.220              Murmansk1           944.375
       372   03 Jun 2027 13:46:56.341   03 Jun 2027 13:48:55.402           119.061              Murmansk2          3720.656
       373   03 Jun 2027 13:55:19.656   03 Jun 2027 13:56:15.570            55.914              Murmansk1          1747.313
       374   03 Jun 2027 13:59:50.174   03 Jun 2027 14:02:16.412           146.238                Anadyr1          4569.937
       375   03 Jun 2027 14:02:20.293   03 Jun 2027 14:03:49.287            88.994                Anadyr2          2781.063
       376   03 Jun 2027 15:25:44.467   03 Jun 2027 15:27:26.929           102.462              Murmansk2          3201.938
       377   03 Jun 2027 15:35:26.552   03 Jun 2027 15:37:39.256           132.704                Anadyr1          4147.000
       378   03 Jun 2027 15:38:13.544   03 Jun 2027 15:38:24.396            10.852                Anadyr1           339.125
       379   03 Jun 2027 15:38:39.742   03 Jun 2027 15:43:46.814           307.072               Magadan2          9596.000
       380   03 Jun 2027 17:11:21.506   03 Jun 2027 17:12:03.578            42.072                Anadyr1          1314.750
       381   03 Jun 2027 17:13:38.546   03 Jun 2027 17:13:41.720             3.174                Anadyr2            99.188
       382   03 Jun 2027 17:14:18.307   03 Jun 2027 17:15:24.868            66.561               Magadan1          2080.031
       383   03 Jun 2027 17:16:30.272   03 Jun 2027 17:16:39.400             9.128               Magadan1           285.250
       384   03 Jun 2027 17:16:39.400   03 Jun 2027 17:16:47.075             7.675               Magadan2           239.844
       385   03 Jun 2027 17:17:49.508   03 Jun 2027 17:18:14.399            24.891               Magadan1           777.844
       386   03 Jun 2027 17:20:59.481   03 Jun 2027 17:21:12.830            13.349               Magadan2           417.156
       387   03 Jun 2027 17:21:29.349   03 Jun 2027 17:22:06.386            37.037               Magadan2          1157.406
       388   03 Jun 2027 18:07:59.342   03 Jun 2027 18:10:24.799           145.457            RioGallegos          4545.531
       389   03 Jun 2027 18:48:12.020   03 Jun 2027 18:48:40.588            28.568                Anadyr2           892.750
       390   03 Jun 2027 18:49:23.704   03 Jun 2027 18:53:25.120           241.416                Norilsk          7544.250
       391   03 Jun 2027 18:54:15.855   03 Jun 2027 18:55:11.825            55.970                Norilsk          1749.062
       392   03 Jun 2027 18:55:57.019   03 Jun 2027 18:57:47.679           110.660                Irkutsk          3458.125
       393   03 Jun 2027 18:58:48.497   03 Jun 2027 18:59:32.852            44.355                Irkutsk          1386.094
       394   03 Jun 2027 19:00:52.757   03 Jun 2027 19:01:12.425            19.668                Irkutsk           614.625
       395   03 Jun 2027 19:09:36.205   03 Jun 2027 19:11:47.529           131.324                Sumatra          4103.875
       396   03 Jun 2027 19:13:08.691   03 Jun 2027 19:13:31.824            23.133                Sumatra           722.906
       397   03 Jun 2027 19:15:22.267   03 Jun 2027 19:17:35.477           133.210                Sumatra          4162.813
       398   03 Jun 2027 20:29:47.442   03 Jun 2027 20:30:27.374            39.932                Novosib          1247.875
       399   03 Jun 2027 20:33:11.910   03 Jun 2027 20:33:28.577            16.667                Novosib           520.844
       400   03 Jun 2027 20:34:34.437   03 Jun 2027 20:35:10.716            36.279                Novosib          1133.719
       401   03 Jun 2027 20:40:23.601   03 Jun 2027 20:41:44.033            80.432                  Delhi          2513.500
       402   03 Jun 2027 20:44:20.497   03 Jun 2027 20:44:27.936             7.439                  Delhi           232.469
       403   03 Jun 2027 22:01:55.421   03 Jun 2027 22:02:11.704            16.283               Magadan1           508.844
       404   03 Jun 2027 22:02:21.219   03 Jun 2027 22:02:35.845            14.626               Magadan1           457.063
       405   03 Jun 2027 22:04:11.857   03 Jun 2027 22:08:59.407           287.550              Murmansk1          8985.937
       406   03 Jun 2027 22:12:15.408   03 Jun 2027 22:12:48.885            33.477                  Delhi          1046.156
       407   03 Jun 2027 22:17:31.425   03 Jun 2027 22:18:01.202            29.777                  Delhi           930.531
       408   03 Jun 2027 22:19:25.788   03 Jun 2027 22:20:32.724            66.936                  Delhi          2091.750
       409   03 Jun 2027 23:35:06.299   03 Jun 2027 23:35:24.177            17.878                Anadyr2           558.688
       410   03 Jun 2027 23:35:53.125   03 Jun 2027 23:36:09.916            16.791                Anadyr2           524.719
       411   03 Jun 2027 23:36:32.222   03 Jun 2027 23:37:12.985            40.763               Magadan1          1273.844
       412   03 Jun 2027 23:37:40.470   03 Jun 2027 23:38:44.085            63.615               Magadan1          1987.969
       413   03 Jun 2027 23:39:17.637   03 Jun 2027 23:41:03.142           105.505              Murmansk2          3297.031
       414   03 Jun 2027 23:42:04.633   03 Jun 2027 23:43:26.607            81.974              Murmansk1          2561.688
       415   03 Jun 2027 23:43:27.495   03 Jun 2027 23:45:29.361           121.866                 Moscow          3808.313
       416   04 Jun 2027 00:09:29.689   04 Jun 2027 00:11:43.298           133.609               CapeTown          4175.281
       417   04 Jun 2027 00:14:50.290   04 Jun 2027 00:15:02.179            11.889               CapeTown           371.531
       418   04 Jun 2027 00:17:01.064   04 Jun 2027 00:17:40.240            39.176               CapeTown          1224.250
       419   04 Jun 2027 01:11:23.507   04 Jun 2027 01:12:41.834            78.327               Magadan2          2447.719
       420   04 Jun 2027 01:15:11.993   04 Jun 2027 01:16:26.629            74.636              Murmansk1          2332.375
       421   04 Jun 2027 01:18:19.123   04 Jun 2027 01:18:30.788            11.665                Novosib           364.531
       422   04 Jun 2027 01:19:43.657   04 Jun 2027 01:20:09.726            26.069                 Moscow           814.656
       423   04 Jun 2027 01:21:56.210   04 Jun 2027 01:22:07.312            11.102                 Moscow           346.937
       424   04 Jun 2027 01:25:49.866   04 Jun 2027 01:26:02.360            12.494                 Moscow           390.438
       425   04 Jun 2027 01:26:43.872   04 Jun 2027 01:26:51.074             7.202                 Moscow           225.062
       426   04 Jun 2027 01:26:51.953   04 Jun 2027 01:26:59.671             7.718                 Moscow           241.187
       427   04 Jun 2027 01:29:24.275   04 Jun 2027 01:29:37.883            13.608                 Moscow           425.250
       428   04 Jun 2027 01:42:18.167   04 Jun 2027 01:43:40.705            82.538               CapeTown          2579.313
       429   04 Jun 2027 01:54:51.954   04 Jun 2027 01:55:06.512            14.558               CapeTown           454.937
       430   04 Jun 2027 02:39:03.228   04 Jun 2027 02:40:20.116            76.888                Anadyr1          2402.750
       431   04 Jun 2027 02:40:40.830   04 Jun 2027 02:40:44.297             3.467                Anadyr1           108.344
       432   04 Jun 2027 02:40:45.478   04 Jun 2027 02:42:13.203            87.725               Magadan1          2741.406
       433   04 Jun 2027 02:43:21.437   04 Jun 2027 02:43:51.749            30.312               Magadan2           947.250
       434   04 Jun 2027 02:47:43.864   04 Jun 2027 02:48:12.137            28.273                Norilsk           883.531
       435   04 Jun 2027 02:51:09.088   04 Jun 2027 02:51:22.979            13.891              Murmansk1           434.094
       436   04 Jun 2027 02:51:49.623   04 Jun 2027 02:52:11.429            21.806              Murmansk1           681.437
       437   04 Jun 2027 02:52:11.429   04 Jun 2027 02:52:44.154            32.725              Murmansk2          1022.656
       438   04 Jun 2027 02:53:48.502   04 Jun 2027 02:54:13.330            24.828              Murmansk1           775.875
       439   04 Jun 2027 02:54:26.549   04 Jun 2027 02:54:41.872            15.323              Murmansk1           478.844
       440   04 Jun 2027 02:54:53.176   04 Jun 2027 02:55:16.503            23.327                 Moscow           728.969
       441   04 Jun 2027 02:56:38.538   04 Jun 2027 02:56:44.081             5.543                 Moscow           173.219
       442   04 Jun 2027 02:57:24.073   04 Jun 2027 02:57:44.381            20.308                 Moscow           634.625
       443   04 Jun 2027 04:23:16.306   04 Jun 2027 04:23:45.839            29.533                Anadyr1           922.906
       444   04 Jun 2027 04:24:06.767   04 Jun 2027 04:24:44.379            37.612                Norilsk          1175.375
       445   04 Jun 2027 04:25:06.770   04 Jun 2027 04:25:07.779             1.009               Magadan2            31.531
       446   04 Jun 2027 04:25:11.996   04 Jun 2027 04:25:36.530            24.534               Magadan2           766.687
       447   04 Jun 2027 04:26:21.592   04 Jun 2027 04:26:23.146             1.554                Anadyr1            48.562
       448   04 Jun 2027 04:26:29.524   04 Jun 2027 04:26:58.263            28.739               Magadan1           898.094
       449   04 Jun 2027 05:05:33.651   04 Jun 2027 05:08:05.361           151.710            RioGallegos          4740.937
       450   04 Jun 2027 05:57:01.827   04 Jun 2027 05:57:15.588            13.761               Magadan2           430.031
       451   04 Jun 2027 05:57:27.414   04 Jun 2027 05:57:49.251            21.837               Magadan2           682.406
       452   04 Jun 2027 05:57:58.072   04 Jun 2027 05:59:27.949            89.877                Novosib          2808.656
       453   04 Jun 2027 05:59:38.814   04 Jun 2027 06:00:38.487            59.673                Anadyr1          1864.781
       454   04 Jun 2027 06:00:38.487   04 Jun 2027 06:02:15.907            97.420                Anadyr2          3044.375
       455   04 Jun 2027 06:02:19.624   04 Jun 2027 06:02:55.685            36.061                Irkutsk          1126.906
       456   04 Jun 2027 06:03:00.527   04 Jun 2027 06:03:09.530             9.003                Norilsk           281.344
       457   04 Jun 2027 06:03:12.264   04 Jun 2027 06:03:15.145             2.881               Magadan2            90.031
       458   04 Jun 2027 06:03:24.757   04 Jun 2027 06:03:26.464             1.707              Murmansk1            53.344
       459   04 Jun 2027 06:03:47.585   04 Jun 2027 06:04:08.323            20.738              Murmansk2           648.062
       460   04 Jun 2027 06:07:55.684   04 Jun 2027 06:08:17.832            22.148              Murmansk1           692.125
       461   04 Jun 2027 06:09:01.424   04 Jun 2027 06:09:24.118            22.694              Murmansk2           709.187
       462   04 Jun 2027 06:11:36.116   04 Jun 2027 06:11:46.325            10.209              Murmansk1           319.031
       463   04 Jun 2027 06:38:16.231   04 Jun 2027 06:40:06.752           110.521            RioGallegos          3453.781
       464   04 Jun 2027 06:41:11.512   04 Jun 2027 06:42:03.157            51.645            RioGallegos          1613.906
       465   04 Jun 2027 07:15:07.607   04 Jun 2027 07:17:36.991           149.384                Sumatra          4668.250
       466   04 Jun 2027 07:33:33.233   04 Jun 2027 07:33:43.957            10.724                Norilsk           335.125
       467   04 Jun 2027 07:33:45.674   04 Jun 2027 07:34:32.672            46.998                Novosib          1468.687
       468   04 Jun 2027 07:34:39.774   04 Jun 2027 07:34:40.542             0.768                Norilsk            24.000
       469   04 Jun 2027 07:35:08.974   04 Jun 2027 07:35:09.639             0.665                Irkutsk            20.781
       470   04 Jun 2027 07:35:15.958   04 Jun 2027 07:35:25.305             9.347               Magadan2           292.094
       471   04 Jun 2027 07:35:35.559   04 Jun 2027 07:36:14.191            38.632                Novosib          1207.250
       472   04 Jun 2027 07:36:22.670   04 Jun 2027 07:37:32.483            69.813                Novosib          2181.656
       473   04 Jun 2027 07:37:52.581   04 Jun 2027 07:37:58.453             5.872                Irkutsk           183.500
       474   04 Jun 2027 07:38:01.141   04 Jun 2027 07:38:20.408            19.267              Murmansk2           602.094
       475   04 Jun 2027 07:38:20.408   04 Jun 2027 07:38:53.206            32.798              Murmansk1          1024.938
       476   04 Jun 2027 07:38:57.408   04 Jun 2027 07:39:11.596            14.188                Novosib           443.375
       477   04 Jun 2027 07:39:17.511   04 Jun 2027 07:39:42.842            25.331              Murmansk2           791.594
       478   04 Jun 2027 07:40:01.088   04 Jun 2027 07:40:07.176             6.088              Murmansk1           190.250
       479   04 Jun 2027 07:40:23.995   04 Jun 2027 07:40:43.382            19.387              Murmansk1           605.844
       480   04 Jun 2027 08:14:31.400   04 Jun 2027 08:14:42.150            10.750            RioGallegos           335.938
       481   04 Jun 2027 08:16:35.237   04 Jun 2027 08:16:59.177            23.940            RioGallegos           748.125
       482   04 Jun 2027 08:22:06.241   04 Jun 2027 08:22:38.511            32.270            RioGallegos          1008.438
