uniorb/output/strategy_2/Drop/Drop_KinoSat_110508.txt

KinoSat_110508
-------------------------
    Access    *     Start Time (UTCG)     *     Stop Time (UTCG)  *   Duration (s)        *       Station  *  Data (Mbytes)
         1   01 Jun 2027 03:19:49.921   01 Jun 2027 03:20:35.805            45.884               Magadan1          3020.000
         2   01 Jun 2027 03:20:39.871   01 Jun 2027 03:21:07.416            27.545                Anadyr2          2033.000
         3   01 Jun 2027 03:21:13.713   01 Jun 2027 03:21:47.344            33.631                Anadyr1          3148.500
         4   01 Jun 2027 03:22:01.289   01 Jun 2027 03:23:07.097            65.808               Magadan2          6972.500
         5   01 Jun 2027 03:23:14.376   01 Jun 2027 03:24:34.543            80.167                Anadyr2          3639.500
         6   01 Jun 2027 04:54:48.453   01 Jun 2027 04:55:29.141            40.688               Magadan2          3411.000
         7   01 Jun 2027 04:55:29.945   01 Jun 2027 04:55:38.655             8.710               Magadan1           402.000
         8   01 Jun 2027 04:55:55.325   01 Jun 2027 04:57:00.593            65.268                Norilsk          8158.500
         9   01 Jun 2027 04:57:16.192   01 Jun 2027 04:58:13.594            57.402                Norilsk          7175.250
        10   01 Jun 2027 04:58:17.098   01 Jun 2027 04:58:39.443            22.345               Magadan2          2552.750
        11   01 Jun 2027 04:58:44.414   01 Jun 2027 04:59:41.370            56.956                Novosib          2485.500
        12   01 Jun 2027 04:59:57.179   01 Jun 2027 05:01:30.918            93.739                Norilsk          7904.500
        13   01 Jun 2027 05:01:31.169   01 Jun 2027 05:01:52.438            21.269              Murmansk1           125.500
        14   01 Jun 2027 06:30:56.655   01 Jun 2027 06:31:29.979            33.324                Novosib          1461.500
        15   01 Jun 2027 06:31:40.925   01 Jun 2027 06:32:41.183            60.258                Norilsk          5473.000
        16   01 Jun 2027 06:32:41.694   01 Jun 2027 06:33:17.781            36.087                Novosib           255.500
        17   01 Jun 2027 06:33:20.536   01 Jun 2027 06:34:15.166            54.630                Irkutsk          1377.500
        18   01 Jun 2027 06:34:19.835   01 Jun 2027 06:34:41.643            21.808              Murmansk2          2334.500
        19   01 Jun 2027 06:34:55.643   01 Jun 2027 06:36:25.716            90.073                Irkutsk          7000.000
        20   01 Jun 2027 06:36:30.709   01 Jun 2027 06:37:11.084            40.375              Murmansk2          2496.500
        21   01 Jun 2027 06:37:23.940   01 Jun 2027 06:38:44.426            80.486              Murmansk2          4517.500
        22   01 Jun 2027 08:08:58.276   01 Jun 2027 08:09:16.662            18.386                Novosib          2088.500
        23   01 Jun 2027 08:09:24.004   01 Jun 2027 08:10:20.657            56.653                Irkutsk          3671.000
        24   01 Jun 2027 08:10:22.465   01 Jun 2027 08:10:35.075            12.610              Murmansk2           904.000
        25   01 Jun 2027 08:10:40.463   01 Jun 2027 08:10:57.601            17.138              Murmansk1          2142.250
        26   01 Jun 2027 08:10:57.601   01 Jun 2027 08:12:14.243            76.642              Murmansk2           551.750
        27   01 Jun 2027 08:12:16.008   01 Jun 2027 08:12:37.867            21.859                Norilsk           882.500
        28   01 Jun 2027 08:12:42.589   01 Jun 2027 08:13:11.024            28.435              Murmansk1          2361.000
        29   01 Jun 2027 09:44:44.157   01 Jun 2027 09:45:28.258            44.101              Murmansk2          4524.000
        30   01 Jun 2027 09:45:28.780   01 Jun 2027 09:45:43.266            14.486                Novosib           261.000
        31   01 Jun 2027 09:45:56.217   01 Jun 2027 09:47:06.480            70.263                Norilsk          6475.500
        32   01 Jun 2027 09:47:09.437   01 Jun 2027 09:47:41.411            31.974              Murmansk1          1478.500
        33   01 Jun 2027 09:47:45.778   01 Jun 2027 09:48:15.834            30.056                 Moscow          2183.500
        34   01 Jun 2027 09:48:33.629   01 Jun 2027 09:49:29.644            56.015                Novosib          7001.875
        35   01 Jun 2027 09:49:32.953   01 Jun 2027 09:50:13.538            40.585                Norilsk          3550.125
        36   02 Jun 2027 03:30:20.537   02 Jun 2027 03:30:31.115            10.578               Magadan2           302.500
        37   02 Jun 2027 03:31:33.310   02 Jun 2027 03:31:49.511            16.201               Magadan2          1915.500
        38   02 Jun 2027 03:31:51.283   02 Jun 2027 03:32:10.949            19.666               Magadan1           886.000
        39   02 Jun 2027 03:32:13.291   02 Jun 2027 03:32:41.332            28.041                Anadyr2          1171.000
        40   02 Jun 2027 03:32:48.932   02 Jun 2027 03:33:39.289            50.357               Magadan2          3800.000
        41   02 Jun 2027 03:33:45.333   02 Jun 2027 03:34:02.305            16.972                Norilsk          2121.500
        42   02 Jun 2027 03:34:03.316   02 Jun 2027 03:34:19.802            16.486               Magadan1          1406.000
        43   02 Jun 2027 03:34:21.454   02 Jun 2027 03:34:32.236            10.782               Magadan1           826.000
        44   02 Jun 2027 03:34:39.091   02 Jun 2027 03:35:16.060            36.969                Anadyr2          3427.500
        45   02 Jun 2027 03:35:17.689   02 Jun 2027 03:35:44.673            26.984                Norilsk           814.500
        46   02 Jun 2027 03:36:06.127   02 Jun 2027 03:36:17.967            11.840                Norilsk          1480.000
        47   02 Jun 2027 03:36:29.557   02 Jun 2027 03:36:43.052            13.495                Irkutsk          1686.875
        48   02 Jun 2027 03:36:47.256   02 Jun 2027 03:37:13.803            26.547                Anadyr2          2581.125
        49   02 Jun 2027 05:06:15.685   02 Jun 2027 05:06:26.378            10.693                Norilsk           125.500
        50   02 Jun 2027 05:06:29.076   02 Jun 2027 05:07:00.999            31.923               Magadan2          1349.000
        51   02 Jun 2027 05:07:24.545   02 Jun 2027 05:08:04.515            39.970                Norilsk          4996.250
        52   02 Jun 2027 05:08:05.258   02 Jun 2027 05:09:13.662            68.404               Magadan2          7148.250
        53   02 Jun 2027 05:09:15.843   02 Jun 2027 05:09:39.971            24.128                Norilsk          1090.500
        54   02 Jun 2027 05:10:03.648   02 Jun 2027 05:11:38.818            95.170                Novosib         11838.500
        55   02 Jun 2027 05:11:48.336   02 Jun 2027 05:12:23.217            34.881                Norilsk          4360.125
        56   02 Jun 2027 05:12:30.294   02 Jun 2027 05:13:06.085            35.791               Magadan2          3937.375
        57   02 Jun 2027 05:13:19.017   02 Jun 2027 05:15:06.798           107.781              Murmansk2          6466.000
        58   02 Jun 2027 06:43:38.345   02 Jun 2027 06:45:12.937            94.592                Norilsk         11785.500
        59   02 Jun 2027 06:45:21.692   02 Jun 2027 06:46:20.459            58.767                Irkutsk          4377.500
        60   02 Jun 2027 06:46:28.870   02 Jun 2027 06:47:10.347            41.477              Murmansk2          4205.500
        61   02 Jun 2027 06:47:13.683   02 Jun 2027 06:47:19.788             6.105                Norilsk           763.125
        62   02 Jun 2027 06:47:24.594   02 Jun 2027 06:48:08.479            43.885                Irkutsk          3307.875
        63   02 Jun 2027 06:48:10.726   02 Jun 2027 06:48:21.980            11.254                Novosib          1123.500
        64   02 Jun 2027 06:48:22.759   02 Jun 2027 06:49:08.511            45.752              Murmansk1           389.500
        65   02 Jun 2027 06:49:18.309   02 Jun 2027 06:50:37.788            79.479              Murmansk1          4899.000
        66   02 Jun 2027 08:21:28.152   02 Jun 2027 08:22:22.708            54.556                Norilsk          6180.000
        67   02 Jun 2027 08:22:23.301   02 Jun 2027 08:22:30.749             7.448              Murmansk2           296.500
        68   02 Jun 2027 08:22:46.137   02 Jun 2027 08:23:39.138            53.001                Irkutsk          6625.125
        69   02 Jun 2027 08:23:54.667   02 Jun 2027 08:25:07.926            73.259                Novosib          8833.375
        70   02 Jun 2027 08:25:12.569   02 Jun 2027 08:25:58.514            45.945              Murmansk1          2257.000
        71   02 Jun 2027 09:54:41.369   02 Jun 2027 09:55:13.774            32.405                 Moscow          4050.625
        72   02 Jun 2027 09:55:23.330   02 Jun 2027 09:56:15.642            52.312              Murmansk2          5855.875
        73   02 Jun 2027 09:56:28.876   02 Jun 2027 09:57:42.215            73.339                 Moscow          6617.000
        74   02 Jun 2027 09:57:45.089   02 Jun 2027 09:58:10.367            25.278                 Moscow          1437.000
        75   02 Jun 2027 09:58:18.277   02 Jun 2027 09:59:16.127            57.850                Novosib          3955.000
        76   02 Jun 2027 09:59:28.712   02 Jun 2027 10:00:41.936            73.224              Murmansk1          6292.500
        77   02 Jun 2027 10:00:47.736   02 Jun 2027 10:00:53.046             5.310                Novosib           663.750
        78   02 Jun 2027 10:00:54.813   02 Jun 2027 10:01:46.340            51.527                Norilsk          3119.750
        79   02 Jun 2027 10:01:54.791   02 Jun 2027 10:02:51.730            56.939                Norilsk          4225.500
        80   03 Jun 2027 03:41:22.903   03 Jun 2027 03:42:18.278            55.375               Magadan1          5056.500
        81   03 Jun 2027 03:42:25.243   03 Jun 2027 03:43:04.611            39.368               Magadan1          3482.500
        82   03 Jun 2027 03:43:21.517   03 Jun 2027 03:44:30.692            69.175                Anadyr2          4283.000
        83   03 Jun 2027 03:44:36.820   03 Jun 2027 03:46:19.139           102.319                Irkutsk          3064.000
        84   03 Jun 2027 03:46:22.718   03 Jun 2027 03:46:47.261            24.543                Norilsk          1789.500
        85   03 Jun 2027 03:46:47.412   03 Jun 2027 03:47:03.229            15.817                Novosib            75.500
        86   03 Jun 2027 03:47:03.282   03 Jun 2027 03:47:12.296             9.014                Anadyr2            26.500
        87   03 Jun 2027 03:47:14.067   03 Jun 2027 03:47:25.243            11.176                Norilsk           885.500
        88   03 Jun 2027 03:47:39.097   03 Jun 2027 03:48:42.146            63.049               Magadan1          6927.000
        89   03 Jun 2027 03:49:32.214   03 Jun 2027 03:49:42.594            10.380                Anadyr2          1297.500
        90   03 Jun 2027 03:49:43.896   03 Jun 2027 03:50:48.585            64.689                Norilsk          2461.000
        91   03 Jun 2027 05:18:23.522   03 Jun 2027 05:18:29.087             5.565               Magadan1           308.500
        92   03 Jun 2027 05:18:37.957   03 Jun 2027 05:19:31.065            53.108               Magadan2          4435.000
        93   03 Jun 2027 05:19:50.490   03 Jun 2027 05:21:58.377           127.887               Magadan2          9712.500
        94   03 Jun 2027 05:22:03.638   03 Jun 2027 05:22:25.582            21.944                Norilsk          2630.500
        95   03 Jun 2027 05:22:27.759   03 Jun 2027 05:22:54.019            26.260                Norilsk          1088.500
        96   03 Jun 2027 05:22:54.919   03 Jun 2027 05:24:17.707            82.788                Irkutsk           450.000
        97   03 Jun 2027 05:24:26.609   03 Jun 2027 05:24:50.570            23.961               Magadan2          2995.125
        98   03 Jun 2027 05:24:57.529   03 Jun 2027 05:25:41.721            44.192              Murmansk2          4935.375
        99   03 Jun 2027 05:25:42.637   03 Jun 2027 05:25:44.440             1.803                Norilsk           225.375
       100   03 Jun 2027 05:25:49.663   03 Jun 2027 05:26:53.901            64.238              Murmansk2          2508.625
       101   03 Jun 2027 06:55:34.517   03 Jun 2027 06:57:21.946           107.429                Irkutsk          7106.500
       102   03 Jun 2027 06:57:40.051   03 Jun 2027 06:58:49.925            69.874                Novosib          8734.250
       103   03 Jun 2027 06:58:58.355   03 Jun 2027 06:59:28.628            30.273                Norilsk          3784.125
       104   03 Jun 2027 06:59:30.129   03 Jun 2027 06:59:44.010            13.881              Murmansk1          1499.625
       105   03 Jun 2027 06:59:44.681   03 Jun 2027 07:00:37.239            52.558                Irkutsk           335.500
       106   03 Jun 2027 07:01:05.358   03 Jun 2027 07:03:10.414           125.056              Murmansk2         14059.500
       107   03 Jun 2027 08:33:13.723   03 Jun 2027 08:33:18.321             4.598                Norilsk           188.000
       108   03 Jun 2027 08:33:27.778   03 Jun 2027 08:35:40.570           132.792                 Moscow          4728.500
       109   03 Jun 2027 08:35:43.047   03 Jun 2027 08:35:54.222            11.175                 Moscow          1238.500
       110   03 Jun 2027 08:35:57.397   03 Jun 2027 08:36:29.657            32.260                Novosib          1587.500
       111   03 Jun 2027 08:36:34.725   03 Jun 2027 08:37:22.140            47.415                 Moscow          2534.000
       112   03 Jun 2027 10:07:03.753   03 Jun 2027 10:07:16.172            12.419                 Moscow          1552.375
       113   03 Jun 2027 10:07:24.016   03 Jun 2027 10:09:21.002           116.986              Murmansk1         13939.625
       114   03 Jun 2027 10:09:25.704   03 Jun 2027 10:09:45.584            19.880                Novosib          2351.000
       115   03 Jun 2027 10:10:08.285   03 Jun 2027 10:11:35.663            87.378                Novosib         10922.250
       116   03 Jun 2027 10:11:35.847   03 Jun 2027 10:11:41.259             5.412              Murmansk2           520.250
       117   03 Jun 2027 10:11:46.789   03 Jun 2027 10:12:56.704            69.915                Norilsk          2765.000
       118   03 Jun 2027 10:13:04.789   03 Jun 2027 10:13:50.136            45.347                Norilsk          4042.500
       119   03 Jun 2027 10:13:51.984   03 Jun 2027 10:14:10.655            18.671                 Moscow           924.000
       120   03 Jun 2027 10:14:12.606   03 Jun 2027 10:14:21.254             8.648              Murmansk2           975.500
       121   04 Jun 2027 03:52:49.325   04 Jun 2027 03:53:24.404            35.079               Magadan1          3853.000
       122   04 Jun 2027 03:53:24.936   04 Jun 2027 03:53:29.060             4.124                Irkutsk           266.000
       123   04 Jun 2027 03:54:20.246   04 Jun 2027 03:57:59.160           218.914               Magadan2         25593.000
       124   04 Jun 2027 03:58:08.279   04 Jun 2027 03:58:48.212            39.933               Magadan1          4559.500
       125   04 Jun 2027 03:58:49.607   04 Jun 2027 03:59:36.945            47.338               Magadan2           697.500
       126   04 Jun 2027 03:59:40.502   04 Jun 2027 04:00:09.701            29.199               Magadan2          1778.500
       127   04 Jun 2027 04:00:10.371   04 Jun 2027 04:00:14.788             4.417               Magadan2           335.000
       128   04 Jun 2027 04:00:38.520   04 Jun 2027 04:01:30.850            52.330                Anadyr1          6541.250
       129   04 Jun 2027 04:01:33.745   04 Jun 2027 04:01:57.863            24.118               Magadan1          2963.250
       130   04 Jun 2027 05:30:26.548   04 Jun 2027 05:30:38.426            11.878               Magadan1          1181.500
       131   04 Jun 2027 05:30:39.437   04 Jun 2027 05:31:01.823            22.386                Norilsk           505.500
       132   04 Jun 2027 05:31:12.290   04 Jun 2027 05:32:08.937            56.647                Irkutsk          5233.500
       133   04 Jun 2027 05:32:10.869   04 Jun 2027 05:32:49.132            38.263                Irkutsk           966.000
       134   04 Jun 2027 05:32:49.468   04 Jun 2027 05:32:54.111             4.643                Norilsk           168.000
       135   04 Jun 2027 05:32:57.261   04 Jun 2027 05:33:12.158            14.897               Magadan2          1575.000
       136   04 Jun 2027 05:33:17.847   04 Jun 2027 05:33:25.469             7.622                Irkutsk           952.750
       137   04 Jun 2027 05:33:26.024   04 Jun 2027 05:34:15.314            49.290               Magadan1          2169.250
       138   04 Jun 2027 05:34:16.351   04 Jun 2027 05:34:24.998             8.647                Norilsk           518.500
       139   04 Jun 2027 05:34:25.143   04 Jun 2027 05:34:29.120             3.977                Novosib            72.500
       140   04 Jun 2027 05:34:36.434   04 Jun 2027 05:35:15.655            39.221                Norilsk          3657.000
       141   04 Jun 2027 05:35:33.062   04 Jun 2027 05:36:28.079            55.017                Norilsk          6877.125
       142   04 Jun 2027 05:36:36.157   04 Jun 2027 05:36:55.196            19.039              Murmansk2          2379.875
       143   04 Jun 2027 05:36:55.196   04 Jun 2027 05:37:09.283            14.087              Murmansk1          1760.875
       144   04 Jun 2027 05:37:19.281   04 Jun 2027 05:37:51.697            32.416                Irkutsk          4052.000
       145   04 Jun 2027 05:37:58.068   04 Jun 2027 05:38:38.183            40.115                Novosib          2671.625
       146   04 Jun 2027 07:07:25.555   04 Jun 2027 07:08:20.300            54.745                Irkutsk          6594.000
       147   04 Jun 2027 07:08:31.915   04 Jun 2027 07:09:05.322            33.407                Norilsk          4175.875
       148   04 Jun 2027 07:09:10.661   04 Jun 2027 07:10:16.430            65.769                Novosib          4301.125
       149   04 Jun 2027 07:10:28.708   04 Jun 2027 07:11:24.183            55.475                Irkutsk          6139.000
       150   04 Jun 2027 07:11:25.647   04 Jun 2027 07:11:28.986             3.339              Murmansk1           417.375
       151   04 Jun 2027 07:11:28.986   04 Jun 2027 07:11:52.738            23.752              Murmansk2           314.625
       152   04 Jun 2027 07:11:55.962   04 Jun 2027 07:12:10.031            14.069              Murmansk2          1612.000
       153   04 Jun 2027 07:12:16.774   04 Jun 2027 07:12:53.755            36.981                Irkutsk          3371.500
       154   04 Jun 2027 07:13:00.492   04 Jun 2027 07:13:54.461            53.969              Murmansk2          3368.500
       155   04 Jun 2027 07:14:13.910   04 Jun 2027 07:14:21.435             7.525              Murmansk2           358.500
       156   04 Jun 2027 08:45:18.582   04 Jun 2027 08:45:47.861            29.279                Novosib          2262.000
       157   04 Jun 2027 08:45:52.704   04 Jun 2027 08:46:13.494            20.790              Murmansk2          2421.500
       158   04 Jun 2027 08:46:25.559   04 Jun 2027 08:47:50.072            84.513              Murmansk1          6032.500
       159   04 Jun 2027 08:47:54.761   04 Jun 2027 08:48:20.779            26.018                Novosib          2344.500
       160   04 Jun 2027 08:48:33.158   04 Jun 2027 08:49:32.292            59.134              Murmansk2          6189.500
       161   04 Jun 2027 10:19:18.040   04 Jun 2027 10:20:41.756            83.716                 Moscow          5654.000
       162   04 Jun 2027 10:20:45.447   04 Jun 2027 10:21:06.068            20.621                 Moscow          1845.500
       163   04 Jun 2027 10:21:18.271   04 Jun 2027 10:22:21.578            63.307              Murmansk2          6101.500
       164   04 Jun 2027 10:22:21.647   04 Jun 2027 10:22:23.486             1.839              Murmansk1            34.500
       165   04 Jun 2027 10:22:36.721   04 Jun 2027 10:23:30.437            53.716              Murmansk1          6617.500
       166   04 Jun 2027 10:23:33.101   04 Jun 2027 10:23:44.268            11.167                Norilsk          1332.000
       167   04 Jun 2027 10:23:46.880   04 Jun 2027 10:24:26.668            39.788                 Moscow          1306.000
       168   04 Jun 2027 10:24:37.748   04 Jun 2027 10:25:30.365            52.617              Murmansk1          5540.000
       169   04 Jun 2027 10:25:34.743   04 Jun 2027 10:26:12.706            37.963                 Moscow          2189.000
       170   05 Jun 2027 04:05:25.590   05 Jun 2027 04:06:22.582            56.992               Magadan2           316.500
       171   05 Jun 2027 04:06:33.707   05 Jun 2027 04:07:20.514            46.807               Magadan2          5562.500
       172   05 Jun 2027 04:07:26.248   05 Jun 2027 04:08:01.606            35.358               Magadan1          2867.000
       173   05 Jun 2027 04:08:19.499   05 Jun 2027 04:09:40.256            80.757               Magadan1          8946.500
       174   05 Jun 2027 04:09:45.646   05 Jun 2027 04:10:11.048            25.402               Magadan1          2695.000
       175   05 Jun 2027 04:10:19.237   05 Jun 2027 04:10:58.160            38.923                Norilsk          4094.500
       176   05 Jun 2027 04:10:59.683   05 Jun 2027 04:11:57.496            57.813                Novosib           761.500
       177   05 Jun 2027 04:12:02.479   05 Jun 2027 04:12:44.384            41.905                Novosib          2491.500
       178   05 Jun 2027 04:13:07.177   05 Jun 2027 04:13:13.843             6.666                Anadyr2           833.250
       179   05 Jun 2027 04:13:15.332   05 Jun 2027 04:13:55.371            40.039               Magadan1          5004.875
       180   05 Jun 2027 04:14:02.050   05 Jun 2027 04:14:51.319            49.269              Murmansk1          1450.875
       181   05 Jun 2027 05:42:27.842   05 Jun 2027 05:42:44.484            16.642                Norilsk           200.500
       182   05 Jun 2027 05:42:50.331   05 Jun 2027 05:43:13.678            23.347                Norilsk          2918.375
       183   05 Jun 2027 05:43:19.436   05 Jun 2027 05:43:59.339            39.903                Irkutsk          2884.125
       184   05 Jun 2027 05:44:12.090   05 Jun 2027 05:45:16.686            64.596                Norilsk          6375.500
       185   05 Jun 2027 05:45:22.853   05 Jun 2027 05:45:47.879            25.026                Irkutsk          3083.500
       186   05 Jun 2027 05:45:52.512   05 Jun 2027 05:46:18.138            25.626                Norilsk          2316.500
       187   05 Jun 2027 05:46:25.407   05 Jun 2027 05:46:55.581            30.174               Magadan2          3634.500
       188   05 Jun 2027 05:47:11.613   05 Jun 2027 05:48:20.140            68.527                Norilsk          8016.000
       189   05 Jun 2027 05:48:26.600   05 Jun 2027 05:49:19.190            52.590              Murmansk2          3230.000
       190   05 Jun 2027 05:49:19.273   05 Jun 2027 05:49:35.793            16.520              Murmansk1            41.500
       191   05 Jun 2027 05:49:38.414   05 Jun 2027 05:49:47.461             9.047                Norilsk          1130.875
       192   05 Jun 2027 05:50:00.878   05 Jun 2027 05:50:20.430            19.552              Murmansk2           717.625
       193   05 Jun 2027 07:19:33.541   05 Jun 2027 07:19:56.937            23.396                Norilsk          2924.500
       194   05 Jun 2027 07:20:23.109   05 Jun 2027 07:22:31.689           128.580                Irkutsk         15836.000
       195   05 Jun 2027 07:22:32.031   05 Jun 2027 07:22:36.473             4.442              Murmansk2           171.000
       196   05 Jun 2027 07:22:48.712   05 Jun 2027 07:24:02.496            73.784                Norilsk          6119.500
       197   05 Jun 2027 07:24:04.205   05 Jun 2027 07:25:24.456            80.251                 Moscow           854.500
       198   05 Jun 2027 07:25:35.659   05 Jun 2027 07:26:23.152            47.493                Norilsk          5601.500
       199   05 Jun 2027 08:56:37.534   05 Jun 2027 08:57:14.013            36.479                Norilsk          4515.000
       200   05 Jun 2027 08:57:21.423   05 Jun 2027 08:57:51.262            29.839              Murmansk2          3705.000
       201   05 Jun 2027 08:58:03.842   05 Jun 2027 08:59:04.797            60.955                Norilsk          6290.000
       202   05 Jun 2027 08:59:21.018   05 Jun 2027 09:00:32.173            71.155                Norilsk          8110.500
       203   05 Jun 2027 09:00:39.311   05 Jun 2027 09:01:28.119            48.808              Murmansk2          3569.000
       204   05 Jun 2027 10:31:29.933   05 Jun 2027 10:31:54.137            24.204              Murmansk2          1138.000
       205   05 Jun 2027 10:31:58.572   05 Jun 2027 10:32:28.776            30.204              Murmansk2          2217.500
       206   05 Jun 2027 10:33:16.094   05 Jun 2027 10:33:47.101            31.007              Murmansk1          2709.000
       207   05 Jun 2027 10:34:09.146   05 Jun 2027 10:35:42.276            93.130              Murmansk1         11022.500
       208   05 Jun 2027 10:35:45.726   05 Jun 2027 10:36:29.312            43.586                 Moscow          1725.000
       209   05 Jun 2027 10:36:37.740   05 Jun 2027 10:36:46.517             8.777              Murmansk1           611.000
       210   06 Jun 2027 04:17:26.416   06 Jun 2027 04:17:55.020            28.604               Magadan2          2570.000
       211   06 Jun 2027 04:18:12.476   06 Jun 2027 04:19:32.004            79.528               Magadan2          8728.000
       212   06 Jun 2027 04:19:50.484   06 Jun 2027 04:21:22.938            92.454                Irkutsk          9240.000
       213   06 Jun 2027 04:21:24.961   06 Jun 2027 04:21:44.830            19.869                Anadyr2          1011.500
       214   06 Jun 2027 04:21:45.143   06 Jun 2027 04:21:58.622            13.479                Anadyr2           156.500
       215   06 Jun 2027 04:22:09.641   06 Jun 2027 04:23:52.999           103.358                Novosib          5509.500
       216   06 Jun 2027 04:24:02.283   06 Jun 2027 04:24:48.786            46.503               Magadan2          4642.000
       217   06 Jun 2027 04:25:00.359   06 Jun 2027 04:25:47.737            47.378                Norilsk          5786.500
       218   06 Jun 2027 04:25:57.696   06 Jun 2027 04:26:28.093            30.397                Norilsk          2973.000
       219   06 Jun 2027 05:55:03.158   06 Jun 2027 05:55:20.615            17.457                Novosib          2182.125
       220   06 Jun 2027 05:55:27.620   06 Jun 2027 05:55:33.126             5.506                Norilsk           688.250
       221   06 Jun 2027 05:55:46.597   06 Jun 2027 05:57:27.085           100.488                Irkutsk         12214.125
       222   06 Jun 2027 05:57:38.993   06 Jun 2027 05:58:17.202            38.209                Norilsk          4776.125
       223   06 Jun 2027 05:58:20.505   06 Jun 2027 05:58:28.875             8.370               Magadan2          1046.250
       224   06 Jun 2027 05:58:29.055   06 Jun 2027 05:59:00.092            31.037                Norilsk          1873.125
       225   06 Jun 2027 05:59:06.922   06 Jun 2027 05:59:52.583            45.661                Norilsk          3415.000
       226   06 Jun 2027 05:59:57.664   06 Jun 2027 06:00:43.127            45.463              Murmansk2          2540.500
       227   06 Jun 2027 06:00:48.823   06 Jun 2027 06:01:13.706            24.883                Norilsk          2848.000
       228   06 Jun 2027 06:01:14.531   06 Jun 2027 06:01:23.844             9.313              Murmansk1           412.500
       229   06 Jun 2027 06:01:25.351   06 Jun 2027 06:01:40.332            14.981                Norilsk           753.500
       230   06 Jun 2027 07:31:51.216   06 Jun 2027 07:32:10.841            19.625                  Delhi           865.000
       231   06 Jun 2027 07:32:28.988   06 Jun 2027 07:33:35.455            66.467                Norilsk          8308.375
       232   06 Jun 2027 07:33:38.279   06 Jun 2027 07:34:10.078            31.799              Murmansk2          2177.125
       233   06 Jun 2027 07:34:14.594   06 Jun 2027 07:34:56.852            42.258                Novosib          2258.000
       234   06 Jun 2027 07:34:58.947   06 Jun 2027 07:35:29.063            30.116                 Moscow          1047.500
       235   06 Jun 2027 07:35:33.726   06 Jun 2027 07:35:52.427            18.701                 Moscow          2331.500
       236   06 Jun 2027 07:35:53.846   06 Jun 2027 07:36:07.928            14.082                Novosib           709.500
       237   06 Jun 2027 07:36:12.243   06 Jun 2027 07:37:06.101            53.858                Norilsk          2157.500
       238   06 Jun 2027 07:37:07.107   06 Jun 2027 07:37:14.873             7.766                Irkutsk           503.000
       239   06 Jun 2027 07:37:17.983   06 Jun 2027 07:37:36.041            18.058                Norilsk          1555.000
       240   06 Jun 2027 07:37:55.545   06 Jun 2027 07:38:01.566             6.021              Murmansk1           511.500
       241   06 Jun 2027 09:08:44.387   06 Jun 2027 09:09:28.997            44.610                Novosib          2030.500
       242   06 Jun 2027 09:09:35.339   06 Jun 2027 09:09:59.243            23.904              Murmansk2          2988.000
       243   06 Jun 2027 09:09:59.243   06 Jun 2027 09:10:28.394            29.151              Murmansk1           183.000
       244   06 Jun 2027 09:10:31.609   06 Jun 2027 09:10:55.463            23.854              Murmansk1          1607.500
       245   06 Jun 2027 09:11:08.427   06 Jun 2027 09:12:02.389            53.962                Novosib          6482.000
       246   06 Jun 2027 09:12:05.281   06 Jun 2027 09:12:29.474            24.193              Murmansk1          1446.000
       247   06 Jun 2027 09:12:30.703   06 Jun 2027 09:12:32.097             1.394                Norilsk           174.250
       248   06 Jun 2027 09:12:37.299   06 Jun 2027 09:13:03.964            26.665                Norilsk          3041.250
       249   06 Jun 2027 09:13:14.997   06 Jun 2027 09:13:39.717            24.720                Novosib          3090.000
       250   06 Jun 2027 09:13:39.743   06 Jun 2027 09:14:24.647            44.904                Norilsk          1202.000
       251   06 Jun 2027 10:46:18.759   06 Jun 2027 10:46:50.133            31.374              Murmansk2          2546.000
       252   06 Jun 2027 10:47:02.218   06 Jun 2027 10:48:15.295            73.077                 Moscow          6042.500
       253   06 Jun 2027 10:48:20.529   06 Jun 2027 10:48:31.447            10.918                 Moscow          1109.500
       254   07 Jun 2027 04:30:11.756   07 Jun 2027 04:30:27.572            15.816                Irkutsk          1977.000
       255   07 Jun 2027 04:30:27.980   07 Jun 2027 04:31:11.589            43.609               Magadan1          3679.500
       256   07 Jun 2027 04:31:25.416   07 Jun 2027 04:33:14.454           109.038                Novosib          6913.500
       257   07 Jun 2027 04:33:18.824   07 Jun 2027 04:33:38.116            19.292               Magadan2          2185.000
       258   07 Jun 2027 04:33:55.129   07 Jun 2027 04:35:16.038            80.909                Norilsk          8506.500
       259   07 Jun 2027 04:35:19.931   07 Jun 2027 04:36:03.826            43.895                Irkutsk          1946.500
       260   07 Jun 2027 04:36:14.449   07 Jun 2027 04:37:05.762            51.313                Novosib          5311.500
       261   07 Jun 2027 04:37:06.456   07 Jun 2027 04:37:47.008            40.552               Magadan2           347.000
       262   07 Jun 2027 04:37:47.459   07 Jun 2027 04:38:05.682            18.223              Murmansk2           225.500
       263   07 Jun 2027 06:07:13.680   07 Jun 2027 06:08:13.728            60.048                Novosib          7160.000
       264   07 Jun 2027 06:08:46.048   07 Jun 2027 06:11:01.588           135.540                Irkutsk         16160.000
       265   07 Jun 2027 06:11:01.864   07 Jun 2027 06:11:22.739            20.875              Murmansk1           138.000
       266   07 Jun 2027 06:11:34.830   07 Jun 2027 06:12:35.471            60.641              Murmansk2          6045.500
       267   07 Jun 2027 06:12:37.365   07 Jun 2027 06:13:01.898            24.533                Norilsk           947.000
       268   07 Jun 2027 06:13:02.869   07 Jun 2027 06:13:56.788            53.919                Irkutsk           485.500
       269   07 Jun 2027 07:44:41.789   07 Jun 2027 07:44:48.955             7.166                Norilsk           895.750
       270   07 Jun 2027 07:44:50.259   07 Jun 2027 07:45:47.886            57.627                 Moscow          1651.750
       271   07 Jun 2027 07:45:56.723   07 Jun 2027 07:46:35.317            38.594                Irkutsk          4418.500
       272   07 Jun 2027 07:46:36.237   07 Jun 2027 07:46:51.839            15.602              Murmansk1           460.000
       273   07 Jun 2027 07:47:00.353   07 Jun 2027 07:47:44.326            43.973                Norilsk          4257.000
       274   07 Jun 2027 07:47:44.681   07 Jun 2027 07:47:59.655            14.974                Irkutsk           177.500
       275   07 Jun 2027 07:47:59.953   07 Jun 2027 07:48:01.895             1.942              Murmansk2           149.000
       276   07 Jun 2027 07:48:11.386   07 Jun 2027 07:49:16.972            65.586                Norilsk          4745.500
       277   07 Jun 2027 09:20:46.143   07 Jun 2027 09:20:57.172            11.029                 Moscow          1311.500
       278   07 Jun 2027 09:20:59.387   07 Jun 2027 09:21:25.093            25.706              Murmansk2          1107.500
       279   07 Jun 2027 09:21:33.434   07 Jun 2027 09:22:27.923            54.489                Novosib          4170.500
       280   07 Jun 2027 09:22:29.362   07 Jun 2027 09:22:36.100             6.738                Novosib           719.500
       281   07 Jun 2027 09:22:43.428   07 Jun 2027 09:22:50.041             6.613                 Moscow           826.625
       282   07 Jun 2027 09:22:50.585   07 Jun 2027 09:23:22.282            31.697                Norilsk          3109.375
       283   07 Jun 2027 09:23:24.630   07 Jun 2027 09:23:54.955            30.325                Norilsk          1174.000
       284   07 Jun 2027 09:23:55.198   07 Jun 2027 09:23:57.713             2.515              Murmansk2           121.500
       285   07 Jun 2027 09:24:02.830   07 Jun 2027 09:24:30.943            28.113                Novosib          2558.500
       286   07 Jun 2027 09:24:42.001   07 Jun 2027 09:25:37.890            55.889                Norilsk          5529.000
       287   07 Jun 2027 10:59:38.183   07 Jun 2027 11:00:33.038            54.855                 Moscow          1578.500
       288   08 Jun 2027 03:08:07.117   08 Jun 2027 03:08:27.966            20.849                Irkutsk          1863.000
       289   08 Jun 2027 03:08:31.363   08 Jun 2027 03:08:54.628            23.265               Magadan2          1698.500
       290   08 Jun 2027 03:09:00.322   08 Jun 2027 03:09:46.174            45.852               Magadan2          2847.000
       291   08 Jun 2027 03:09:50.850   08 Jun 2027 03:10:40.186            49.336                Norilsk          2338.000
       292   08 Jun 2027 03:10:51.437   08 Jun 2027 03:11:14.130            22.693                Norilsk          2836.625
       293   08 Jun 2027 03:11:16.300   08 Jun 2027 03:11:49.208            32.908                Anadyr1          3873.875
       294   08 Jun 2027 04:43:16.599   08 Jun 2027 04:44:01.420            44.821                Norilsk          1572.000
       295   08 Jun 2027 04:44:03.691   08 Jun 2027 04:44:27.741            24.050               Magadan2          1135.500
       296   08 Jun 2027 04:44:32.440   08 Jun 2027 04:44:57.759            25.319               Magadan1          2349.500
       297   08 Jun 2027 04:45:03.313   08 Jun 2027 04:46:18.993            75.680                Irkutsk          2777.000
       298   08 Jun 2027 04:46:19.864   08 Jun 2027 04:46:34.186            14.322               Magadan2           435.500
       299   08 Jun 2027 04:46:39.743   08 Jun 2027 04:47:52.407            72.664                Novosib          2778.500
       300   08 Jun 2027 04:47:54.129   08 Jun 2027 04:48:21.382            27.253                Novosib           861.000
       301   08 Jun 2027 04:48:24.662   08 Jun 2027 04:48:39.551            14.889               Magadan2          1640.000
       302   08 Jun 2027 04:48:46.647   08 Jun 2027 04:49:21.104            34.457               Magadan1          3548.000
       303   08 Jun 2027 04:49:35.127   08 Jun 2027 04:50:40.704            65.577              Murmansk1          7011.500
       304   08 Jun 2027 06:19:46.454   08 Jun 2027 06:19:59.181            12.727                Norilsk          1590.875
       305   08 Jun 2027 06:20:13.771   08 Jun 2027 06:22:15.697           121.926                Norilsk         11198.625
       306   08 Jun 2027 06:22:16.462   08 Jun 2027 06:22:36.606            20.144                Norilsk           382.500
       307   08 Jun 2027 06:22:45.333   08 Jun 2027 06:23:56.586            71.253                Irkutsk          4363.500
       308   08 Jun 2027 06:23:57.451   08 Jun 2027 06:24:26.008            28.557                Norilsk           432.500
       309   08 Jun 2027 06:24:26.841   08 Jun 2027 06:24:54.277            27.436              Murmansk2           416.500
       310   08 Jun 2027 06:24:56.384   08 Jun 2027 06:25:19.326            22.942                Norilsk          1053.500
       311   08 Jun 2027 06:25:28.735   08 Jun 2027 06:26:06.518            37.783              Murmansk1          4704.500
       312   08 Jun 2027 07:57:05.553   08 Jun 2027 07:58:02.546            56.993                Novosib          5925.000
       313   08 Jun 2027 07:58:06.100   08 Jun 2027 07:58:23.381            17.281                Norilsk          1777.000
       314   08 Jun 2027 07:58:23.985   08 Jun 2027 07:58:36.544            12.559              Murmansk2           302.000
       315   08 Jun 2027 07:58:36.576   08 Jun 2027 07:58:39.019             2.443              Murmansk2            16.000
       316   08 Jun 2027 07:58:41.104   08 Jun 2027 07:59:14.918            33.814                 Moscow          1042.500
       317   08 Jun 2027 07:59:24.656   08 Jun 2027 08:00:11.858            47.202                Norilsk          4869.000
       318   08 Jun 2027 08:00:14.809   08 Jun 2027 08:00:46.843            32.034                Irkutsk          1475.500
       319   08 Jun 2027 08:00:47.660   08 Jun 2027 08:01:06.764            19.104              Murmansk2           408.500
       320   08 Jun 2027 08:01:09.123   08 Jun 2027 08:01:16.210             7.087                Novosib           885.875
       321   08 Jun 2027 08:01:16.369   08 Jun 2027 08:01:30.578            14.209                Norilsk           373.125
       322   08 Jun 2027 09:33:11.954   08 Jun 2027 09:34:30.584            78.630                 Moscow          3254.000
       323   08 Jun 2027 09:34:31.602   08 Jun 2027 09:34:56.754            25.152              Murmansk1           509.000
       324   08 Jun 2027 09:35:02.922   08 Jun 2027 09:35:36.208            33.286                 Moscow          3084.000
       325   08 Jun 2027 09:35:43.053   08 Jun 2027 09:36:06.545            23.492              Murmansk1          2936.500
       326   08 Jun 2027 09:36:11.963   08 Jun 2027 09:37:05.821            53.858              Murmansk1          3195.000
       327   08 Jun 2027 09:37:06.845   08 Jun 2027 09:37:22.179            15.334                Norilsk           512.000
       328   08 Jun 2027 09:37:32.670   08 Jun 2027 09:38:42.627            69.957              Murmansk2          5245.500
       329   09 Jun 2027 03:20:04.531   09 Jun 2027 03:20:23.742            19.211               Magadan2          2401.375
       330   09 Jun 2027 03:20:30.028   09 Jun 2027 03:21:24.237            54.209                Anadyr2          3830.125
       331   09 Jun 2027 03:21:28.953   09 Jun 2027 03:22:01.961            33.008                Anadyr1          2358.000
       332   09 Jun 2027 03:22:17.414   09 Jun 2027 03:23:06.323            48.909               Magadan2          6113.625
       333   09 Jun 2027 03:23:10.155   09 Jun 2027 03:23:22.406            12.251               Magadan2          1531.375
       334   09 Jun 2027 03:23:30.242   09 Jun 2027 03:24:49.789            79.547                Anadyr1          5915.500
       335   09 Jun 2027 04:55:03.239   09 Jun 2027 04:55:44.120            40.881               Magadan2          3677.500
       336   09 Jun 2027 04:55:44.300   09 Jun 2027 04:55:53.614             9.314               Magadan1            90.000
       337   09 Jun 2027 04:55:57.964   09 Jun 2027 04:56:24.632            26.668                Novosib          2175.000
       338   09 Jun 2027 04:56:30.280   09 Jun 2027 04:57:12.975            42.695               Magadan2          2824.000
       339   09 Jun 2027 04:57:16.888   09 Jun 2027 04:57:57.282            40.394                Norilsk          1956.500
       340   09 Jun 2027 04:58:09.220   09 Jun 2027 04:58:19.550            10.330                Novosib          1291.250
       341   09 Jun 2027 04:58:22.015   09 Jun 2027 04:59:28.088            66.073                Irkutsk          5910.250
       342   09 Jun 2027 04:59:28.936   09 Jun 2027 04:59:41.183            12.247                Norilsk           424.000
       343   09 Jun 2027 04:59:45.753   09 Jun 2027 05:00:13.951            28.198               Magadan2          2285.000
       344   09 Jun 2027 05:00:17.751   09 Jun 2027 05:00:34.477            16.726                Irkutsk          1900.000
       345   09 Jun 2027 05:00:38.186   09 Jun 2027 05:01:06.986            28.800               Magadan1          1854.500
       346   09 Jun 2027 05:01:14.282   09 Jun 2027 05:02:09.772            55.490              Murmansk2          3648.000
       347   09 Jun 2027 06:31:11.272   09 Jun 2027 06:31:45.131            33.859                Novosib          1511.500
       348   09 Jun 2027 06:31:56.068   09 Jun 2027 06:32:57.716            61.648                Norilsk          5468.500
       349   09 Jun 2027 06:32:58.621   09 Jun 2027 06:33:11.046            12.425                Norilsk           452.500
       350   09 Jun 2027 06:33:21.163   09 Jun 2027 06:34:10.024            48.861                Norilsk          5058.500
       351   09 Jun 2027 06:34:16.590   09 Jun 2027 06:34:43.274            26.684                Norilsk          3283.000
       352   09 Jun 2027 06:34:48.821   09 Jun 2027 06:35:12.651            23.830                Norilsk          2773.500
       353   09 Jun 2027 06:35:29.471   09 Jun 2027 06:36:40.223            70.752                Irkutsk          8410.000
       354   09 Jun 2027 06:36:44.798   09 Jun 2027 06:37:15.402            30.604                Norilsk          2287.500
       355   09 Jun 2027 06:37:26.679   09 Jun 2027 06:39:00.645            93.966              Murmansk2          5638.500
       356   09 Jun 2027 08:09:14.000   09 Jun 2027 08:10:03.947            49.947                Novosib          2413.000
       357   09 Jun 2027 08:10:11.116   09 Jun 2027 08:10:45.735            34.619                Norilsk          3584.500
       358   09 Jun 2027 08:10:52.070   09 Jun 2027 08:11:48.033            55.963                 Moscow          3167.500
       359   09 Jun 2027 08:11:53.656   09 Jun 2027 08:12:16.748            23.092                Irkutsk          2811.500
       360   09 Jun 2027 08:12:24.742   09 Jun 2027 08:12:58.913            34.171                Norilsk          3997.000
       361   09 Jun 2027 08:12:59.402   09 Jun 2027 08:13:26.884            27.482              Murmansk1           244.500
       362   09 Jun 2027 09:44:59.586   09 Jun 2027 09:45:43.363            43.777              Murmansk2          5102.000
       363   09 Jun 2027 09:45:43.867   09 Jun 2027 09:45:46.632             2.765                Novosib           252.000
       364   09 Jun 2027 09:45:48.161   09 Jun 2027 09:45:56.457             8.296                Norilsk           764.500
       365   09 Jun 2027 09:45:58.378   09 Jun 2027 09:46:20.543            22.165                Novosib           960.500
       366   09 Jun 2027 09:46:20.839   09 Jun 2027 09:47:08.467            47.628                Novosib           148.000
       367   09 Jun 2027 09:47:16.242   09 Jun 2027 09:47:48.186            31.944              Murmansk1          3887.500
       368   09 Jun 2027 09:47:48.822   09 Jun 2027 09:48:10.969            22.147                Norilsk           318.000
       369   09 Jun 2027 09:48:30.538   09 Jun 2027 09:49:57.219            86.681                 Moscow          9784.500
       370   09 Jun 2027 09:50:03.048   09 Jun 2027 09:50:29.868            26.820              Murmansk2          2914.500
       371   10 Jun 2027 03:30:35.225   10 Jun 2027 03:30:45.668            10.443               Magadan2           431.500
       372   10 Jun 2027 03:31:47.824   10 Jun 2027 03:32:04.192            16.368               Magadan1          1877.500
       373   10 Jun 2027 03:32:07.235   10 Jun 2027 03:32:26.504            19.269               Magadan1          1521.500
       374   10 Jun 2027 03:32:27.711   10 Jun 2027 03:32:56.820            29.109                Anadyr2           603.500
       375   10 Jun 2027 03:33:03.537   10 Jun 2027 03:33:53.944            50.407               Magadan2          3358.500
       376   10 Jun 2027 03:33:59.942   10 Jun 2027 03:34:55.138            55.196                Anadyr2          2999.000
       377   10 Jun 2027 03:34:57.285   10 Jun 2027 03:35:21.048            23.763               Magadan2          1073.500
       378   10 Jun 2027 03:35:31.580   10 Jun 2027 03:36:51.191            79.611                Anadyr2          5266.000
       379   10 Jun 2027 05:06:30.230   10 Jun 2027 05:06:41.154            10.924                Norilsk           304.000
       380   10 Jun 2027 05:06:46.806   10 Jun 2027 05:07:15.180            28.374               Magadan1          2826.000
       381   10 Jun 2027 05:07:40.685   10 Jun 2027 05:09:30.460           109.775                Norilsk         12752.500
       382   10 Jun 2027 05:09:57.923   10 Jun 2027 05:12:02.870           124.947                Norilsk         13731.500
       383   10 Jun 2027 05:12:03.573   10 Jun 2027 05:12:19.894            16.321                Novosib           351.500
       384   10 Jun 2027 05:12:21.215   10 Jun 2027 05:12:37.726            16.511                Novosib           660.500
       385   10 Jun 2027 05:12:45.304   10 Jun 2027 05:13:20.539            35.235               Magadan2          3789.000
       386   10 Jun 2027 05:13:37.658   10 Jun 2027 05:13:59.097            21.439                Irkutsk          2679.875
       387   10 Jun 2027 05:14:03.470   10 Jun 2027 05:15:07.878            64.408                Novosib          7786.125
       388   10 Jun 2027 06:43:53.499   10 Jun 2027 06:45:30.523            97.024                Norilsk         11995.500
       389   10 Jun 2027 06:45:36.344   10 Jun 2027 06:46:35.390            59.046                Irkutsk          2910.500
       390   10 Jun 2027 06:46:41.423   10 Jun 2027 06:47:12.163            30.740                Norilsk          3016.500
       391   10 Jun 2027 06:47:17.369   10 Jun 2027 06:47:40.081            22.712                Irkutsk          2603.000
       392   10 Jun 2027 06:47:41.578   10 Jun 2027 06:48:22.913            41.335                Irkutsk           748.500
       393   10 Jun 2027 06:48:25.268   10 Jun 2027 06:48:32.442             7.174                Novosib           896.750
       394   10 Jun 2027 06:48:32.461   10 Jun 2027 06:49:42.469            70.008                Irkutsk           290.250
       395   10 Jun 2027 08:21:45.143   10 Jun 2027 08:23:31.505           106.362                Norilsk          7267.500
       396   10 Jun 2027 08:23:35.683   10 Jun 2027 08:23:53.281            17.598                Irkutsk          2089.000
       397   10 Jun 2027 08:24:06.317   10 Jun 2027 08:24:51.045            44.728              Murmansk2          5591.000
       398   10 Jun 2027 08:24:51.045   10 Jun 2027 08:25:14.454            23.409              Murmansk1           927.000
       399   10 Jun 2027 08:25:16.233   10 Jun 2027 08:25:30.256            14.023                Norilsk           889.500
       400   10 Jun 2027 09:54:52.021   10 Jun 2027 09:55:28.424            36.403                 Moscow          3346.000
       401   10 Jun 2027 09:55:37.947   10 Jun 2027 09:56:31.273            53.326              Murmansk2          4761.500
       402   10 Jun 2027 09:56:43.559   10 Jun 2027 09:57:57.497            73.938                 Moscow          6143.000
       403   10 Jun 2027 09:57:59.567   10 Jun 2027 09:58:24.591            25.024                 Moscow          1035.000
       404   10 Jun 2027 09:58:26.596   10 Jun 2027 09:58:38.288            11.692                Novosib          1002.500
       405   10 Jun 2027 09:58:44.950   10 Jun 2027 09:59:23.505            38.555                Norilsk          3331.000
       406   10 Jun 2027 09:59:26.874   10 Jun 2027 10:00:01.471            34.597                 Moscow          1684.500
       407   10 Jun 2027 10:00:03.031   10 Jun 2027 10:00:34.615            31.584                 Moscow           780.000
       408   10 Jun 2027 10:00:37.176   10 Jun 2027 10:01:02.652            25.476                Novosib          1280.500
       409   10 Jun 2027 10:01:06.420   10 Jun 2027 10:01:27.374            20.954              Murmansk1          1884.000
       410   10 Jun 2027 10:01:35.118   10 Jun 2027 10:02:01.792            26.674                Norilsk          2130.500
       411   10 Jun 2027 10:02:11.052   10 Jun 2027 10:03:07.775            56.723                Norilsk          4630.000
       412   11 Jun 2027 03:41:37.646   11 Jun 2027 03:42:34.703            57.057               Magadan1          5548.500
       413   11 Jun 2027 03:42:39.963   11 Jun 2027 03:43:19.555            39.592               Magadan2          2630.000
       414   11 Jun 2027 03:43:37.347   11 Jun 2027 03:44:45.814            68.467                Anadyr2          4955.500
       415   11 Jun 2027 03:44:51.828   11 Jun 2027 03:46:34.280           102.452                Irkutsk          3007.000
       416   11 Jun 2027 03:46:36.353   11 Jun 2027 03:47:01.047            24.694               Magadan1          1036.500
       417   11 Jun 2027 03:47:01.103   11 Jun 2027 03:47:19.380            18.277                Novosib            28.000
       418   11 Jun 2027 03:47:20.407   11 Jun 2027 03:47:25.009             4.602                Novosib           513.500
       419   11 Jun 2027 03:47:25.143   11 Jun 2027 03:47:31.291             6.148                Norilsk            67.000
       420   11 Jun 2027 03:47:34.862   11 Jun 2027 03:47:53.817            18.955               Magadan2          1785.500
       421   11 Jun 2027 03:48:02.490   11 Jun 2027 03:48:25.528            23.038                Norilsk          2879.750
       422   11 Jun 2027 03:48:29.361   11 Jun 2027 03:48:49.078            19.717                Novosib          1456.750
       423   11 Jun 2027 03:49:25.866   11 Jun 2027 03:49:30.403             4.537                Norilsk           567.125
       424   11 Jun 2027 03:49:47.884   11 Jun 2027 03:50:05.536            17.652               Magadan2          1320.375
       425   11 Jun 2027 05:18:39.985   11 Jun 2027 05:18:52.969            12.984               Magadan1          1164.500
       426   11 Jun 2027 05:19:05.043   11 Jun 2027 05:20:24.704            79.661                Novosib          6037.000
       427   11 Jun 2027 05:20:30.847   11 Jun 2027 05:20:56.523            25.676                Irkutsk          3071.500
       428   11 Jun 2027 05:21:02.599   11 Jun 2027 05:21:50.322            47.723                Irkutsk          3038.000
       429   11 Jun 2027 05:21:58.224   11 Jun 2027 05:22:30.131            31.907                Norilsk          3951.000
       430   11 Jun 2027 05:22:36.001   11 Jun 2027 05:22:43.672             7.671                Norilsk           958.875
       431   11 Jun 2027 05:22:53.795   11 Jun 2027 05:24:28.829            95.034               Magadan1          7037.625
       432   11 Jun 2027 05:24:30.083   11 Jun 2027 05:24:41.489            11.406               Magadan2           627.000
       433   11 Jun 2027 05:24:47.567   11 Jun 2027 05:25:30.457            42.890                Novosib          3039.000
       434   11 Jun 2027 05:25:36.383   11 Jun 2027 05:26:03.101            26.718                Irkutsk          2963.000
       435   11 Jun 2027 05:26:12.961   11 Jun 2027 05:27:08.443            55.482              Murmansk1           264.000
       436   11 Jun 2027 06:55:49.165   11 Jun 2027 06:57:36.585           107.420                Irkutsk          7102.500
       437   11 Jun 2027 06:57:54.773   11 Jun 2027 06:59:22.144            87.371                Novosib          9094.000
       438   11 Jun 2027 06:59:23.191   11 Jun 2027 06:59:38.682            15.491                Irkutsk           523.500
       439   11 Jun 2027 06:59:40.055   11 Jun 2027 06:59:55.515            15.460                 Moscow           686.500
       440   11 Jun 2027 06:59:56.031   11 Jun 2027 07:00:00.568             4.537              Murmansk1           258.000
       441   11 Jun 2027 07:00:11.899   11 Jun 2027 07:01:23.636            71.737              Murmansk2          5665.500
       442   11 Jun 2027 07:01:27.871   11 Jun 2027 07:01:49.998            22.127                Irkutsk          2117.500
       443   11 Jun 2027 08:33:28.187   11 Jun 2027 08:33:48.668            20.481                Novosib           105.000
       444   11 Jun 2027 08:33:49.866   11 Jun 2027 08:34:00.912            11.046              Murmansk2           599.000
       445   11 Jun 2027 08:34:06.151   11 Jun 2027 08:34:33.846            27.695                Norilsk          2619.500
       446   11 Jun 2027 08:34:36.749   11 Jun 2027 08:35:10.266            33.517              Murmansk2          1451.500
       447   11 Jun 2027 08:35:32.869   11 Jun 2027 08:37:03.877            91.008                Norilsk         11301.500
       448   11 Jun 2027 08:37:06.135   11 Jun 2027 08:37:17.095            10.960                Novosib          1129.000
       449   11 Jun 2027 08:37:25.536   11 Jun 2027 08:38:05.220            39.684                Norilsk          4220.500
       450   11 Jun 2027 10:06:58.064   11 Jun 2027 10:07:24.171            26.107                 Moscow          1185.000
       451   11 Jun 2027 10:07:30.815   11 Jun 2027 10:08:11.842            41.027                 Moscow          3322.000
       452   11 Jun 2027 10:08:23.377   11 Jun 2027 10:09:36.138            72.761              Murmansk1          5767.500
       453   11 Jun 2027 10:09:42.661   11 Jun 2027 10:10:23.601            40.940                Novosib          3261.500
       454   11 Jun 2027 10:10:27.228   11 Jun 2027 10:11:06.830            39.602                 Moscow          1813.500
       455   11 Jun 2027 10:11:09.560   11 Jun 2027 10:11:51.346            41.786              Murmansk2          1365.000
       456   11 Jun 2027 10:11:55.983   11 Jun 2027 10:12:20.010            24.027              Murmansk2          2318.500
       457   11 Jun 2027 10:12:32.873   11 Jun 2027 10:13:27.408            54.535                 Moscow          6431.500
       458   11 Jun 2027 10:13:35.016   11 Jun 2027 10:14:06.463            31.447                Norilsk          3804.000
       459   11 Jun 2027 10:14:06.958   11 Jun 2027 10:14:26.208            19.250                 Moscow           247.500
       460   11 Jun 2027 10:14:28.451   11 Jun 2027 10:15:22.417            53.966              Murmansk2          1121.500
       461   12 Jun 2027 03:53:06.276   12 Jun 2027 03:54:36.688            90.412               Magadan1          5169.000
       462   12 Jun 2027 03:54:37.523   12 Jun 2027 03:55:13.026            35.503                Anadyr1           417.500
       463   12 Jun 2027 03:55:16.409   12 Jun 2027 03:55:33.345            16.936                Anadyr2          1691.500
       464   12 Jun 2027 03:55:45.953   12 Jun 2027 03:56:44.070            58.117               Magadan1          6304.000
       465   12 Jun 2027 03:56:55.817   12 Jun 2027 03:57:47.944            52.127                Norilsk          5873.500
       466   12 Jun 2027 03:57:52.881   12 Jun 2027 03:58:34.026            41.145                Anadyr1          2468.500
       467   12 Jun 2027 03:58:34.860   12 Jun 2027 03:58:57.808            22.948                Anadyr2           417.000
       468   12 Jun 2027 03:59:00.296   12 Jun 2027 03:59:13.057            12.761                Novosib          1244.000
       469   12 Jun 2027 03:59:18.070   12 Jun 2027 04:00:53.746            95.676                Anadyr2          2506.500
       470   12 Jun 2027 04:01:11.743   12 Jun 2027 04:01:22.600            10.857              Murmansk2           612.500
       471   12 Jun 2027 04:01:23.850   12 Jun 2027 04:01:29.922             6.072                Norilsk           625.000
       472   12 Jun 2027 04:01:30.196   12 Jun 2027 04:01:37.947             7.751               Magadan2           137.000
       473   12 Jun 2027 04:01:38.448   12 Jun 2027 04:01:43.843             5.395                Anadyr2           250.500
       474   12 Jun 2027 04:01:49.707   12 Jun 2027 04:02:12.453            22.746               Magadan2          2843.250
       475   12 Jun 2027 04:02:17.813   12 Jun 2027 04:02:40.315            22.502              Murmansk2            88.750
       476   12 Jun 2027 05:30:43.002   12 Jun 2027 05:31:13.593            30.591               Magadan2          2042.500
       477   12 Jun 2027 05:31:24.336   12 Jun 2027 05:32:23.630            59.294                Irkutsk          5371.500
       478   12 Jun 2027 05:32:24.816   12 Jun 2027 05:33:03.781            38.965                Irkutsk           593.000
       479   12 Jun 2027 05:33:04.201   12 Jun 2027 05:33:09.143             4.942                Norilsk           210.000
       480   12 Jun 2027 05:33:12.556   12 Jun 2027 05:33:27.300            14.744               Magadan2          1706.500
       481   12 Jun 2027 05:33:32.563   12 Jun 2027 05:33:42.909            10.346                Irkutsk          1293.250
       482   12 Jun 2027 05:33:58.154   12 Jun 2027 05:34:18.602            20.448                Norilsk          2556.000
