uniorb/output/strategy_2/Drop/Drop_KinoSat_110602.txt

KinoSat_110602
-------------------------
    Access    *     Start Time (UTCG)     *     Stop Time (UTCG)  *   Duration (s)        *       Station  *  Data (Mbytes)
         1   01 Jun 2027 04:13:05.682   01 Jun 2027 04:14:53.444           107.762               Magadan2          3367.563
         2   01 Jun 2027 04:14:57.084   01 Jun 2027 04:16:09.672            72.588                Anadyr2          2268.375
         3   01 Jun 2027 04:16:25.241   01 Jun 2027 04:16:53.893            28.652                Anadyr1           895.375
         4   01 Jun 2027 04:17:48.430   01 Jun 2027 04:19:06.945            78.515               Magadan1          2453.594
         5   01 Jun 2027 04:23:55.760   01 Jun 2027 04:24:22.166            26.406                Norilsk           825.188
         6   01 Jun 2027 04:54:49.526   01 Jun 2027 04:58:41.239           231.713            RioGallegos          7241.031
         7   01 Jun 2027 05:00:50.340   01 Jun 2027 05:01:06.446            16.106            RioGallegos           503.312
         8   01 Jun 2027 05:03:43.500   01 Jun 2027 05:04:09.033            25.533            RioGallegos           797.906
         9   01 Jun 2027 05:49:59.678   01 Jun 2027 05:50:08.280             8.602               Magadan2           268.813
        10   01 Jun 2027 05:50:23.507   01 Jun 2027 05:54:05.711           222.204               Magadan2          6943.875
        11   01 Jun 2027 05:54:16.232   01 Jun 2027 05:54:52.659            36.427                Irkutsk          1138.344
        12   01 Jun 2027 07:04:36.430   01 Jun 2027 07:08:26.539           230.109                Sumatra          7190.906
        13   01 Jun 2027 07:15:56.921   01 Jun 2027 07:23:54.685           477.764                  Delhi         14930.125
        14   01 Jun 2027 07:27:50.739   01 Jun 2027 07:28:06.708            15.969                Irkutsk           499.031
        15   01 Jun 2027 07:28:44.269   01 Jun 2027 07:30:30.801           106.532                Irkutsk          3329.125
        16   01 Jun 2027 07:30:33.852   01 Jun 2027 07:30:44.386            10.534                Irkutsk           329.187
        17   01 Jun 2027 07:31:03.934   01 Jun 2027 07:31:35.363            31.429              Murmansk1           982.156
        18   01 Jun 2027 07:31:56.516   01 Jun 2027 07:32:08.207            11.691                Norilsk           365.344
        19   01 Jun 2027 07:32:10.264   01 Jun 2027 07:32:19.958             9.694                 Moscow           302.937
        20   01 Jun 2027 08:42:55.099   01 Jun 2027 08:43:42.163            47.064                Sumatra          1470.750
        21   01 Jun 2027 08:44:36.341   01 Jun 2027 08:45:35.987            59.646                Sumatra          1863.938
        22   01 Jun 2027 08:48:40.297   01 Jun 2027 08:49:56.245            75.948                  Delhi          2373.375
        23   01 Jun 2027 08:53:36.355   01 Jun 2027 08:54:11.871            35.516                  Delhi          1109.875
        24   01 Jun 2027 09:05:17.244   01 Jun 2027 09:06:39.029            81.785              Murmansk2          2555.781
        25   01 Jun 2027 09:06:39.029   01 Jun 2027 09:07:04.745            25.716              Murmansk1           803.625
        26   01 Jun 2027 09:07:10.505   01 Jun 2027 09:07:30.589            20.084                Norilsk           627.625
        27   01 Jun 2027 09:07:34.060   01 Jun 2027 09:07:50.785            16.725                 Moscow           522.656
        28   01 Jun 2027 10:29:06.138   01 Jun 2027 10:31:14.971           128.833                  Delhi          4026.031
        29   01 Jun 2027 10:37:48.771   01 Jun 2027 10:37:59.439            10.668              Murmansk2           333.375
        30   01 Jun 2027 10:38:22.698   01 Jun 2027 10:45:11.363           408.665                 Moscow         12770.781
        31   01 Jun 2027 10:45:58.685   01 Jun 2027 10:47:29.398            90.713              Murmansk1          2834.781
        32   01 Jun 2027 11:48:32.871   01 Jun 2027 11:56:57.704           504.833               CapeTown         15776.031
        33   01 Jun 2027 12:27:49.794   01 Jun 2027 12:36:08.038           498.244                Anadyr1         15570.125
        34   01 Jun 2027 14:07:16.767   01 Jun 2027 14:12:48.011           331.244               Magadan2         10351.375
        35   01 Jun 2027 15:46:54.088   01 Jun 2027 15:46:59.760             5.672               Magadan2           177.250
        36   01 Jun 2027 15:48:00.347   01 Jun 2027 15:49:27.841            87.494               Magadan1          2734.187
        37   01 Jun 2027 17:17:24.031   01 Jun 2027 17:22:42.729           318.698                Norilsk          9959.312
        38   01 Jun 2027 17:23:43.571   01 Jun 2027 17:27:52.039           248.468                Irkutsk          7764.625
        39   01 Jun 2027 18:58:16.098   01 Jun 2027 19:05:29.188           433.090                Novosib         13534.063
        40   01 Jun 2027 19:22:39.761   01 Jun 2027 19:22:53.685            13.924                Sumatra           435.125
        41   01 Jun 2027 20:40:03.970   01 Jun 2027 20:41:14.236            70.266                Novosib          2195.813
        42   01 Jun 2027 20:42:38.310   01 Jun 2027 20:44:19.337           101.027                  Delhi          3157.094
        43   01 Jun 2027 20:49:42.279   01 Jun 2027 20:51:30.623           108.344                  Delhi          3385.750
        44   01 Jun 2027 22:07:03.875   01 Jun 2027 22:12:31.220           327.345              Murmansk1         10229.531
        45   01 Jun 2027 22:12:36.333   01 Jun 2027 22:19:15.156           398.823                 Moscow         12463.219
        46   01 Jun 2027 22:40:34.162   01 Jun 2027 22:43:05.318           151.156               CapeTown          4723.625
        47   02 Jun 2027 00:21:39.726   02 Jun 2027 00:21:40.516             0.790               CapeTown            24.688
        48   02 Jun 2027 00:22:41.063   02 Jun 2027 00:22:45.906             4.843               CapeTown           151.344
        49   02 Jun 2027 01:12:13.231   02 Jun 2027 01:13:30.056            76.825               Magadan1          2400.781
        50   02 Jun 2027 01:18:39.665   02 Jun 2027 01:18:51.595            11.930               Magadan1           372.812
        51   02 Jun 2027 01:19:44.153   02 Jun 2027 01:19:56.210            12.057              Murmansk1           376.781
        52   02 Jun 2027 01:21:07.707   02 Jun 2027 01:22:10.654            62.947              Murmansk1          1967.094
        53   02 Jun 2027 01:23:14.694   02 Jun 2027 01:23:19.588             4.894              Murmansk1           152.938
        54   02 Jun 2027 01:25:11.187   02 Jun 2027 01:26:28.580            77.393              Murmansk1          2418.531
        55   02 Jun 2027 01:33:32.330   02 Jun 2027 01:33:52.054            19.724                 Moscow           616.375
        56   02 Jun 2027 01:50:34.199   02 Jun 2027 01:51:11.208            37.009               CapeTown          1156.531
        57   02 Jun 2027 01:55:43.068   02 Jun 2027 01:55:58.622            15.554               CapeTown           486.062
        58   02 Jun 2027 02:42:33.421   02 Jun 2027 02:45:20.819           167.398               Magadan1          5231.188
        59   02 Jun 2027 02:46:06.670   02 Jun 2027 02:46:27.445            20.775               Magadan2           649.219
        60   02 Jun 2027 02:47:15.385   02 Jun 2027 02:48:05.876            50.491               Magadan1          1577.844
        61   02 Jun 2027 02:51:09.493   02 Jun 2027 02:51:20.201            10.708                Norilsk           334.625
        62   02 Jun 2027 02:53:49.910   02 Jun 2027 02:54:03.440            13.530                Norilsk           422.812
        63   02 Jun 2027 02:54:40.296   02 Jun 2027 02:55:32.791            52.495              Murmansk2          1640.469
        64   02 Jun 2027 02:57:24.391   02 Jun 2027 02:57:30.927             6.536              Murmansk1           204.250
        65   02 Jun 2027 02:58:38.577   02 Jun 2027 02:59:17.812            39.235                 Moscow          1226.094
        66   02 Jun 2027 03:35:01.385   02 Jun 2027 03:37:40.164           158.779            RioGallegos          4961.844
        67   02 Jun 2027 03:39:56.974   02 Jun 2027 03:40:53.529            56.555            RioGallegos          1767.344
        68   02 Jun 2027 04:24:41.171   02 Jun 2027 04:25:02.295            21.124               Magadan1           660.125
        69   02 Jun 2027 04:25:09.022   02 Jun 2027 04:25:16.509             7.487                Anadyr2           233.969
        70   02 Jun 2027 04:25:27.830   02 Jun 2027 04:25:44.554            16.724               Magadan1           522.625
        71   02 Jun 2027 04:26:13.092   02 Jun 2027 04:28:52.608           159.516                Anadyr2          4984.875
        72   02 Jun 2027 04:29:00.083   02 Jun 2027 04:29:51.205            51.122               Magadan1          1597.563
        73   02 Jun 2027 04:29:55.594   02 Jun 2027 04:30:36.848            41.254               Magadan2          1289.187
        74   02 Jun 2027 04:30:49.756   02 Jun 2027 04:30:53.624             3.868               Magadan2           120.875
        75   02 Jun 2027 04:31:05.558   02 Jun 2027 04:31:05.686             0.128               Magadan2             4.000
        76   02 Jun 2027 04:31:23.656   02 Jun 2027 04:31:36.160            12.504              Murmansk2           390.750
        77   02 Jun 2027 04:32:16.477   02 Jun 2027 04:32:21.768             5.291                Norilsk           165.344
        78   02 Jun 2027 04:32:29.389   02 Jun 2027 04:32:38.645             9.256              Murmansk2           289.250
        79   02 Jun 2027 04:32:40.419   02 Jun 2027 04:33:17.648            37.229              Murmansk2          1163.406
        80   02 Jun 2027 05:06:31.039   02 Jun 2027 05:10:02.506           211.467            RioGallegos          6608.344
        81   02 Jun 2027 06:00:42.813   02 Jun 2027 06:01:02.274            19.461                Novosib           608.156
        82   02 Jun 2027 06:02:01.667   02 Jun 2027 06:02:11.465             9.798               Magadan1           306.187
        83   02 Jun 2027 06:02:29.598   02 Jun 2027 06:03:52.951            83.353                Irkutsk          2604.781
        84   02 Jun 2027 06:03:56.196   02 Jun 2027 06:04:38.299            42.103                Novosib          1315.719
        85   02 Jun 2027 06:04:41.318   02 Jun 2027 06:05:47.290            65.972               Magadan1          2061.625
        86   02 Jun 2027 06:05:52.557   02 Jun 2027 06:07:08.603            76.046                Novosib          2376.437
        87   02 Jun 2027 06:07:14.898   02 Jun 2027 06:07:20.700             5.802              Murmansk1           181.312
        88   02 Jun 2027 06:41:44.165   02 Jun 2027 06:42:56.270            72.105            RioGallegos          2253.281
        89   02 Jun 2027 07:16:31.063   02 Jun 2027 07:19:32.012           180.949                Sumatra          5654.656
        90   02 Jun 2027 07:27:05.525   02 Jun 2027 07:31:43.921           278.396                  Delhi          8699.875
        91   02 Jun 2027 07:32:03.450   02 Jun 2027 07:34:58.299           174.849                  Delhi          5464.031
        92   02 Jun 2027 07:39:43.787   02 Jun 2027 07:39:54.542            10.755                Irkutsk           336.094
        93   02 Jun 2027 07:40:04.618   02 Jun 2027 07:40:05.972             1.354                 Moscow            42.312
        94   02 Jun 2027 07:40:09.500   02 Jun 2027 07:42:20.222           130.722                Novosib          4085.063
        95   02 Jun 2027 07:42:21.791   02 Jun 2027 07:43:14.116            52.325                Novosib          1635.156
        96   02 Jun 2027 07:43:45.221   02 Jun 2027 07:43:59.570            14.349                Norilsk           448.406
        97   02 Jun 2027 09:00:44.555   02 Jun 2027 09:02:36.911           112.356                  Delhi          3511.125
        98   02 Jun 2027 09:03:51.583   02 Jun 2027 09:04:33.623            42.040                  Delhi          1313.750
        99   02 Jun 2027 09:06:01.444   02 Jun 2027 09:06:03.789             2.345                  Delhi            73.281
       100   02 Jun 2027 09:16:01.172   02 Jun 2027 09:16:35.309            34.137                Novosib          1066.781
       101   02 Jun 2027 09:16:38.354   02 Jun 2027 09:17:12.319            33.965              Murmansk2          1061.406
       102   02 Jun 2027 09:17:23.899   02 Jun 2027 09:17:43.251            19.352              Murmansk2           604.750
       103   02 Jun 2027 09:17:49.829   02 Jun 2027 09:18:01.684            11.855                Novosib           370.469
       104   02 Jun 2027 09:18:08.405   02 Jun 2027 09:18:12.029             3.624                Norilsk           113.250
       105   02 Jun 2027 09:18:12.320   02 Jun 2027 09:18:28.164            15.844              Murmansk1           495.125
       106   02 Jun 2027 09:18:41.341   02 Jun 2027 09:18:41.832             0.491                Norilsk            15.344
       107   02 Jun 2027 09:18:54.340   02 Jun 2027 09:19:21.335            26.995              Murmansk1           843.594
       108   02 Jun 2027 09:19:43.273   02 Jun 2027 09:20:10.467            27.194                Norilsk           849.812
       109   02 Jun 2027 09:21:22.359   02 Jun 2027 09:21:24.424             2.065                Norilsk            64.531
       110   02 Jun 2027 09:23:04.015   02 Jun 2027 09:23:51.046            47.031              Murmansk2          1469.719
       111   02 Jun 2027 10:48:31.861   02 Jun 2027 10:48:37.652             5.791              Murmansk1           180.969
       112   02 Jun 2027 10:49:00.165   02 Jun 2027 10:49:05.556             5.391              Murmansk2           168.469
       113   02 Jun 2027 10:49:41.962   02 Jun 2027 10:49:53.848            11.886              Murmansk2           371.437
       114   02 Jun 2027 10:50:10.894   02 Jun 2027 10:50:53.610            42.716              Murmansk1          1334.875
       115   02 Jun 2027 10:51:02.421   02 Jun 2027 10:51:15.597            13.176              Murmansk2           411.750
       116   02 Jun 2027 10:51:37.828   02 Jun 2027 10:52:07.131            29.303              Murmansk1           915.719
       117   02 Jun 2027 10:52:07.131   02 Jun 2027 10:52:24.197            17.066              Murmansk2           533.313
       118   02 Jun 2027 10:52:47.319   02 Jun 2027 10:53:22.252            34.933                 Moscow          1091.656
       119   02 Jun 2027 10:53:39.282   02 Jun 2027 10:54:41.265            61.983                 Moscow          1936.969
       120   02 Jun 2027 10:54:43.999   02 Jun 2027 10:55:34.209            50.210                 Moscow          1569.063
       121   02 Jun 2027 11:59:58.132   02 Jun 2027 12:00:52.947            54.815               CapeTown          1712.969
       122   02 Jun 2027 12:00:58.676   02 Jun 2027 12:07:09.512           370.836               CapeTown         11588.625
       123   02 Jun 2027 12:39:41.969   02 Jun 2027 12:43:09.630           207.661                Anadyr2          6489.406
       124   02 Jun 2027 12:43:12.500   02 Jun 2027 12:45:25.806           133.306                Anadyr1          4165.813
       125   02 Jun 2027 12:46:12.671   02 Jun 2027 12:48:47.062           154.391                Anadyr2          4824.719
       126   02 Jun 2027 14:15:10.382   02 Jun 2027 14:17:00.400           110.018                Anadyr2          3438.062
       127   02 Jun 2027 14:18:48.214   02 Jun 2027 14:25:51.099           422.885               Magadan2         13215.156
       128   02 Jun 2027 15:54:45.413   02 Jun 2027 15:55:56.229            70.816               Magadan1          2213.000
       129   02 Jun 2027 15:58:42.639   02 Jun 2027 16:00:22.175            99.536               Magadan1          3110.500
       130   02 Jun 2027 17:27:56.784   02 Jun 2027 17:28:29.456            32.672                Anadyr1          1021.000
       131   02 Jun 2027 17:29:15.355   02 Jun 2027 17:29:27.768            12.413                Norilsk           387.906
       132   02 Jun 2027 17:30:40.681   02 Jun 2027 17:31:37.715            57.034               Magadan1          1782.312
       133   02 Jun 2027 17:32:52.485   02 Jun 2027 17:34:33.397           100.912                Norilsk          3153.500
       134   02 Jun 2027 17:34:49.769   02 Jun 2027 17:41:17.532           387.763                Irkutsk         12117.594
       135   02 Jun 2027 17:51:20.659   02 Jun 2027 17:55:28.887           248.228                Sumatra          7757.125
       136   02 Jun 2027 19:09:52.898   02 Jun 2027 19:17:25.282           452.384                Novosib         14137.000
       137   02 Jun 2027 20:46:02.648   02 Jun 2027 20:47:07.773            65.125              Murmansk2          2035.156
       138   02 Jun 2027 20:53:52.377   02 Jun 2027 20:54:55.326            62.949                  Delhi          1967.156
       139   02 Jun 2027 21:03:09.705   02 Jun 2027 21:04:19.905            70.200                  Delhi          2193.750
       140   02 Jun 2027 22:19:02.746   02 Jun 2027 22:24:51.731           348.985              Murmansk1         10905.781
       141   02 Jun 2027 22:25:12.041   02 Jun 2027 22:29:24.094           252.053                 Moscow          7876.656
       142   02 Jun 2027 22:50:39.338   02 Jun 2027 22:56:34.073           354.735               CapeTown         11085.469
       143   03 Jun 2027 01:30:52.124   03 Jun 2027 01:33:00.566           128.442              Murmansk1          4013.812
       144   03 Jun 2027 01:34:11.073   03 Jun 2027 01:34:48.082            37.009                 Moscow          1156.531
       145   03 Jun 2027 01:42:24.084   03 Jun 2027 01:42:52.651            28.567                 Moscow           892.719
       146   03 Jun 2027 01:44:41.648   03 Jun 2027 01:44:46.118             4.470                 Moscow           139.688
       147   03 Jun 2027 02:00:04.017   03 Jun 2027 02:01:06.153            62.136               CapeTown          1941.750
       148   03 Jun 2027 02:08:14.536   03 Jun 2027 02:08:48.949            34.413               CapeTown          1075.406
       149   03 Jun 2027 02:54:28.518   03 Jun 2027 02:57:42.326           193.808               Magadan2          6056.500
       150   03 Jun 2027 03:00:24.027   03 Jun 2027 03:00:40.884            16.857               Magadan2           526.781
       151   03 Jun 2027 03:01:06.312   03 Jun 2027 03:01:54.386            48.074               Magadan2          1502.312
       152   03 Jun 2027 03:02:12.206   03 Jun 2027 03:04:36.506           144.300                Anadyr2          4509.375
       153   03 Jun 2027 03:04:51.623   03 Jun 2027 03:05:22.851            31.228               Magadan1           975.875
       154   03 Jun 2027 04:36:33.485   03 Jun 2027 04:36:43.734            10.249                Anadyr2           320.281
       155   03 Jun 2027 04:36:51.084   03 Jun 2027 04:36:58.979             7.895               Magadan2           246.719
       156   03 Jun 2027 04:37:06.062   03 Jun 2027 04:39:12.594           126.532                Anadyr2          3954.125
       157   03 Jun 2027 04:39:12.594   03 Jun 2027 04:40:52.918           100.324                Anadyr1          3135.125
       158   03 Jun 2027 04:40:53.777   03 Jun 2027 04:41:34.160            40.383               Magadan2          1261.969
       159   03 Jun 2027 04:42:28.701   03 Jun 2027 04:43:03.636            34.935               Magadan2          1091.719
       160   03 Jun 2027 04:48:01.271   03 Jun 2027 04:48:02.704             1.433                Norilsk            44.781
       161   03 Jun 2027 05:18:15.791   03 Jun 2027 05:24:17.112           361.321            RioGallegos         11291.281
       162   03 Jun 2027 05:56:22.485   03 Jun 2027 06:02:23.476           360.991                Sumatra         11280.969
       163   03 Jun 2027 06:13:13.675   03 Jun 2027 06:13:49.222            35.547               Magadan1          1110.844
       164   03 Jun 2027 06:13:49.476   03 Jun 2027 06:14:34.886            45.410                Irkutsk          1419.062
       165   03 Jun 2027 06:14:39.321   03 Jun 2027 06:16:02.018            82.697               Magadan2          2584.281
       166   03 Jun 2027 06:16:03.438   03 Jun 2027 06:16:10.954             7.516               Magadan2           234.875
       167   03 Jun 2027 06:16:36.207   03 Jun 2027 06:17:09.991            33.784              Murmansk2          1055.750
       168   03 Jun 2027 06:17:17.694   03 Jun 2027 06:17:38.081            20.387              Murmansk1           637.094
       169   03 Jun 2027 06:17:38.081   03 Jun 2027 06:17:41.994             3.913              Murmansk2           122.281
       170   03 Jun 2027 06:18:37.669   03 Jun 2027 06:19:35.237            57.568                Novosib          1799.000
       171   03 Jun 2027 06:26:39.691   03 Jun 2027 06:26:52.910            13.219              Murmansk2           413.094
       172   03 Jun 2027 06:53:55.353   03 Jun 2027 06:54:49.606            54.253            RioGallegos          1695.406
       173   03 Jun 2027 06:55:52.236   03 Jun 2027 06:56:48.054            55.818            RioGallegos          1744.312
       174   03 Jun 2027 07:28:31.297   03 Jun 2027 07:29:32.119            60.822                Sumatra          1900.688
       175   03 Jun 2027 07:36:49.808   03 Jun 2027 07:38:01.266            71.458                Sumatra          2233.062
       176   03 Jun 2027 07:38:25.916   03 Jun 2027 07:41:30.463           184.547                  Delhi          5767.094
       177   03 Jun 2027 07:42:43.463   03 Jun 2027 07:45:37.822           174.359                  Delhi          5448.719
       178   03 Jun 2027 07:48:51.044   03 Jun 2027 07:48:52.528             1.484                  Delhi            46.375
       179   03 Jun 2027 07:48:55.638   03 Jun 2027 07:49:20.030            24.392                Irkutsk           762.250
       180   03 Jun 2027 07:50:18.982   03 Jun 2027 07:51:16.476            57.494                Novosib          1796.687
       181   03 Jun 2027 07:51:19.512   03 Jun 2027 07:51:24.818             5.306                Norilsk           165.813
       182   03 Jun 2027 07:51:30.417   03 Jun 2027 07:52:30.514            60.097              Murmansk2          1878.031
       183   03 Jun 2027 07:52:48.255   03 Jun 2027 07:52:54.417             6.162                Irkutsk           192.563
       184   03 Jun 2027 07:52:55.304   03 Jun 2027 07:53:25.713            30.409                 Moscow           950.281
       185   03 Jun 2027 07:53:27.482   03 Jun 2027 07:54:13.935            46.453              Murmansk1          1451.656
       186   03 Jun 2027 07:54:58.603   03 Jun 2027 07:55:15.486            16.883                Norilsk           527.594
       187   03 Jun 2027 07:55:36.925   03 Jun 2027 07:55:52.342            15.417              Murmansk2           481.781
       188   03 Jun 2027 07:56:13.275   03 Jun 2027 07:56:45.634            32.359                 Moscow          1011.219
       189   03 Jun 2027 08:34:36.195   03 Jun 2027 08:34:58.425            22.230            RioGallegos           694.687
       190   03 Jun 2027 08:35:27.444   03 Jun 2027 08:36:02.663            35.219            RioGallegos          1100.594
       191   03 Jun 2027 09:12:54.409   03 Jun 2027 09:15:46.790           172.381                  Delhi          5386.906
       192   03 Jun 2027 09:26:30.127   03 Jun 2027 09:27:03.544            33.417                Novosib          1044.281
       193   03 Jun 2027 09:27:08.321   03 Jun 2027 09:27:19.225            10.904              Murmansk1           340.750
       194   03 Jun 2027 09:27:32.449   03 Jun 2027 09:27:53.328            20.879                 Moscow           652.469
       195   03 Jun 2027 09:27:59.141   03 Jun 2027 09:28:22.199            23.058                Novosib           720.563
       196   03 Jun 2027 09:28:43.805   03 Jun 2027 09:29:08.625            24.820              Murmansk2           775.625
       197   03 Jun 2027 09:29:08.625   03 Jun 2027 09:29:18.777            10.152              Murmansk1           317.250
       198   03 Jun 2027 09:29:20.372   03 Jun 2027 09:30:35.227            74.855                 Moscow          2339.219
       199   03 Jun 2027 09:32:01.621   03 Jun 2027 09:32:22.799            21.178                 Moscow           661.813
       200   03 Jun 2027 11:02:37.095   03 Jun 2027 11:02:38.669             1.574              Murmansk1            49.187
       201   03 Jun 2027 11:02:51.580   03 Jun 2027 11:03:02.418            10.838              Murmansk2           338.688
       202   03 Jun 2027 11:03:02.418   03 Jun 2027 11:03:17.172            14.754              Murmansk1           461.062
       203   03 Jun 2027 11:03:35.397   03 Jun 2027 11:04:46.703            71.306                 Moscow          2228.313
       204   03 Jun 2027 11:04:56.596   03 Jun 2027 11:05:16.250            19.654                Norilsk           614.187
       205   03 Jun 2027 11:05:22.027   03 Jun 2027 11:05:43.106            21.079                Norilsk           658.719
       206   03 Jun 2027 11:06:18.090   03 Jun 2027 11:06:39.428            21.338              Murmansk2           666.812
       207   03 Jun 2027 11:06:42.824   03 Jun 2027 11:06:49.336             6.512                 Moscow           203.500
       208   03 Jun 2027 11:07:02.123   03 Jun 2027 11:07:33.004            30.881              Murmansk1           965.031
       209   03 Jun 2027 12:11:33.288   03 Jun 2027 12:14:55.246           201.958               CapeTown          6311.187
       210   03 Jun 2027 12:15:26.112   03 Jun 2027 12:18:07.963           161.851               CapeTown          5057.844
       211   03 Jun 2027 12:42:28.524   03 Jun 2027 12:42:29.651             1.127              Murmansk2            35.219
       212   03 Jun 2027 12:46:28.763   03 Jun 2027 12:46:42.849            14.086              Murmansk2           440.188
       213   03 Jun 2027 12:51:36.250   03 Jun 2027 12:54:02.957           146.707                Anadyr2          4584.594
       214   03 Jun 2027 12:55:04.316   03 Jun 2027 12:57:17.209           132.893                Anadyr1          4152.906
       215   03 Jun 2027 12:58:22.080   03 Jun 2027 13:01:21.612           179.532                Anadyr1          5610.375
       216   03 Jun 2027 14:27:10.881   03 Jun 2027 14:28:49.984            99.103                Anadyr1          3096.969
       217   03 Jun 2027 14:29:41.661   03 Jun 2027 14:31:03.200            81.539                Anadyr1          2548.094
       218   03 Jun 2027 14:31:03.524   03 Jun 2027 14:36:50.246           346.722               Magadan1         10835.062
       219   03 Jun 2027 14:38:09.877   03 Jun 2027 14:38:41.906            32.029               Magadan2          1000.906
       220   03 Jun 2027 16:05:26.353   03 Jun 2027 16:08:00.187           153.834               Magadan1          4807.313
       221   03 Jun 2027 16:09:33.194   03 Jun 2027 16:09:46.477            13.283               Magadan2           415.094
       222   03 Jun 2027 17:00:08.963   03 Jun 2027 17:03:44.710           215.747            RioGallegos          6742.094
       223   03 Jun 2027 17:41:37.192   03 Jun 2027 17:42:19.057            41.865                Norilsk          1308.281
       224   03 Jun 2027 17:46:17.909   03 Jun 2027 17:53:34.335           436.426                Irkutsk         13638.313
       225   03 Jun 2027 18:01:41.317   03 Jun 2027 18:09:01.342           440.025                Sumatra         13750.781
       226   03 Jun 2027 19:23:59.036   03 Jun 2027 19:27:46.446           227.410                Novosib          7106.563
       227   03 Jun 2027 19:33:01.835   03 Jun 2027 19:35:14.293           132.458                  Delhi          4139.313
       228   03 Jun 2027 20:56:03.008   03 Jun 2027 21:00:24.379           261.371              Murmansk1          8167.844
       229   03 Jun 2027 22:31:02.288   03 Jun 2027 22:32:29.064            86.776              Murmansk2          2711.750
       230   03 Jun 2027 22:33:15.567   03 Jun 2027 22:36:25.280           189.713              Murmansk1          5928.531
       231   03 Jun 2027 22:36:27.133   03 Jun 2027 22:38:12.253           105.120                 Moscow          3285.000
       232   03 Jun 2027 22:38:26.646   03 Jun 2027 22:43:01.136           274.490                 Moscow          8577.812
       233   03 Jun 2027 23:01:31.078   03 Jun 2027 23:09:19.382           468.304               CapeTown         14634.500
       234   04 Jun 2027 03:13:24.465   04 Jun 2027 03:13:56.484            32.019               Magadan1          1000.594
       235   04 Jun 2027 03:14:05.434   04 Jun 2027 03:14:08.972             3.538                Anadyr2           110.563
       236   04 Jun 2027 03:14:19.413   04 Jun 2027 03:15:00.640            41.227               Magadan1          1288.344
       237   04 Jun 2027 03:15:08.679   04 Jun 2027 03:17:34.939           146.260                Anadyr2          4570.625
       238   04 Jun 2027 03:17:34.939   04 Jun 2027 03:17:41.430             6.491                Anadyr1           202.844
       239   04 Jun 2027 03:17:41.430   04 Jun 2027 03:19:29.498           108.068                Anadyr2          3377.125
       240   04 Jun 2027 04:49:29.877   04 Jun 2027 04:49:41.395            11.518                Irkutsk           359.938
       241   04 Jun 2027 04:50:02.844   04 Jun 2027 04:53:56.468           233.624               Magadan1          7300.750
       242   04 Jun 2027 04:54:24.395   04 Jun 2027 04:54:37.726            13.331                Irkutsk           416.594
       243   04 Jun 2027 04:55:02.308   04 Jun 2027 04:55:13.251            10.943              Murmansk1           341.969
       244   04 Jun 2027 04:55:13.251   04 Jun 2027 04:55:45.869            32.618              Murmansk2          1019.313
       245   04 Jun 2027 04:56:29.097   04 Jun 2027 04:56:51.742            22.645              Murmansk2           707.656
       246   04 Jun 2027 05:02:24.921   04 Jun 2027 05:02:27.331             2.410              Murmansk2            75.313
       247   04 Jun 2027 05:30:03.731   04 Jun 2027 05:35:57.570           353.839            RioGallegos         11057.469
       248   04 Jun 2027 06:07:08.943   04 Jun 2027 06:15:30.665           501.722                Sumatra         15678.813
       249   04 Jun 2027 06:24:49.036   04 Jun 2027 06:25:10.649            21.613                Norilsk           675.406
       250   04 Jun 2027 06:25:38.481   04 Jun 2027 06:26:21.249            42.768                Novosib          1336.500
       251   04 Jun 2027 06:26:39.385   04 Jun 2027 06:26:46.810             7.425                Irkutsk           232.031
       252   04 Jun 2027 06:26:47.303   04 Jun 2027 06:27:40.278            52.975               Magadan1          1655.469
       253   04 Jun 2027 06:27:40.278   04 Jun 2027 06:27:55.208            14.930               Magadan2           466.563
       254   04 Jun 2027 06:27:59.217   04 Jun 2027 06:28:07.330             8.113               Magadan2           253.531
       255   04 Jun 2027 06:28:08.793   04 Jun 2027 06:29:23.563            74.770                Norilsk          2336.563
       256   04 Jun 2027 06:29:28.891   04 Jun 2027 06:30:57.137            88.246              Murmansk2          2757.687
       257   04 Jun 2027 07:06:10.455   04 Jun 2027 07:06:46.128            35.673            RioGallegos          1114.781
       258   04 Jun 2027 07:08:17.737   04 Jun 2027 07:08:44.849            27.112            RioGallegos           847.250
       259   04 Jun 2027 07:40:37.162   04 Jun 2027 07:42:25.552           108.390                Sumatra          3387.187
       260   04 Jun 2027 07:48:22.165   04 Jun 2027 07:49:06.314            44.149                Sumatra          1379.656
       261   04 Jun 2027 07:49:55.077   04 Jun 2027 07:51:19.251            84.174                  Delhi          2630.437
       262   04 Jun 2027 07:51:22.088   04 Jun 2027 07:53:20.292           118.204                  Delhi          3693.875
       263   04 Jun 2027 07:55:17.366   04 Jun 2027 07:56:41.466            84.100                  Delhi          2628.125
       264   04 Jun 2027 08:02:27.522   04 Jun 2027 08:02:41.250            13.728                Novosib           429.000
       265   04 Jun 2027 08:02:43.990   04 Jun 2027 08:03:15.691            31.701                Novosib           990.656
       266   04 Jun 2027 08:03:26.122   04 Jun 2027 08:04:16.706            50.584                Norilsk          1580.750
       267   04 Jun 2027 08:04:21.434   04 Jun 2027 08:05:23.719            62.285                 Moscow          1946.406
       268   04 Jun 2027 08:05:44.687   04 Jun 2027 08:06:38.954            54.267                Novosib          1695.844
       269   04 Jun 2027 08:06:47.634   04 Jun 2027 08:06:57.336             9.702                Norilsk           303.187
       270   04 Jun 2027 08:07:37.242   04 Jun 2027 08:07:55.492            18.250              Murmansk2           570.313
       271   04 Jun 2027 08:49:10.295   04 Jun 2027 08:49:47.684            37.389            RioGallegos          1168.406
       272   04 Jun 2027 09:25:10.369   04 Jun 2027 09:27:38.209           147.840                  Delhi          4620.000
       273   04 Jun 2027 09:28:53.440   04 Jun 2027 09:29:42.818            49.378                  Delhi          1543.062
       274   04 Jun 2027 09:33:13.320   04 Jun 2027 09:34:06.667            53.347                  Delhi          1667.094
       275   04 Jun 2027 09:37:50.716   04 Jun 2027 09:37:58.285             7.569                 Moscow           236.531
       276   04 Jun 2027 09:38:05.124   04 Jun 2027 09:38:34.509            29.385              Murmansk1           918.281
       277   04 Jun 2027 09:38:49.765   04 Jun 2027 09:39:20.602            30.837              Murmansk2           963.656
       278   04 Jun 2027 09:39:23.333   04 Jun 2027 09:39:25.488             2.155                Norilsk            67.344
       279   04 Jun 2027 09:39:27.159   04 Jun 2027 09:39:33.758             6.599              Murmansk1           206.219
       280   04 Jun 2027 09:39:54.566   04 Jun 2027 09:39:56.010             1.444                Novosib            45.125
       281   04 Jun 2027 09:40:02.230   04 Jun 2027 09:40:50.931            48.701              Murmansk1          1521.906
       282   04 Jun 2027 09:40:55.688   04 Jun 2027 09:41:28.387            32.699                Novosib          1021.844
       283   04 Jun 2027 09:41:46.977   04 Jun 2027 09:42:08.388            21.411              Murmansk2           669.094
       284   04 Jun 2027 09:42:08.388   04 Jun 2027 09:42:21.970            13.582              Murmansk1           424.437
       285   04 Jun 2027 09:42:35.965   04 Jun 2027 09:44:00.098            84.133              Murmansk1          2629.156
       286   04 Jun 2027 11:13:00.112   04 Jun 2027 11:13:30.595            30.483              Murmansk1           952.594
       287   04 Jun 2027 11:14:44.254   04 Jun 2027 11:14:55.589            11.335                 Moscow           354.219
       288   04 Jun 2027 11:15:01.842   04 Jun 2027 11:15:18.650            16.808              Murmansk1           525.250
       289   04 Jun 2027 11:15:28.953   04 Jun 2027 11:16:07.016            38.063                 Moscow          1189.469
       290   04 Jun 2027 11:16:17.779   04 Jun 2027 11:16:44.248            26.469                 Moscow           827.156
       291   04 Jun 2027 11:17:02.838   04 Jun 2027 11:17:26.509            23.671              Murmansk2           739.719
       292   04 Jun 2027 11:17:44.255   04 Jun 2027 11:17:44.423             0.168                 Moscow             5.250
       293   04 Jun 2027 11:17:44.895   04 Jun 2027 11:18:12.878            27.983                Norilsk           874.469
       294   04 Jun 2027 11:18:47.328   04 Jun 2027 11:18:54.147             6.819                 Moscow           213.094
       295   04 Jun 2027 12:23:15.165   04 Jun 2027 12:27:06.756           231.591               CapeTown          7237.219
       296   04 Jun 2027 12:28:37.323   04 Jun 2027 12:29:28.861            51.538               CapeTown          1610.562
       297   04 Jun 2027 12:50:05.386   04 Jun 2027 12:51:53.720           108.334              Murmansk2          3385.437
       298   04 Jun 2027 12:54:30.005   04 Jun 2027 12:54:44.342            14.337              Murmansk1           448.031
       299   04 Jun 2027 13:03:32.085   04 Jun 2027 13:05:35.262           123.177                Anadyr1          3849.281
       300   04 Jun 2027 13:05:44.457   04 Jun 2027 13:09:39.827           235.370                Anadyr2          7355.313
       301   04 Jun 2027 13:11:29.637   04 Jun 2027 13:12:44.838            75.201                Anadyr2          2350.031
       302   04 Jun 2027 14:39:11.642   04 Jun 2027 14:40:25.120            73.478                Anadyr2          2296.187
       303   04 Jun 2027 14:41:18.742   04 Jun 2027 14:42:06.039            47.297                Anadyr1          1478.031
       304   04 Jun 2027 14:42:15.390   04 Jun 2027 14:51:24.591           549.201               Magadan2         17162.531
       305   04 Jun 2027 16:17:25.692   04 Jun 2027 16:18:04.679            38.987               Magadan1          1218.344
       306   04 Jun 2027 17:11:06.373   04 Jun 2027 17:17:18.785           372.412            RioGallegos         11637.875
       307   04 Jun 2027 17:54:34.430   04 Jun 2027 17:55:18.658            44.228                Norilsk          1382.125
       308   04 Jun 2027 17:57:55.902   04 Jun 2027 18:05:36.697           460.795                Irkutsk         14399.844
       309   04 Jun 2027 18:12:42.372   04 Jun 2027 18:21:42.955           540.583                Sumatra         16893.219
       310   04 Jun 2027 19:37:08.614   04 Jun 2027 19:39:20.327           131.713                Novosib          4116.031
       311   04 Jun 2027 19:43:02.868   04 Jun 2027 19:49:27.348           384.480                  Delhi         12015.000
       312   04 Jun 2027 21:07:46.049   04 Jun 2027 21:13:22.824           336.775              Murmansk1         10524.219
       313   04 Jun 2027 22:46:15.193   04 Jun 2027 22:47:10.370            55.177              Murmansk1          1724.281
       314   04 Jun 2027 22:54:24.128   04 Jun 2027 22:55:04.644            40.516                 Moscow          1266.125
       315   04 Jun 2027 23:12:40.055   04 Jun 2027 23:12:48.254             8.199               CapeTown           256.219
       316   04 Jun 2027 23:14:27.343   04 Jun 2027 23:20:28.565           361.222               CapeTown         11288.188
       317   05 Jun 2027 01:58:20.111   05 Jun 2027 01:59:26.693            66.582                 Moscow          2080.687
       318   05 Jun 2027 02:04:33.781   05 Jun 2027 02:04:43.805            10.024                 Moscow           313.250
       319   05 Jun 2027 02:06:04.366   05 Jun 2027 02:07:25.545            81.179                 Moscow          2536.844
       320   05 Jun 2027 03:24:14.090   05 Jun 2027 03:24:17.645             3.555               Magadan2           111.094
       321   05 Jun 2027 03:24:30.215   05 Jun 2027 03:25:19.282            49.067               Magadan2          1533.344
       322   05 Jun 2027 03:25:52.430   05 Jun 2027 03:26:15.353            22.923               Magadan2           716.344
       323   05 Jun 2027 03:26:21.642   05 Jun 2027 03:26:30.784             9.142                Anadyr1           285.687
       324   05 Jun 2027 03:26:37.979   05 Jun 2027 03:26:49.519            11.540               Magadan1           360.625
       325   05 Jun 2027 03:27:02.667   05 Jun 2027 03:28:19.412            76.745               Magadan1          2398.281
       326   05 Jun 2027 03:28:37.163   05 Jun 2027 03:29:22.854            45.691                Anadyr1          1427.844
       327   05 Jun 2027 03:29:22.854   05 Jun 2027 03:29:31.916             9.062                Anadyr2           283.188
       328   05 Jun 2027 03:29:55.580   05 Jun 2027 03:30:23.232            27.652                Anadyr2           864.125
       329   05 Jun 2027 03:30:31.279   05 Jun 2027 03:30:45.007            13.728               Magadan2           429.000
       330   05 Jun 2027 03:30:45.007   05 Jun 2027 03:31:20.953            35.946               Magadan1          1123.312
       331   05 Jun 2027 04:14:10.176   05 Jun 2027 04:15:04.332            54.156            RioGallegos          1692.375
       332   05 Jun 2027 04:58:14.628   05 Jun 2027 04:59:20.868            66.240                Irkutsk          2070.000
       333   05 Jun 2027 05:01:30.557   05 Jun 2027 05:03:28.357           117.800                Irkutsk          3681.250
       334   05 Jun 2027 05:04:26.171   05 Jun 2027 05:04:52.171            26.000                Anadyr2           812.500
       335   05 Jun 2027 05:04:59.656   05 Jun 2027 05:05:31.260            31.604                Anadyr2           987.625
       336   05 Jun 2027 05:05:52.265   05 Jun 2027 05:05:58.901             6.636               Magadan1           207.375
       337   05 Jun 2027 05:06:14.293   05 Jun 2027 05:06:28.048            13.755                Norilsk           429.844
       338   05 Jun 2027 05:06:37.665   05 Jun 2027 05:06:56.483            18.818               Magadan2           588.062
       339   05 Jun 2027 05:07:04.367   05 Jun 2027 05:07:47.866            43.499              Murmansk1          1359.344
       340   05 Jun 2027 05:14:20.376   05 Jun 2027 05:14:33.259            12.883              Murmansk1           402.594
       341   05 Jun 2027 05:41:54.831   05 Jun 2027 05:47:31.595           336.764            RioGallegos         10523.875
       342   05 Jun 2027 06:18:20.080   05 Jun 2027 06:26:17.643           477.563                Sumatra         14923.844
       343   05 Jun 2027 06:37:37.951   05 Jun 2027 06:37:46.699             8.748                Norilsk           273.375
       344   05 Jun 2027 06:38:22.202   05 Jun 2027 06:38:43.126            20.924                Irkutsk           653.875
       345   05 Jun 2027 06:38:55.634   05 Jun 2027 06:39:23.974            28.340                Norilsk           885.625
       346   05 Jun 2027 06:39:29.115   05 Jun 2027 06:39:36.745             7.630                Norilsk           238.437
       347   05 Jun 2027 06:39:42.633   05 Jun 2027 06:39:45.350             2.717                Irkutsk            84.906
       348   05 Jun 2027 06:40:02.066   05 Jun 2027 06:40:32.279            30.213                Norilsk           944.156
       349   05 Jun 2027 06:40:38.017   05 Jun 2027 06:42:10.213            92.196                Novosib          2881.125
       350   05 Jun 2027 06:42:16.364   05 Jun 2027 06:42:44.724            28.360              Murmansk1           886.250
       351   05 Jun 2027 06:42:57.804   05 Jun 2027 06:43:26.534            28.730                Novosib           897.812
       352   05 Jun 2027 06:43:26.660   05 Jun 2027 06:43:51.294            24.634              Murmansk1           769.812
       353   05 Jun 2027 06:44:21.897   05 Jun 2027 06:44:53.856            31.959              Murmansk1           998.719
       354   05 Jun 2027 07:18:29.814   05 Jun 2027 07:18:45.889            16.075            RioGallegos           502.344
       355   05 Jun 2027 07:19:18.901   05 Jun 2027 07:19:57.929            39.028            RioGallegos          1219.625
       356   05 Jun 2027 07:52:49.027   05 Jun 2027 07:54:05.798            76.771                Sumatra          2399.094
       357   05 Jun 2027 07:56:28.477   05 Jun 2027 07:57:51.566            83.089                Sumatra          2596.531
       358   05 Jun 2027 08:01:31.416   05 Jun 2027 08:03:14.687           103.271                  Delhi          3227.219
       359   05 Jun 2027 08:03:39.205   05 Jun 2027 08:05:15.461            96.256                  Delhi          3008.000
       360   05 Jun 2027 08:13:35.651   05 Jun 2027 08:14:27.251            51.600                Irkutsk          1612.500
       361   05 Jun 2027 08:14:37.213   05 Jun 2027 08:14:54.050            16.837                Irkutsk           526.156
       362   05 Jun 2027 08:14:56.812   05 Jun 2027 08:15:10.164            13.352                Novosib           417.250
       363   05 Jun 2027 08:15:14.159   05 Jun 2027 08:16:13.710            59.551              Murmansk1          1860.969
       364   05 Jun 2027 08:16:23.861   05 Jun 2027 08:17:48.306            84.445                 Moscow          2638.906
       365   05 Jun 2027 08:17:53.848   05 Jun 2027 08:18:26.068            32.220                Norilsk          1006.875
       366   05 Jun 2027 08:18:34.182   05 Jun 2027 08:19:30.282            56.100                 Moscow          1753.125
       367   05 Jun 2027 09:37:33.289   05 Jun 2027 09:41:03.090           209.801                  Delhi          6556.281
       368   05 Jun 2027 09:50:14.637   05 Jun 2027 09:51:37.606            82.969                 Moscow          2592.781
       369   05 Jun 2027 09:52:02.332   05 Jun 2027 09:52:03.995             1.663                Novosib            51.969
       370   05 Jun 2027 09:52:14.589   05 Jun 2027 09:52:56.270            41.681                Norilsk          1302.531
       371   05 Jun 2027 09:52:59.796   05 Jun 2027 09:53:15.927            16.131              Murmansk2           504.094
       372   05 Jun 2027 09:53:15.927   05 Jun 2027 09:53:17.940             2.013              Murmansk1            62.906
       373   05 Jun 2027 09:53:28.875   05 Jun 2027 09:54:43.452            74.577                Novosib          2330.531
       374   05 Jun 2027 11:28:16.676   05 Jun 2027 11:28:29.209            12.533                 Moscow           391.656
       375   05 Jun 2027 11:28:42.756   05 Jun 2027 11:29:09.397            26.641                 Moscow           832.531
       376   05 Jun 2027 11:29:38.521   05 Jun 2027 11:30:00.951            22.430              Murmansk2           700.937
       377   05 Jun 2027 11:41:40.475   05 Jun 2027 11:44:17.776           157.301                Anadyr2          4915.656
       378   05 Jun 2027 12:35:02.085   05 Jun 2027 12:36:17.848            75.763               CapeTown          2367.594
       379   05 Jun 2027 12:46:26.076   05 Jun 2027 12:47:08.475            42.399               CapeTown          1324.969
       380   05 Jun 2027 13:02:27.086   05 Jun 2027 13:03:50.513            83.427              Murmansk2          2607.094
       381   05 Jun 2027 13:04:36.449   05 Jun 2027 13:05:01.617            25.168              Murmansk2           786.500
       382   05 Jun 2027 13:11:23.312   05 Jun 2027 13:12:12.504            49.192              Murmansk2          1537.250
       383   05 Jun 2027 13:15:29.111   05 Jun 2027 13:17:17.992           108.881                Anadyr1          3402.531
       384   05 Jun 2027 13:17:32.116   05 Jun 2027 13:19:15.651           103.535                Anadyr2          3235.469
       385   05 Jun 2027 13:20:29.137   05 Jun 2027 13:21:59.622            90.485                Anadyr2          2827.656
       386   05 Jun 2027 14:42:46.367   05 Jun 2027 14:44:19.670            93.303              Murmansk2          2915.719
       387   05 Jun 2027 14:51:12.602   05 Jun 2027 14:52:25.119            72.517                Anadyr2          2266.156
       388   05 Jun 2027 14:53:45.749   05 Jun 2027 14:54:12.618            26.869                Anadyr2           839.656
       389   05 Jun 2027 14:55:10.679   05 Jun 2027 14:55:36.919            26.240                Anadyr1           820.000
       390   05 Jun 2027 14:55:38.489   05 Jun 2027 14:59:55.381           256.892               Magadan2          8027.875
       391   05 Jun 2027 14:59:56.800   05 Jun 2027 15:04:01.084           244.284               Magadan1          7633.875
       392   05 Jun 2027 16:29:25.603   05 Jun 2027 16:31:04.745            99.142               Magadan2          3098.188
       393   05 Jun 2027 17:22:31.282   05 Jun 2027 17:30:10.614           459.332            RioGallegos         14354.125
       394   05 Jun 2027 18:07:09.982   05 Jun 2027 18:08:37.818            87.836                Norilsk          2744.875
       395   05 Jun 2027 18:09:39.814   05 Jun 2027 18:10:54.726            74.912                Irkutsk          2341.000
       396   05 Jun 2027 18:12:48.663   05 Jun 2027 18:17:40.972           292.309                Irkutsk          9134.656
       397   05 Jun 2027 18:26:57.006   05 Jun 2027 18:31:27.309           270.303                Sumatra          8446.969
       398   05 Jun 2027 19:46:45.575   05 Jun 2027 19:47:16.054            30.479                Novosib           952.469
       399   05 Jun 2027 19:54:06.693   05 Jun 2027 20:02:35.612           508.919                  Delhi         15903.719
       400   05 Jun 2027 21:19:35.458   05 Jun 2027 21:20:20.788            45.330              Murmansk2          1416.562
       401   05 Jun 2027 21:20:55.168   05 Jun 2027 21:25:31.587           276.419              Murmansk1          8638.094
       402   05 Jun 2027 22:59:05.945   05 Jun 2027 23:00:45.060            99.115              Murmansk1          3097.344
       403   05 Jun 2027 23:23:59.933   05 Jun 2027 23:26:31.841           151.908               CapeTown          4747.125
       404   05 Jun 2027 23:28:13.371   05 Jun 2027 23:31:11.546           178.175               CapeTown          5567.969
       405   06 Jun 2027 01:02:07.547   06 Jun 2027 01:03:24.455            76.908               CapeTown          2403.375
       406   06 Jun 2027 01:55:29.339   06 Jun 2027 01:56:19.858            50.519               Magadan1          1578.719
       407   06 Jun 2027 01:56:53.308   06 Jun 2027 01:57:11.422            18.114               Magadan1           566.062
       408   06 Jun 2027 02:00:12.602   06 Jun 2027 02:00:33.076            20.474               Magadan1           639.813
       409   06 Jun 2027 02:01:48.926   06 Jun 2027 02:01:56.077             7.151               Magadan1           223.469
       410   06 Jun 2027 02:03:27.524   06 Jun 2027 02:04:05.998            38.474               Magadan1          1202.313
       411   06 Jun 2027 02:06:54.884   06 Jun 2027 02:07:36.014            41.130              Murmansk2          1285.312
       412   06 Jun 2027 02:08:19.885   06 Jun 2027 02:08:33.413            13.528              Murmansk1           422.750
       413   06 Jun 2027 02:08:43.804   06 Jun 2027 02:08:58.407            14.603              Murmansk1           456.344
       414   06 Jun 2027 02:10:25.408   06 Jun 2027 02:11:16.953            51.545                 Moscow          1610.781
       415   06 Jun 2027 02:12:38.179   06 Jun 2027 02:14:17.840            99.661                 Moscow          3114.406
       416   06 Jun 2027 03:35:13.666   06 Jun 2027 03:35:25.952            12.286               Magadan1           383.937
       417   06 Jun 2027 03:37:21.476   06 Jun 2027 03:37:52.584            31.108               Magadan2           972.125
       418   06 Jun 2027 03:38:19.725   06 Jun 2027 03:38:34.198            14.473                Anadyr1           452.281
       419   06 Jun 2027 03:38:39.461   06 Jun 2027 03:39:04.473            25.012               Magadan1           781.625
       420   06 Jun 2027 03:39:08.680   06 Jun 2027 03:40:37.954            89.274                Anadyr1          2789.813
       421   06 Jun 2027 03:41:18.949   06 Jun 2027 03:41:24.999             6.050               Magadan2           189.062
       422   06 Jun 2027 03:41:37.913   06 Jun 2027 03:42:24.718            46.805                Anadyr2          1462.656
       423   06 Jun 2027 03:42:28.351   06 Jun 2027 03:43:21.794            53.443               Magadan2          1670.094
       424   06 Jun 2027 04:25:13.384   06 Jun 2027 04:25:34.665            21.281            RioGallegos           665.031
       425   06 Jun 2027 05:15:12.312   06 Jun 2027 05:15:58.167            45.855                Irkutsk          1432.969
       426   06 Jun 2027 05:16:01.810   06 Jun 2027 05:16:32.222            30.412                Novosib           950.375
       427   06 Jun 2027 05:17:19.352   06 Jun 2027 05:18:11.656            52.304               Magadan2          1634.500
       428   06 Jun 2027 05:18:11.656   06 Jun 2027 05:18:50.877            39.221               Magadan1          1225.656
       429   06 Jun 2027 05:53:49.098   06 Jun 2027 05:56:09.269           140.171            RioGallegos          4380.344
       430   06 Jun 2027 05:57:18.799   06 Jun 2027 05:57:49.511            30.712            RioGallegos           959.750
       431   06 Jun 2027 05:58:13.413   06 Jun 2027 05:58:21.305             7.892            RioGallegos           246.625
       432   06 Jun 2027 06:29:45.072   06 Jun 2027 06:33:09.202           204.130                Sumatra          6379.063
       433   06 Jun 2027 06:33:58.948   06 Jun 2027 06:36:49.811           170.863                Sumatra          5339.469
       434   06 Jun 2027 06:49:34.417   06 Jun 2027 06:49:39.862             5.445                Norilsk           170.156
       435   06 Jun 2027 06:50:03.806   06 Jun 2027 06:50:35.437            31.631                Novosib           988.469
       436   06 Jun 2027 06:50:54.933   06 Jun 2027 06:50:56.370             1.437                Novosib            44.906
       437   06 Jun 2027 06:50:57.596   06 Jun 2027 06:51:24.870            27.274                Novosib           852.312
       438   06 Jun 2027 06:51:33.238   06 Jun 2027 06:51:36.510             3.272                Norilsk           102.250
       439   06 Jun 2027 06:51:46.900   06 Jun 2027 06:51:49.185             2.285                Irkutsk            71.406
       440   06 Jun 2027 06:51:49.767   06 Jun 2027 06:52:41.847            52.080                Irkutsk          1627.500
       441   06 Jun 2027 06:52:52.992   06 Jun 2027 06:53:17.790            24.798                Novosib           774.938
       442   06 Jun 2027 06:53:33.902   06 Jun 2027 06:54:03.402            29.500                Norilsk           921.875
       443   06 Jun 2027 06:54:07.366   06 Jun 2027 06:55:10.866            63.500              Murmansk1          1984.375
       444   06 Jun 2027 06:55:10.866   06 Jun 2027 06:55:48.748            37.882              Murmansk2          1183.813
       445   06 Jun 2027 06:55:57.907   06 Jun 2027 06:56:31.044            33.137                Novosib          1035.531
       446   06 Jun 2027 07:38:07.016   06 Jun 2027 07:38:18.604            11.588            RioGallegos           362.125
       447   06 Jun 2027 08:05:07.709   06 Jun 2027 08:05:52.820            45.111                Sumatra          1409.719
       448   06 Jun 2027 08:07:08.071   06 Jun 2027 08:07:41.816            33.745                Sumatra          1054.531
       449   06 Jun 2027 08:08:43.116   06 Jun 2027 08:09:27.152            44.036                Sumatra          1376.125
       450   06 Jun 2027 08:13:14.008   06 Jun 2027 08:15:51.745           157.737                  Delhi          4929.281
       451   06 Jun 2027 08:17:15.912   06 Jun 2027 08:17:28.388            12.476                  Delhi           389.875
       452   06 Jun 2027 08:26:43.637   06 Jun 2027 08:27:07.330            23.693                Irkutsk           740.406
       453   06 Jun 2027 08:27:15.636   06 Jun 2027 08:27:29.696            14.060              Murmansk1           439.375
       454   06 Jun 2027 08:27:29.696   06 Jun 2027 08:27:39.765            10.069              Murmansk2           314.656
       455   06 Jun 2027 08:27:50.123   06 Jun 2027 08:28:03.348            13.225              Murmansk1           413.281
       456   06 Jun 2027 08:28:17.936   06 Jun 2027 08:28:39.416            21.480              Murmansk1           671.250
       457   06 Jun 2027 08:28:39.416   06 Jun 2027 08:28:46.834             7.418              Murmansk2           231.813
       458   06 Jun 2027 08:28:48.050   06 Jun 2027 08:30:03.367            75.317                 Moscow          2353.656
       459   06 Jun 2027 08:30:08.931   06 Jun 2027 08:30:30.132            21.201                Novosib           662.531
       460   06 Jun 2027 08:30:43.166   06 Jun 2027 08:31:18.641            35.475              Murmansk2          1108.594
       461   06 Jun 2027 09:50:04.633   06 Jun 2027 09:52:32.185           147.552                  Delhi          4611.000
       462   06 Jun 2027 09:53:58.660   06 Jun 2027 09:54:25.515            26.855                  Delhi           839.219
       463   06 Jun 2027 09:58:55.536   06 Jun 2027 09:59:16.562            21.026                  Delhi           657.062
       464   06 Jun 2027 10:02:28.782   06 Jun 2027 10:02:45.504            16.722                Novosib           522.562
       465   06 Jun 2027 10:02:59.754   06 Jun 2027 10:03:54.094            54.340                Norilsk          1698.125
       466   06 Jun 2027 10:04:03.287   06 Jun 2027 10:04:21.009            17.722              Murmansk2           553.813
       467   06 Jun 2027 10:04:21.009   06 Jun 2027 10:04:43.988            22.979              Murmansk1           718.094
       468   06 Jun 2027 10:05:03.571   06 Jun 2027 10:05:06.480             2.909              Murmansk1            90.906
       469   06 Jun 2027 10:05:09.082   06 Jun 2027 10:06:14.443            65.361                 Moscow          2042.531
       470   06 Jun 2027 10:06:20.697   06 Jun 2027 10:06:27.865             7.168                Norilsk           224.000
       471   06 Jun 2027 10:07:03.672   06 Jun 2027 10:07:09.756             6.084              Murmansk1           190.125
       472   06 Jun 2027 10:07:40.599   06 Jun 2027 10:08:05.494            24.895                Norilsk           777.969
       473   06 Jun 2027 10:10:47.950   06 Jun 2027 10:10:52.869             4.919              Murmansk1           153.719
       474   06 Jun 2027 10:11:56.693   06 Jun 2027 10:12:04.802             8.109              Murmansk1           253.406
       475   06 Jun 2027 11:52:54.369   06 Jun 2027 11:57:44.984           290.615                Anadyr2          9081.719
       476   06 Jun 2027 12:49:37.158   06 Jun 2027 12:49:59.028            21.870               CapeTown           683.437
       477   06 Jun 2027 13:14:51.103   06 Jun 2027 13:15:37.993            46.890              Murmansk1          1465.312
       478   06 Jun 2027 13:15:55.196   06 Jun 2027 13:16:37.159            41.963              Murmansk1          1311.344
       479   06 Jun 2027 13:21:02.873   06 Jun 2027 13:21:14.376            11.503              Murmansk2           359.469
       480   06 Jun 2027 13:27:27.067   06 Jun 2027 13:31:45.158           258.091                Anadyr1          8065.344
       481   06 Jun 2027 13:34:02.144   06 Jun 2027 13:36:02.205           120.061                Anadyr2          3751.906
       482   06 Jun 2027 14:56:43.856   06 Jun 2027 14:57:41.324            57.468              Murmansk1          1795.875
