uniorb/output/strategy_2/Drop/Drop_KinoSat_111707.txt

KinoSat_111707
-------------------------
    Access    *     Start Time (UTCG)     *     Stop Time (UTCG)  *   Duration (s)        *       Station  *  Data (Mbytes)
         1   01 Jun 2027 04:31:58.620   01 Jun 2027 04:32:11.206            12.586                Norilsk           393.312
         2   01 Jun 2027 04:32:19.012   01 Jun 2027 04:32:54.356            35.344              Murmansk1          1104.500
         3   01 Jun 2027 04:32:54.356   01 Jun 2027 04:35:29.865           155.509              Murmansk2          4859.656
         4   01 Jun 2027 04:36:06.208   01 Jun 2027 04:37:32.663            86.455                 Moscow          2701.719
         5   01 Jun 2027 04:51:18.294   01 Jun 2027 04:53:29.625           131.331               CapeTown          4104.094
         6   01 Jun 2027 04:54:26.169   01 Jun 2027 04:54:30.121             3.952               CapeTown           123.500
         7   01 Jun 2027 05:55:46.350   01 Jun 2027 05:55:46.571             0.221               Magadan2             6.906
         8   01 Jun 2027 06:06:58.719   01 Jun 2027 06:07:01.314             2.595              Murmansk1            81.094
         9   01 Jun 2027 06:07:14.644   01 Jun 2027 06:07:39.704            25.060              Murmansk2           783.125
        10   01 Jun 2027 06:07:53.337   01 Jun 2027 06:08:17.642            24.305                 Moscow           759.531
        11   01 Jun 2027 06:08:30.796   01 Jun 2027 06:08:31.813             1.017              Murmansk1            31.781
        12   01 Jun 2027 06:09:03.900   01 Jun 2027 06:09:49.800            45.900              Murmansk2          1434.375
        13   01 Jun 2027 06:10:12.511   01 Jun 2027 06:10:58.123            45.612              Murmansk2          1425.375
        14   01 Jun 2027 06:12:21.691   01 Jun 2027 06:12:25.388             3.697              Murmansk2           115.531
        15   01 Jun 2027 06:13:23.417   01 Jun 2027 06:14:11.340            47.923                 Moscow          1497.594
        16   01 Jun 2027 06:27:14.718   01 Jun 2027 06:28:29.021            74.303               CapeTown          2321.969
        17   01 Jun 2027 07:29:49.996   01 Jun 2027 07:30:04.234            14.238               Magadan2           444.937
        18   01 Jun 2027 07:30:20.219   01 Jun 2027 07:30:53.077            32.858                Anadyr1          1026.812
        19   01 Jun 2027 07:30:53.077   01 Jun 2027 07:32:24.966            91.889                Anadyr2          2871.531
        20   01 Jun 2027 07:32:41.112   01 Jun 2027 07:34:21.679           100.567               Magadan1          3142.719
        21   01 Jun 2027 07:34:21.679   01 Jun 2027 07:35:22.836            61.157               Magadan2          1911.156
        22   01 Jun 2027 09:05:34.825   01 Jun 2027 09:07:35.025           120.200                Anadyr1          3756.250
        23   01 Jun 2027 09:08:07.106   01 Jun 2027 09:08:32.210            25.104                Anadyr1           784.500
        24   01 Jun 2027 09:09:07.707   01 Jun 2027 09:11:40.644           152.937                Anadyr1          4779.281
        25   01 Jun 2027 10:42:34.793   01 Jun 2027 10:46:55.714           260.921               Magadan1          8153.781
        26   01 Jun 2027 13:00:42.490   01 Jun 2027 13:06:42.861           360.371            RioGallegos         11261.594
        27   01 Jun 2027 13:37:58.921   01 Jun 2027 13:39:45.644           106.723                Sumatra          3335.094
        28   01 Jun 2027 13:50:52.087   01 Jun 2027 13:54:44.019           231.932                Irkutsk          7247.875
        29   01 Jun 2027 15:20:48.729   01 Jun 2027 15:22:01.504            72.775                  Delhi          2274.219
        30   01 Jun 2027 15:24:54.474   01 Jun 2027 15:26:56.977           122.503                  Delhi          3828.219
        31   01 Jun 2027 15:29:15.340   01 Jun 2027 15:31:57.485           162.145                Novosib          5067.031
        32   01 Jun 2027 18:44:02.680   01 Jun 2027 18:46:37.822           155.142                 Moscow          4848.188
        33   01 Jun 2027 18:48:00.907   01 Jun 2027 18:49:37.361            96.454              Murmansk2          3014.187
        34   01 Jun 2027 19:02:50.992   01 Jun 2027 19:02:55.288             4.296               Magadan1           134.250
        35   01 Jun 2027 19:03:03.309   01 Jun 2027 19:03:40.161            36.852               Magadan1          1151.625
        36   01 Jun 2027 19:52:48.921   01 Jun 2027 19:55:40.268           171.347               CapeTown          5354.594
        37   01 Jun 2027 20:32:24.619   01 Jun 2027 20:32:56.089            31.470                Anadyr1           983.438
        38   01 Jun 2027 20:33:01.142   01 Jun 2027 20:33:21.320            20.178                Anadyr1           630.563
        39   01 Jun 2027 20:33:31.777   01 Jun 2027 20:34:22.687            50.910                Anadyr2          1590.937
        40   01 Jun 2027 20:34:39.294   01 Jun 2027 20:34:58.720            19.426               Magadan1           607.062
        41   01 Jun 2027 20:35:17.414   01 Jun 2027 20:35:53.056            35.642               Magadan1          1113.813
        42   01 Jun 2027 20:36:27.848   01 Jun 2027 20:36:34.637             6.789               Magadan2           212.156
        43   01 Jun 2027 20:37:13.645   01 Jun 2027 20:37:44.518            30.873               Magadan1           964.781
        44   01 Jun 2027 20:40:11.653   01 Jun 2027 20:40:17.470             5.817               Magadan1           181.781
        45   01 Jun 2027 20:41:15.752   01 Jun 2027 20:41:50.581            34.829               Magadan1          1088.406
        46   01 Jun 2027 22:07:36.715   01 Jun 2027 22:11:19.457           222.742                Anadyr2          6960.687
        47   01 Jun 2027 22:11:20.297   01 Jun 2027 22:13:03.180           102.883               Magadan1          3215.094
        48   01 Jun 2027 22:14:19.568   01 Jun 2027 22:14:22.330             2.762                Norilsk            86.312
        49   01 Jun 2027 22:14:55.483   01 Jun 2027 22:15:55.804            60.321               Magadan2          1885.031
        50   01 Jun 2027 22:17:39.144   01 Jun 2027 22:18:03.779            24.635                Irkutsk           769.844
        51   01 Jun 2027 22:21:09.857   01 Jun 2027 22:21:26.198            16.341               Magadan2           510.656
        52   01 Jun 2027 23:01:55.556   01 Jun 2027 23:03:04.014            68.458            RioGallegos          2139.312
        53   01 Jun 2027 23:05:03.969   01 Jun 2027 23:05:13.190             9.221            RioGallegos           288.156
        54   01 Jun 2027 23:07:20.112   01 Jun 2027 23:07:47.365            27.253            RioGallegos           851.656
        55   01 Jun 2027 23:10:42.496   01 Jun 2027 23:11:23.354            40.858            RioGallegos          1276.813
        56   01 Jun 2027 23:43:10.950   01 Jun 2027 23:45:02.844           111.894                Anadyr1          3496.687
        57   01 Jun 2027 23:45:09.808   01 Jun 2027 23:45:33.190            23.382                Anadyr1           730.688
        58   01 Jun 2027 23:45:45.933   01 Jun 2027 23:47:07.271            81.338                Norilsk          2541.812
        59   01 Jun 2027 23:47:16.986   01 Jun 2027 23:47:24.981             7.995               Magadan1           249.844
        60   01 Jun 2027 23:47:34.930   01 Jun 2027 23:47:42.520             7.590               Magadan1           237.187
        61   01 Jun 2027 23:49:19.406   01 Jun 2027 23:49:48.431            29.025               Magadan1           907.031
        62   01 Jun 2027 23:50:29.485   01 Jun 2027 23:50:41.328            11.843                Irkutsk           370.094
        63   01 Jun 2027 23:51:07.037   01 Jun 2027 23:52:04.930            57.893                Novosib          1809.156
        64   01 Jun 2027 23:54:42.380   01 Jun 2027 23:55:21.591            39.211                Novosib          1225.344
        65   01 Jun 2027 23:57:36.886   01 Jun 2027 23:57:40.735             3.849                Novosib           120.281
        66   02 Jun 2027 00:06:25.403   02 Jun 2027 00:06:48.550            23.147                Sumatra           723.344
        67   02 Jun 2027 00:09:24.534   02 Jun 2027 00:10:01.668            37.134                Sumatra          1160.438
        68   02 Jun 2027 00:11:57.037   02 Jun 2027 00:12:45.977            48.940                Sumatra          1529.375
        69   02 Jun 2027 00:45:03.391   02 Jun 2027 00:45:09.840             6.449            RioGallegos           201.531
        70   02 Jun 2027 00:45:58.458   02 Jun 2027 00:46:24.247            25.789            RioGallegos           805.906
        71   02 Jun 2027 01:17:49.315   02 Jun 2027 01:19:39.606           110.291                Anadyr2          3446.594
        72   02 Jun 2027 01:21:24.353   02 Jun 2027 01:23:07.414           103.061                Norilsk          3220.656
        73   02 Jun 2027 01:23:12.843   02 Jun 2027 01:23:28.228            15.385               Magadan1           480.781
        74   02 Jun 2027 01:25:05.477   02 Jun 2027 01:25:13.025             7.548               Magadan2           235.875
        75   02 Jun 2027 01:25:17.908   02 Jun 2027 01:26:31.514            73.606                Irkutsk          2300.187
        76   02 Jun 2027 01:27:27.284   02 Jun 2027 01:27:54.983            27.699                Novosib           865.594
        77   02 Jun 2027 01:29:03.802   02 Jun 2027 01:30:08.771            64.969                Novosib          2030.281
        78   02 Jun 2027 01:38:37.680   02 Jun 2027 01:39:19.248            41.568                  Delhi          1299.000
        79   02 Jun 2027 01:41:35.628   02 Jun 2027 01:43:53.575           137.947                Sumatra          4310.844
        80   02 Jun 2027 02:17:53.400   02 Jun 2027 02:18:03.224             9.824            RioGallegos           307.000
        81   02 Jun 2027 02:51:17.709   02 Jun 2027 02:51:20.564             2.855                Anadyr2            89.219
        82   02 Jun 2027 02:52:27.142   02 Jun 2027 02:52:36.750             9.608                Anadyr2           300.250
        83   02 Jun 2027 02:53:51.181   02 Jun 2027 02:54:04.688            13.507                Anadyr2           422.094
        84   02 Jun 2027 02:54:36.155   02 Jun 2027 02:54:54.357            18.202                Anadyr1           568.813
        85   02 Jun 2027 02:56:18.851   02 Jun 2027 02:56:42.100            23.249                Anadyr2           726.531
        86   02 Jun 2027 02:57:23.757   02 Jun 2027 02:58:57.600            93.843                Norilsk          2932.594
        87   02 Jun 2027 02:59:41.762   02 Jun 2027 03:00:43.765            62.003              Murmansk2          1937.594
        88   02 Jun 2027 03:03:02.802   02 Jun 2027 03:03:04.934             2.132              Murmansk2            66.625
        89   02 Jun 2027 03:03:24.233   02 Jun 2027 03:03:41.146            16.913                Irkutsk           528.531
        90   02 Jun 2027 03:03:41.650   02 Jun 2027 03:04:31.450            49.800                Irkutsk          1556.250
        91   02 Jun 2027 03:04:45.170   02 Jun 2027 03:05:28.201            43.031              Murmansk2          1344.719
        92   02 Jun 2027 03:05:41.652   02 Jun 2027 03:06:49.360            67.708                 Moscow          2115.875
        93   02 Jun 2027 03:06:57.881   02 Jun 2027 03:07:11.807            13.926                Novosib           435.188
        94   02 Jun 2027 03:07:31.902   02 Jun 2027 03:08:42.791            70.889                Irkutsk          2215.281
        95   02 Jun 2027 03:10:53.023   02 Jun 2027 03:13:21.625           148.602                  Delhi          4643.813
        96   02 Jun 2027 04:43:08.684   02 Jun 2027 04:45:45.269           156.585              Murmansk1          4893.281
        97   02 Jun 2027 04:45:45.269   02 Jun 2027 04:46:49.146            63.877              Murmansk2          1996.156
        98   02 Jun 2027 04:46:53.953   02 Jun 2027 04:47:02.204             8.251              Murmansk2           257.844
        99   02 Jun 2027 04:47:14.829   02 Jun 2027 04:47:45.439            30.610              Murmansk2           956.562
       100   02 Jun 2027 04:48:10.966   02 Jun 2027 04:50:02.182           111.216                 Moscow          3475.500
       101   02 Jun 2027 05:03:01.820   02 Jun 2027 05:06:25.811           203.991               CapeTown          6374.719
       102   02 Jun 2027 05:59:24.903   02 Jun 2027 06:00:18.927            54.024                Anadyr2          1688.250
       103   02 Jun 2027 06:00:18.927   02 Jun 2027 06:00:21.020             2.093                Anadyr1            65.406
       104   02 Jun 2027 06:06:32.467   02 Jun 2027 06:06:43.960            11.493               Magadan2           359.156
       105   02 Jun 2027 06:06:43.960   02 Jun 2027 06:07:31.475            47.515               Magadan1          1484.844
       106   02 Jun 2027 06:18:34.464   02 Jun 2027 06:18:59.717            25.253              Murmansk2           789.156
       107   02 Jun 2027 07:42:06.419   02 Jun 2027 07:42:32.928            26.509               Magadan2           828.406
       108   02 Jun 2027 07:42:54.733   02 Jun 2027 07:45:17.712           142.979                Anadyr2          4468.094
       109   02 Jun 2027 07:45:27.004   02 Jun 2027 07:46:30.649            63.645               Magadan1          1988.906
       110   02 Jun 2027 09:16:22.906   02 Jun 2027 09:17:21.407            58.501                Anadyr2          1828.156
       111   02 Jun 2027 09:17:21.407   02 Jun 2027 09:20:59.638           218.231                Anadyr1          6819.719
       112   02 Jun 2027 09:21:46.951   02 Jun 2027 09:22:06.571            19.620                Norilsk           613.125
       113   02 Jun 2027 09:22:07.325   02 Jun 2027 09:23:32.977            85.652                Anadyr2          2676.625
       114   02 Jun 2027 10:01:00.849   02 Jun 2027 10:01:35.018            34.169            RioGallegos          1067.781
       115   02 Jun 2027 10:50:47.561   02 Jun 2027 10:55:27.577           280.016               Magadan1          8750.500
       116   02 Jun 2027 10:56:07.286   02 Jun 2027 10:56:39.924            32.638                Norilsk          1019.938
       117   02 Jun 2027 10:56:58.054   02 Jun 2027 10:57:25.622            27.568                Irkutsk           861.500
       118   02 Jun 2027 10:57:33.699   02 Jun 2027 10:58:47.381            73.682                Irkutsk          2302.562
       119   02 Jun 2027 10:59:09.369   02 Jun 2027 10:59:17.929             8.560                Norilsk           267.500
       120   02 Jun 2027 10:59:24.752   02 Jun 2027 11:00:07.375            42.623              Murmansk2          1331.969
       121   02 Jun 2027 11:34:19.762   02 Jun 2027 11:35:08.576            48.814            RioGallegos          1525.437
       122   02 Jun 2027 11:37:30.839   02 Jun 2027 11:37:59.578            28.739            RioGallegos           898.094
       123   02 Jun 2027 12:09:12.903   02 Jun 2027 12:11:18.071           125.168                Sumatra          3911.500
       124   02 Jun 2027 12:23:07.057   02 Jun 2027 12:24:37.035            89.978                Irkutsk          2811.812
       125   02 Jun 2027 12:25:09.496   02 Jun 2027 12:25:26.721            17.225                Novosib           538.281
       126   02 Jun 2027 12:27:39.130   02 Jun 2027 12:28:43.594            64.464                Norilsk          2014.500
       127   02 Jun 2027 12:31:21.325   02 Jun 2027 12:31:38.464            17.139                Norilsk           535.594
       128   02 Jun 2027 13:13:31.308   02 Jun 2027 13:14:38.533            67.225            RioGallegos          2100.781
       129   02 Jun 2027 13:15:06.226   02 Jun 2027 13:18:07.563           181.337            RioGallegos          5666.781
       130   02 Jun 2027 14:00:55.024   02 Jun 2027 14:01:27.920            32.896                Novosib          1028.000
       131   02 Jun 2027 14:03:16.837   02 Jun 2027 14:05:35.090           138.253                Novosib          4320.406
       132   02 Jun 2027 14:06:25.739   02 Jun 2027 14:07:16.948            51.209                Irkutsk          1600.281
       133   02 Jun 2027 15:35:37.528   02 Jun 2027 15:36:23.554            46.026                  Delhi          1438.313
       134   02 Jun 2027 15:37:49.178   02 Jun 2027 15:40:07.715           138.537                 Moscow          4329.281
       135   02 Jun 2027 15:40:28.525   02 Jun 2027 15:41:02.887            34.362                 Moscow          1073.812
       136   02 Jun 2027 15:41:10.993   02 Jun 2027 15:42:07.532            56.539              Murmansk2          1766.844
       137   02 Jun 2027 15:43:02.300   02 Jun 2027 15:45:13.374           131.074                Novosib          4096.063
       138   02 Jun 2027 15:48:21.217   02 Jun 2027 15:49:20.205            58.988                Norilsk          1843.375
       139   02 Jun 2027 16:52:51.956   02 Jun 2027 16:52:56.580             4.624               CapeTown           144.500
       140   02 Jun 2027 16:53:42.468   02 Jun 2027 16:55:02.927            80.459               CapeTown          2514.344
       141   02 Jun 2027 17:15:00.252   02 Jun 2027 17:15:43.463            43.211                 Moscow          1350.344
       142   02 Jun 2027 17:17:59.944   02 Jun 2027 17:18:26.173            26.229              Murmansk2           819.656
       143   02 Jun 2027 17:18:29.492   02 Jun 2027 17:19:51.712            82.220              Murmansk2          2569.375
       144   02 Jun 2027 17:32:22.511   02 Jun 2027 17:33:37.650            75.139                Anadyr2          2348.094
       145   02 Jun 2027 17:35:33.969   02 Jun 2027 17:35:53.467            19.498                Anadyr2           609.312
       146   02 Jun 2027 17:36:30.119   02 Jun 2027 17:36:51.662            21.543                Anadyr2           673.219
       147   02 Jun 2027 18:27:11.903   02 Jun 2027 18:29:24.175           132.272               CapeTown          4133.500
       148   02 Jun 2027 18:56:58.189   02 Jun 2027 18:57:33.211            35.022              Murmansk1          1094.437
       149   02 Jun 2027 18:58:23.916   02 Jun 2027 19:01:25.111           181.195              Murmansk2          5662.344
       150   02 Jun 2027 19:01:36.006   02 Jun 2027 19:02:05.291            29.285              Murmansk2           915.156
       151   02 Jun 2027 19:11:36.173   02 Jun 2027 19:12:38.330            62.157               Magadan1          1942.406
       152   02 Jun 2027 19:13:49.770   02 Jun 2027 19:14:23.977            34.207               Magadan1          1068.969
       153   02 Jun 2027 19:15:08.157   02 Jun 2027 19:15:52.478            44.321               Magadan2          1385.031
       154   02 Jun 2027 20:07:19.867   02 Jun 2027 20:08:58.125            98.258               CapeTown          3070.563
       155   02 Jun 2027 20:43:43.893   02 Jun 2027 20:45:13.745            89.852                Anadyr2          2807.875
       156   02 Jun 2027 20:45:39.513   02 Jun 2027 20:47:29.981           110.468                Anadyr2          3452.125
       157   02 Jun 2027 20:47:43.415   02 Jun 2027 20:49:13.717            90.302               Magadan2          2821.938
       158   02 Jun 2027 20:50:57.986   02 Jun 2027 20:50:58.916             0.930               Magadan1            29.063
       159   02 Jun 2027 20:51:58.776   02 Jun 2027 20:52:04.135             5.359               Magadan1           167.469
       160   02 Jun 2027 22:19:37.313   02 Jun 2027 22:21:36.150           118.837                Anadyr1          3713.656
       161   02 Jun 2027 22:21:42.969   02 Jun 2027 22:23:19.073            96.104                Anadyr2          3003.250
       162   02 Jun 2027 22:23:20.873   02 Jun 2027 22:25:00.828            99.955                Norilsk          3123.594
       163   02 Jun 2027 22:25:11.445   02 Jun 2027 22:27:04.570           113.125               Magadan1          3535.156
       164   02 Jun 2027 22:28:13.197   02 Jun 2027 22:28:58.199            45.002                Irkutsk          1406.313
       165   02 Jun 2027 22:29:51.567   02 Jun 2027 22:30:18.978            27.411                Irkutsk           856.594
       166   02 Jun 2027 23:13:47.623   02 Jun 2027 23:14:53.662            66.039            RioGallegos          2063.719
       167   02 Jun 2027 23:18:00.993   02 Jun 2027 23:18:23.075            22.082            RioGallegos           690.062
       168   02 Jun 2027 23:18:52.880   02 Jun 2027 23:19:51.540            58.660            RioGallegos          1833.125
       169   02 Jun 2027 23:55:06.776   02 Jun 2027 23:56:28.447            81.671                Anadyr2          2552.219
       170   02 Jun 2027 23:57:01.217   02 Jun 2027 23:57:21.782            20.565                Anadyr1           642.656
       171   02 Jun 2027 23:57:26.984   02 Jun 2027 23:59:09.441           102.457                Norilsk          3201.781
       172   02 Jun 2027 23:59:17.360   02 Jun 2027 23:59:23.892             6.532               Magadan1           204.125
       173   02 Jun 2027 23:59:26.705   02 Jun 2027 23:59:37.131            10.426               Magadan1           325.813
       174   03 Jun 2027 00:00:30.771   03 Jun 2027 00:00:50.162            19.391               Magadan2           605.969
       175   03 Jun 2027 00:01:10.331   03 Jun 2027 00:01:19.036             8.705               Magadan2           272.031
       176   03 Jun 2027 00:01:29.687   03 Jun 2027 00:02:00.910            31.223                Irkutsk           975.719
       177   03 Jun 2027 00:02:33.864   03 Jun 2027 00:03:01.715            27.851                Irkutsk           870.344
       178   03 Jun 2027 00:03:54.886   03 Jun 2027 00:04:12.228            17.342                Novosib           541.937
       179   03 Jun 2027 00:05:11.213   03 Jun 2027 00:05:46.361            35.148                Novosib          1098.375
       180   03 Jun 2027 00:06:16.663   03 Jun 2027 00:08:19.117           122.454                Irkutsk          3826.688
       181   03 Jun 2027 00:15:11.133   03 Jun 2027 00:15:40.366            29.233                Sumatra           913.531
       182   03 Jun 2027 00:23:20.570   03 Jun 2027 00:24:45.514            84.944                Sumatra          2654.500
       183   03 Jun 2027 00:59:15.129   03 Jun 2027 00:59:47.358            32.229            RioGallegos          1007.156
       184   03 Jun 2027 01:29:35.514   03 Jun 2027 01:30:25.762            50.248                Anadyr2          1570.250
       185   03 Jun 2027 01:30:52.576   03 Jun 2027 01:31:40.920            48.344                Anadyr1          1510.750
       186   03 Jun 2027 01:33:26.713   03 Jun 2027 01:35:09.042           102.329                Norilsk          3197.781
       187   03 Jun 2027 01:35:10.490   03 Jun 2027 01:35:40.271            29.781               Magadan2           930.656
       188   03 Jun 2027 01:37:19.824   03 Jun 2027 01:40:14.204           174.380                Novosib          5449.375
       189   03 Jun 2027 01:44:49.823   03 Jun 2027 01:45:39.459            49.636                  Delhi          1551.125
       190   03 Jun 2027 01:53:24.958   03 Jun 2027 01:54:18.449            53.491                  Delhi          1671.594
       191   03 Jun 2027 01:55:24.740   03 Jun 2027 01:58:10.378           165.638                Sumatra          5176.188
       192   03 Jun 2027 03:17:07.762   03 Jun 2027 03:17:34.804            27.042                Norilsk           845.063
       193   03 Jun 2027 03:17:46.525   03 Jun 2027 03:18:12.388            25.863                 Moscow           808.219
       194   03 Jun 2027 03:18:23.599   03 Jun 2027 03:19:07.351            43.752              Murmansk1          1367.250
       195   03 Jun 2027 03:19:14.181   03 Jun 2027 03:19:20.819             6.638                Novosib           207.437
       196   03 Jun 2027 03:19:42.522   03 Jun 2027 03:20:44.789            62.267                Irkutsk          1945.844
       197   03 Jun 2027 03:20:51.136   03 Jun 2027 03:21:29.391            38.255              Murmansk1          1195.469
       198   03 Jun 2027 03:21:32.907   03 Jun 2027 03:24:47.680           194.773                 Moscow          6086.656
       199   03 Jun 2027 03:44:09.514   03 Jun 2027 03:44:14.519             5.005               CapeTown           156.406
       200   03 Jun 2027 03:45:10.136   03 Jun 2027 03:47:21.290           131.154               CapeTown          4098.563
       201   03 Jun 2027 04:54:53.465   03 Jun 2027 04:56:01.362            67.897              Murmansk2          2121.781
       202   03 Jun 2027 04:56:29.780   03 Jun 2027 04:57:08.797            39.017              Murmansk2          1219.281
       203   03 Jun 2027 04:57:37.304   03 Jun 2027 04:58:22.803            45.499              Murmansk1          1421.844
       204   03 Jun 2027 04:58:22.803   03 Jun 2027 04:58:50.897            28.094              Murmansk2           877.937
       205   03 Jun 2027 04:58:50.897   03 Jun 2027 04:59:09.431            18.534              Murmansk1           579.188
       206   03 Jun 2027 04:59:23.096   03 Jun 2027 05:00:16.245            53.149                 Moscow          1660.906
       207   03 Jun 2027 05:02:33.250   03 Jun 2027 05:03:12.921            39.671                 Moscow          1239.719
       208   03 Jun 2027 05:14:50.684   03 Jun 2027 05:15:43.196            52.512               CapeTown          1641.000
       209   03 Jun 2027 05:16:20.493   03 Jun 2027 05:17:07.963            47.470               CapeTown          1483.438
       210   03 Jun 2027 06:17:38.180   03 Jun 2027 06:18:30.986            52.806                Anadyr1          1650.188
       211   03 Jun 2027 06:19:01.221   03 Jun 2027 06:19:18.444            17.223               Magadan2           538.219
       212   03 Jun 2027 06:19:38.027   03 Jun 2027 06:20:32.043            54.016                Anadyr2          1688.000
       213   03 Jun 2027 06:21:31.469   03 Jun 2027 06:22:15.241            43.772                Anadyr1          1367.875
       214   03 Jun 2027 06:29:42.108   03 Jun 2027 06:30:14.971            32.863                Norilsk          1026.969
       215   03 Jun 2027 06:31:00.085   03 Jun 2027 06:31:22.343            22.258              Murmansk2           695.563
       216   03 Jun 2027 06:31:56.631   03 Jun 2027 06:32:30.746            34.115                 Moscow          1066.094
       217   03 Jun 2027 06:33:23.238   03 Jun 2027 06:34:19.469            56.231                 Moscow          1757.219
       218   03 Jun 2027 06:52:20.791   03 Jun 2027 06:52:41.038            20.247               CapeTown           632.719
       219   03 Jun 2027 06:55:05.786   03 Jun 2027 06:55:40.550            34.764               CapeTown          1086.375
       220   03 Jun 2027 07:51:59.629   03 Jun 2027 07:52:12.457            12.828               Magadan1           400.875
       221   03 Jun 2027 07:52:37.137   03 Jun 2027 07:53:41.462            64.325                Anadyr2          2010.156
       222   03 Jun 2027 07:54:08.343   03 Jun 2027 07:55:03.032            54.689               Magadan2          1709.031
       223   03 Jun 2027 07:55:16.343   03 Jun 2027 07:56:27.386            71.043                Anadyr2          2220.094
       224   03 Jun 2027 07:56:42.466   03 Jun 2027 07:56:43.274             0.808               Magadan2            25.250
       225   03 Jun 2027 07:57:36.590   03 Jun 2027 07:57:55.342            18.752                Anadyr2           586.000
       226   03 Jun 2027 07:58:17.367   03 Jun 2027 07:59:08.258            50.891                Anadyr1          1590.344
       227   03 Jun 2027 08:03:41.195   03 Jun 2027 08:04:14.071            32.876                 Moscow          1027.375
       228   03 Jun 2027 08:39:19.320   03 Jun 2027 08:39:48.798            29.478            RioGallegos           921.187
       229   03 Jun 2027 09:27:12.975   03 Jun 2027 09:28:00.366            47.391               Magadan2          1480.969
       230   03 Jun 2027 09:28:06.927   03 Jun 2027 09:28:21.246            14.319                Anadyr2           447.469
       231   03 Jun 2027 09:29:01.068   03 Jun 2027 09:31:59.153           178.085                Anadyr1          5565.156
       232   03 Jun 2027 09:32:29.080   03 Jun 2027 09:34:06.992            97.912                Anadyr2          3059.750
       233   03 Jun 2027 09:34:19.269   03 Jun 2027 09:34:33.230            13.961                Norilsk           436.281
       234   03 Jun 2027 09:34:35.235   03 Jun 2027 09:35:46.169            70.934               Magadan2          2216.687
       235   03 Jun 2027 10:12:16.256   03 Jun 2027 10:12:54.054            37.798            RioGallegos          1181.188
       236   03 Jun 2027 10:49:59.971   03 Jun 2027 10:50:21.913            21.942                Sumatra           685.687
       237   03 Jun 2027 11:03:48.330   03 Jun 2027 11:07:16.458           208.128               Magadan1          6504.000
       238   03 Jun 2027 11:07:16.458   03 Jun 2027 11:07:45.130            28.672               Magadan2           896.000
       239   03 Jun 2027 11:08:08.990   03 Jun 2027 11:10:20.034           131.044               Magadan2          4095.125
       240   03 Jun 2027 11:10:28.788   03 Jun 2027 11:10:38.424             9.636                Irkutsk           301.125
       241   03 Jun 2027 11:10:47.713   03 Jun 2027 11:11:10.684            22.971                Norilsk           717.844
       242   03 Jun 2027 11:11:21.262   03 Jun 2027 11:11:38.588            17.326                Irkutsk           541.438
       243   03 Jun 2027 11:12:24.774   03 Jun 2027 11:12:36.530            11.756              Murmansk2           367.375
       244   03 Jun 2027 11:16:10.758   03 Jun 2027 11:16:13.500             2.742              Murmansk2            85.688
       245   03 Jun 2027 11:18:47.937   03 Jun 2027 11:19:13.317            25.380              Murmansk1           793.125
       246   03 Jun 2027 11:46:29.388   03 Jun 2027 11:47:01.533            32.145            RioGallegos          1004.531
       247   03 Jun 2027 11:49:30.060   03 Jun 2027 11:50:14.776            44.716            RioGallegos          1397.375
       248   03 Jun 2027 12:21:10.782   03 Jun 2027 12:21:55.443            44.661                Sumatra          1395.656
       249   03 Jun 2027 12:34:18.982   03 Jun 2027 12:34:41.523            22.541                  Delhi           704.406
       250   03 Jun 2027 12:35:24.643   03 Jun 2027 12:36:39.802            75.159                Irkutsk          2348.719
       251   03 Jun 2027 12:37:15.953   03 Jun 2027 12:37:58.699            42.746                Novosib          1335.813
       252   03 Jun 2027 12:39:45.386   03 Jun 2027 12:41:32.283           106.897                Norilsk          3340.531
       253   03 Jun 2027 12:46:46.557   03 Jun 2027 12:47:01.632            15.075                Norilsk           471.094
       254   03 Jun 2027 13:26:33.751   03 Jun 2027 13:30:17.336           223.585            RioGallegos          6987.031
       255   03 Jun 2027 14:13:16.715   03 Jun 2027 14:14:14.740            58.025                Novosib          1813.281
       256   03 Jun 2027 14:15:13.146   03 Jun 2027 14:18:08.020           174.874                Novosib          5464.812
       257   03 Jun 2027 14:26:28.147   03 Jun 2027 14:26:32.985             4.838                Norilsk           151.187
       258   03 Jun 2027 15:49:47.259   03 Jun 2027 15:53:05.271           198.012                 Moscow          6187.875
       259   03 Jun 2027 15:53:13.456   03 Jun 2027 15:54:53.384            99.928              Murmansk2          3122.750
       260   03 Jun 2027 15:57:11.211   03 Jun 2027 15:58:44.521            93.310                Norilsk          2915.937
       261   03 Jun 2027 16:00:38.723   03 Jun 2027 16:02:32.910           114.187                Norilsk          3568.344
       262   03 Jun 2027 17:04:39.556   03 Jun 2027 17:04:56.477            16.921               CapeTown           528.781
       263   03 Jun 2027 17:09:39.052   03 Jun 2027 17:09:46.819             7.767               CapeTown           242.719
       264   03 Jun 2027 17:27:07.445   03 Jun 2027 17:27:53.229            45.784                 Moscow          1430.750
       265   03 Jun 2027 17:28:39.740   03 Jun 2027 17:30:54.357           134.617                 Moscow          4206.781
       266   03 Jun 2027 17:38:20.673   03 Jun 2027 17:38:44.486            23.813              Murmansk1           744.156
       267   03 Jun 2027 17:44:16.535   03 Jun 2027 17:46:05.347           108.812                Anadyr2          3400.375
       268   03 Jun 2027 18:39:16.845   03 Jun 2027 18:41:03.810           106.965               CapeTown          3342.656
       269   03 Jun 2027 19:09:34.972   03 Jun 2027 19:10:30.416            55.444              Murmansk2          1732.625
       270   03 Jun 2027 19:11:52.261   03 Jun 2027 19:14:27.471           155.210              Murmansk1          4850.312
       271   03 Jun 2027 19:22:26.607   03 Jun 2027 19:23:03.649            37.042                Anadyr2          1157.563
       272   03 Jun 2027 19:23:14.358   03 Jun 2027 19:24:21.268            66.910               Magadan2          2090.937
       273   03 Jun 2027 19:24:33.107   03 Jun 2027 19:24:50.354            17.247               Magadan2           538.969
       274   03 Jun 2027 19:25:39.226   03 Jun 2027 19:25:58.964            19.738               Magadan2           616.812
       275   03 Jun 2027 19:27:00.601   03 Jun 2027 19:27:29.674            29.073               Magadan2           908.531
       276   03 Jun 2027 20:19:45.101   03 Jun 2027 20:20:36.222            51.121               CapeTown          1597.531
       277   03 Jun 2027 20:55:45.682   03 Jun 2027 20:57:22.899            97.217                Anadyr1          3038.031
       278   03 Jun 2027 20:57:41.248   03 Jun 2027 20:58:54.328            73.080                Anadyr2          2283.750
       279   03 Jun 2027 20:59:13.804   03 Jun 2027 21:02:02.786           168.982               Magadan2          5280.687
       280   03 Jun 2027 21:02:02.786   03 Jun 2027 21:02:57.425            54.639               Magadan1          1707.469
       281   03 Jun 2027 21:08:33.381   03 Jun 2027 21:08:51.206            17.825               Magadan1           557.031
       282   03 Jun 2027 21:53:53.932   03 Jun 2027 21:54:55.128            61.196            RioGallegos          1912.375
       283   03 Jun 2027 22:31:37.553   03 Jun 2027 22:34:33.921           176.368                Anadyr2          5511.500
       284   03 Jun 2027 22:34:58.172   03 Jun 2027 22:37:47.320           169.148               Magadan1          5285.875
       285   03 Jun 2027 22:39:08.610   03 Jun 2027 22:39:19.035            10.425                Irkutsk           325.781
       286   03 Jun 2027 22:40:11.465   03 Jun 2027 22:40:54.349            42.884                Irkutsk          1340.125
       287   03 Jun 2027 22:41:58.613   03 Jun 2027 22:42:02.849             4.236                Irkutsk           132.375
       288   03 Jun 2027 22:44:08.738   03 Jun 2027 22:44:37.472            28.734                Irkutsk           897.938
       289   03 Jun 2027 22:55:01.591   03 Jun 2027 22:56:28.475            86.884                Sumatra          2715.125
       290   03 Jun 2027 22:57:44.097   03 Jun 2027 22:59:11.115            87.018                Sumatra          2719.313
       291   04 Jun 2027 00:07:01.611   04 Jun 2027 00:07:20.916            19.305                Anadyr2           603.281
       292   04 Jun 2027 00:07:21.871   04 Jun 2027 00:07:31.216             9.345                Anadyr1           292.031
       293   04 Jun 2027 00:07:47.061   04 Jun 2027 00:08:35.347            48.286                Anadyr2          1508.937
       294   04 Jun 2027 00:09:28.626   04 Jun 2027 00:11:11.640           103.014                Norilsk          3219.188
       295   04 Jun 2027 00:11:22.269   04 Jun 2027 00:12:18.241            55.972               Magadan1          1749.125
       296   04 Jun 2027 00:13:27.434   04 Jun 2027 00:14:34.949            67.515                Irkutsk          2109.844
       297   04 Jun 2027 00:15:02.734   04 Jun 2027 00:15:49.234            46.500                Irkutsk          1453.125
       298   04 Jun 2027 00:17:49.807   04 Jun 2027 00:18:17.495            27.688                Novosib           865.250
       299   04 Jun 2027 00:18:32.082   04 Jun 2027 00:19:02.983            30.901                Novosib           965.656
       300   04 Jun 2027 00:27:11.846   04 Jun 2027 00:27:26.738            14.892                Sumatra           465.375
       301   04 Jun 2027 00:29:21.315   04 Jun 2027 00:29:49.009            27.694                Sumatra           865.437
       302   04 Jun 2027 00:31:18.669   04 Jun 2027 00:33:03.552           104.883                Sumatra          3277.594
       303   04 Jun 2027 01:05:26.365   04 Jun 2027 01:06:30.152            63.787            RioGallegos          1993.344
       304   04 Jun 2027 01:41:20.509   04 Jun 2027 01:41:39.820            19.311                Anadyr1           603.469
       305   04 Jun 2027 01:42:19.611   04 Jun 2027 01:42:58.724            39.113                Anadyr1          1222.281
       306   04 Jun 2027 01:43:27.169   04 Jun 2027 01:43:42.176            15.007                Anadyr1           468.969
       307   04 Jun 2027 01:43:42.176   04 Jun 2027 01:43:58.734            16.558                Anadyr2           517.437
       308   04 Jun 2027 01:45:29.043   04 Jun 2027 01:47:14.167           105.124                Norilsk          3285.125
       309   04 Jun 2027 01:48:46.903   04 Jun 2027 01:49:28.848            41.945              Murmansk2          1310.781
       310   04 Jun 2027 01:49:35.743   04 Jun 2027 01:51:25.841           110.098                Novosib          3440.563
       311   04 Jun 2027 01:54:32.100   04 Jun 2027 01:54:59.004            26.904                Irkutsk           840.750
       312   04 Jun 2027 01:56:43.089   04 Jun 2027 01:57:31.958            48.869                  Delhi          1527.156
       313   04 Jun 2027 02:05:06.318   04 Jun 2027 02:06:14.683            68.365                  Delhi          2136.406
       314   04 Jun 2027 02:38:26.389   04 Jun 2027 02:39:15.709            49.320            RioGallegos          1541.250
       315   04 Jun 2027 02:40:25.446   04 Jun 2027 02:42:44.716           139.270            RioGallegos          4352.187
       316   04 Jun 2027 03:30:22.066   04 Jun 2027 03:30:44.350            22.284                 Moscow           696.375
       317   04 Jun 2027 03:31:00.821   04 Jun 2027 03:32:31.206            90.385              Murmansk2          2824.531
       318   04 Jun 2027 03:32:49.263   04 Jun 2027 03:32:51.280             2.017                Novosib            63.031
       319   04 Jun 2027 03:32:53.540   04 Jun 2027 03:34:12.111            78.571                Norilsk          2455.344
       320   04 Jun 2027 03:34:42.847   04 Jun 2027 03:34:58.593            15.746                Novosib           492.063
       321   04 Jun 2027 05:06:58.801   04 Jun 2027 05:07:07.597             8.796              Murmansk2           274.875
       322   04 Jun 2027 05:07:08.146   04 Jun 2027 05:07:28.198            20.052                Norilsk           626.625
       323   04 Jun 2027 05:07:55.449   04 Jun 2027 05:08:18.136            22.687              Murmansk2           708.969
       324   04 Jun 2027 05:08:20.033   04 Jun 2027 05:08:27.346             7.313              Murmansk2           228.531
       325   04 Jun 2027 05:08:27.346   04 Jun 2027 05:08:48.315            20.969              Murmansk1           655.281
       326   04 Jun 2027 05:08:48.315   04 Jun 2027 05:09:28.399            40.084              Murmansk2          1252.625
       327   04 Jun 2027 05:09:53.287   04 Jun 2027 05:10:50.115            56.828                 Moscow          1775.875
       328   04 Jun 2027 05:11:04.725   04 Jun 2027 05:11:55.831            51.106              Murmansk2          1597.062
       329   04 Jun 2027 05:26:44.659   04 Jun 2027 05:29:38.403           173.744               CapeTown          5429.500
       330   04 Jun 2027 06:29:50.998   04 Jun 2027 06:30:17.939            26.941                Anadyr2           841.906
       331   04 Jun 2027 06:30:32.541   04 Jun 2027 06:32:05.290            92.749                Anadyr1          2898.406
       332   04 Jun 2027 06:32:33.892   04 Jun 2027 06:33:02.717            28.825                Anadyr1           900.781
       333   04 Jun 2027 07:05:11.288   04 Jun 2027 07:05:48.307            37.019               CapeTown          1156.844
       334   04 Jun 2027 07:07:34.820   04 Jun 2027 07:09:46.934           132.114               CapeTown          4128.563
       335   04 Jun 2027 08:03:59.377   04 Jun 2027 08:04:15.592            16.215               Magadan1           506.719
       336   04 Jun 2027 08:04:38.617   04 Jun 2027 08:05:15.572            36.955                Anadyr1          1154.844
       337   04 Jun 2027 08:05:32.797   04 Jun 2027 08:05:34.120             1.323               Magadan2            41.344
       338   04 Jun 2027 08:05:34.120   04 Jun 2027 08:06:09.953            35.833               Magadan1          1119.781
       339   04 Jun 2027 08:06:17.926   04 Jun 2027 08:07:01.105            43.179                Anadyr2          1349.344
       340   04 Jun 2027 08:07:04.084   04 Jun 2027 08:08:28.164            84.080                Anadyr2          2627.500
       341   04 Jun 2027 08:08:40.789   04 Jun 2027 08:09:53.035            72.246               Magadan2          2257.688
       342   04 Jun 2027 08:50:33.048   04 Jun 2027 08:51:08.577            35.529            RioGallegos          1110.281
       343   04 Jun 2027 08:58:03.875   04 Jun 2027 08:58:15.011            11.136            RioGallegos           348.000
       344   04 Jun 2027 09:38:11.548   04 Jun 2027 09:39:00.343            48.795               Magadan2          1524.844
       345   04 Jun 2027 09:39:00.343   04 Jun 2027 09:40:15.618            75.275               Magadan1          2352.344
       346   04 Jun 2027 09:40:31.514   04 Jun 2027 09:41:45.671            74.157               Magadan1          2317.406
       347   04 Jun 2027 09:41:51.197   04 Jun 2027 09:44:54.651           183.454                Anadyr1          5732.938
       348   04 Jun 2027 09:45:11.973   04 Jun 2027 09:45:44.366            32.393               Magadan2          1012.281
       349   04 Jun 2027 09:45:56.469   04 Jun 2027 09:47:20.517            84.048               Magadan2          2626.500
       350   04 Jun 2027 09:47:31.068   04 Jun 2027 09:47:58.672            27.604              Murmansk1           862.625
       351   04 Jun 2027 09:48:15.789   04 Jun 2027 09:48:23.443             7.654              Murmansk2           239.188
       352   04 Jun 2027 09:49:37.059   04 Jun 2027 09:50:05.002            27.943              Murmansk1           873.219
       353   04 Jun 2027 10:22:50.267   04 Jun 2027 10:23:04.888            14.621            RioGallegos           456.906
       354   04 Jun 2027 10:23:34.751   04 Jun 2027 10:23:37.456             2.705            RioGallegos            84.531
       355   04 Jun 2027 10:25:32.394   04 Jun 2027 10:26:09.456            37.062            RioGallegos          1158.187
       356   04 Jun 2027 11:00:20.425   04 Jun 2027 11:02:04.204           103.779                Sumatra          3243.094
       357   04 Jun 2027 11:16:49.174   04 Jun 2027 11:17:17.319            28.145                Novosib           879.531
       358   04 Jun 2027 11:17:27.023   04 Jun 2027 11:17:44.895            17.872                Norilsk           558.500
       359   04 Jun 2027 11:17:52.383   04 Jun 2027 11:18:30.542            38.159                Irkutsk          1192.469
       360   04 Jun 2027 11:18:43.241   04 Jun 2027 11:19:03.926            20.685                Norilsk           646.406
       361   04 Jun 2027 11:19:07.147   04 Jun 2027 11:20:02.672            55.525                Irkutsk          1735.156
       362   04 Jun 2027 11:20:09.844   04 Jun 2027 11:20:11.159             1.315                Novosib            41.094
       363   04 Jun 2027 11:20:16.838   04 Jun 2027 11:20:43.761            26.923                Norilsk           841.344
       364   04 Jun 2027 11:20:53.393   04 Jun 2027 11:21:04.497            11.104                Norilsk           347.000
       365   04 Jun 2027 11:21:12.682   04 Jun 2027 11:21:36.493            23.811              Murmansk1           744.094
       366   04 Jun 2027 11:21:41.843   04 Jun 2027 11:22:14.142            32.299                Novosib          1009.344
       367   04 Jun 2027 11:22:18.754   04 Jun 2027 11:22:25.652             6.898              Murmansk1           215.562
       368   04 Jun 2027 11:22:25.844   04 Jun 2027 11:22:46.479            20.635                Irkutsk           644.844
       369   04 Jun 2027 11:22:49.214   04 Jun 2027 11:23:13.434            24.220                Norilsk           756.875
       370   04 Jun 2027 11:23:17.755   04 Jun 2027 11:23:38.403            20.648                Novosib           645.250
       371   04 Jun 2027 11:23:57.116   04 Jun 2027 11:24:23.607            26.491              Murmansk1           827.844
       372   04 Jun 2027 11:24:35.397   04 Jun 2027 11:24:54.273            18.876              Murmansk1           589.875
       373   04 Jun 2027 11:58:42.842   04 Jun 2027 11:59:38.467            55.625            RioGallegos          1738.281
       374   04 Jun 2027 12:33:14.337   04 Jun 2027 12:34:47.100            92.763                Sumatra          2898.844
       375   04 Jun 2027 12:46:18.813   04 Jun 2027 12:47:21.356            62.543                  Delhi          1954.469
       376   04 Jun 2027 12:47:46.609   04 Jun 2027 12:48:45.936            59.327                Irkutsk          1853.969
       377   04 Jun 2027 12:50:24.576   04 Jun 2027 12:50:46.801            22.225                Novosib           694.531
       378   04 Jun 2027 12:51:53.258   04 Jun 2027 12:53:33.977           100.719                Norilsk          3147.469
       379   04 Jun 2027 13:04:41.767   04 Jun 2027 13:04:46.286             4.519              Murmansk1           141.219
       380   04 Jun 2027 13:40:03.924   04 Jun 2027 13:42:53.174           169.250            RioGallegos          5289.062
       381   04 Jun 2027 14:20:24.196   04 Jun 2027 14:22:23.391           119.195                  Delhi          3724.844
       382   04 Jun 2027 14:25:42.793   04 Jun 2027 14:26:10.167            27.374                Novosib           855.438
       383   04 Jun 2027 14:29:23.704   04 Jun 2027 14:30:47.197            83.493                Novosib          2609.156
       384   04 Jun 2027 14:31:30.139   04 Jun 2027 14:32:32.081            61.942                Norilsk          1935.688
       385   04 Jun 2027 14:35:06.880   04 Jun 2027 14:35:41.244            34.364                Novosib          1073.875
       386   04 Jun 2027 16:01:48.217   04 Jun 2027 16:04:34.989           166.772                 Moscow          5211.625
       387   04 Jun 2027 16:05:17.504   04 Jun 2027 16:07:14.349           116.845              Murmansk2          3651.406
       388   04 Jun 2027 16:09:56.784   04 Jun 2027 16:13:37.113           220.329                Norilsk          6885.281
       389   04 Jun 2027 16:14:34.337   04 Jun 2027 16:14:35.601             1.264                Norilsk            39.500
       390   04 Jun 2027 17:39:37.390   04 Jun 2027 17:40:32.044            54.654                 Moscow          1707.937
       391   04 Jun 2027 17:42:35.365   04 Jun 2027 17:43:48.149            72.784              Murmansk2          2274.500
       392   04 Jun 2027 17:43:48.300   04 Jun 2027 17:44:41.850            53.550                 Moscow          1673.437
       393   04 Jun 2027 17:45:12.679   04 Jun 2027 17:46:06.569            53.890              Murmansk1          1684.063
       394   04 Jun 2027 17:56:12.309   04 Jun 2027 17:56:16.903             4.594                Anadyr1           143.562
       395   04 Jun 2027 17:56:20.181   04 Jun 2027 17:56:58.069            37.888                Anadyr2          1184.000
       396   04 Jun 2027 17:59:10.960   04 Jun 2027 17:59:19.298             8.338                Anadyr1           260.562
       397   04 Jun 2027 18:01:10.729   04 Jun 2027 18:01:20.236             9.507                Anadyr2           297.094
       398   04 Jun 2027 18:05:40.920   04 Jun 2027 18:05:44.187             3.267                Anadyr2           102.094
       399   04 Jun 2027 18:51:24.672   04 Jun 2027 18:53:13.417           108.745               CapeTown          3398.281
       400   04 Jun 2027 19:00:11.849   04 Jun 2027 19:01:07.388            55.539               CapeTown          1735.594
       401   04 Jun 2027 19:22:15.373   04 Jun 2027 19:23:42.739            87.366              Murmansk1          2730.187
       402   04 Jun 2027 19:23:44.214   04 Jun 2027 19:26:11.563           147.349              Murmansk2          4604.656
       403   04 Jun 2027 19:26:24.043   04 Jun 2027 19:27:51.763            87.720              Murmansk2          2741.250
       404   04 Jun 2027 19:35:25.765   04 Jun 2027 19:35:42.085            16.320               Magadan2           510.000
       405   04 Jun 2027 19:37:55.735   04 Jun 2027 19:38:05.434             9.699               Magadan2           303.094
       406   04 Jun 2027 19:38:18.898   04 Jun 2027 19:38:20.017             1.119               Magadan2            34.969
       407   04 Jun 2027 19:43:40.601   04 Jun 2027 19:43:47.514             6.913               Magadan1           216.031
       408   04 Jun 2027 21:07:47.416   04 Jun 2027 21:11:56.248           248.832                Anadyr2          7776.000
       409   04 Jun 2027 21:12:01.165   04 Jun 2027 21:14:50.553           169.388               Magadan1          5293.375
       410   04 Jun 2027 21:15:55.038   04 Jun 2027 21:16:05.963            10.925               Magadan1           341.406
       411   04 Jun 2027 21:18:24.873   04 Jun 2027 21:18:54.573            29.700               Magadan1           928.125
       412   04 Jun 2027 21:20:19.016   04 Jun 2027 21:20:52.801            33.785               Magadan1          1055.781
       413   04 Jun 2027 22:04:06.001   04 Jun 2027 22:06:30.949           144.948            RioGallegos          4529.625
       414   04 Jun 2027 22:09:02.035   04 Jun 2027 22:09:24.325            22.290            RioGallegos           696.562
       415   04 Jun 2027 22:43:37.379   04 Jun 2027 22:45:13.522            96.143                Anadyr1          3004.469
       416   04 Jun 2027 22:45:31.443   04 Jun 2027 22:45:42.851            11.408                Anadyr1           356.500
       417   04 Jun 2027 22:45:44.578   04 Jun 2027 22:46:05.884            21.306                Norilsk           665.812
       418   04 Jun 2027 22:46:05.930   04 Jun 2027 22:46:29.062            23.132               Magadan1           722.875
       419   04 Jun 2027 22:47:08.865   04 Jun 2027 22:47:45.298            36.433               Magadan2          1138.531
       420   04 Jun 2027 22:47:45.298   04 Jun 2027 22:47:54.677             9.379               Magadan1           293.094
       421   04 Jun 2027 22:48:18.694   04 Jun 2027 22:48:37.002            18.308                Norilsk           572.125
       422   04 Jun 2027 22:48:40.263   04 Jun 2027 22:49:01.534            21.271               Magadan2           664.719
       423   04 Jun 2027 22:50:43.457   04 Jun 2027 22:51:15.583            32.126                Irkutsk          1003.938
       424   04 Jun 2027 22:52:22.988   04 Jun 2027 22:52:57.161            34.173                Irkutsk          1067.906
       425   04 Jun 2027 22:56:21.067   04 Jun 2027 22:57:14.803            53.736                Irkutsk          1679.250
       426   04 Jun 2027 23:05:48.145   04 Jun 2027 23:07:44.768           116.623                Sumatra          3644.469
       427   04 Jun 2027 23:45:34.909   04 Jun 2027 23:45:48.784            13.875            RioGallegos           433.594
       428   05 Jun 2027 00:18:55.371   05 Jun 2027 00:20:44.408           109.037                Anadyr1          3407.406
       429   05 Jun 2027 00:20:55.102   05 Jun 2027 00:20:59.534             4.432                Anadyr2           138.500
       430   05 Jun 2027 00:21:30.501   05 Jun 2027 00:22:09.624            39.123                Norilsk          1222.594
       431   05 Jun 2027 00:22:37.090   05 Jun 2027 00:24:16.341            99.251               Magadan2          3101.594
       432   05 Jun 2027 00:24:58.819   05 Jun 2027 00:25:24.137            25.318               Magadan2           791.187
       433   05 Jun 2027 00:25:26.394   05 Jun 2027 00:26:32.843            66.449                Irkutsk          2076.531
       434   05 Jun 2027 00:29:03.308   05 Jun 2027 00:29:30.408            27.100                Novosib           846.875
       435   05 Jun 2027 00:30:03.616   05 Jun 2027 00:30:33.905            30.289                Novosib           946.531
       436   05 Jun 2027 00:31:38.881   05 Jun 2027 00:31:55.682            16.801                Novosib           525.031
       437   05 Jun 2027 00:35:34.611   05 Jun 2027 00:36:05.604            30.993                Novosib           968.531
       438   05 Jun 2027 00:36:21.076   05 Jun 2027 00:37:29.380            68.304                  Delhi          2134.500
       439   05 Jun 2027 00:45:23.779   05 Jun 2027 00:47:44.023           140.244                Sumatra          4382.625
       440   05 Jun 2027 01:53:04.412   05 Jun 2027 01:53:35.629            31.217                Anadyr1           975.531
       441   05 Jun 2027 01:54:58.179   05 Jun 2027 01:55:10.973            12.794                Anadyr1           399.812
       442   05 Jun 2027 01:55:35.750   05 Jun 2027 01:55:43.321             7.571                Anadyr1           236.594
       443   05 Jun 2027 01:55:47.302   05 Jun 2027 01:56:06.190            18.888                Anadyr1           590.250
       444   05 Jun 2027 01:57:31.324   05 Jun 2027 01:59:02.942            91.618                Norilsk          2863.063
       445   05 Jun 2027 02:00:27.405   05 Jun 2027 02:01:31.289            63.884              Murmansk1          1996.375
       446   05 Jun 2027 02:01:32.780   05 Jun 2027 02:03:17.262           104.482                Irkutsk          3265.062
       447   05 Jun 2027 02:06:38.736   05 Jun 2027 02:07:26.927            48.191                Irkutsk          1505.969
       448   05 Jun 2027 02:12:28.182   05 Jun 2027 02:12:38.775            10.593                  Delhi           331.031
       449   05 Jun 2027 02:15:29.957   05 Jun 2027 02:16:17.415            47.458                  Delhi          1483.062
       450   05 Jun 2027 02:50:32.851   05 Jun 2027 02:54:32.824           239.973            RioGallegos          7499.156
       451   05 Jun 2027 03:43:35.688   05 Jun 2027 03:44:07.598            31.910              Murmansk1           997.187
       452   05 Jun 2027 03:44:12.110   05 Jun 2027 03:44:24.537            12.427              Murmansk2           388.344
       453   05 Jun 2027 03:44:45.530   05 Jun 2027 03:46:26.023           100.493                 Moscow          3140.406
       454   05 Jun 2027 03:47:44.717   05 Jun 2027 03:48:09.625            24.908                Novosib           778.375
       455   05 Jun 2027 03:48:49.102   05 Jun 2027 03:48:58.592             9.490                Novosib           296.563
       456   05 Jun 2027 03:49:16.385   05 Jun 2027 03:52:04.769           168.384                  Delhi          5262.000
       457   05 Jun 2027 04:10:45.524   05 Jun 2027 04:11:25.388            39.864               CapeTown          1245.750
       458   05 Jun 2027 04:13:00.098   05 Jun 2027 04:13:20.992            20.894               CapeTown           652.938
       459   05 Jun 2027 04:14:05.027   05 Jun 2027 04:14:15.282            10.255               CapeTown           320.469
       460   05 Jun 2027 05:19:09.437   05 Jun 2027 05:20:07.023            57.586              Murmansk2          1799.563
       461   05 Jun 2027 05:20:17.559   05 Jun 2027 05:20:50.912            33.353              Murmansk1          1042.281
       462   05 Jun 2027 05:20:50.912   05 Jun 2027 05:23:50.329           179.417              Murmansk2          5606.781
       463   05 Jun 2027 06:41:45.184   05 Jun 2027 06:42:33.956            48.772                Anadyr1          1524.125
       464   05 Jun 2027 06:42:33.956   05 Jun 2027 06:42:41.789             7.833                Anadyr2           244.781
       465   05 Jun 2027 06:42:51.544   05 Jun 2027 06:44:04.221            72.677                Anadyr1          2271.156
       466   05 Jun 2027 06:49:06.863   05 Jun 2027 06:49:24.308            17.445              Murmansk2           545.156
       467   05 Jun 2027 06:52:05.922   05 Jun 2027 06:52:45.382            39.460                 Moscow          1233.125
       468   05 Jun 2027 07:18:23.357   05 Jun 2027 07:19:25.482            62.125               CapeTown          1941.406
       469   05 Jun 2027 08:17:45.199   05 Jun 2027 08:18:14.625            29.426                Anadyr2           919.562
       470   05 Jun 2027 08:18:37.420   05 Jun 2027 08:19:11.922            34.502                Anadyr2          1078.187
       471   05 Jun 2027 08:19:11.922   05 Jun 2027 08:20:28.570            76.648                Anadyr1          2395.250
       472   05 Jun 2027 08:20:41.536   05 Jun 2027 08:21:53.150            71.614               Magadan2          2237.938
       473   05 Jun 2027 08:30:48.560   05 Jun 2027 08:30:56.562             8.002                 Moscow           250.062
       474   05 Jun 2027 08:31:07.229   05 Jun 2027 08:31:38.767            31.538                 Moscow           985.563
       475   05 Jun 2027 09:51:15.756   05 Jun 2027 09:51:48.616            32.860                Irkutsk          1026.875
       476   05 Jun 2027 09:52:04.518   05 Jun 2027 09:52:18.991            14.473                Irkutsk           452.281
       477   05 Jun 2027 09:52:44.254   05 Jun 2027 09:54:40.851           116.597               Magadan2          3643.656
       478   05 Jun 2027 09:54:56.135   05 Jun 2027 09:55:09.977            13.842                Novosib           432.562
       479   05 Jun 2027 09:55:12.047   05 Jun 2027 09:55:32.974            20.927                Irkutsk           653.969
       480   05 Jun 2027 09:55:36.954   05 Jun 2027 09:57:05.216            88.262                Irkutsk          2758.187
       481   05 Jun 2027 09:57:23.499   05 Jun 2027 09:58:16.978            53.479                Anadyr1          1671.219
       482   05 Jun 2027 09:58:32.629   05 Jun 2027 09:59:20.013            47.384              Murmansk2          1480.750
