uniorb/output/strategy_2/Drop/Drop_KinoSat_111907.txt

KinoSat_111907
-------------------------
    Access    *     Start Time (UTCG)     *     Stop Time (UTCG)  *   Duration (s)        *       Station  *  Data (Mbytes)
         1   01 Jun 2027 04:22:42.073   01 Jun 2027 04:23:09.819            27.746              Murmansk2           867.063
         2   01 Jun 2027 04:23:38.704   01 Jun 2027 04:26:11.721           153.017              Murmansk1          4781.781
         3   01 Jun 2027 04:26:16.133   01 Jun 2027 04:32:40.671           384.538                  Delhi         12016.812
         4   01 Jun 2027 05:59:07.032   01 Jun 2027 05:59:57.335            50.303                Norilsk          1571.969
         5   01 Jun 2027 05:59:57.933   01 Jun 2027 06:00:40.278            42.345              Murmansk2          1323.281
         6   01 Jun 2027 06:01:00.087   01 Jun 2027 06:01:05.156             5.069                Norilsk           158.406
         7   01 Jun 2027 06:01:06.706   01 Jun 2027 06:01:48.560            41.854              Murmansk2          1307.937
         8   01 Jun 2027 06:02:15.418   01 Jun 2027 06:02:48.702            33.284              Murmansk1          1040.125
         9   01 Jun 2027 06:03:14.478   01 Jun 2027 06:03:24.584            10.106              Murmansk2           315.813
        10   01 Jun 2027 06:03:40.053   01 Jun 2027 06:06:54.829           194.776                 Moscow          6086.750
        11   01 Jun 2027 07:23:04.474   01 Jun 2027 07:23:17.047            12.573               Magadan1           392.906
        12   01 Jun 2027 07:23:24.192   01 Jun 2027 07:25:49.740           145.548               Magadan1          4548.375
        13   01 Jun 2027 07:27:05.843   01 Jun 2027 07:28:05.909            60.066               Magadan1          1877.063
        14   01 Jun 2027 08:57:37.037   01 Jun 2027 08:59:17.875           100.838                Anadyr1          3151.188
        15   01 Jun 2027 08:59:17.875   01 Jun 2027 09:00:32.452            74.577                Anadyr2          2330.531
        16   01 Jun 2027 09:00:52.042   01 Jun 2027 09:02:13.308            81.266               Magadan1          2539.563
        17   01 Jun 2027 09:02:40.535   01 Jun 2027 09:04:23.789           103.254                Anadyr2          3226.688
        18   01 Jun 2027 10:33:14.024   01 Jun 2027 10:39:17.619           363.595                Anadyr2         11362.344
        19   01 Jun 2027 12:09:06.662   01 Jun 2027 12:13:57.350           290.688               Magadan1          9084.000
        20   01 Jun 2027 13:34:12.232   01 Jun 2027 13:34:15.528             3.296                Sumatra           103.000
        21   01 Jun 2027 13:34:33.934   01 Jun 2027 13:35:03.522            29.588                Sumatra           924.625
        22   01 Jun 2027 13:35:07.543   01 Jun 2027 13:37:58.921           171.378                Sumatra          5355.563
        23   01 Jun 2027 13:49:49.071   01 Jun 2027 13:50:52.087            63.016                Irkutsk          1969.250
        24   01 Jun 2027 14:32:20.640   01 Jun 2027 14:36:08.549           227.909            RioGallegos          7122.156
        25   01 Jun 2027 15:25:40.002   01 Jun 2027 15:27:54.106           134.104                Novosib          4190.750
        26   01 Jun 2027 17:02:16.946   01 Jun 2027 17:08:00.084           343.138                Norilsk         10723.062
        27   01 Jun 2027 18:44:38.323   01 Jun 2027 18:44:43.747             5.424              Murmansk1           169.500
        28   01 Jun 2027 19:48:30.825   01 Jun 2027 19:48:47.136            16.311               CapeTown           509.719
        29   01 Jun 2027 19:49:07.408   01 Jun 2027 19:51:30.163           142.755               CapeTown          4461.094
        30   01 Jun 2027 20:14:28.341   01 Jun 2027 20:20:17.635           349.294              Murmansk2         10915.438
        31   01 Jun 2027 20:20:34.918   01 Jun 2027 20:22:00.042            85.124              Murmansk1          2660.125
        32   01 Jun 2027 22:03:14.689   01 Jun 2027 22:03:27.825            13.136                Anadyr2           410.500
        33   01 Jun 2027 22:03:38.012   01 Jun 2027 22:03:53.071            15.059               Magadan1           470.594
        34   01 Jun 2027 22:04:10.970   01 Jun 2027 22:04:32.916            21.946               Magadan1           685.813
        35   01 Jun 2027 22:06:22.451   01 Jun 2027 22:06:38.278            15.827               Magadan1           494.594
        36   01 Jun 2027 22:06:44.677   01 Jun 2027 22:06:53.599             8.922               Magadan1           278.813
        37   01 Jun 2027 22:06:56.563   01 Jun 2027 22:07:13.232            16.669                Anadyr1           520.906
        38   01 Jun 2027 22:07:40.226   01 Jun 2027 22:07:56.194            15.968               Magadan2           499.000
        39   01 Jun 2027 22:08:27.106   01 Jun 2027 22:08:56.095            28.989                Anadyr1           905.906
        40   01 Jun 2027 22:10:19.140   01 Jun 2027 22:10:37.313            18.173               Magadan1           567.906
        41   01 Jun 2027 22:10:43.174   01 Jun 2027 22:11:12.640            29.466               Magadan2           920.813
        42   01 Jun 2027 22:14:37.497   01 Jun 2027 22:14:55.483            17.986               Magadan2           562.062
        43   01 Jun 2027 22:56:13.002   01 Jun 2027 22:56:41.098            28.096            RioGallegos           878.000
        44   01 Jun 2027 22:57:44.121   01 Jun 2027 22:57:56.082            11.961            RioGallegos           373.781
        45   01 Jun 2027 22:58:43.327   01 Jun 2027 22:59:24.592            41.265            RioGallegos          1289.531
        46   01 Jun 2027 23:35:48.988   01 Jun 2027 23:38:04.685           135.697                Anadyr2          4240.531
        47   01 Jun 2027 23:38:07.306   01 Jun 2027 23:38:33.260            25.954                Anadyr2           811.063
        48   01 Jun 2027 23:38:35.862   01 Jun 2027 23:39:23.217            47.355                Norilsk          1479.844
        49   01 Jun 2027 23:39:53.671   01 Jun 2027 23:39:54.566             0.895               Magadan2            27.969
        50   01 Jun 2027 23:40:11.293   01 Jun 2027 23:40:35.707            24.414               Magadan2           762.937
        51   01 Jun 2027 23:40:47.931   01 Jun 2027 23:41:18.296            30.365                Norilsk           948.906
        52   01 Jun 2027 23:42:14.334   01 Jun 2027 23:43:09.921            55.587               Magadan1          1737.094
        53   01 Jun 2027 23:44:10.074   01 Jun 2027 23:44:34.720            24.646               Magadan2           770.188
        54   01 Jun 2027 23:45:08.999   01 Jun 2027 23:45:32.016            23.017               Magadan1           719.281
        55   01 Jun 2027 23:47:00.390   01 Jun 2027 23:48:12.926            72.536                Irkutsk          2266.750
        56   01 Jun 2027 23:59:53.859   02 Jun 2027 00:00:09.436            15.577                Sumatra           486.781
        57   02 Jun 2027 00:00:28.294   02 Jun 2027 00:01:16.278            47.984                Sumatra          1499.500
        58   02 Jun 2027 00:03:56.258   02 Jun 2027 00:05:54.260           118.002                Sumatra          3687.563
        59   02 Jun 2027 01:11:06.851   02 Jun 2027 01:11:34.822            27.971                Anadyr1           874.094
        60   02 Jun 2027 01:11:58.737   02 Jun 2027 01:12:47.884            49.147                Anadyr2          1535.844
        61   02 Jun 2027 01:13:21.917   02 Jun 2027 01:13:55.310            33.393                Anadyr2          1043.531
        62   02 Jun 2027 01:14:09.102   02 Jun 2027 01:15:35.861            86.759                Norilsk          2711.219
        63   02 Jun 2027 01:15:44.836   02 Jun 2027 01:17:35.232           110.396               Magadan1          3449.875
        64   02 Jun 2027 01:22:14.883   02 Jun 2027 01:22:29.872            14.989                Irkutsk           468.406
        65   02 Jun 2027 01:23:08.936   02 Jun 2027 01:23:12.696             3.760                Novosib           117.500
        66   02 Jun 2027 01:23:44.227   02 Jun 2027 01:24:44.964            60.737                Irkutsk          1898.031
        67   02 Jun 2027 01:29:55.925   02 Jun 2027 01:30:05.811             9.886                  Delhi           308.937
        68   02 Jun 2027 01:31:30.177   02 Jun 2027 01:34:27.103           176.926                Sumatra          5528.937
        69   02 Jun 2027 02:13:33.466   02 Jun 2027 02:13:50.925            17.459            RioGallegos           545.594
        70   02 Jun 2027 02:15:01.603   02 Jun 2027 02:16:53.172           111.569            RioGallegos          3486.531
        71   02 Jun 2027 02:49:42.672   02 Jun 2027 02:50:20.210            37.538                Norilsk          1173.063
        72   02 Jun 2027 02:51:20.201   02 Jun 2027 02:51:45.481            25.280                Norilsk           790.000
        73   02 Jun 2027 02:52:36.521   02 Jun 2027 02:52:42.134             5.613              Murmansk1           175.406
        74   02 Jun 2027 02:52:42.134   02 Jun 2027 02:53:23.316            41.182              Murmansk2          1286.937
        75   02 Jun 2027 02:54:40.409   02 Jun 2027 02:55:29.128            48.719                Irkutsk          1522.469
        76   02 Jun 2027 02:59:17.981   02 Jun 2027 03:01:06.103           108.122                Irkutsk          3378.813
        77   02 Jun 2027 03:01:34.538   02 Jun 2027 03:03:39.676           125.138                  Delhi          3910.562
        78   02 Jun 2027 03:42:46.028   02 Jun 2027 03:43:33.105            47.077            RioGallegos          1471.156
        79   02 Jun 2027 04:35:11.169   02 Jun 2027 04:36:35.587            84.418              Murmansk2          2638.063
        80   02 Jun 2027 04:36:36.373   02 Jun 2027 04:37:29.703            53.330                Novosib          1666.562
        81   02 Jun 2027 04:38:04.690   02 Jun 2027 04:38:22.989            18.299                Novosib           571.844
        82   02 Jun 2027 04:38:39.103   02 Jun 2027 04:43:19.947           280.844                  Delhi          8776.375
        83   02 Jun 2027 06:12:37.486   02 Jun 2027 06:13:00.780            23.294              Murmansk1           727.937
        84   02 Jun 2027 06:13:24.359   02 Jun 2027 06:13:42.866            18.507              Murmansk1           578.344
        85   02 Jun 2027 06:13:56.798   02 Jun 2027 06:14:46.155            49.357                 Moscow          1542.406
        86   02 Jun 2027 06:14:51.572   02 Jun 2027 06:16:07.140            75.568              Murmansk1          2361.500
        87   02 Jun 2027 06:16:37.470   02 Jun 2027 06:16:48.719            11.249                 Moscow           351.531
        88   02 Jun 2027 06:30:55.070   02 Jun 2027 06:35:02.965           247.895               CapeTown          7746.719
        89   02 Jun 2027 07:35:02.514   02 Jun 2027 07:36:09.456            66.942               Magadan1          2091.938
        90   02 Jun 2027 07:38:37.671   02 Jun 2027 07:39:37.986            60.315                Anadyr2          1884.844
        91   02 Jun 2027 09:10:32.269   02 Jun 2027 09:10:43.627            11.358                Anadyr1           354.938
        92   02 Jun 2027 09:11:54.872   02 Jun 2027 09:14:13.387           138.515               Magadan2          4328.594
        93   02 Jun 2027 09:15:05.368   02 Jun 2027 09:16:22.906            77.538                Anadyr2          2423.062
        94   02 Jun 2027 09:23:46.148   02 Jun 2027 09:23:46.639             0.491                 Moscow            15.344
        95   02 Jun 2027 10:44:23.419   02 Jun 2027 10:46:46.389           142.970               Magadan1          4467.813
        96   02 Jun 2027 10:47:12.554   02 Jun 2027 10:47:23.618            11.064                Novosib           345.750
        97   02 Jun 2027 10:47:29.554   02 Jun 2027 10:47:47.254            17.700                Irkutsk           553.125
        98   02 Jun 2027 10:47:49.399   02 Jun 2027 10:50:14.528           145.129                Anadyr1          4535.281
        99   02 Jun 2027 10:50:21.237   02 Jun 2027 10:51:52.616            91.379               Magadan2          2855.594
       100   02 Jun 2027 12:03:30.165   02 Jun 2027 12:05:25.471           115.306                Sumatra          3603.312
       101   02 Jun 2027 12:15:02.929   02 Jun 2027 12:17:03.883           120.954                Irkutsk          3779.813
       102   02 Jun 2027 12:19:58.448   02 Jun 2027 12:20:37.200            38.752                Norilsk          1211.000
       103   02 Jun 2027 12:23:06.326   02 Jun 2027 12:24:37.768            91.442               Magadan1          2857.562
       104   02 Jun 2027 13:03:12.782   02 Jun 2027 13:03:17.488             4.706            RioGallegos           147.063
       105   02 Jun 2027 13:05:35.907   02 Jun 2027 13:08:04.861           148.954            RioGallegos          4654.812
       106   02 Jun 2027 13:37:35.885   02 Jun 2027 13:37:41.630             5.745                Sumatra           179.531
       107   02 Jun 2027 13:40:22.645   02 Jun 2027 13:42:18.154           115.509                Sumatra          3609.656
       108   02 Jun 2027 13:45:19.669   02 Jun 2027 13:46:15.033            55.364                Sumatra          1730.125
       109   02 Jun 2027 13:52:26.334   02 Jun 2027 13:53:32.467            66.133                Irkutsk          2066.656
       110   02 Jun 2027 13:57:06.423   02 Jun 2027 13:57:24.639            18.216                Irkutsk           569.250
       111   02 Jun 2027 15:22:14.938   02 Jun 2027 15:23:34.573            79.635                  Delhi          2488.594
       112   02 Jun 2027 15:24:24.717   02 Jun 2027 15:27:21.811           177.094                  Delhi          5534.188
       113   02 Jun 2027 15:30:23.554   02 Jun 2027 15:32:10.724           107.170                  Delhi          3349.062
       114   02 Jun 2027 15:34:19.801   02 Jun 2027 15:35:07.811            48.010                Norilsk          1500.312
       115   02 Jun 2027 15:37:46.629   02 Jun 2027 15:38:07.781            21.152                Norilsk           661.000
       116   02 Jun 2027 15:39:04.787   02 Jun 2027 15:39:19.822            15.035                Norilsk           469.844
       117   02 Jun 2027 15:43:52.544   02 Jun 2027 15:44:15.582            23.038                Norilsk           719.937
       118   02 Jun 2027 15:44:32.684   02 Jun 2027 15:44:50.617            17.933                Norilsk           560.406
       119   02 Jun 2027 17:06:03.772   02 Jun 2027 17:06:28.741            24.969                 Moscow           780.281
       120   02 Jun 2027 17:07:13.135   02 Jun 2027 17:07:40.725            27.590                 Moscow           862.188
       121   02 Jun 2027 17:09:19.710   02 Jun 2027 17:09:31.238            11.528                 Moscow           360.250
       122   02 Jun 2027 17:09:34.856   02 Jun 2027 17:11:51.680           136.824              Murmansk1          4275.750
       123   02 Jun 2027 17:15:00.977   02 Jun 2027 17:19:16.922           255.945                Norilsk          7998.281
       124   02 Jun 2027 18:44:26.259   02 Jun 2027 18:49:09.558           283.299                 Moscow          8853.094
       125   02 Jun 2027 19:55:47.961   02 Jun 2027 19:58:02.260           134.299               CapeTown          4196.844
       126   02 Jun 2027 19:59:09.087   02 Jun 2027 19:59:56.258            47.171               CapeTown          1474.094
       127   02 Jun 2027 20:27:13.300   02 Jun 2027 20:33:22.384           369.084              Murmansk2         11533.875
       128   02 Jun 2027 22:12:00.643   02 Jun 2027 22:15:28.377           207.734                Anadyr2          6491.688
       129   02 Jun 2027 22:15:38.495   02 Jun 2027 22:18:18.952           160.457               Magadan2          5014.281
       130   02 Jun 2027 22:19:11.796   02 Jun 2027 22:19:58.212            46.416               Magadan1          1450.500
       131   02 Jun 2027 23:07:31.974   02 Jun 2027 23:10:17.002           165.028            RioGallegos          5157.125
       132   02 Jun 2027 23:47:48.402   02 Jun 2027 23:49:30.709           102.307                Anadyr1          3197.094
       133   02 Jun 2027 23:49:53.091   02 Jun 2027 23:51:37.573           104.482                Norilsk          3265.063
       134   02 Jun 2027 23:51:40.712   02 Jun 2027 23:51:52.079            11.367               Magadan1           355.219
       135   02 Jun 2027 23:52:08.143   02 Jun 2027 23:52:59.148            51.005               Magadan2          1593.906
       136   02 Jun 2027 23:53:03.881   02 Jun 2027 23:53:50.907            47.026               Magadan2          1469.562
       137   02 Jun 2027 23:54:35.536   02 Jun 2027 23:54:46.559            11.023                Irkutsk           344.469
       138   02 Jun 2027 23:55:34.539   02 Jun 2027 23:56:40.803            66.264                Irkutsk          2070.750
       139   03 Jun 2027 00:09:08.489   03 Jun 2027 00:10:50.430           101.941                Sumatra          3185.656
       140   03 Jun 2027 00:12:26.530   03 Jun 2027 00:13:35.921            69.391                Sumatra          2168.469
       141   03 Jun 2027 00:41:46.623   03 Jun 2027 00:41:48.085             1.462            RioGallegos            45.687
       142   03 Jun 2027 00:43:01.976   03 Jun 2027 00:43:17.792            15.816            RioGallegos           494.250
       143   03 Jun 2027 00:45:52.824   03 Jun 2027 00:45:57.909             5.085            RioGallegos           158.906
       144   03 Jun 2027 00:47:03.926   03 Jun 2027 00:47:30.387            26.461            RioGallegos           826.906
       145   03 Jun 2027 01:22:59.440   03 Jun 2027 01:24:07.680            68.240                Anadyr1          2132.500
       146   03 Jun 2027 01:24:47.553   03 Jun 2027 01:25:09.767            22.214                Anadyr2           694.188
       147   03 Jun 2027 01:25:29.264   03 Jun 2027 01:25:46.443            17.179                Anadyr2           536.844
       148   03 Jun 2027 01:25:58.968   03 Jun 2027 01:27:38.114            99.146                Norilsk          3098.313
       149   03 Jun 2027 01:28:08.054   03 Jun 2027 01:29:06.309            58.255               Magadan1          1820.469
       150   03 Jun 2027 01:29:37.758   03 Jun 2027 01:31:41.837           124.079                Irkutsk          3877.469
       151   03 Jun 2027 01:37:02.984   03 Jun 2027 01:37:19.824            16.840                Novosib           526.250
       152   03 Jun 2027 01:38:21.190   03 Jun 2027 01:38:50.259            29.069                Irkutsk           908.406
       153   03 Jun 2027 01:39:16.522   03 Jun 2027 01:39:32.353            15.831                  Delhi           494.719
       154   03 Jun 2027 01:41:55.087   03 Jun 2027 01:42:26.513            31.426                  Delhi           982.062
       155   03 Jun 2027 01:43:43.224   03 Jun 2027 01:44:17.343            34.119                Sumatra          1066.219
       156   03 Jun 2027 01:46:16.641   03 Jun 2027 01:48:36.584           139.943                Sumatra          4373.219
       157   03 Jun 2027 02:28:12.906   03 Jun 2027 02:29:10.723            57.817            RioGallegos          1806.781
       158   03 Jun 2027 03:06:28.580   03 Jun 2027 03:06:34.487             5.907               Magadan2           184.594
       159   03 Jun 2027 03:06:34.487   03 Jun 2027 03:07:19.616            45.129               Magadan1          1410.281
       160   03 Jun 2027 03:07:26.784   03 Jun 2027 03:07:38.975            12.191                Irkutsk           380.969
       161   03 Jun 2027 03:08:44.203   03 Jun 2027 03:09:15.257            31.054              Murmansk1           970.438
       162   03 Jun 2027 03:09:24.199   03 Jun 2027 03:09:39.149            14.950                Novosib           467.188
       163   03 Jun 2027 03:09:59.725   03 Jun 2027 03:10:27.613            27.888                Irkutsk           871.500
       164   03 Jun 2027 03:10:32.151   03 Jun 2027 03:10:50.655            18.504              Murmansk1           578.250
       165   03 Jun 2027 03:11:34.504   03 Jun 2027 03:13:40.393           125.889                Norilsk          3934.031
       166   03 Jun 2027 03:13:54.823   03 Jun 2027 03:15:16.543            81.720                Irkutsk          2553.750
       167   03 Jun 2027 03:15:19.587   03 Jun 2027 03:16:03.880            44.293                Novosib          1384.156
       168   03 Jun 2027 03:16:04.296   03 Jun 2027 03:16:55.301            51.005                  Delhi          1593.906
       169   03 Jun 2027 03:55:08.129   03 Jun 2027 04:00:15.934           307.805            RioGallegos          9618.906
       170   03 Jun 2027 04:44:17.097   03 Jun 2027 04:45:18.936            61.839                Novosib          1932.469
       171   03 Jun 2027 04:47:04.883   03 Jun 2027 04:48:09.257            64.374              Murmansk1          2011.687
       172   03 Jun 2027 04:48:09.257   03 Jun 2027 04:49:39.166            89.909              Murmansk2          2809.656
       173   03 Jun 2027 04:49:49.321   03 Jun 2027 04:50:13.109            23.788                Norilsk           743.375
       174   03 Jun 2027 04:50:14.140   03 Jun 2027 04:50:28.212            14.072              Murmansk1           439.750
       175   03 Jun 2027 04:50:28.212   03 Jun 2027 04:50:52.715            24.503              Murmansk2           765.719
       176   03 Jun 2027 04:51:33.792   03 Jun 2027 04:56:48.462           314.670                  Delhi          9833.438
       177   03 Jun 2027 06:21:16.392   03 Jun 2027 06:22:08.406            52.014                Novosib          1625.438
       178   03 Jun 2027 06:22:45.617   03 Jun 2027 06:23:10.754            25.137                Norilsk           785.531
       179   03 Jun 2027 06:23:17.038   03 Jun 2027 06:24:17.441            60.403                 Moscow          1887.594
       180   03 Jun 2027 06:24:25.370   03 Jun 2027 06:25:26.580            61.210              Murmansk2          1912.812
       181   03 Jun 2027 06:25:37.877   03 Jun 2027 06:26:39.691            61.814              Murmansk2          1931.688
       182   03 Jun 2027 06:42:59.525   03 Jun 2027 06:46:08.482           188.957               CapeTown          5904.906
       183   03 Jun 2027 07:45:50.628   03 Jun 2027 07:46:52.290            61.662                Anadyr1          1926.938
       184   03 Jun 2027 07:47:11.190   03 Jun 2027 07:47:19.541             8.351               Magadan2           260.969
       185   03 Jun 2027 07:47:37.551   03 Jun 2027 07:47:52.990            15.439                Anadyr2           482.469
       186   03 Jun 2027 07:47:57.328   03 Jun 2027 07:48:12.872            15.544               Magadan1           485.750
       187   03 Jun 2027 07:48:17.124   03 Jun 2027 07:48:23.225             6.101                Anadyr2           190.656
       188   03 Jun 2027 07:48:23.225   03 Jun 2027 07:48:41.676            18.451                Anadyr1           576.594
       189   03 Jun 2027 07:49:26.687   03 Jun 2027 07:50:38.179            71.492                Anadyr2          2234.125
       190   03 Jun 2027 08:25:41.563   03 Jun 2027 08:25:55.985            14.422               CapeTown           450.687
       191   03 Jun 2027 09:18:48.400   03 Jun 2027 09:19:43.592            55.192                Anadyr2          1724.750
       192   03 Jun 2027 09:20:54.667   03 Jun 2027 09:21:47.921            53.254                Anadyr1          1664.187
       193   03 Jun 2027 09:22:28.742   03 Jun 2027 09:25:56.747           208.005                Anadyr1          6500.156
       194   03 Jun 2027 09:25:56.747   03 Jun 2027 09:27:33.405            96.658                Anadyr2          3020.562
       195   03 Jun 2027 10:57:05.070   03 Jun 2027 10:57:28.047            22.977                Norilsk           718.031
       196   03 Jun 2027 10:57:31.415   03 Jun 2027 10:58:42.897            71.482                Novosib          2233.813
       197   03 Jun 2027 10:59:37.974   03 Jun 2027 11:00:21.128            43.154                Norilsk          1348.562
       198   03 Jun 2027 11:00:28.638   03 Jun 2027 11:01:56.185            87.547                Anadyr1          2735.844
       199   03 Jun 2027 11:02:02.408   03 Jun 2027 11:02:33.297            30.889                Irkutsk           965.281
       200   03 Jun 2027 11:02:38.669   03 Jun 2027 11:03:02.418            23.749              Murmansk1           742.156
       201   03 Jun 2027 11:03:13.765   03 Jun 2027 11:03:40.184            26.419                Novosib           825.594
       202   03 Jun 2027 11:03:42.345   03 Jun 2027 11:03:48.330             5.985               Magadan1           187.031
       203   03 Jun 2027 11:03:54.695   03 Jun 2027 11:03:57.800             3.105              Murmansk2            97.031
       204   03 Jun 2027 11:04:01.180   03 Jun 2027 11:04:40.701            39.521                Novosib          1235.031
       205   03 Jun 2027 11:38:44.001   03 Jun 2027 11:39:56.489            72.488            RioGallegos          2265.250
       206   03 Jun 2027 12:15:23.420   03 Jun 2027 12:15:26.500             3.080                Sumatra            96.250
       207   03 Jun 2027 12:16:04.594   03 Jun 2027 12:17:41.425            96.831                Sumatra          3025.969
       208   03 Jun 2027 12:27:03.106   03 Jun 2027 12:28:44.800           101.694                Irkutsk          3177.937
       209   03 Jun 2027 12:31:57.699   03 Jun 2027 12:32:43.662            45.963                Norilsk          1436.344
       210   03 Jun 2027 12:33:58.490   03 Jun 2027 12:34:06.099             7.609                Norilsk           237.781
       211   03 Jun 2027 12:34:57.896   03 Jun 2027 12:35:18.131            20.235                Norilsk           632.344
       212   03 Jun 2027 12:36:53.247   03 Jun 2027 12:37:09.750            16.503                Norilsk           515.719
       213   03 Jun 2027 12:37:17.975   03 Jun 2027 12:37:45.910            27.935              Murmansk2           872.969
       214   03 Jun 2027 13:15:35.226   03 Jun 2027 13:16:08.638            33.412            RioGallegos          1044.125
       215   03 Jun 2027 13:17:30.763   03 Jun 2027 13:20:41.548           190.785            RioGallegos          5962.031
       216   03 Jun 2027 13:49:52.317   03 Jun 2027 13:51:06.814            74.497                Sumatra          2328.031
       217   03 Jun 2027 13:54:48.481   03 Jun 2027 13:54:58.667            10.186                Sumatra           318.313
       218   03 Jun 2027 14:04:34.522   03 Jun 2027 14:05:41.899            67.377                Novosib          2105.531
       219   03 Jun 2027 14:07:45.723   03 Jun 2027 14:08:47.098            61.375                Novosib          1917.969
       220   03 Jun 2027 14:10:59.913   03 Jun 2027 14:11:17.886            17.973                Norilsk           561.656
       221   03 Jun 2027 14:15:10.846   03 Jun 2027 14:16:49.323            98.477                Norilsk          3077.406
       222   03 Jun 2027 15:34:43.102   03 Jun 2027 15:39:41.853           298.751                  Delhi          9335.969
       223   03 Jun 2027 15:43:04.236   03 Jun 2027 15:45:39.097           154.861                Novosib          4839.406
       224   03 Jun 2027 17:18:10.998   03 Jun 2027 17:19:09.451            58.453                 Moscow          1826.656
       225   03 Jun 2027 17:21:20.249   03 Jun 2027 17:22:04.143            43.894                 Moscow          1371.688
       226   03 Jun 2027 17:22:16.353   03 Jun 2027 17:22:57.773            41.420              Murmansk2          1294.375
       227   03 Jun 2027 17:24:33.698   03 Jun 2027 17:24:37.964             4.266              Murmansk2           133.312
       228   03 Jun 2027 17:28:00.479   03 Jun 2027 17:31:39.496           219.017                Norilsk          6844.281
       229   03 Jun 2027 18:37:52.007   03 Jun 2027 18:37:54.851             2.844               CapeTown            88.875
       230   03 Jun 2027 18:57:09.215   03 Jun 2027 19:01:41.105           271.890                 Moscow          8496.562
       231   03 Jun 2027 19:05:44.219   03 Jun 2027 19:06:30.696            46.477              Murmansk2          1452.406
       232   03 Jun 2027 20:08:02.997   03 Jun 2027 20:10:45.815           162.818               CapeTown          5088.063
       233   03 Jun 2027 20:12:04.403   03 Jun 2027 20:12:50.380            45.977               CapeTown          1436.781
       234   03 Jun 2027 20:40:03.791   03 Jun 2027 20:45:44.250           340.459              Murmansk1         10639.344
       235   03 Jun 2027 22:24:02.240   03 Jun 2027 22:27:52.348           230.108                Anadyr2          7190.875
       236   03 Jun 2027 22:27:53.236   03 Jun 2027 22:28:49.952            56.716                Anadyr1          1772.375
       237   03 Jun 2027 22:29:31.884   03 Jun 2027 22:31:48.171           136.287               Magadan2          4258.969
       238   03 Jun 2027 23:19:05.448   03 Jun 2027 23:22:15.074           189.626            RioGallegos          5925.813
       239   03 Jun 2027 23:59:47.260   04 Jun 2027 00:00:58.846            71.586                Anadyr2          2237.063
       240   04 Jun 2027 00:01:03.488   04 Jun 2027 00:01:15.855            12.367                Anadyr1           386.469
       241   04 Jun 2027 00:01:52.343   04 Jun 2027 00:03:26.701            94.358                Norilsk          2948.688
       242   04 Jun 2027 00:03:34.248   04 Jun 2027 00:04:35.822            61.574               Magadan2          1924.188
       243   04 Jun 2027 00:04:35.822   04 Jun 2027 00:04:46.476            10.654               Magadan1           332.937
       244   04 Jun 2027 00:04:53.230   04 Jun 2027 00:05:29.210            35.980               Magadan1          1124.375
       245   04 Jun 2027 00:06:11.442   04 Jun 2027 00:06:35.029            23.587               Magadan1           737.094
       246   04 Jun 2027 00:06:56.806   04 Jun 2027 00:07:34.041            37.235                Irkutsk          1163.594
       247   04 Jun 2027 00:10:46.372   04 Jun 2027 00:11:10.588            24.216                Irkutsk           756.750
       248   04 Jun 2027 00:20:34.617   04 Jun 2027 00:23:35.521           180.904                Sumatra          5653.250
       249   04 Jun 2027 00:56:36.984   04 Jun 2027 00:56:54.716            17.732            RioGallegos           554.125
       250   04 Jun 2027 00:57:50.556   04 Jun 2027 00:57:58.097             7.541            RioGallegos           235.656
       251   04 Jun 2027 00:58:19.617   04 Jun 2027 00:58:27.658             8.041            RioGallegos           251.281
       252   04 Jun 2027 01:01:26.526   04 Jun 2027 01:01:46.904            20.378            RioGallegos           636.813
       253   04 Jun 2027 01:04:06.663   04 Jun 2027 01:04:27.664            21.001            RioGallegos           656.281
       254   04 Jun 2027 01:34:50.776   04 Jun 2027 01:36:05.520            74.744                Anadyr2          2335.750
       255   04 Jun 2027 01:36:45.708   04 Jun 2027 01:37:13.771            28.063                Anadyr2           876.969
       256   04 Jun 2027 01:37:46.047   04 Jun 2027 01:39:13.469            87.422                Norilsk          2731.937
       257   04 Jun 2027 01:39:30.549   04 Jun 2027 01:39:40.305             9.756                Norilsk           304.875
       258   04 Jun 2027 01:40:37.742   04 Jun 2027 01:40:47.403             9.661               Magadan2           301.906
       259   04 Jun 2027 01:41:22.775   04 Jun 2027 01:41:49.981            27.206               Magadan1           850.187
       260   04 Jun 2027 01:41:59.108   04 Jun 2027 01:44:16.901           137.793                Irkutsk          4306.031
       261   04 Jun 2027 01:50:31.234   04 Jun 2027 01:51:05.059            33.825                Irkutsk          1057.031
       262   04 Jun 2027 01:52:23.707   04 Jun 2027 01:53:22.139            58.432                  Delhi          1826.000
       263   04 Jun 2027 01:56:03.341   04 Jun 2027 01:57:59.579           116.238                Sumatra          3632.438
       264   04 Jun 2027 02:00:04.405   04 Jun 2027 02:01:15.854            71.449                Sumatra          2232.781
       265   04 Jun 2027 02:37:23.625   04 Jun 2027 02:37:55.306            31.681            RioGallegos           990.031
       266   04 Jun 2027 03:20:50.229   04 Jun 2027 03:21:05.285            15.056              Murmansk1           470.500
       267   04 Jun 2027 03:21:27.264   04 Jun 2027 03:21:36.353             9.089                Novosib           284.031
       268   04 Jun 2027 03:21:57.757   04 Jun 2027 03:25:55.890           238.133                Irkutsk          7441.656
       269   04 Jun 2027 03:26:02.027   04 Jun 2027 03:26:33.551            31.524                Norilsk           985.125
       270   04 Jun 2027 03:27:09.042   04 Jun 2027 03:27:27.299            18.257                Novosib           570.531
       271   04 Jun 2027 03:27:52.119   04 Jun 2027 03:28:14.679            22.560                Novosib           705.000
       272   04 Jun 2027 03:28:55.944   04 Jun 2027 03:31:17.225           141.281                  Delhi          4415.031
       273   04 Jun 2027 04:07:39.576   04 Jun 2027 04:11:59.921           260.345            RioGallegos          8135.781
       274   04 Jun 2027 04:57:53.669   04 Jun 2027 04:58:47.082            53.413                 Moscow          1669.156
       275   04 Jun 2027 04:58:52.858   04 Jun 2027 04:59:34.950            42.092              Murmansk1          1315.375
       276   04 Jun 2027 05:00:01.095   04 Jun 2027 05:01:04.100            63.005              Murmansk1          1968.906
       277   04 Jun 2027 05:01:08.396   04 Jun 2027 05:01:52.095            43.699                 Moscow          1365.594
       278   04 Jun 2027 05:02:06.733   04 Jun 2027 05:02:34.327            27.594                 Moscow           862.313
       279   04 Jun 2027 05:20:33.706   04 Jun 2027 05:20:52.988            19.282               CapeTown           602.562
       280   04 Jun 2027 05:21:08.625   04 Jun 2027 05:21:25.656            17.031               CapeTown           532.219
       281   04 Jun 2027 05:24:05.381   04 Jun 2027 05:24:54.273            48.892               CapeTown          1527.875
       282   04 Jun 2027 05:26:17.212   04 Jun 2027 05:26:44.659            27.447               CapeTown           857.719
       283   04 Jun 2027 06:34:22.074   04 Jun 2027 06:34:51.996            29.922                 Moscow           935.062
       284   04 Jun 2027 06:35:00.592   04 Jun 2027 06:36:45.555           104.963                 Moscow          3280.094
       285   04 Jun 2027 06:37:05.768   04 Jun 2027 06:37:31.567            25.799                 Moscow           806.219
       286   04 Jun 2027 06:37:33.560   04 Jun 2027 06:38:33.325            59.765              Murmansk2          1867.656
       287   04 Jun 2027 06:38:54.858   04 Jun 2027 06:39:46.173            51.315                 Moscow          1603.594
       288   04 Jun 2027 06:57:19.343   04 Jun 2027 06:58:05.398            46.055               CapeTown          1439.219
       289   04 Jun 2027 07:04:20.604   04 Jun 2027 07:04:55.338            34.734               CapeTown          1085.437
       290   04 Jun 2027 07:57:47.731   04 Jun 2027 07:58:04.970            17.239               Magadan2           538.719
       291   04 Jun 2027 07:58:24.853   04 Jun 2027 07:59:05.596            40.743               Magadan1          1273.219
       292   04 Jun 2027 08:00:09.043   04 Jun 2027 08:00:43.540            34.497                Anadyr2          1078.031
       293   04 Jun 2027 08:01:10.869   04 Jun 2027 08:01:12.110             1.241               Magadan1            38.781
       294   04 Jun 2027 08:01:36.199   04 Jun 2027 08:02:38.255            62.056                Anadyr1          1939.250
       295   04 Jun 2027 09:29:36.316   04 Jun 2027 09:30:35.134            58.818               Magadan1          1838.062
       296   04 Jun 2027 09:30:46.548   04 Jun 2027 09:31:21.125            34.577                Anadyr1          1080.531
       297   04 Jun 2027 09:34:23.692   04 Jun 2027 09:36:32.632           128.940                Anadyr1          4029.375
       298   04 Jun 2027 09:37:02.493   04 Jun 2027 09:38:11.548            69.055               Magadan2          2157.969
       299   04 Jun 2027 09:38:11.548   04 Jun 2027 09:39:00.343            48.795               Magadan1          1524.844
       300   04 Jun 2027 09:40:04.963   04 Jun 2027 09:40:18.602            13.639                Anadyr2           426.219
       301   04 Jun 2027 09:47:19.850   04 Jun 2027 09:47:26.089             6.239                 Moscow           194.969
       302   04 Jun 2027 11:05:22.129   04 Jun 2027 11:05:33.029            10.900               Magadan2           340.625
       303   04 Jun 2027 11:06:13.009   04 Jun 2027 11:09:39.851           206.842               Magadan2          6463.812
       304   04 Jun 2027 11:09:39.851   04 Jun 2027 11:10:15.930            36.079               Magadan1          1127.469
       305   04 Jun 2027 11:10:44.227   04 Jun 2027 11:15:42.401           298.174               Magadan2          9317.938
       306   04 Jun 2027 12:26:21.455   04 Jun 2027 12:26:46.326            24.871                Sumatra           777.219
       307   04 Jun 2027 12:39:06.570   04 Jun 2027 12:42:38.450           211.880                Irkutsk          6621.250
       308   04 Jun 2027 12:44:42.640   04 Jun 2027 12:45:01.105            18.465                Norilsk           577.031
       309   04 Jun 2027 12:46:52.438   04 Jun 2027 12:47:08.387            15.949                Norilsk           498.406
       310   04 Jun 2027 12:47:19.908   04 Jun 2027 12:47:52.934            33.026                Norilsk          1032.063
       311   04 Jun 2027 13:28:02.794   04 Jun 2027 13:29:14.999            72.205            RioGallegos          2256.406
       312   04 Jun 2027 13:32:39.472   04 Jun 2027 13:33:00.726            21.254            RioGallegos           664.187
       313   04 Jun 2027 14:02:16.529   04 Jun 2027 14:07:22.323           305.794                Sumatra          9556.062
       314   04 Jun 2027 14:17:39.128   04 Jun 2027 14:18:05.652            26.524                Irkutsk           828.875
       315   04 Jun 2027 14:20:18.865   04 Jun 2027 14:22:16.533           117.668                Irkutsk          3677.125
       316   04 Jun 2027 15:47:21.165   04 Jun 2027 15:52:03.909           282.744                  Delhi          8835.750
       317   04 Jun 2027 15:55:48.924   04 Jun 2027 15:57:16.234            87.310                Novosib          2728.438
       318   04 Jun 2027 15:57:35.431   04 Jun 2027 16:00:18.063           162.632                Novosib          5082.250
       319   04 Jun 2027 17:33:20.002   04 Jun 2027 17:34:25.102            65.100                 Moscow          2034.375
       320   04 Jun 2027 17:36:54.510   04 Jun 2027 17:37:24.505            29.995              Murmansk1           937.344
       321   04 Jun 2027 17:41:19.448   04 Jun 2027 17:43:25.896           126.448                Norilsk          3951.500
       322   04 Jun 2027 18:43:41.875   04 Jun 2027 18:44:41.958            60.083               CapeTown          1877.594
       323   04 Jun 2027 18:45:20.133   04 Jun 2027 18:45:50.795            30.662               CapeTown           958.188
       324   04 Jun 2027 19:10:01.440   04 Jun 2027 19:14:18.584           257.144                 Moscow          8035.750
       325   04 Jun 2027 19:22:12.229   04 Jun 2027 19:22:25.682            13.453              Murmansk2           420.406
       326   04 Jun 2027 19:34:51.791   04 Jun 2027 19:35:05.293            13.502                Anadyr2           421.938
       327   04 Jun 2027 20:20:22.640   04 Jun 2027 20:23:59.872           217.232               CapeTown          6788.500
       328   04 Jun 2027 20:29:41.568   04 Jun 2027 20:30:16.710            35.142               CapeTown          1098.188
       329   04 Jun 2027 20:53:02.454   04 Jun 2027 20:57:28.562           266.108              Murmansk1          8315.875
       330   04 Jun 2027 21:09:26.619   04 Jun 2027 21:09:28.146             1.527               Magadan2            47.719
       331   04 Jun 2027 21:10:52.442   04 Jun 2027 21:11:17.396            24.954               Magadan2           779.812
       332   04 Jun 2027 22:36:03.674   04 Jun 2027 22:39:53.121           229.447                Anadyr2          7170.219
       333   04 Jun 2027 22:39:54.493   04 Jun 2027 22:41:37.130           102.637                Norilsk          3207.406
       334   04 Jun 2027 22:41:37.693   04 Jun 2027 22:43:38.339           120.646               Magadan1          3770.187
       335   04 Jun 2027 22:43:53.514   04 Jun 2027 22:44:00.707             7.193               Magadan2           224.781
       336   04 Jun 2027 22:49:01.534   04 Jun 2027 22:49:05.530             3.996               Magadan1           124.875
       337   04 Jun 2027 22:49:27.937   04 Jun 2027 22:49:42.569            14.632               Magadan2           457.250
       338   04 Jun 2027 23:30:46.696   04 Jun 2027 23:33:01.547           134.851            RioGallegos          4214.094
       339   04 Jun 2027 23:33:23.343   04 Jun 2027 23:34:06.177            42.834            RioGallegos          1338.562
       340   05 Jun 2027 00:11:45.484   05 Jun 2027 00:13:09.592            84.108                Anadyr1          2628.375
       341   05 Jun 2027 00:13:52.399   05 Jun 2027 00:16:34.909           162.510                Norilsk          5078.438
       342   05 Jun 2027 00:16:36.328   05 Jun 2027 00:17:39.680            63.352               Magadan1          1979.750
       343   05 Jun 2027 00:18:13.252   05 Jun 2027 00:19:30.508            77.256                Irkutsk          2414.250
       344   05 Jun 2027 00:28:34.148   05 Jun 2027 00:29:09.896            35.748                Irkutsk          1117.125
       345   05 Jun 2027 00:32:10.406   05 Jun 2027 00:33:48.284            97.878                Sumatra          3058.688
       346   05 Jun 2027 00:39:18.289   05 Jun 2027 00:40:02.706            44.417                Sumatra          1388.031
       347   05 Jun 2027 01:05:45.837   05 Jun 2027 01:06:07.233            21.396            RioGallegos           668.625
       348   05 Jun 2027 01:09:01.661   05 Jun 2027 01:09:37.521            35.860            RioGallegos          1120.625
       349   05 Jun 2027 01:15:04.783   05 Jun 2027 01:15:20.937            16.154            RioGallegos           504.812
       350   05 Jun 2027 01:16:18.360   05 Jun 2027 01:16:38.076            19.716            RioGallegos           616.125
       351   05 Jun 2027 01:46:40.797   05 Jun 2027 01:47:39.441            58.644                Anadyr2          1832.625
       352   05 Jun 2027 01:48:05.176   05 Jun 2027 01:48:47.976            42.800                Anadyr2          1337.500
       353   05 Jun 2027 01:49:32.361   05 Jun 2027 01:49:50.643            18.282                Anadyr1           571.313
       354   05 Jun 2027 01:50:10.078   05 Jun 2027 01:51:05.524            55.446                Norilsk          1732.687
       355   05 Jun 2027 01:51:22.718   05 Jun 2027 01:51:32.307             9.589                Norilsk           299.656
       356   05 Jun 2027 01:52:07.178   05 Jun 2027 01:53:07.338            60.160               Magadan1          1880.000
       357   05 Jun 2027 01:53:40.904   05 Jun 2027 01:55:32.771           111.867                Irkutsk          3495.844
       358   05 Jun 2027 01:57:25.506   05 Jun 2027 01:57:33.025             7.519                Irkutsk           234.969
       359   05 Jun 2027 02:01:22.150   05 Jun 2027 02:01:32.780            10.630                Irkutsk           332.188
       360   05 Jun 2027 02:02:03.941   05 Jun 2027 02:02:33.995            30.054                  Delhi           939.187
       361   05 Jun 2027 02:06:04.696   05 Jun 2027 02:06:05.535             0.839                  Delhi            26.219
       362   05 Jun 2027 02:06:31.495   05 Jun 2027 02:06:48.790            17.295                  Delhi           540.469
       363   05 Jun 2027 02:07:36.410   05 Jun 2027 02:08:40.061            63.651                  Delhi          1989.094
       364   05 Jun 2027 02:09:34.764   05 Jun 2027 02:13:30.477           235.713                Sumatra          7366.031
       365   05 Jun 2027 03:32:54.613   05 Jun 2027 03:33:24.739            30.126              Murmansk2           941.437
       366   05 Jun 2027 03:33:24.739   05 Jun 2027 03:33:28.970             4.231              Murmansk1           132.219
       367   05 Jun 2027 03:34:02.018   05 Jun 2027 03:34:31.926            29.908                Norilsk           934.625
       368   05 Jun 2027 03:34:42.608   05 Jun 2027 03:36:18.704            96.096              Murmansk1          3003.000
       369   05 Jun 2027 03:36:21.829   05 Jun 2027 03:36:47.031            25.202                Irkutsk           787.563
       370   05 Jun 2027 03:36:47.352   05 Jun 2027 03:36:54.061             6.709                Norilsk           209.656
       371   05 Jun 2027 03:37:01.600   05 Jun 2027 03:37:25.320            23.720                Novosib           741.250
       372   05 Jun 2027 03:37:50.446   05 Jun 2027 03:38:30.862            40.416                Norilsk          1263.000
       373   05 Jun 2027 03:38:41.433   05 Jun 2027 03:39:37.436            56.003                Irkutsk          1750.094
       374   05 Jun 2027 04:21:40.485   05 Jun 2027 04:22:23.334            42.849            RioGallegos          1339.031
       375   05 Jun 2027 05:10:24.358   05 Jun 2027 05:10:45.238            20.880              Murmansk2           652.500
       376   05 Jun 2027 05:10:58.260   05 Jun 2027 05:12:51.201           112.941              Murmansk2          3529.406
       377   05 Jun 2027 05:12:54.086   05 Jun 2027 05:13:07.666            13.580              Murmansk2           424.375
       378   05 Jun 2027 05:13:24.303   05 Jun 2027 05:13:59.150            34.847                Norilsk          1088.969
       379   05 Jun 2027 05:14:05.577   05 Jun 2027 05:14:48.921            43.344                 Moscow          1354.500
       380   05 Jun 2027 05:15:15.262   05 Jun 2027 05:15:24.038             8.776              Murmansk2           274.250
       381   05 Jun 2027 05:16:37.306   05 Jun 2027 05:16:55.342            18.036                 Moscow           563.625
       382   05 Jun 2027 05:18:08.445   05 Jun 2027 05:18:26.671            18.226                 Moscow           569.563
       383   05 Jun 2027 05:32:05.898   05 Jun 2027 05:32:59.916            54.018               CapeTown          1688.062
       384   05 Jun 2027 05:33:45.105   05 Jun 2027 05:35:10.351            85.246               CapeTown          2663.938
       385   05 Jun 2027 06:46:18.799   05 Jun 2027 06:46:31.726            12.927                 Moscow           403.969
       386   05 Jun 2027 06:46:37.443   05 Jun 2027 06:47:09.546            32.103                Norilsk          1003.219
       387   05 Jun 2027 06:47:14.078   05 Jun 2027 06:47:22.710             8.632                Norilsk           269.750
       388   05 Jun 2027 06:47:32.048   05 Jun 2027 06:47:44.362            12.314                 Moscow           384.813
       389   05 Jun 2027 06:47:54.611   05 Jun 2027 06:48:00.363             5.752                Norilsk           179.750
       390   05 Jun 2027 06:48:21.670   05 Jun 2027 06:48:52.768            31.098              Murmansk2           971.813
       391   05 Jun 2027 06:48:52.768   05 Jun 2027 06:49:24.308            31.540              Murmansk1           985.625
       392   05 Jun 2027 06:49:24.308   05 Jun 2027 06:50:30.985            66.677              Murmansk2          2083.656
       393   05 Jun 2027 07:07:24.864   05 Jun 2027 07:07:49.696            24.832               CapeTown           776.000
       394   05 Jun 2027 07:09:58.955   05 Jun 2027 07:12:20.502           141.547               CapeTown          4423.344
       395   05 Jun 2027 08:10:36.118   05 Jun 2027 08:11:06.456            30.338               Magadan1           948.062
       396   05 Jun 2027 08:12:16.081   05 Jun 2027 08:12:45.301            29.220                Anadyr1           913.125
       397   05 Jun 2027 08:12:52.820   05 Jun 2027 08:13:26.296            33.476               Magadan1          1046.125
       398   05 Jun 2027 08:13:26.296   05 Jun 2027 08:13:28.891             2.595               Magadan2            81.094
       399   05 Jun 2027 08:23:13.252   05 Jun 2027 08:23:38.971            25.719                 Moscow           803.719
       400   05 Jun 2027 08:26:34.675   05 Jun 2027 08:27:37.617            62.942                 Moscow          1966.937
       401   05 Jun 2027 09:44:13.936   05 Jun 2027 09:47:26.203           192.267                Anadyr2          6008.344
       402   05 Jun 2027 09:48:05.548   05 Jun 2027 09:49:11.263            65.715               Magadan1          2053.594
       403   05 Jun 2027 09:49:27.769   05 Jun 2027 09:52:14.689           166.920                Anadyr2          5216.250
       404   05 Jun 2027 11:17:56.357   05 Jun 2027 11:18:06.678            10.321               Magadan2           322.531
       405   05 Jun 2027 11:21:26.131   05 Jun 2027 11:24:00.091           153.960               Magadan2          4811.250
       406   05 Jun 2027 11:24:03.137   05 Jun 2027 11:27:21.415           198.278               Magadan2          6196.188
       407   05 Jun 2027 11:27:35.836   05 Jun 2027 11:27:54.125            18.289                Irkutsk           571.531
       408   05 Jun 2027 12:02:40.073   05 Jun 2027 12:03:53.171            73.098            RioGallegos          2284.312
       409   05 Jun 2027 12:38:01.257   05 Jun 2027 12:38:43.732            42.475                Sumatra          1327.344
       410   05 Jun 2027 12:44:23.661   05 Jun 2027 12:44:25.893             2.232                Sumatra            69.750
       411   05 Jun 2027 12:51:13.426   05 Jun 2027 12:55:28.998           255.572                Irkutsk          7986.625
       412   05 Jun 2027 13:00:52.643   05 Jun 2027 13:01:15.025            22.382                Norilsk           699.437
       413   05 Jun 2027 13:40:36.322   05 Jun 2027 13:42:56.985           140.663            RioGallegos          4395.719
       414   05 Jun 2027 14:14:50.909   05 Jun 2027 14:19:40.467           289.558                Sumatra          9048.687
       415   05 Jun 2027 14:30:27.939   05 Jun 2027 14:31:22.987            55.048                Irkutsk          1720.250
       416   05 Jun 2027 14:33:41.055   05 Jun 2027 14:34:50.975            69.920                Irkutsk          2185.000
       417   05 Jun 2027 16:00:13.266   05 Jun 2027 16:04:34.162           260.896                  Delhi          8153.000
       418   05 Jun 2027 16:08:43.611   05 Jun 2027 16:12:56.966           253.355                Novosib          7917.344
       419   05 Jun 2027 16:15:06.991   05 Jun 2027 16:15:45.902            38.911                Novosib          1215.969
       420   05 Jun 2027 17:45:18.841   05 Jun 2027 17:46:10.602            51.761                 Moscow          1617.531
       421   05 Jun 2027 17:48:31.846   05 Jun 2027 17:48:47.897            16.051              Murmansk2           501.594
       422   05 Jun 2027 17:48:47.897   05 Jun 2027 17:48:56.728             8.831              Murmansk1           275.969
       423   05 Jun 2027 17:52:05.313   05 Jun 2027 17:52:46.410            41.097              Murmansk2          1284.281
       424   05 Jun 2027 17:54:36.118   05 Jun 2027 17:54:56.311            20.193              Murmansk2           631.031
       425   05 Jun 2027 18:01:08.745   05 Jun 2027 18:01:48.040            39.295                Anadyr2          1227.969
       426   05 Jun 2027 18:05:46.164   05 Jun 2027 18:05:54.718             8.554                Anadyr1           267.313
       427   05 Jun 2027 18:06:53.523   05 Jun 2027 18:07:04.622            11.099                Anadyr1           346.844
       428   05 Jun 2027 18:07:30.218   05 Jun 2027 18:07:33.154             2.936                Anadyr1            91.750
       429   05 Jun 2027 18:55:38.792   05 Jun 2027 18:58:07.686           148.894               CapeTown          4652.937
       430   05 Jun 2027 19:23:07.993   05 Jun 2027 19:27:03.437           235.444                 Moscow          7357.625
       431   05 Jun 2027 19:28:27.983   05 Jun 2027 19:28:36.986             9.003              Murmansk1           281.344
       432   05 Jun 2027 19:28:53.739   05 Jun 2027 19:29:35.716            41.977              Murmansk2          1311.781
       433   05 Jun 2027 19:34:22.342   05 Jun 2027 19:34:25.829             3.487              Murmansk2           108.969
       434   05 Jun 2027 19:41:40.722   05 Jun 2027 19:41:59.728            19.006               Magadan1           593.937
       435   05 Jun 2027 20:32:48.519   05 Jun 2027 20:36:16.411           207.892               CapeTown          6496.625
       436   05 Jun 2027 20:37:50.473   05 Jun 2027 20:38:46.062            55.589               CapeTown          1737.156
       437   05 Jun 2027 21:06:18.069   05 Jun 2027 21:08:57.994           159.925              Murmansk2          4997.656
       438   05 Jun 2027 21:14:40.734   05 Jun 2027 21:15:22.556            41.822               Magadan1          1306.937
       439   05 Jun 2027 21:17:50.545   05 Jun 2027 21:17:56.188             5.643               Magadan1           176.344
       440   05 Jun 2027 21:18:14.193   05 Jun 2027 21:18:22.598             8.405               Magadan2           262.656
       441   05 Jun 2027 21:20:48.659   05 Jun 2027 21:21:05.468            16.809               Magadan1           525.281
       442   05 Jun 2027 21:21:17.611   05 Jun 2027 21:22:20.999            63.388               Magadan1          1980.875
       443   05 Jun 2027 22:48:04.885   05 Jun 2027 22:51:53.554           228.669                Anadyr2          7145.906
       444   05 Jun 2027 22:51:54.924   05 Jun 2027 22:52:28.281            33.357                Anadyr1          1042.406
       445   05 Jun 2027 22:52:36.992   05 Jun 2027 22:53:26.203            49.211                Norilsk          1537.844
       446   05 Jun 2027 22:53:37.648   05 Jun 2027 22:54:34.544            56.896               Magadan2          1778.000
       447   05 Jun 2027 22:54:34.544   05 Jun 2027 22:55:21.912            47.368               Magadan1          1480.250
       448   05 Jun 2027 23:01:12.870   05 Jun 2027 23:02:00.500            47.630               Magadan2          1488.437
       449   05 Jun 2027 23:42:32.945   05 Jun 2027 23:44:43.311           130.366            RioGallegos          4073.938
       450   05 Jun 2027 23:45:28.338   05 Jun 2027 23:45:59.688            31.350            RioGallegos           979.687
       451   05 Jun 2027 23:48:05.564   05 Jun 2027 23:48:17.421            11.857            RioGallegos           370.531
       452   06 Jun 2027 00:23:42.982   06 Jun 2027 00:25:16.893            93.911                Anadyr2          2934.719
       453   06 Jun 2027 00:25:53.059   06 Jun 2027 00:27:43.749           110.690                Norilsk          3459.062
       454   06 Jun 2027 00:27:44.205   06 Jun 2027 00:28:25.545            41.340               Magadan2          1291.875
       455   06 Jun 2027 00:28:51.323   06 Jun 2027 00:29:59.505            68.182               Magadan2          2130.687
       456   06 Jun 2027 00:30:06.282   06 Jun 2027 00:31:35.945            89.663                Irkutsk          2801.969
       457   06 Jun 2027 00:32:31.654   06 Jun 2027 00:33:11.180            39.526                Novosib          1235.188
       458   06 Jun 2027 00:40:41.566   06 Jun 2027 00:41:11.964            30.398                Irkutsk           949.938
       459   06 Jun 2027 00:43:53.851   06 Jun 2027 00:44:40.275            46.424                Sumatra          1450.750
       460   06 Jun 2027 00:46:12.189   06 Jun 2027 00:46:29.379            17.190                Sumatra           537.187
       461   06 Jun 2027 00:51:30.842   06 Jun 2027 00:53:19.648           108.806                Sumatra          3400.188
       462   06 Jun 2027 01:27:56.252   06 Jun 2027 01:28:05.095             8.843            RioGallegos           276.344
       463   06 Jun 2027 01:29:00.808   06 Jun 2027 01:29:34.876            34.068            RioGallegos          1064.625
       464   06 Jun 2027 01:58:29.482   06 Jun 2027 01:58:52.028            22.546                Anadyr1           704.562
       465   06 Jun 2027 01:59:03.256   06 Jun 2027 01:59:16.091            12.835                Anadyr1           401.094
       466   06 Jun 2027 01:59:16.091   06 Jun 2027 01:59:52.937            36.846                Anadyr2          1151.437
       467   06 Jun 2027 02:01:50.872   06 Jun 2027 02:02:58.526            67.654                Norilsk          2114.188
       468   06 Jun 2027 02:03:00.383   06 Jun 2027 02:03:27.524            27.141               Magadan2           848.156
       469   06 Jun 2027 02:04:49.268   06 Jun 2027 02:05:54.266            64.998               Magadan1          2031.188
       470   06 Jun 2027 02:06:09.052   06 Jun 2027 02:08:55.092           166.040                Irkutsk          5188.750
       471   06 Jun 2027 02:19:53.180   06 Jun 2027 02:20:09.007            15.827                  Delhi           494.594
       472   06 Jun 2027 02:21:13.319   06 Jun 2027 02:25:52.483           279.164                Sumatra          8723.875
       473   06 Jun 2027 03:46:00.402   06 Jun 2027 03:46:48.546            48.144              Murmansk1          1504.500
       474   06 Jun 2027 03:47:04.704   06 Jun 2027 03:47:17.302            12.598                Novosib           393.687
       475   06 Jun 2027 03:47:20.730   06 Jun 2027 03:48:56.654            95.924              Murmansk1          2997.625
       476   06 Jun 2027 03:49:10.214   06 Jun 2027 03:49:12.467             2.253                Norilsk            70.406
       477   06 Jun 2027 03:49:14.718   06 Jun 2027 03:51:38.728           144.010                  Delhi          4500.312
       478   06 Jun 2027 03:51:46.004   06 Jun 2027 03:52:10.177            24.173                Novosib           755.406
       479   06 Jun 2027 03:53:15.055   06 Jun 2027 03:53:26.644            11.589                Novosib           362.156
       480   06 Jun 2027 03:54:23.498   06 Jun 2027 03:54:40.767            17.269                  Delhi           539.656
       481   06 Jun 2027 05:14:52.687   06 Jun 2027 05:15:36.043            43.356               Magadan1          1354.875
       482   06 Jun 2027 05:22:38.352   06 Jun 2027 05:22:42.489             4.137              Murmansk1           129.281
