uniorb/output/strategy_2/Drop/Drop_KinoSat_111804.txt

KinoSat_111804
-------------------------
    Access    *     Start Time (UTCG)     *     Stop Time (UTCG)  *   Duration (s)        *       Station  *  Data (Mbytes)
         1   01 Jun 2027 03:17:12.644   01 Jun 2027 03:17:27.124            14.480                Novosib           452.500
         2   01 Jun 2027 03:17:31.578   01 Jun 2027 03:19:04.748            93.170              Murmansk2          2911.563
         3   01 Jun 2027 03:19:04.748   01 Jun 2027 03:19:36.527            31.779              Murmansk1           993.094
         4   01 Jun 2027 03:19:50.757   01 Jun 2027 03:20:01.510            10.753              Murmansk1           336.031
         5   01 Jun 2027 03:20:04.850   01 Jun 2027 03:20:17.610            12.760                Irkutsk           398.750
         6   01 Jun 2027 03:20:32.304   01 Jun 2027 03:20:35.519             3.215                 Moscow           100.469
         7   01 Jun 2027 03:20:51.323   01 Jun 2027 03:21:21.013            29.690                 Moscow           927.813
         8   01 Jun 2027 03:21:30.784   01 Jun 2027 03:22:10.616            39.832                Irkutsk          1244.750
         9   01 Jun 2027 03:23:44.855   01 Jun 2027 03:23:50.570             5.715                Novosib           178.594
        10   01 Jun 2027 03:24:11.223   01 Jun 2027 03:28:54.815           283.592                  Delhi          8862.250
        11   01 Jun 2027 04:55:53.432   01 Jun 2027 04:56:03.629            10.197              Murmansk2           318.656
        12   01 Jun 2027 04:57:05.090   01 Jun 2027 04:57:14.154             9.064                 Moscow           283.250
        13   01 Jun 2027 04:57:20.278   01 Jun 2027 04:58:50.850            90.572              Murmansk1          2830.375
        14   01 Jun 2027 04:59:10.582   01 Jun 2027 05:00:28.213            77.631              Murmansk1          2425.969
        15   01 Jun 2027 05:01:05.518   01 Jun 2027 05:03:46.701           161.183                 Moscow          5036.969
        16   01 Jun 2027 05:16:17.308   01 Jun 2027 05:25:37.985           560.677               CapeTown         17521.156
        17   01 Jun 2027 05:26:22.522   01 Jun 2027 05:26:31.272             8.750               CapeTown           273.437
        18   01 Jun 2027 05:27:18.968   01 Jun 2027 05:27:54.605            35.637               CapeTown          1113.656
        19   01 Jun 2027 06:12:25.886   01 Jun 2027 06:16:07.617           221.731                Anadyr2          6929.094
        20   01 Jun 2027 06:19:28.399   01 Jun 2027 06:19:58.025            29.626                Anadyr1           925.813
        21   01 Jun 2027 06:20:07.179   01 Jun 2027 06:21:06.628            59.449                Anadyr1          1857.781
        22   01 Jun 2027 06:22:36.700   01 Jun 2027 06:22:48.587            11.887               Magadan2           371.469
        23   01 Jun 2027 06:23:45.434   01 Jun 2027 06:23:57.053            11.619               Magadan1           363.094
        24   01 Jun 2027 06:31:34.789   01 Jun 2027 06:31:43.772             8.983                 Moscow           280.719
        25   01 Jun 2027 06:32:00.749   01 Jun 2027 06:33:12.659            71.910              Murmansk1          2247.187
        26   01 Jun 2027 06:33:12.659   01 Jun 2027 06:33:25.740            13.081              Murmansk2           408.781
        27   01 Jun 2027 06:33:31.191   01 Jun 2027 06:34:02.451            31.260              Murmansk2           976.875
        28   01 Jun 2027 06:34:02.451   01 Jun 2027 06:34:28.252            25.801              Murmansk1           806.281
        29   01 Jun 2027 06:34:31.155   01 Jun 2027 06:35:18.984            47.829                 Moscow          1494.656
        30   01 Jun 2027 06:35:39.616   01 Jun 2027 06:36:38.652            59.036                 Moscow          1844.875
        31   01 Jun 2027 06:37:11.084   01 Jun 2027 06:37:23.940            12.856              Murmansk1           401.750
        32   01 Jun 2027 06:52:12.801   01 Jun 2027 06:53:20.576            67.775               CapeTown          2117.969
        33   01 Jun 2027 06:56:34.004   01 Jun 2027 06:57:28.384            54.380               CapeTown          1699.375
        34   01 Jun 2027 07:55:21.117   01 Jun 2027 07:57:36.436           135.319                Anadyr2          4228.719
        35   01 Jun 2027 07:57:36.436   01 Jun 2027 07:59:01.848            85.412                Anadyr1          2669.125
        36   01 Jun 2027 09:30:35.692   01 Jun 2027 09:32:27.452           111.760                Anadyr1          3492.500
        37   01 Jun 2027 09:33:03.087   01 Jun 2027 09:33:33.180            30.093                Anadyr2           940.406
        38   01 Jun 2027 09:34:31.888   01 Jun 2027 09:36:46.386           134.498               Magadan2          4203.062
        39   01 Jun 2027 11:07:31.222   01 Jun 2027 11:11:54.896           263.674               Magadan2          8239.812
        40   01 Jun 2027 11:12:39.477   01 Jun 2027 11:13:56.441            76.964              Murmansk1          2405.125
        41   01 Jun 2027 11:14:26.988   01 Jun 2027 11:14:58.614            31.626              Murmansk1           988.312
        42   01 Jun 2027 11:18:23.034   01 Jun 2027 11:19:19.824            56.790              Murmansk1          1774.688
        43   01 Jun 2027 11:47:12.273   01 Jun 2027 11:49:20.383           128.110            RioGallegos          4003.438
        44   01 Jun 2027 11:50:29.117   01 Jun 2027 11:50:29.183             0.066            RioGallegos             2.062
        45   01 Jun 2027 12:22:19.613   01 Jun 2027 12:24:41.996           142.383                Sumatra          4449.469
        46   01 Jun 2027 12:35:51.824   01 Jun 2027 12:37:29.615            97.791                Irkutsk          3055.969
        47   01 Jun 2027 12:38:52.203   01 Jun 2027 12:39:42.948            50.745                Irkutsk          1585.781
        48   01 Jun 2027 12:40:32.948   01 Jun 2027 12:42:50.189           137.241                Norilsk          4288.781
        49   01 Jun 2027 12:44:39.691   01 Jun 2027 12:45:01.450            21.759                Irkutsk           679.969
        50   01 Jun 2027 13:25:40.069   01 Jun 2027 13:28:03.402           143.333            RioGallegos          4479.156
        51   01 Jun 2027 13:30:24.801   01 Jun 2027 13:31:45.768            80.967            RioGallegos          2530.219
        52   01 Jun 2027 14:00:01.113   01 Jun 2027 14:02:52.194           171.081                Sumatra          5346.281
        53   01 Jun 2027 14:04:38.334   01 Jun 2027 14:06:00.976            82.642                Sumatra          2582.562
        54   01 Jun 2027 14:15:49.021   01 Jun 2027 14:19:41.238           232.217                Irkutsk          7256.781
        55   01 Jun 2027 14:20:03.397   01 Jun 2027 14:20:40.986            37.589                Irkutsk          1174.656
        56   01 Jun 2027 15:45:45.415   01 Jun 2027 15:49:45.548           240.133                  Delhi          7504.156
        57   01 Jun 2027 15:54:11.919   01 Jun 2027 15:58:00.525           228.606                Novosib          7143.937
        58   01 Jun 2027 17:28:27.607   01 Jun 2027 17:28:42.829            15.222                 Moscow           475.687
        59   01 Jun 2027 17:29:46.799   01 Jun 2027 17:31:45.169           118.370                 Moscow          3699.062
        60   01 Jun 2027 17:32:54.919   01 Jun 2027 17:33:28.322            33.403              Murmansk1          1043.844
        61   01 Jun 2027 17:34:06.827   01 Jun 2027 17:34:20.721            13.894              Murmansk2           434.188
        62   01 Jun 2027 18:40:08.330   01 Jun 2027 18:42:29.126           140.796               CapeTown          4399.875
        63   01 Jun 2027 19:08:58.007   01 Jun 2027 19:12:28.118           210.111                 Moscow          6565.969
        64   01 Jun 2027 19:13:01.980   01 Jun 2027 19:15:08.011           126.031              Murmansk1          3938.469
        65   01 Jun 2027 20:17:47.068   01 Jun 2027 20:22:43.351           296.283               CapeTown          9258.844
        66   01 Jun 2027 20:59:08.210   01 Jun 2027 21:00:24.489            76.279               Magadan2          2383.719
        67   01 Jun 2027 21:00:24.489   01 Jun 2027 21:00:45.310            20.821               Magadan1           650.656
        68   01 Jun 2027 21:02:16.452   01 Jun 2027 21:02:25.295             8.843               Magadan1           276.344
        69   01 Jun 2027 21:05:34.196   01 Jun 2027 21:05:58.340            24.144               Magadan1           754.500
        70   01 Jun 2027 22:32:35.448   01 Jun 2027 22:37:47.466           312.018                Anadyr2          9750.562
        71   01 Jun 2027 22:37:50.063   01 Jun 2027 22:38:32.132            42.069               Magadan2          1314.656
        72   01 Jun 2027 22:39:30.001   01 Jun 2027 22:40:00.804            30.803               Magadan2           962.594
        73   01 Jun 2027 22:40:10.361   01 Jun 2027 22:40:29.847            19.486               Magadan2           608.937
        74   01 Jun 2027 22:41:40.955   01 Jun 2027 22:41:48.451             7.496               Magadan2           234.250
        75   01 Jun 2027 22:42:07.105   01 Jun 2027 22:43:40.840            93.735                Irkutsk          2929.219
        76   01 Jun 2027 23:26:54.172   01 Jun 2027 23:30:11.385           197.213            RioGallegos          6162.906
        77   02 Jun 2027 00:08:09.889   02 Jun 2027 00:08:57.546            47.657                Anadyr1          1489.281
        78   02 Jun 2027 00:09:03.995   02 Jun 2027 00:09:40.239            36.244                Anadyr2          1132.625
        79   02 Jun 2027 00:09:46.013   02 Jun 2027 00:11:13.840            87.827                Anadyr1          2744.594
        80   02 Jun 2027 00:11:19.438   02 Jun 2027 00:11:48.688            29.250               Magadan1           914.062
        81   02 Jun 2027 00:11:48.872   02 Jun 2027 00:12:52.638            63.766               Magadan2          1992.688
        82   02 Jun 2027 00:14:31.922   02 Jun 2027 00:16:01.336            89.414                Irkutsk          2794.187
        83   02 Jun 2027 00:16:05.802   02 Jun 2027 00:18:14.567           128.765                Novosib          4023.906
        84   02 Jun 2027 00:28:14.869   02 Jun 2027 00:30:58.575           163.706                Sumatra          5115.813
        85   02 Jun 2027 01:02:18.610   02 Jun 2027 01:02:46.606            27.996            RioGallegos           874.875
        86   02 Jun 2027 01:44:08.620   02 Jun 2027 01:45:04.397            55.777                Anadyr2          1743.031
        87   02 Jun 2027 01:45:09.972   02 Jun 2027 01:45:28.642            18.670                Anadyr2           583.438
        88   02 Jun 2027 01:46:22.842   02 Jun 2027 01:48:08.611           105.769                Norilsk          3305.281
        89   02 Jun 2027 01:50:16.512   02 Jun 2027 01:52:03.402           106.890                Irkutsk          3340.312
        90   02 Jun 2027 01:54:03.565   02 Jun 2027 01:54:53.760            50.195                Novosib          1568.594
        91   02 Jun 2027 01:57:59.536   02 Jun 2027 01:59:25.101            85.565                  Delhi          2673.906
        92   02 Jun 2027 02:00:05.170   02 Jun 2027 02:01:24.380            79.210                  Delhi          2475.312
        93   02 Jun 2027 02:08:47.442   02 Jun 2027 02:10:54.949           127.507                Sumatra          3984.594
        94   02 Jun 2027 02:38:49.571   02 Jun 2027 02:40:12.058            82.487            RioGallegos          2577.719
        95   02 Jun 2027 02:41:37.167   02 Jun 2027 02:42:47.520            70.353            RioGallegos          2198.531
        96   02 Jun 2027 03:28:40.150   02 Jun 2027 03:29:30.850            50.700                Irkutsk          1584.375
        97   02 Jun 2027 03:29:41.152   02 Jun 2027 03:29:53.226            12.074                Norilsk           377.313
        98   02 Jun 2027 03:30:05.194   02 Jun 2027 03:30:05.712             0.518                Novosib            16.188
        99   02 Jun 2027 03:30:08.997   02 Jun 2027 03:30:40.870            31.873                Norilsk           996.031
       100   02 Jun 2027 03:31:13.005   02 Jun 2027 03:31:28.247            15.242              Murmansk1           476.313
       101   02 Jun 2027 03:31:52.452   02 Jun 2027 03:32:07.890            15.438              Murmansk1           482.438
       102   02 Jun 2027 03:32:29.828   02 Jun 2027 03:32:55.318            25.490                Novosib           796.562
       103   02 Jun 2027 03:33:05.578   02 Jun 2027 03:34:13.217            67.639                Irkutsk          2113.719
       104   02 Jun 2027 03:34:26.280   02 Jun 2027 03:34:51.633            25.353                Norilsk           792.281
       105   02 Jun 2027 03:36:19.433   02 Jun 2027 03:36:56.321            36.888                 Moscow          1152.750
       106   02 Jun 2027 03:37:55.279   02 Jun 2027 03:38:17.846            22.567                Novosib           705.219
       107   02 Jun 2027 05:06:59.763   02 Jun 2027 05:08:28.529            88.766                Novosib          2773.937
       108   02 Jun 2027 05:09:39.703   02 Jun 2027 05:10:17.740            38.037                 Moscow          1188.656
       109   02 Jun 2027 05:10:30.707   02 Jun 2027 05:10:48.142            17.435                 Moscow           544.844
       110   02 Jun 2027 05:10:48.324   02 Jun 2027 05:11:18.727            30.403              Murmansk1           950.094
       111   02 Jun 2027 05:11:26.867   02 Jun 2027 05:11:37.460            10.593              Murmansk2           331.031
       112   02 Jun 2027 05:11:51.336   02 Jun 2027 05:12:43.862            52.526              Murmansk2          1641.438
       113   02 Jun 2027 05:13:10.334   02 Jun 2027 05:14:36.057            85.723                 Moscow          2678.844
       114   02 Jun 2027 05:28:00.732   02 Jun 2027 05:31:26.545           205.813               CapeTown          6431.656
       115   02 Jun 2027 06:24:23.582   02 Jun 2027 06:25:17.836            54.254                Anadyr1          1695.438
       116   02 Jun 2027 06:31:30.176   02 Jun 2027 06:35:10.002           219.826                Anadyr1          6869.563
       117   02 Jun 2027 06:35:10.002   02 Jun 2027 06:36:09.149            59.147                Anadyr2          1848.344
       118   02 Jun 2027 06:43:39.574   02 Jun 2027 06:44:37.898            58.324                 Moscow          1822.625
       119   02 Jun 2027 06:45:00.185   02 Jun 2027 06:45:29.897            29.712              Murmansk2           928.500
       120   02 Jun 2027 06:47:24.958   02 Jun 2027 06:47:34.740             9.782                 Moscow           305.688
       121   02 Jun 2027 06:48:34.913   02 Jun 2027 06:48:45.102            10.189                 Moscow           318.406
       122   02 Jun 2027 07:04:41.088   02 Jun 2027 07:05:23.002            41.914               CapeTown          1309.813
       123   02 Jun 2027 08:07:07.253   02 Jun 2027 08:10:53.410           226.157               Magadan2          7067.406
       124   02 Jun 2027 08:11:00.112   02 Jun 2027 08:11:36.530            36.418                Anadyr1          1138.062
       125   02 Jun 2027 09:40:18.459   02 Jun 2027 09:41:14.924            56.465                Anadyr1          1764.531
       126   02 Jun 2027 09:41:48.140   02 Jun 2027 09:42:53.695            65.555               Magadan1          2048.594
       127   02 Jun 2027 09:42:53.695   02 Jun 2027 09:43:37.437            43.742               Magadan2          1366.937
       128   02 Jun 2027 09:43:45.493   02 Jun 2027 09:48:32.173           286.680                Anadyr2          8958.750
       129   02 Jun 2027 11:15:44.976   02 Jun 2027 11:16:45.056            60.080               Magadan2          1877.500
       130   02 Jun 2027 11:17:11.482   02 Jun 2027 11:18:21.756            70.274               Magadan2          2196.063
       131   02 Jun 2027 11:18:48.480   02 Jun 2027 11:19:58.208            69.728                Novosib          2179.000
       132   02 Jun 2027 11:20:04.350   02 Jun 2027 11:20:31.205            26.855                Norilsk           839.219
       133   02 Jun 2027 11:20:33.021   02 Jun 2027 11:20:39.081             6.060                Irkutsk           189.375
       134   02 Jun 2027 11:20:42.099   02 Jun 2027 11:21:38.472            56.373                Norilsk          1761.656
       135   02 Jun 2027 11:22:12.472   02 Jun 2027 11:22:49.378            36.906                Norilsk          1153.313
       136   02 Jun 2027 11:23:06.683   02 Jun 2027 11:23:22.300            15.617              Murmansk2           488.031
       137   02 Jun 2027 11:23:26.388   02 Jun 2027 11:23:47.427            21.039                Irkutsk           657.469
       138   02 Jun 2027 11:24:07.049   02 Jun 2027 11:24:11.380             4.331                Norilsk           135.344
       139   02 Jun 2027 11:24:13.024   02 Jun 2027 11:24:17.528             4.504              Murmansk2           140.750
       140   02 Jun 2027 11:24:40.096   02 Jun 2027 11:25:22.821            42.725              Murmansk2          1335.156
       141   02 Jun 2027 11:59:18.236   02 Jun 2027 12:00:10.344            52.108            RioGallegos          1628.375
       142   02 Jun 2027 12:02:29.521   02 Jun 2027 12:03:03.826            34.305            RioGallegos          1072.031
       143   02 Jun 2027 12:34:11.622   02 Jun 2027 12:34:50.230            38.608                Sumatra          1206.500
       144   02 Jun 2027 12:37:14.659   02 Jun 2027 12:37:18.366             3.707                Sumatra           115.844
       145   02 Jun 2027 12:40:59.858   02 Jun 2027 12:42:20.663            80.805                Sumatra          2525.156
       146   02 Jun 2027 12:48:05.359   02 Jun 2027 12:49:28.534            83.175                Irkutsk          2599.219
       147   02 Jun 2027 12:50:14.599   02 Jun 2027 12:50:25.537            10.938                Novosib           341.812
       148   02 Jun 2027 12:52:37.649   02 Jun 2027 12:53:56.537            78.888                Norilsk          2465.250
       149   02 Jun 2027 12:59:24.215   02 Jun 2027 12:59:45.200            20.985                Norilsk           655.781
       150   02 Jun 2027 13:38:28.694   02 Jun 2027 13:39:38.133            69.439            RioGallegos          2169.969
       151   02 Jun 2027 14:13:15.034   02 Jun 2027 14:17:14.769           239.735                Sumatra          7491.719
       152   02 Jun 2027 14:25:53.229   02 Jun 2027 14:26:58.123            64.894                Novosib          2027.938
       153   02 Jun 2027 14:29:11.240   02 Jun 2027 14:31:23.571           132.331                Irkutsk          4135.344
       154   02 Jun 2027 16:00:22.966   02 Jun 2027 16:01:35.339            72.373                  Delhi          2261.656
       155   02 Jun 2027 16:02:47.906   02 Jun 2027 16:03:59.294            71.388                 Moscow          2230.875
       156   02 Jun 2027 16:06:09.609   02 Jun 2027 16:06:54.478            44.869              Murmansk2          1402.156
       157   02 Jun 2027 16:07:56.713   02 Jun 2027 16:10:37.154           160.441                Novosib          5013.781
       158   02 Jun 2027 16:13:35.045   02 Jun 2027 16:14:58.118            83.073                Norilsk          2596.031
       159   02 Jun 2027 17:17:51.008   02 Jun 2027 17:17:58.585             7.577               CapeTown           236.781
       160   02 Jun 2027 17:18:41.921   02 Jun 2027 17:19:41.104            59.183               CapeTown          1849.469
       161   02 Jun 2027 17:39:40.476   02 Jun 2027 17:39:43.033             2.557                 Moscow            79.906
       162   02 Jun 2027 17:40:33.617   02 Jun 2027 17:41:43.483            69.866                 Moscow          2183.312
       163   02 Jun 2027 17:42:58.217   02 Jun 2027 17:44:51.488           113.271              Murmansk2          3539.719
       164   02 Jun 2027 17:50:49.016   02 Jun 2027 17:50:51.866             2.850              Murmansk2            89.062
       165   02 Jun 2027 17:50:51.866   02 Jun 2027 17:51:14.019            22.153              Murmansk1           692.281
       166   02 Jun 2027 17:57:20.943   02 Jun 2027 17:58:25.112            64.169                Anadyr2          2005.281
       167   02 Jun 2027 18:00:26.953   02 Jun 2027 18:00:33.266             6.313                Anadyr1           197.281
       168   02 Jun 2027 18:00:44.343   02 Jun 2027 18:00:53.911             9.568                Anadyr2           299.000
       169   02 Jun 2027 18:01:15.563   02 Jun 2027 18:01:37.916            22.353                Anadyr1           698.531
       170   02 Jun 2027 18:52:10.502   02 Jun 2027 18:54:17.498           126.996               CapeTown          3968.625
       171   02 Jun 2027 19:21:55.926   02 Jun 2027 19:27:16.558           320.632              Murmansk1         10019.750
       172   02 Jun 2027 19:27:55.550   02 Jun 2027 19:29:04.044            68.494              Murmansk1          2140.438
       173   02 Jun 2027 20:30:36.938   02 Jun 2027 20:32:13.639            96.701               CapeTown          3021.906
       174   02 Jun 2027 20:34:02.852   02 Jun 2027 20:35:10.516            67.664               CapeTown          2114.500
       175   02 Jun 2027 21:08:42.535   02 Jun 2027 21:09:28.029            45.494                Anadyr2          1421.687
       176   02 Jun 2027 21:09:47.814   02 Jun 2027 21:09:58.140            10.326                Anadyr2           322.688
       177   02 Jun 2027 21:10:48.589   02 Jun 2027 21:11:53.690            65.101                Anadyr1          2034.406
       178   02 Jun 2027 21:12:07.921   02 Jun 2027 21:13:46.859            98.938               Magadan1          3091.812
       179   02 Jun 2027 21:13:57.672   02 Jun 2027 21:14:08.028            10.356               Magadan1           323.625
       180   02 Jun 2027 21:15:27.910   02 Jun 2027 21:16:01.128            33.218               Magadan1          1038.063
       181   02 Jun 2027 21:22:48.077   02 Jun 2027 21:23:03.859            15.782               Magadan1           493.188
       182   02 Jun 2027 22:44:36.097   02 Jun 2027 22:48:20.050           223.953                Anadyr1          6998.531
       183   02 Jun 2027 22:48:23.430   02 Jun 2027 22:50:26.485           123.055                Norilsk          3845.469
       184   02 Jun 2027 22:50:34.742   02 Jun 2027 22:51:54.750            80.008               Magadan2          2500.250
       185   02 Jun 2027 22:52:32.750   02 Jun 2027 22:52:37.175             4.425               Magadan2           138.281
       186   02 Jun 2027 22:53:12.239   02 Jun 2027 22:53:40.793            28.554               Magadan1           892.312
       187   02 Jun 2027 22:53:58.260   02 Jun 2027 22:55:18.860            80.600                Irkutsk          2518.750
       188   02 Jun 2027 23:38:46.252   02 Jun 2027 23:40:09.290            83.038            RioGallegos          2594.938
       189   02 Jun 2027 23:40:32.940   02 Jun 2027 23:41:40.433            67.493            RioGallegos          2109.156
       190   02 Jun 2027 23:49:43.186   02 Jun 2027 23:49:53.601            10.415            RioGallegos           325.469
       191   02 Jun 2027 23:50:17.313   02 Jun 2027 23:50:26.386             9.073            RioGallegos           283.531
       192   03 Jun 2027 00:20:05.781   03 Jun 2027 00:21:44.162            98.381                Anadyr1          3074.406
       193   03 Jun 2027 00:21:44.162   03 Jun 2027 00:23:00.721            76.559                Anadyr2          2392.469
       194   03 Jun 2027 00:23:08.945   03 Jun 2027 00:23:33.442            24.497                Norilsk           765.531
       195   03 Jun 2027 00:23:50.662   03 Jun 2027 00:24:11.600            20.938                Norilsk           654.312
       196   03 Jun 2027 00:24:13.565   03 Jun 2027 00:24:51.361            37.796               Magadan1          1181.125
       197   03 Jun 2027 00:25:49.791   03 Jun 2027 00:26:14.582            24.791               Magadan2           774.719
       198   03 Jun 2027 00:26:28.299   03 Jun 2027 00:28:20.662           112.363                Irkutsk          3511.344
       199   03 Jun 2027 00:33:45.589   03 Jun 2027 00:34:19.208            33.619                Novosib          1050.594
       200   03 Jun 2027 00:37:11.313   03 Jun 2027 00:37:40.644            29.331                Irkutsk           916.594
       201   03 Jun 2027 00:40:09.821   03 Jun 2027 00:43:11.920           182.099                Sumatra          5690.594
       202   03 Jun 2027 01:26:14.582   03 Jun 2027 01:26:47.108            32.526            RioGallegos          1016.437
       203   03 Jun 2027 01:55:15.016   03 Jun 2027 01:56:09.977            54.961                Anadyr1          1717.531
       204   03 Jun 2027 01:56:39.059   03 Jun 2027 01:56:53.645            14.586                Anadyr2           455.813
       205   03 Jun 2027 01:58:25.258   03 Jun 2027 01:59:40.648            75.390                Norilsk          2355.937
       206   03 Jun 2027 01:59:52.581   03 Jun 2027 01:59:58.419             5.838                Norilsk           182.438
       207   03 Jun 2027 02:00:36.704   03 Jun 2027 02:00:40.158             3.454               Magadan1           107.938
       208   03 Jun 2027 02:01:41.785   03 Jun 2027 02:01:48.308             6.523                Norilsk           203.844
       209   03 Jun 2027 02:02:18.424   03 Jun 2027 02:04:34.221           135.797                Novosib          4243.656
       210   03 Jun 2027 02:05:20.941   03 Jun 2027 02:05:37.947            17.006                Novosib           531.437
       211   03 Jun 2027 02:09:48.570   03 Jun 2027 02:10:41.149            52.579                  Delhi          1643.094
       212   03 Jun 2027 02:15:56.715   03 Jun 2027 02:16:34.794            38.079                  Delhi          1189.969
       213   03 Jun 2027 02:20:20.175   03 Jun 2027 02:23:10.094           169.919                Sumatra          5309.969
       214   03 Jun 2027 02:53:12.002   03 Jun 2027 02:54:23.093            71.091            RioGallegos          2221.594
       215   03 Jun 2027 02:54:50.045   03 Jun 2027 02:55:23.114            33.069            RioGallegos          1033.406
       216   03 Jun 2027 03:41:52.359   03 Jun 2027 03:43:27.825            95.466                Irkutsk          2983.313
       217   03 Jun 2027 03:44:20.279   03 Jun 2027 03:44:53.431            33.152                 Moscow          1036.000
       218   03 Jun 2027 03:44:57.001   03 Jun 2027 03:45:41.729            44.728                Norilsk          1397.750
       219   03 Jun 2027 03:45:45.408   03 Jun 2027 03:46:27.689            42.281              Murmansk2          1321.281
       220   03 Jun 2027 05:18:09.854   03 Jun 2027 05:18:50.219            40.365                Novosib          1261.406
       221   03 Jun 2027 05:21:03.761   03 Jun 2027 05:21:46.899            43.138              Murmansk1          1348.062
       222   03 Jun 2027 05:22:07.331   03 Jun 2027 05:22:31.287            23.956              Murmansk1           748.625
       223   03 Jun 2027 05:22:46.329   03 Jun 2027 05:24:46.400           120.071              Murmansk2          3752.219
       224   03 Jun 2027 05:25:15.673   03 Jun 2027 05:26:33.672            77.999                 Moscow          2437.469
       225   03 Jun 2027 05:28:29.697   03 Jun 2027 05:28:34.070             4.373                 Moscow           136.656
       226   03 Jun 2027 05:39:49.522   03 Jun 2027 05:40:44.984            55.462               CapeTown          1733.187
       227   03 Jun 2027 05:42:47.959   03 Jun 2027 05:43:27.449            39.490               CapeTown          1234.062
       228   03 Jun 2027 06:42:31.681   03 Jun 2027 06:43:31.895            60.214                Anadyr1          1881.687
       229   03 Jun 2027 06:43:36.338   03 Jun 2027 06:44:14.103            37.765                Anadyr2          1180.156
       230   03 Jun 2027 06:44:14.103   03 Jun 2027 06:45:07.154            53.051                Anadyr1          1657.844
       231   03 Jun 2027 06:54:38.719   03 Jun 2027 06:56:10.379            91.660                 Moscow          2864.375
       232   03 Jun 2027 07:17:18.611   03 Jun 2027 07:20:05.125           166.514               CapeTown          5203.562
       233   03 Jun 2027 08:17:01.854   03 Jun 2027 08:17:48.957            47.103               Magadan2          1471.969
       234   03 Jun 2027 08:17:50.795   03 Jun 2027 08:19:20.335            89.540                Anadyr1          2798.125
       235   03 Jun 2027 08:19:40.753   03 Jun 2027 08:20:41.040            60.287               Magadan1          1883.969
       236   03 Jun 2027 08:20:48.816   03 Jun 2027 08:21:14.000            25.184                Norilsk           787.000
       237   03 Jun 2027 08:21:22.973   03 Jun 2027 08:22:40.325            77.352                Anadyr2          2417.250
       238   03 Jun 2027 08:29:12.999   03 Jun 2027 08:29:47.503            34.504                 Moscow          1078.250
       239   03 Jun 2027 09:04:19.283   03 Jun 2027 09:04:52.765            33.482            RioGallegos          1046.313
       240   03 Jun 2027 09:52:14.796   03 Jun 2027 09:53:04.938            50.142               Magadan2          1566.937
       241   03 Jun 2027 09:53:05.836   03 Jun 2027 09:53:57.952            52.116               Magadan2          1628.625
       242   03 Jun 2027 09:54:01.787   03 Jun 2027 09:58:19.190           257.403                Anadyr2          8043.844
       243   03 Jun 2027 09:58:28.781   03 Jun 2027 09:59:18.846            50.065                Anadyr2          1564.531
       244   03 Jun 2027 10:00:03.646   03 Jun 2027 10:00:52.751            49.105                Norilsk          1534.531
       245   03 Jun 2027 10:36:02.824   03 Jun 2027 10:36:34.697            31.873            RioGallegos           996.031
       246   03 Jun 2027 10:38:25.102   03 Jun 2027 10:39:19.760            54.658            RioGallegos          1708.062
       247   03 Jun 2027 11:15:01.342   03 Jun 2027 11:15:24.334            22.992                Sumatra           718.500
       248   03 Jun 2027 11:28:39.538   03 Jun 2027 11:28:43.257             3.719               Magadan2           116.219
       249   03 Jun 2027 11:28:43.257   03 Jun 2027 11:31:08.842           145.585               Magadan1          4549.531
       250   03 Jun 2027 11:31:54.879   03 Jun 2027 11:35:19.681           204.802               Magadan2          6400.063
       251   03 Jun 2027 11:35:38.093   03 Jun 2027 11:36:16.483            38.390                Irkutsk          1199.687
       252   03 Jun 2027 11:36:37.752   03 Jun 2027 11:36:44.315             6.563                Novosib           205.094
       253   03 Jun 2027 11:37:07.842   03 Jun 2027 11:37:21.190            13.348              Murmansk1           417.125
       254   03 Jun 2027 11:38:43.422   03 Jun 2027 11:39:13.391            29.969              Murmansk1           936.531
       255   03 Jun 2027 12:11:27.825   03 Jun 2027 12:12:03.236            35.411            RioGallegos          1106.594
       256   03 Jun 2027 12:13:07.352   03 Jun 2027 12:14:28.829            81.477            RioGallegos          2546.156
       257   03 Jun 2027 12:46:30.386   03 Jun 2027 12:48:48.231           137.845                Sumatra          4307.656
       258   03 Jun 2027 13:00:22.903   03 Jun 2027 13:01:30.701            67.798                Irkutsk          2118.688
       259   03 Jun 2027 13:04:43.903   03 Jun 2027 13:05:58.836            74.933                Norilsk          2341.656
       260   03 Jun 2027 13:11:24.469   03 Jun 2027 13:11:47.551            23.082                Norilsk           721.312
       261   03 Jun 2027 13:19:21.614   03 Jun 2027 13:19:41.452            19.838              Murmansk1           619.938
       262   03 Jun 2027 13:51:30.791   03 Jun 2027 13:55:14.705           223.914            RioGallegos          6997.312
       263   03 Jun 2027 14:38:14.880   03 Jun 2027 14:39:04.797            49.917                Novosib          1559.906
       264   03 Jun 2027 14:42:15.634   03 Jun 2027 14:44:32.636           137.002                Novosib          4281.312
       265   03 Jun 2027 14:46:01.874   03 Jun 2027 14:46:52.965            51.091                Norilsk          1596.594
       266   03 Jun 2027 16:14:45.957   03 Jun 2027 16:15:58.982            73.025                 Moscow          2282.031
       267   03 Jun 2027 16:16:57.461   03 Jun 2027 16:18:37.250            99.789                 Moscow          3118.406
       268   03 Jun 2027 16:19:09.782   03 Jun 2027 16:20:12.059            62.277              Murmansk2          1946.156
       269   03 Jun 2027 16:22:08.701   03 Jun 2027 16:23:50.485           101.784                Norilsk          3180.750
       270   03 Jun 2027 16:25:34.719   03 Jun 2027 16:27:51.684           136.965                Norilsk          4280.156
       271   03 Jun 2027 17:29:22.208   03 Jun 2027 17:29:58.722            36.514               CapeTown          1141.062
       272   03 Jun 2027 17:34:40.678   03 Jun 2027 17:34:51.442            10.764               CapeTown           336.375
       273   03 Jun 2027 17:38:39.532   03 Jun 2027 17:38:58.863            19.331               CapeTown           604.094
       274   03 Jun 2027 17:52:05.534   03 Jun 2027 17:52:42.802            37.268                 Moscow          1164.625
       275   03 Jun 2027 17:53:12.828   03 Jun 2027 17:55:46.166           153.338                 Moscow          4791.812
       276   03 Jun 2027 17:57:02.634   03 Jun 2027 17:57:10.944             8.310                 Moscow           259.688
       277   03 Jun 2027 17:59:19.592   03 Jun 2027 17:59:24.188             4.596              Murmansk1           143.625
       278   03 Jun 2027 18:00:03.558   03 Jun 2027 18:01:33.659            90.101                 Moscow          2815.656
       279   03 Jun 2027 18:09:52.113   03 Jun 2027 18:10:25.339            33.226                Anadyr2          1038.313
       280   03 Jun 2027 18:18:06.553   03 Jun 2027 18:18:26.842            20.289                Anadyr2           634.031
       281   03 Jun 2027 19:04:15.453   03 Jun 2027 19:06:02.579           107.126               CapeTown          3347.687
       282   03 Jun 2027 19:34:32.659   03 Jun 2027 19:40:04.447           331.788              Murmansk2         10368.375
       283   03 Jun 2027 19:40:07.787   03 Jun 2027 19:42:19.550           131.763              Murmansk2          4117.594
       284   03 Jun 2027 20:44:38.072   03 Jun 2027 20:45:41.277            63.205               CapeTown          1975.156
       285   03 Jun 2027 21:20:44.372   03 Jun 2027 21:23:51.202           186.830                Anadyr2          5838.438
       286   03 Jun 2027 21:23:55.553   03 Jun 2027 21:24:45.774            50.221               Magadan1          1569.406
       287   03 Jun 2027 21:25:12.683   03 Jun 2027 21:25:44.007            31.324               Magadan1           978.875
       288   03 Jun 2027 21:28:01.278   03 Jun 2027 21:28:21.047            19.769               Magadan1           617.781
       289   03 Jun 2027 21:31:54.336   03 Jun 2027 21:32:16.927            22.591               Magadan2           705.969
       290   03 Jun 2027 21:33:53.396   03 Jun 2027 21:34:22.425            29.029               Magadan2           907.156
       291   03 Jun 2027 22:18:56.288   03 Jun 2027 22:19:54.611            58.323            RioGallegos          1822.594
       292   03 Jun 2027 22:56:36.395   03 Jun 2027 23:00:45.010           248.615                Anadyr1          7769.219
       293   03 Jun 2027 23:00:55.077   03 Jun 2027 23:01:03.020             7.943                Norilsk           248.219
       294   03 Jun 2027 23:01:20.055   03 Jun 2027 23:01:47.702            27.647                Norilsk           863.969
       295   03 Jun 2027 23:02:06.388   03 Jun 2027 23:02:25.568            19.180               Magadan2           599.375
       296   03 Jun 2027 23:03:19.065   03 Jun 2027 23:03:24.200             5.135                Norilsk           160.469
       297   03 Jun 2027 23:03:59.625   03 Jun 2027 23:04:11.276            11.651                Norilsk           364.094
       298   03 Jun 2027 23:04:15.558   03 Jun 2027 23:04:35.584            20.026               Magadan1           625.813
       299   03 Jun 2027 23:04:41.741   03 Jun 2027 23:05:19.098            37.357               Magadan2          1167.406
       300   03 Jun 2027 23:06:09.078   03 Jun 2027 23:06:44.413            35.335                Irkutsk          1104.219
       301   03 Jun 2027 23:07:01.044   03 Jun 2027 23:07:02.974             1.930                Irkutsk            60.312
       302   03 Jun 2027 23:09:05.395   03 Jun 2027 23:09:30.517            25.122                Irkutsk           785.062
       303   03 Jun 2027 23:10:59.750   03 Jun 2027 23:11:31.042            31.292                Irkutsk           977.875
       304   03 Jun 2027 23:20:01.913   03 Jun 2027 23:21:03.401            61.488                Sumatra          1921.500
       305   03 Jun 2027 23:21:26.507   03 Jun 2027 23:21:28.050             1.543                Sumatra            48.219
       306   03 Jun 2027 23:21:47.604   03 Jun 2027 23:22:54.443            66.839                Sumatra          2088.719
       307   03 Jun 2027 23:58:25.704   03 Jun 2027 23:58:51.482            25.778            RioGallegos           805.563
       308   04 Jun 2027 00:01:45.976   04 Jun 2027 00:01:53.660             7.684            RioGallegos           240.125
       309   04 Jun 2027 00:02:01.569   04 Jun 2027 00:02:40.723            39.154            RioGallegos          1223.562
       310   04 Jun 2027 00:32:00.678   04 Jun 2027 00:33:25.896            85.218                Anadyr1          2663.062
       311   04 Jun 2027 00:34:27.096   04 Jun 2027 00:36:13.853           106.757                Norilsk          3336.156
       312   04 Jun 2027 00:37:02.780   04 Jun 2027 00:38:50.192           107.412               Magadan1          3356.625
       313   04 Jun 2027 00:39:19.001   04 Jun 2027 00:40:02.211            43.210                Irkutsk          1350.312
       314   04 Jun 2027 00:44:58.111   04 Jun 2027 00:45:24.312            26.201                Novosib           818.781
       315   04 Jun 2027 00:48:10.998   04 Jun 2027 00:48:24.482            13.484                Novosib           421.375
       316   04 Jun 2027 00:52:10.480   04 Jun 2027 00:54:19.743           129.263                Sumatra          4039.469
       317   04 Jun 2027 01:28:42.463   04 Jun 2027 01:29:06.898            24.435            RioGallegos           763.594
       318   04 Jun 2027 01:31:20.202   04 Jun 2027 01:31:25.267             5.065            RioGallegos           158.281
       319   04 Jun 2027 01:31:29.701   04 Jun 2027 01:32:06.559            36.858            RioGallegos          1151.812
       320   04 Jun 2027 01:36:03.035   04 Jun 2027 01:36:48.561            45.526            RioGallegos          1422.687
       321   04 Jun 2027 02:06:19.785   04 Jun 2027 02:06:42.953            23.168                Anadyr1           724.000
       322   04 Jun 2027 02:07:15.312   04 Jun 2027 02:08:11.293            55.981                Anadyr1          1749.406
       323   04 Jun 2027 02:10:27.638   04 Jun 2027 02:11:42.093            74.455                Norilsk          2326.719
       324   04 Jun 2027 02:13:45.062   04 Jun 2027 02:14:47.247            62.185              Murmansk2          1943.281
       325   04 Jun 2027 02:14:47.603   04 Jun 2027 02:16:04.785            77.182                Irkutsk          2411.938
       326   04 Jun 2027 02:18:06.421   04 Jun 2027 02:18:44.808            38.387                Novosib          1199.594
       327   04 Jun 2027 02:24:40.325   04 Jun 2027 02:25:24.334            44.009                  Delhi          1375.281
       328   04 Jun 2027 02:29:23.524   04 Jun 2027 02:29:59.913            36.389                  Delhi          1137.156
       329   04 Jun 2027 03:03:14.884   04 Jun 2027 03:04:25.271            70.387            RioGallegos          2199.594
       330   04 Jun 2027 03:05:13.110   04 Jun 2027 03:07:47.113           154.003            RioGallegos          4812.594
       331   04 Jun 2027 03:53:29.060   04 Jun 2027 03:55:04.054            94.994                Irkutsk          2968.563
       332   04 Jun 2027 03:56:42.453   04 Jun 2027 03:57:04.748            22.295                 Moscow           696.719
       333   04 Jun 2027 03:57:26.979   04 Jun 2027 03:57:31.480             4.501                Norilsk           140.656
       334   04 Jun 2027 03:57:50.125   04 Jun 2027 03:58:20.351            30.226                Norilsk           944.562
       335   04 Jun 2027 03:58:28.841   04 Jun 2027 03:58:56.978            28.137              Murmansk2           879.281
       336   04 Jun 2027 03:59:04.005   04 Jun 2027 03:59:10.838             6.833                Norilsk           213.531
       337   04 Jun 2027 05:31:53.809   04 Jun 2027 05:32:28.554            34.745                Novosib          1085.781
       338   04 Jun 2027 05:32:49.714   04 Jun 2027 05:34:22.560            92.846              Murmansk1          2901.437
       339   04 Jun 2027 05:34:24.028   04 Jun 2027 05:34:25.143             1.115                Novosib            34.844
       340   04 Jun 2027 05:34:44.821   04 Jun 2027 05:35:56.693            71.872              Murmansk1          2246.000
       341   04 Jun 2027 05:36:31.800   04 Jun 2027 05:37:21.579            49.779                 Moscow          1555.594
       342   04 Jun 2027 05:38:25.621   04 Jun 2027 05:38:28.492             2.871                 Moscow            89.719
       343   04 Jun 2027 05:51:43.430   04 Jun 2027 05:54:42.076           178.646               CapeTown          5582.688
       344   04 Jun 2027 06:54:48.101   04 Jun 2027 06:55:05.825            17.724                Anadyr2           553.875
       345   04 Jun 2027 06:55:19.954   04 Jun 2027 06:55:33.500            13.546                Anadyr1           423.313
       346   04 Jun 2027 06:56:01.275   04 Jun 2027 06:56:02.235             0.960               Magadan1            30.000
       347   04 Jun 2027 06:56:02.235   04 Jun 2027 06:56:09.039             6.804               Magadan2           212.625
       348   04 Jun 2027 06:56:14.948   04 Jun 2027 06:56:30.876            15.928               Magadan1           497.750
       349   04 Jun 2027 06:56:54.205   04 Jun 2027 06:56:57.779             3.574               Magadan2           111.687
       350   04 Jun 2027 06:56:57.779   04 Jun 2027 06:57:22.228            24.449               Magadan1           764.031
       351   04 Jun 2027 06:57:29.325   04 Jun 2027 06:58:01.336            32.011                Anadyr2          1000.344
       352   04 Jun 2027 06:58:57.499   04 Jun 2027 06:59:11.997            14.498               Magadan2           453.063
       353   04 Jun 2027 07:11:12.166   04 Jun 2027 07:11:35.204            23.038                 Moscow           719.938
       354   04 Jun 2027 07:30:08.861   04 Jun 2027 07:30:45.825            36.964               CapeTown          1155.125
       355   04 Jun 2027 07:32:27.909   04 Jun 2027 07:34:39.200           131.291               CapeTown          4102.844
       356   04 Jun 2027 08:28:50.380   04 Jun 2027 08:30:17.219            86.839                Anadyr1          2713.719
       357   04 Jun 2027 08:30:17.219   04 Jun 2027 08:31:07.137            49.918                Anadyr2          1559.937
       358   04 Jun 2027 08:31:18.947   04 Jun 2027 08:33:23.835           124.888                Anadyr2          3902.750
       359   04 Jun 2027 08:33:34.939   04 Jun 2027 08:34:25.063            50.124                Anadyr1          1566.375
       360   04 Jun 2027 08:35:15.193   04 Jun 2027 08:35:26.402            11.209                Anadyr1           350.281
       361   04 Jun 2027 08:40:36.897   04 Jun 2027 08:41:30.895            53.998                 Moscow          1687.438
       362   04 Jun 2027 10:03:10.411   04 Jun 2027 10:04:02.010            51.599               Magadan1          1612.469
       363   04 Jun 2027 10:05:07.158   04 Jun 2027 10:05:33.211            26.053               Magadan2           814.156
       364   04 Jun 2027 10:05:53.174   04 Jun 2027 10:06:46.186            53.012               Magadan2          1656.625
       365   04 Jun 2027 10:06:47.372   04 Jun 2027 10:08:59.222           131.850               Magadan1          4120.313
       366   04 Jun 2027 10:09:17.187   04 Jun 2027 10:12:05.910           168.723                Anadyr2          5272.594
       367   04 Jun 2027 10:12:24.629   04 Jun 2027 10:13:19.082            54.453                Norilsk          1701.656
       368   04 Jun 2027 10:47:49.229   04 Jun 2027 10:48:03.898            14.669            RioGallegos           458.406
       369   04 Jun 2027 10:48:36.896   04 Jun 2027 10:48:39.955             3.059            RioGallegos            95.594
       370   04 Jun 2027 10:49:54.125   04 Jun 2027 10:50:30.921            36.796            RioGallegos          1149.875
       371   04 Jun 2027 10:56:07.625   04 Jun 2027 10:57:15.024            67.399            RioGallegos          2106.219
       372   04 Jun 2027 11:27:06.710   04 Jun 2027 11:27:11.529             4.819                Sumatra           150.594
       373   04 Jun 2027 11:41:39.791   04 Jun 2027 11:41:58.906            19.115                Novosib           597.344
       374   04 Jun 2027 11:42:00.594   04 Jun 2027 11:42:03.632             3.038                Norilsk            94.938
       375   04 Jun 2027 11:42:19.631   04 Jun 2027 11:42:46.508            26.877                Novosib           839.906
       376   04 Jun 2027 11:42:53.306   04 Jun 2027 11:43:33.203            39.897                Irkutsk          1246.781
       377   04 Jun 2027 11:43:42.676   04 Jun 2027 11:44:02.423            19.747                Norilsk           617.094
       378   04 Jun 2027 11:44:08.342   04 Jun 2027 11:44:43.992            35.650                Irkutsk          1114.063
       379   04 Jun 2027 11:45:11.790   04 Jun 2027 11:45:46.118            34.328                Norilsk          1072.750
       380   04 Jun 2027 11:45:48.365   04 Jun 2027 11:46:47.256            58.891               Magadan1          1840.344
       381   04 Jun 2027 11:47:10.824   04 Jun 2027 11:47:22.634            11.810              Murmansk1           369.062
       382   04 Jun 2027 11:47:22.634   04 Jun 2027 11:47:55.345            32.711              Murmansk2          1022.219
       383   04 Jun 2027 11:47:57.086   04 Jun 2027 11:48:15.677            18.591                Norilsk           580.969
       384   04 Jun 2027 11:48:16.904   04 Jun 2027 11:48:40.449            23.545                Novosib           735.781
       385   04 Jun 2027 11:49:09.341   04 Jun 2027 11:49:20.028            10.687              Murmansk1           333.969
       386   04 Jun 2027 12:23:41.243   04 Jun 2027 12:24:43.183            61.940            RioGallegos          1935.625
       387   04 Jun 2027 12:33:15.917   04 Jun 2027 12:33:29.025            13.108            RioGallegos           409.625
       388   04 Jun 2027 12:34:41.036   04 Jun 2027 12:35:58.607            77.571            RioGallegos          2424.094
       389   04 Jun 2027 12:59:44.523   04 Jun 2027 13:00:34.259            49.736                Sumatra          1554.250
       390   04 Jun 2027 13:09:55.408   04 Jun 2027 13:10:46.996            51.588                Sumatra          1612.125
       391   04 Jun 2027 13:12:44.824   04 Jun 2027 13:14:20.425            95.601                Irkutsk          2987.531
       392   04 Jun 2027 13:15:24.339   04 Jun 2027 13:15:35.482            11.143                Novosib           348.219
       393   04 Jun 2027 13:16:48.920   04 Jun 2027 13:17:57.677            68.757                Irkutsk          2148.656
       394   04 Jun 2027 13:22:59.049   04 Jun 2027 13:23:17.250            18.201                Irkutsk           568.781
       395   04 Jun 2027 13:29:15.153   04 Jun 2027 13:29:36.346            21.193                Norilsk           662.281
       396   04 Jun 2027 14:04:59.940   04 Jun 2027 14:08:33.938           213.998            RioGallegos          6687.438
       397   04 Jun 2027 14:50:40.910   04 Jun 2027 14:51:15.456            34.546                Novosib          1079.562
       398   04 Jun 2027 14:51:18.297   04 Jun 2027 14:52:30.153            71.856                  Delhi          2245.500
       399   04 Jun 2027 14:54:15.580   04 Jun 2027 14:55:49.329            93.749                Novosib          2929.656
       400   04 Jun 2027 14:56:51.747   04 Jun 2027 14:57:11.917            20.170                Norilsk           630.312
       401   04 Jun 2027 14:58:27.358   04 Jun 2027 15:00:59.074           151.716                Novosib          4741.125
       402   04 Jun 2027 16:26:46.888   04 Jun 2027 16:27:57.787            70.899                 Moscow          2215.594
       403   04 Jun 2027 16:30:16.118   04 Jun 2027 16:31:08.377            52.259              Murmansk1          1633.094
       404   04 Jun 2027 16:31:35.189   04 Jun 2027 16:32:00.257            25.068              Murmansk2           783.375
       405   04 Jun 2027 16:34:54.177   04 Jun 2027 16:39:27.158           272.981                Norilsk          8530.656
       406   04 Jun 2027 17:50:18.863   04 Jun 2027 17:51:04.796            45.933               CapeTown          1435.406
       407   04 Jun 2027 18:04:35.424   04 Jun 2027 18:05:38.100            62.676                 Moscow          1958.625
       408   04 Jun 2027 18:07:33.632   04 Jun 2027 18:08:36.053            62.421              Murmansk1          1950.656
       409   04 Jun 2027 18:08:48.966   04 Jun 2027 18:09:35.170            46.204                 Moscow          1443.875
       410   04 Jun 2027 18:11:09.017   04 Jun 2027 18:11:34.515            25.498              Murmansk1           796.812
       411   04 Jun 2027 18:16:06.034   04 Jun 2027 18:17:04.061            58.027              Murmansk1          1813.344
       412   04 Jun 2027 18:23:47.034   04 Jun 2027 18:23:47.362             0.328                Anadyr2            10.250
       413   04 Jun 2027 18:24:59.127   04 Jun 2027 18:25:14.135            15.008                Anadyr2           469.000
       414   04 Jun 2027 18:25:57.640   04 Jun 2027 18:26:21.515            23.875                Anadyr2           746.094
       415   04 Jun 2027 19:16:23.302   04 Jun 2027 19:18:05.559           102.257               CapeTown          3195.531
       416   04 Jun 2027 19:25:07.888   04 Jun 2027 19:25:22.768            14.880               CapeTown           465.000
       417   04 Jun 2027 19:25:26.537   04 Jun 2027 19:26:05.997            39.460               CapeTown          1233.125
       418   04 Jun 2027 19:47:13.007   04 Jun 2027 19:54:20.454           427.447              Murmansk1         13357.719
       419   04 Jun 2027 21:32:46.159   04 Jun 2027 21:34:25.615            99.456                Anadyr2          3108.000
       420   04 Jun 2027 21:34:34.443   04 Jun 2027 21:35:54.859            80.416                Anadyr1          2513.000
       421   04 Jun 2027 21:36:07.431   04 Jun 2027 21:36:27.306            19.875                Anadyr1           621.094
       422   04 Jun 2027 21:36:48.485   04 Jun 2027 21:38:33.608           105.123               Magadan1          3285.094
       423   04 Jun 2027 21:39:27.222   04 Jun 2027 21:40:26.289            59.067               Magadan2          1845.844
       424   04 Jun 2027 21:40:26.289   04 Jun 2027 21:40:31.555             5.266               Magadan1           164.563
       425   04 Jun 2027 21:42:21.526   04 Jun 2027 21:43:19.635            58.109               Magadan2          1815.906
       426   04 Jun 2027 22:29:05.058   04 Jun 2027 22:31:30.820           145.762            RioGallegos          4555.062
       427   04 Jun 2027 23:08:36.279   04 Jun 2027 23:09:53.152            76.873                Anadyr1          2402.281
       428   04 Jun 2027 23:09:53.438   04 Jun 2027 23:10:33.450            40.012                Anadyr2          1250.375
       429   04 Jun 2027 23:10:42.922   04 Jun 2027 23:12:49.920           126.998                Norilsk          3968.687
       430   04 Jun 2027 23:12:59.784   04 Jun 2027 23:13:24.499            24.715               Magadan1           772.344
       431   04 Jun 2027 23:15:22.688   04 Jun 2027 23:16:05.884            43.196               Magadan2          1349.875
       432   04 Jun 2027 23:17:22.352   04 Jun 2027 23:17:51.328            28.976                Irkutsk           905.500
       433   04 Jun 2027 23:18:51.209   04 Jun 2027 23:19:01.896            10.687                Irkutsk           333.969
       434   04 Jun 2027 23:19:39.349   04 Jun 2027 23:19:55.559            16.210                Irkutsk           506.562
       435   04 Jun 2027 23:21:04.379   04 Jun 2027 23:22:16.415            72.036                Irkutsk          2251.125
       436   04 Jun 2027 23:30:47.782   04 Jun 2027 23:32:45.370           117.588                Sumatra          3674.625
       437   05 Jun 2027 00:11:06.770   05 Jun 2027 00:11:44.459            37.689            RioGallegos          1177.781
       438   05 Jun 2027 00:43:54.500   05 Jun 2027 00:44:18.656            24.156                Anadyr1           754.875
       439   05 Jun 2027 00:44:43.566   05 Jun 2027 00:45:42.124            58.558                Anadyr2          1829.937
       440   05 Jun 2027 00:46:03.204   05 Jun 2027 00:46:32.916            29.712                Anadyr1           928.500
       441   05 Jun 2027 00:46:49.753   05 Jun 2027 00:47:12.602            22.849                Norilsk           714.031
       442   05 Jun 2027 00:47:24.869   05 Jun 2027 00:49:07.095           102.226               Magadan1          3194.562
       443   05 Jun 2027 00:50:25.076   05 Jun 2027 00:53:12.691           167.615                Irkutsk          5237.969
       444   05 Jun 2027 01:01:21.090   05 Jun 2027 01:01:44.248            23.158                  Delhi           723.687
       445   05 Jun 2027 01:02:32.191   05 Jun 2027 01:02:54.887            22.696                  Delhi           709.250
       446   05 Jun 2027 01:04:58.326   05 Jun 2027 01:06:25.496            87.170                Sumatra          2724.063
       447   05 Jun 2027 01:14:00.502   05 Jun 2027 01:15:49.310           108.808                Sumatra          3400.250
       448   05 Jun 2027 02:19:15.245   05 Jun 2027 02:19:20.539             5.294                Anadyr2           165.437
       449   05 Jun 2027 02:20:05.407   05 Jun 2027 02:20:36.068            30.661                Anadyr1           958.156
       450   05 Jun 2027 02:22:29.970   05 Jun 2027 02:23:49.987            80.017                Norilsk          2500.531
       451   05 Jun 2027 02:25:25.664   05 Jun 2027 02:26:29.814            64.150              Murmansk2          2004.688
       452   05 Jun 2027 02:26:31.529   05 Jun 2027 02:27:54.294            82.765                Irkutsk          2586.406
       453   05 Jun 2027 02:31:22.454   05 Jun 2027 02:31:41.874            19.420                Irkutsk           606.875
       454   05 Jun 2027 02:34:19.979   05 Jun 2027 02:36:14.153           114.174                  Delhi          3567.938
       455   05 Jun 2027 03:15:31.666   05 Jun 2027 03:15:34.827             3.161            RioGallegos            98.781
       456   05 Jun 2027 03:16:33.909   05 Jun 2027 03:17:05.838            31.929            RioGallegos           997.781
       457   05 Jun 2027 03:17:53.463   05 Jun 2027 03:20:23.086           149.623            RioGallegos          4675.719
       458   05 Jun 2027 04:08:01.024   05 Jun 2027 04:08:55.922            54.898                Norilsk          1715.562
       459   05 Jun 2027 04:09:09.938   05 Jun 2027 04:10:14.534            64.596              Murmansk2          2018.625
       460   05 Jun 2027 04:10:46.268   05 Jun 2027 04:10:59.683            13.415                Novosib           419.219
       461   05 Jun 2027 04:11:08.236   05 Jun 2027 04:11:23.658            15.422              Murmansk1           481.938
       462   05 Jun 2027 05:43:56.686   05 Jun 2027 05:44:37.787            41.101                Novosib          1284.406
       463   05 Jun 2027 05:45:18.724   05 Jun 2027 05:46:11.678            52.954              Murmansk1          1654.812
       464   05 Jun 2027 05:46:11.678   05 Jun 2027 05:48:26.600           134.922              Murmansk2          4216.313
       465   05 Jun 2027 06:13:19.392   05 Jun 2027 06:13:52.526            33.134               CapeTown          1035.437
       466   05 Jun 2027 07:06:42.510   05 Jun 2027 07:07:34.965            52.455                Anadyr1          1639.219
       467   05 Jun 2027 07:07:43.956   05 Jun 2027 07:09:05.690            81.734                Anadyr2          2554.187
       468   05 Jun 2027 07:09:31.232   05 Jun 2027 07:10:03.774            32.542                Anadyr2          1016.937
       469   05 Jun 2027 07:43:20.423   05 Jun 2027 07:44:19.338            58.915               CapeTown          1841.094
       470   05 Jun 2027 08:42:59.674   05 Jun 2027 08:43:08.686             9.012               Magadan2           281.625
       471   05 Jun 2027 08:43:08.686   05 Jun 2027 08:43:12.171             3.485               Magadan1           108.906
       472   05 Jun 2027 08:43:16.678   05 Jun 2027 08:46:47.934           211.256                Anadyr1          6601.750
       473   05 Jun 2027 10:17:08.045   05 Jun 2027 10:18:26.414            78.369               Magadan2          2449.031
       474   05 Jun 2027 10:18:42.151   05 Jun 2027 10:22:02.987           200.836               Magadan1          6276.125
       475   05 Jun 2027 10:22:06.219   05 Jun 2027 10:23:41.178            94.959                Anadyr2          2967.469
       476   05 Jun 2027 10:23:58.660   05 Jun 2027 10:24:18.889            20.229                Novosib           632.156
       477   05 Jun 2027 10:24:22.867   05 Jun 2027 10:24:32.444             9.577              Murmansk1           299.281
       478   05 Jun 2027 10:24:40.156   05 Jun 2027 10:25:35.246            55.090                Norilsk          1721.562
       479   05 Jun 2027 10:59:38.884   05 Jun 2027 11:00:31.911            53.027            RioGallegos          1657.094
       480   05 Jun 2027 11:36:21.185   05 Jun 2027 11:38:18.778           117.593                Sumatra          3674.781
       481   05 Jun 2027 11:55:02.808   05 Jun 2027 11:55:59.977            57.169                Irkutsk          1786.531
       482   05 Jun 2027 11:56:03.875   05 Jun 2027 11:56:30.125            26.250                Norilsk           820.312
