uniorb/output/strategy_2/Drop/Drop_KinoSat_110304.txt

KinoSat_110304
-------------------------
    Access    *     Start Time (UTCG)     *     Stop Time (UTCG)  *   Duration (s)        *       Station  *  Data (Mbytes)
         1   01 Jun 2027 04:06:14.357   01 Jun 2027 04:07:12.318            57.961               Magadan1          4950.000
         2   01 Jun 2027 04:07:18.878   01 Jun 2027 04:07:54.083            35.205               Magadan1          3280.000
         3   01 Jun 2027 04:08:11.720   01 Jun 2027 04:09:32.933            81.213               Magadan1          8818.500
         4   01 Jun 2027 04:09:35.973   01 Jun 2027 04:09:57.934            21.961                Novosib          1520.000
         5   01 Jun 2027 04:10:02.973   01 Jun 2027 04:10:33.298            30.325               Magadan2          2519.500
         6   01 Jun 2027 04:10:37.904   01 Jun 2027 04:11:50.063            72.159                Novosib          2303.000
         7   01 Jun 2027 04:11:53.549   01 Jun 2027 04:12:37.150            43.601                Novosib          1743.000
         8   01 Jun 2027 04:12:40.670   01 Jun 2027 04:13:04.118            23.448              Murmansk2          1760.000
         9   01 Jun 2027 04:13:18.886   01 Jun 2027 04:13:22.949             4.063                Irkutsk           507.875
        10   01 Jun 2027 04:13:31.119   01 Jun 2027 04:14:36.799            65.680                Novosib          7109.125
        11   01 Jun 2027 05:43:05.890   01 Jun 2027 05:44:04.547            58.657                Norilsk          6786.500
        12   01 Jun 2027 05:44:28.535   01 Jun 2027 05:46:09.831           101.296                Novosib         11994.000
        13   01 Jun 2027 05:46:10.783   01 Jun 2027 05:46:18.421             7.638                Norilsk           476.000
        14   01 Jun 2027 05:46:20.594   01 Jun 2027 05:46:39.963            19.369                Novosib          1086.500
        15   01 Jun 2027 05:46:45.499   01 Jun 2027 05:47:04.868            19.369                 Moscow          2421.125
        16   01 Jun 2027 05:47:14.612   01 Jun 2027 05:48:34.774            80.162                Irkutsk          5218.875
        17   01 Jun 2027 05:48:39.835   01 Jun 2027 05:49:15.976            36.141                 Moscow          2530.500
        18   01 Jun 2027 05:49:19.982   01 Jun 2027 05:49:53.605            33.623                 Moscow          2003.000
        19   01 Jun 2027 07:20:51.839   01 Jun 2027 07:21:05.978            14.139                Norilsk          1232.000
        20   01 Jun 2027 07:21:06.025   01 Jun 2027 07:21:28.595            22.570                 Moscow            23.500
        21   01 Jun 2027 07:21:29.964   01 Jun 2027 07:22:00.190            30.226              Murmansk2           684.500
        22   01 Jun 2027 07:22:07.356   01 Jun 2027 07:23:13.804            66.448                 Moscow          3583.000
        23   01 Jun 2027 07:23:14.526   01 Jun 2027 07:23:32.897            18.371              Murmansk2           361.000
        24   01 Jun 2027 07:23:41.202   01 Jun 2027 07:23:57.015            15.813                Novosib          1976.625
        25   01 Jun 2027 07:23:57.078   01 Jun 2027 07:25:17.005            79.927                 Moscow          2207.375
        26   01 Jun 2027 08:54:40.120   01 Jun 2027 08:56:24.667           104.547                 Moscow          7524.000
        27   01 Jun 2027 08:56:30.151   01 Jun 2027 08:56:54.380            24.229                 Moscow          2742.000
        28   01 Jun 2027 08:57:00.901   01 Jun 2027 08:57:39.018            38.117              Murmansk2          3260.500
        29   01 Jun 2027 08:57:58.474   01 Jun 2027 08:59:41.532           103.058              Murmansk1          9728.000
        30   01 Jun 2027 08:59:43.464   01 Jun 2027 09:00:01.650            18.186                 Moscow           966.000
        31   01 Jun 2027 09:00:08.532   01 Jun 2027 09:01:08.046            59.514                 Moscow          3441.000
        32   01 Jun 2027 09:01:20.854   01 Jun 2027 09:02:31.792            70.938              Murmansk1          6404.000
        33   02 Jun 2027 04:18:05.064   02 Jun 2027 04:18:37.951            32.887               Magadan1          3332.500
        34   02 Jun 2027 04:18:38.738   02 Jun 2027 04:19:43.544            64.806                Irkutsk           393.500
        35   02 Jun 2027 04:19:59.063   02 Jun 2027 04:21:40.262           101.199                Novosib          7759.500
        36   02 Jun 2027 04:21:44.610   02 Jun 2027 04:22:05.858            21.248               Magadan2          2174.000
        37   02 Jun 2027 04:22:12.016   02 Jun 2027 04:22:45.643            33.627                Norilsk          3079.000
        38   02 Jun 2027 04:22:50.918   02 Jun 2027 04:24:19.275            88.357                Irkutsk          2637.500
        39   02 Jun 2027 04:24:30.787   02 Jun 2027 04:25:35.681            64.894              Murmansk1          5756.000
        40   02 Jun 2027 05:54:51.939   02 Jun 2027 05:55:13.507            21.568                Novosib          2696.000
        41   02 Jun 2027 05:55:20.318   02 Jun 2027 05:56:22.433            62.115                Norilsk          5266.500
        42   02 Jun 2027 05:56:39.091   02 Jun 2027 05:57:53.645            74.554                Novosib          8329.000
        43   02 Jun 2027 05:57:54.092   02 Jun 2027 05:58:40.175            46.083                 Moscow           223.500
        44   02 Jun 2027 05:58:43.975   02 Jun 2027 05:59:04.004            20.029                 Moscow          1900.000
        45   02 Jun 2027 05:59:08.588   02 Jun 2027 06:00:16.537            67.949                Irkutsk          2292.000
        46   02 Jun 2027 06:00:27.122   02 Jun 2027 06:01:02.847            35.725                Irkutsk          4465.625
        47   02 Jun 2027 06:01:03.450   02 Jun 2027 06:01:06.371             2.921                Norilsk           365.125
        48   02 Jun 2027 06:01:07.208   02 Jun 2027 06:01:18.298            11.090              Murmansk2          1181.750
        49   02 Jun 2027 06:01:26.303   02 Jun 2027 06:02:01.888            35.585                 Moscow          4002.500
        50   02 Jun 2027 07:32:53.147   02 Jun 2027 07:33:33.442            40.295                 Moscow           855.000
        51   02 Jun 2027 07:33:53.442   02 Jun 2027 07:35:07.681            74.239                Novosib          9279.875
        52   02 Jun 2027 07:35:11.301   02 Jun 2027 07:35:33.330            22.029              Murmansk1          2530.125
        53   02 Jun 2027 07:35:36.000   02 Jun 2027 07:35:57.408            21.408                 Moscow          1335.000
        54   02 Jun 2027 07:36:00.588   02 Jun 2027 07:36:53.718            53.130                Novosib          1590.000
        55   02 Jun 2027 07:36:58.273   02 Jun 2027 07:37:14.675            16.402                 Moscow          1910.000
        56   02 Jun 2027 09:06:52.070   02 Jun 2027 09:07:32.149            40.079                 Moscow          4981.500
        57   02 Jun 2027 09:07:41.619   02 Jun 2027 09:08:24.278            42.659              Murmansk1          4735.000
        58   02 Jun 2027 09:08:34.486   02 Jun 2027 09:09:49.069            74.583                 Moscow          5104.000
        59   02 Jun 2027 09:09:51.715   02 Jun 2027 09:10:21.028            29.313              Murmansk2          1323.000
        60   02 Jun 2027 09:10:24.096   02 Jun 2027 09:10:48.151            24.055              Murmansk2          1534.000
        61   02 Jun 2027 09:11:04.973   02 Jun 2027 09:12:37.593            92.620                 Moscow          8411.000
        62   02 Jun 2027 09:12:56.223   02 Jun 2027 09:14:17.317            81.094                Norilsk          9315.000
        63   03 Jun 2027 03:00:00.180   03 Jun 2027 03:00:39.283            39.103                Anadyr1            90.000
        64   03 Jun 2027 03:00:40.884   03 Jun 2027 03:01:06.312            25.428               Magadan2           800.500
        65   03 Jun 2027 03:01:12.072   03 Jun 2027 03:01:39.318            27.246              Murmansk1          2880.000
        66   03 Jun 2027 04:30:20.761   03 Jun 2027 04:31:25.017            64.256                Irkutsk          7816.000
        67   03 Jun 2027 04:31:26.067   03 Jun 2027 04:31:59.584            33.517               Magadan1           525.000
        68   03 Jun 2027 04:32:10.348   03 Jun 2027 04:33:11.224            60.876               Magadan1          5382.000
        69   03 Jun 2027 04:33:15.402   03 Jun 2027 04:33:49.857            34.455                Novosib          2089.000
        70   03 Jun 2027 04:33:52.434   03 Jun 2027 04:34:05.981            13.547                Novosib          1288.500
        71   03 Jun 2027 04:34:08.807   03 Jun 2027 04:34:26.153            17.346               Magadan1          1413.000
        72   03 Jun 2027 04:34:26.839   03 Jun 2027 04:34:45.434            18.595               Magadan2           343.000
        73   03 Jun 2027 04:34:54.442   03 Jun 2027 04:35:53.812            59.370              Murmansk2          4504.000
        74   03 Jun 2027 04:35:57.856   03 Jun 2027 04:36:20.158            22.302              Murmansk1          2022.000
        75   03 Jun 2027 04:36:36.340   03 Jun 2027 04:37:50.193            73.853                Norilsk          8091.000
        76   03 Jun 2027 06:07:15.997   03 Jun 2027 06:07:20.829             4.832                Norilsk           604.000
        77   03 Jun 2027 06:07:55.314   03 Jun 2027 06:10:14.305           138.991                Norilsk         17373.875
        78   03 Jun 2027 06:10:16.447   03 Jun 2027 06:11:09.280            52.833                Novosib          4275.625
        79   03 Jun 2027 06:11:10.111   03 Jun 2027 06:11:42.332            32.221                Norilsk           415.500
        80   03 Jun 2027 06:11:50.474   03 Jun 2027 06:12:27.658            37.184              Murmansk1          4071.000
        81   03 Jun 2027 06:12:29.197   03 Jun 2027 06:12:53.988            24.791                Norilsk           769.500
        82   03 Jun 2027 06:12:56.165   03 Jun 2027 06:13:20.477            24.312                 Moscow          1088.500
        83   03 Jun 2027 07:44:08.522   03 Jun 2027 07:44:34.318            25.796                Norilsk          1690.500
        84   03 Jun 2027 07:44:40.314   03 Jun 2027 07:45:09.740            29.426                Norilsk          2998.000
        85   03 Jun 2027 07:45:25.518   03 Jun 2027 07:46:52.055            86.537                Norilsk          7889.000
        86   03 Jun 2027 07:46:53.707   03 Jun 2027 07:47:51.038            57.331                Novosib           826.000
        87   03 Jun 2027 07:47:52.552   03 Jun 2027 07:48:32.032            39.480              Murmansk2           757.000
        88   03 Jun 2027 07:48:48.900   03 Jun 2027 07:49:57.424            68.524              Murmansk2          8434.000
        89   03 Jun 2027 09:19:10.977   03 Jun 2027 09:19:40.128            29.151                 Moscow           921.000
        90   03 Jun 2027 09:20:51.069   03 Jun 2027 09:22:33.895           102.826                 Moscow          1113.000
        91   03 Jun 2027 09:22:42.852   03 Jun 2027 09:23:31.496            48.644                 Moscow          4478.500
        92   03 Jun 2027 09:23:32.851   03 Jun 2027 09:23:41.268             8.417              Murmansk2           677.500
        93   03 Jun 2027 09:23:41.288   03 Jun 2027 09:23:47.266             5.978              Murmansk2            10.000
        94   03 Jun 2027 09:23:50.360   03 Jun 2027 09:24:12.655            22.295              Murmansk2          1547.000
        95   04 Jun 2027 03:03:53.080   04 Jun 2027 03:05:02.681            69.601               Magadan1          7232.500
        96   04 Jun 2027 03:05:08.194   04 Jun 2027 03:05:44.589            36.395               Magadan2          2756.500
        97   04 Jun 2027 03:05:54.874   04 Jun 2027 03:06:37.775            42.901               Magadan1          5142.500
        98   04 Jun 2027 03:06:56.206   04 Jun 2027 03:07:59.713            63.507                Irkutsk          7938.375
        99   04 Jun 2027 03:08:02.615   04 Jun 2027 03:08:56.979            54.364                Norilsk          2728.125
       100   04 Jun 2027 03:08:59.765   04 Jun 2027 03:09:38.688            38.923               Magadan2          1393.000
       101   04 Jun 2027 03:09:42.563   04 Jun 2027 03:10:01.639            19.076                Norilsk          1937.500
       102   04 Jun 2027 03:10:07.772   04 Jun 2027 03:10:46.478            38.706               Magadan2          3066.500
       103   04 Jun 2027 03:10:54.605   04 Jun 2027 03:11:16.660            22.055                Novosib          2756.875
       104   04 Jun 2027 03:11:20.242   04 Jun 2027 03:11:56.419            36.177               Magadan2          3097.625
       105   04 Jun 2027 03:12:01.300   04 Jun 2027 03:12:34.676            33.376               Magadan1          2440.500
       106   04 Jun 2027 03:12:40.543   04 Jun 2027 03:13:02.439            21.896                Norilsk          2737.000
       107   04 Jun 2027 03:13:07.507   04 Jun 2027 03:13:36.603            29.096                Novosib          2730.500
       108   04 Jun 2027 04:42:34.620   04 Jun 2027 04:42:40.986             6.366                Novosib           795.750
       109   04 Jun 2027 04:42:43.448   04 Jun 2027 04:43:07.991            24.543                Norilsk          2031.250
       110   04 Jun 2027 04:43:10.374   04 Jun 2027 04:44:09.487            59.113                Novosib          1191.500
       111   04 Jun 2027 04:44:30.844   04 Jun 2027 04:45:22.738            51.894                Novosib          6486.750
       112   04 Jun 2027 04:45:46.768   04 Jun 2027 04:47:48.569           121.801                Novosib         15225.125
       113   04 Jun 2027 04:47:49.212   04 Jun 2027 04:48:00.470            11.258              Murmansk1          1303.125
       114   04 Jun 2027 04:48:08.878   04 Jun 2027 04:49:12.329            63.451              Murmansk1          4204.000
       115   04 Jun 2027 04:49:20.609   04 Jun 2027 04:49:29.877             9.268                Irkutsk           179.000
       116   04 Jun 2027 06:19:41.295   04 Jun 2027 06:19:47.761             6.466                  Delhi           808.250
       117   04 Jun 2027 06:19:51.617   04 Jun 2027 06:20:31.730            40.113                Norilsk          5014.125
       118   04 Jun 2027 06:20:46.584   04 Jun 2027 06:21:54.032            67.448                 Moscow          8431.000
       119   04 Jun 2027 06:22:00.270   04 Jun 2027 06:22:43.850            43.580                Novosib          4788.625
       120   04 Jun 2027 06:22:47.208   04 Jun 2027 06:23:07.111            19.903                Norilsk          1679.000
       121   04 Jun 2027 06:23:19.811   04 Jun 2027 06:24:23.059            63.248                 Moscow          6350.000
       122   04 Jun 2027 06:24:26.466   04 Jun 2027 06:24:46.762            20.296                Novosib          1703.500
       123   04 Jun 2027 06:24:46.942   04 Jun 2027 06:24:51.396             4.454              Murmansk1            90.000
       124   04 Jun 2027 06:25:10.649   04 Jun 2027 06:25:42.081            31.432                Norilsk          3570.000
       125   04 Jun 2027 07:56:29.453   04 Jun 2027 07:57:23.880            54.427                Norilsk          5464.500
       126   04 Jun 2027 07:57:24.396   04 Jun 2027 07:57:58.264            33.868              Murmansk2           258.000
       127   04 Jun 2027 07:58:01.508   04 Jun 2027 07:58:55.185            53.677                Novosib          1622.000
       128   04 Jun 2027 07:58:58.322   04 Jun 2027 07:59:51.862            53.540              Murmansk2          1568.500
       129   04 Jun 2027 07:59:55.205   04 Jun 2027 08:00:16.926            21.721                Novosib          1671.500
       130   04 Jun 2027 08:00:20.863   04 Jun 2027 08:01:18.586            57.723                 Moscow          1968.500
       131   04 Jun 2027 09:34:23.378   04 Jun 2027 09:34:53.122            29.744                 Moscow          3296.000
       132   04 Jun 2027 09:34:58.112   04 Jun 2027 09:35:20.585            22.473              Murmansk2          2495.000
       133   04 Jun 2027 09:35:28.820   04 Jun 2027 09:35:51.479            22.659                 Moscow          2832.375
       134   04 Jun 2027 09:36:04.255   04 Jun 2027 09:36:28.090            23.835              Murmansk2          1285.125
       135   05 Jun 2027 03:18:37.351   05 Jun 2027 03:19:11.124            33.773                Irkutsk          3211.000
       136   05 Jun 2027 03:19:17.752   05 Jun 2027 03:19:59.727            41.975                Novosib          3314.000
       137   05 Jun 2027 03:20:05.072   05 Jun 2027 03:20:57.890            52.818                Norilsk          2672.500
       138   05 Jun 2027 03:20:58.405   05 Jun 2027 03:21:07.226             8.821               Magadan2           257.500
       139   05 Jun 2027 03:21:28.082   05 Jun 2027 03:22:45.070            76.988                Novosib          9623.500
       140   05 Jun 2027 03:22:48.990   05 Jun 2027 03:22:58.997            10.007               Magadan2          1250.875
       141   05 Jun 2027 03:22:58.997   05 Jun 2027 03:23:02.790             3.793               Magadan1           474.125
       142   05 Jun 2027 03:23:03.162   05 Jun 2027 03:23:25.521            22.359                Norilsk          1225.500
       143   05 Jun 2027 03:23:32.262   05 Jun 2027 03:24:16.814            44.552                Irkutsk          3370.500
       144   05 Jun 2027 03:24:17.645   05 Jun 2027 03:24:30.215            12.570               Magadan2           415.500
       145   05 Jun 2027 03:24:33.731   05 Jun 2027 03:25:06.464            32.733                Norilsk          1758.000
       146   05 Jun 2027 03:25:09.375   05 Jun 2027 03:25:21.388            12.013                Norilsk          1455.500
       147   05 Jun 2027 03:25:25.621   05 Jun 2027 03:25:43.032            17.411              Murmansk1          1219.500
       148   05 Jun 2027 04:54:43.806   05 Jun 2027 04:55:03.388            19.582                Novosib          2168.500
       149   05 Jun 2027 04:55:43.646   05 Jun 2027 04:58:30.543           166.897                Norilsk         20129.000
       150   05 Jun 2027 04:58:37.823   05 Jun 2027 04:58:45.959             8.136                Norilsk          1017.000
       151   05 Jun 2027 04:58:53.317   05 Jun 2027 04:59:48.916            55.599                Novosib          6302.000
       152   05 Jun 2027 04:59:57.047   05 Jun 2027 05:00:12.363            15.316              Murmansk2          1914.500
       153   05 Jun 2027 05:00:16.560   05 Jun 2027 05:00:51.861            35.301                Novosib          4249.500
       154   05 Jun 2027 05:00:53.995   05 Jun 2027 05:01:30.557            36.562                Irkutsk          1067.000
       155   05 Jun 2027 06:32:32.484   05 Jun 2027 06:33:27.524            55.040                Irkutsk          4473.500
       156   05 Jun 2027 06:33:27.650   05 Jun 2027 06:33:57.356            29.706                Novosib            63.000
       157   05 Jun 2027 06:34:01.537   05 Jun 2027 06:34:35.742            34.205              Murmansk2          2090.500
       158   05 Jun 2027 06:34:38.359   05 Jun 2027 06:35:26.443            48.084                 Moscow          1308.500
       159   05 Jun 2027 06:35:29.018   05 Jun 2027 06:35:47.282            18.264                Novosib          1287.500
       160   05 Jun 2027 06:35:48.442   05 Jun 2027 06:35:58.328             9.886              Murmansk2           580.000
       161   05 Jun 2027 06:36:01.157   05 Jun 2027 06:36:13.264            12.107                Novosib          1414.500
       162   05 Jun 2027 06:36:25.598   05 Jun 2027 06:37:35.404            69.806                Novosib          6167.000
       163   05 Jun 2027 08:08:30.541   05 Jun 2027 08:08:47.012            16.471                 Moscow           834.500
       164   05 Jun 2027 08:08:57.101   05 Jun 2027 08:10:03.002            65.901              Murmansk2          5044.500
       165   05 Jun 2027 08:10:03.746   05 Jun 2027 08:10:09.021             5.275                Norilsk           372.000
       166   05 Jun 2027 08:10:11.645   05 Jun 2027 08:10:44.277            32.632                 Moscow          1312.000
       167   05 Jun 2027 08:10:47.946   05 Jun 2027 08:11:04.903            16.957              Murmansk1          1834.500
       168   05 Jun 2027 08:11:22.817   05 Jun 2027 08:12:50.863            88.046                Norilsk          8957.000
       169   06 Jun 2027 03:30:49.561   06 Jun 2027 03:31:40.569            51.008               Magadan1           571.500
       170   06 Jun 2027 03:31:42.449   06 Jun 2027 03:31:56.852            14.403               Magadan1           940.000
       171   06 Jun 2027 03:31:59.257   06 Jun 2027 03:32:18.728            19.471               Magadan1          1202.500
       172   06 Jun 2027 03:32:21.991   06 Jun 2027 03:32:37.886            15.895                Novosib          1631.500
       173   06 Jun 2027 03:32:39.159   06 Jun 2027 03:32:56.234            17.075               Magadan2           636.500
       174   06 Jun 2027 03:32:59.011   06 Jun 2027 03:33:37.736            38.725                Norilsk          1388.500
       175   06 Jun 2027 03:33:46.618   06 Jun 2027 03:34:27.724            41.106               Magadan1          4441.000
       176   06 Jun 2027 03:34:30.284   06 Jun 2027 03:34:49.768            19.484               Magadan1          1280.000
       177   06 Jun 2027 03:34:59.397   06 Jun 2027 03:35:53.282            53.885                Norilsk          4814.500
       178   06 Jun 2027 03:35:59.873   06 Jun 2027 03:36:30.870            30.997              Murmansk1          3295.500
       179   06 Jun 2027 03:36:34.517   06 Jun 2027 03:37:05.211            30.694                Novosib          1823.500
       180   06 Jun 2027 03:37:05.644   06 Jun 2027 03:37:11.945             6.301              Murmansk1           216.500
       181   06 Jun 2027 03:37:19.616   06 Jun 2027 03:38:06.962            47.346              Murmansk1          3835.500
       182   06 Jun 2027 05:07:42.372   06 Jun 2027 05:10:12.813           150.441                Irkutsk         15573.000
       183   06 Jun 2027 05:10:13.802   06 Jun 2027 05:11:10.259            56.457                Novosib           494.500
       184   06 Jun 2027 05:11:27.409   06 Jun 2027 05:12:53.173            85.764              Murmansk1          8575.000
       185   06 Jun 2027 05:13:04.520   06 Jun 2027 05:14:03.232            58.712              Murmansk1          5673.500
       186   06 Jun 2027 06:44:32.607   06 Jun 2027 06:45:15.605            42.998                Novosib          2024.500
       187   06 Jun 2027 06:45:21.729   06 Jun 2027 06:45:57.238            35.509                Norilsk          3062.000
       188   06 Jun 2027 06:45:59.789   06 Jun 2027 06:46:14.945            15.156                 Moscow          1275.500
       189   06 Jun 2027 06:46:22.594   06 Jun 2027 06:46:53.290            30.696                Novosib          3824.500
       190   06 Jun 2027 06:46:56.365   06 Jun 2027 06:47:32.413            36.048                 Moscow          1537.500
       191   06 Jun 2027 06:47:36.991   06 Jun 2027 06:48:01.008            24.017                Novosib          2289.000
       192   06 Jun 2027 06:48:02.189   06 Jun 2027 06:48:29.257            27.068                Norilsk           590.500
       193   06 Jun 2027 06:48:30.110   06 Jun 2027 06:49:25.605            55.495              Murmansk2           426.500
       194   06 Jun 2027 08:20:42.964   06 Jun 2027 08:20:55.279            12.315                Novosib           753.000
       195   06 Jun 2027 08:20:57.777   06 Jun 2027 08:21:15.238            17.461                Norilsk          1249.000
       196   06 Jun 2027 08:21:21.944   06 Jun 2027 08:21:36.646            14.702                Norilsk          1837.750
       197   06 Jun 2027 08:21:36.712   06 Jun 2027 08:21:53.735            17.023              Murmansk1          1548.250
       198   06 Jun 2027 08:21:58.440   06 Jun 2027 08:22:18.772            20.332                 Moscow          2352.500
       199   06 Jun 2027 08:22:30.662   06 Jun 2027 08:23:23.020            52.358              Murmansk2          5945.000
       200   06 Jun 2027 08:23:23.992   06 Jun 2027 08:23:35.918            11.926                Norilsk           486.000
       201   06 Jun 2027 08:23:39.104   06 Jun 2027 08:24:09.566            30.462                Norilsk          1593.000
       202   06 Jun 2027 08:24:17.364   06 Jun 2027 08:25:06.534            49.170              Murmansk1          3899.000
       203   06 Jun 2027 08:25:14.984   06 Jun 2027 08:25:36.425            21.441                Novosib          2680.125
       204   06 Jun 2027 08:25:36.898   06 Jun 2027 08:26:06.800            29.902                 Moscow          1544.875
       205   07 Jun 2027 03:42:26.494   07 Jun 2027 03:42:32.604             6.110               Magadan1           306.500
       206   07 Jun 2027 03:42:36.833   07 Jun 2027 03:43:20.799            43.966                Norilsk          2114.500
       207   07 Jun 2027 03:43:26.663   07 Jun 2027 03:44:05.157            38.494                Novosib          2932.000
       208   07 Jun 2027 03:44:07.924   07 Jun 2027 03:44:55.053            47.129                Norilsk          1383.500
       209   07 Jun 2027 03:45:26.918   07 Jun 2027 03:45:57.142            30.224                Norilsk          3778.000
       210   07 Jun 2027 03:46:02.808   07 Jun 2027 03:48:01.566           118.758                Novosib         14844.750
       211   07 Jun 2027 03:48:02.640   07 Jun 2027 03:48:25.216            22.576              Murmansk2           679.750
       212   07 Jun 2027 03:48:40.780   07 Jun 2027 03:49:43.567            62.787                Novosib          7782.000
       213   07 Jun 2027 05:18:47.334   07 Jun 2027 05:18:58.380            11.046                Norilsk           869.000
       214   07 Jun 2027 05:19:06.961   07 Jun 2027 05:20:17.496            70.535                Novosib          4290.500
       215   07 Jun 2027 05:20:23.484   07 Jun 2027 05:20:53.805            30.321                Irkutsk          2994.000
       216   07 Jun 2027 05:20:55.249   07 Jun 2027 05:21:23.141            27.892                Norilsk           722.000
       217   07 Jun 2027 05:21:26.824   07 Jun 2027 05:21:41.630            14.806                Novosib          1841.500
       218   07 Jun 2027 05:21:42.764   07 Jun 2027 05:22:30.774            48.010                Irkutsk           567.000
       219   07 Jun 2027 05:22:32.895   07 Jun 2027 05:23:01.703            28.808                Norilsk          1060.500
       220   07 Jun 2027 05:23:02.006   07 Jun 2027 05:24:25.010            83.004                Irkutsk           151.500
       221   07 Jun 2027 05:24:38.444   07 Jun 2027 05:25:23.495            45.051                Novosib          5631.375
       222   07 Jun 2027 05:25:30.940   07 Jun 2027 05:25:42.004            11.064                Norilsk          1085.625
       223   07 Jun 2027 06:57:17.040   07 Jun 2027 06:58:54.125            97.085                Norilsk          7630.500
       224   07 Jun 2027 06:58:57.273   07 Jun 2027 06:59:14.961            17.688                Novosib          1574.000
       225   07 Jun 2027 06:59:15.771   07 Jun 2027 06:59:31.335            15.564                Irkutsk           405.000
       226   07 Jun 2027 06:59:36.126   07 Jun 2027 07:00:22.332            46.206                Norilsk          2395.500
       227   07 Jun 2027 07:00:23.203   07 Jun 2027 07:01:16.336            53.133              Murmansk1           435.500
       228   07 Jun 2027 08:32:29.236   07 Jun 2027 08:33:35.000            65.764                 Moscow          3433.500
       229   07 Jun 2027 08:33:41.412   07 Jun 2027 08:34:31.325            49.913                Novosib          3206.000
       230   07 Jun 2027 08:34:31.708   07 Jun 2027 08:34:34.167             2.459              Murmansk2           191.500
       231   07 Jun 2027 08:34:50.121   07 Jun 2027 08:36:04.840            74.719                Novosib          7977.000
       232   07 Jun 2027 08:36:07.483   07 Jun 2027 08:36:21.059            13.576              Murmansk2          1321.500
       233   07 Jun 2027 08:36:27.898   07 Jun 2027 08:36:55.372            27.474                Norilsk          3419.500
       234   07 Jun 2027 08:36:58.753   07 Jun 2027 08:37:09.965            11.212                Novosib          1401.500
       235   07 Jun 2027 08:37:18.162   07 Jun 2027 08:37:56.901            38.739                Norilsk          4387.500
       236   08 Jun 2027 03:54:02.382   08 Jun 2027 03:54:25.345            22.963                Norilsk          1385.000
       237   08 Jun 2027 03:54:28.468   08 Jun 2027 03:54:48.381            19.913               Magadan1          1561.500
       238   08 Jun 2027 03:54:59.726   08 Jun 2027 03:55:47.275            47.549               Magadan2          5672.500
       239   08 Jun 2027 03:55:57.966   08 Jun 2027 03:56:41.832            43.866                Novosib          5345.500
       240   08 Jun 2027 03:56:48.735   08 Jun 2027 03:58:18.376            89.641                Irkutsk          3451.500
       241   08 Jun 2027 03:58:20.892   08 Jun 2027 03:58:52.729            31.837                Novosib          1258.000
       242   08 Jun 2027 03:58:55.650   08 Jun 2027 03:59:44.363            48.713               Magadan1          1460.500
       243   08 Jun 2027 03:59:47.881   08 Jun 2027 04:00:17.006            29.125               Magadan1          1759.000
       244   08 Jun 2027 04:00:18.739   08 Jun 2027 04:00:50.851            32.112               Magadan1           866.500
       245   08 Jun 2027 04:00:58.277   08 Jun 2027 04:01:25.862            27.585                Novosib          3448.125
       246   08 Jun 2027 04:01:28.872   08 Jun 2027 04:01:33.872             5.000                Irkutsk           625.000
       247   08 Jun 2027 04:01:46.137   08 Jun 2027 04:01:54.321             8.184                Norilsk          1023.000
       248   08 Jun 2027 04:02:09.167   08 Jun 2027 04:02:23.124            13.957              Murmansk2           180.875
       249   08 Jun 2027 05:31:09.884   08 Jun 2027 05:31:31.178            21.294                Norilsk          2129.500
       250   08 Jun 2027 05:31:47.460   08 Jun 2027 05:32:56.835            69.375                Norilsk          8141.000
       251   08 Jun 2027 05:33:01.627   08 Jun 2027 05:33:23.434            21.807                Norilsk          2396.000
       252   08 Jun 2027 05:33:34.200   08 Jun 2027 05:33:55.890            21.690                Irkutsk          2711.250
       253   08 Jun 2027 05:34:11.233   08 Jun 2027 05:35:40.340            89.107                Norilsk         10343.250
       254   08 Jun 2027 05:35:57.475   08 Jun 2027 05:36:49.853            52.378                Novosib          6547.250
       255   08 Jun 2027 05:37:03.079   08 Jun 2027 05:38:48.412           105.333              Murmansk1          8633.250
       256   08 Jun 2027 07:09:14.059   08 Jun 2027 07:09:49.076            35.017                Norilsk          4377.125
       257   08 Jun 2027 07:10:11.252   08 Jun 2027 07:11:35.626            84.374                Norilsk         10546.750
       258   08 Jun 2027 07:11:36.716   08 Jun 2027 07:11:51.888            15.172              Murmansk1          1818.625
       259   08 Jun 2027 07:11:57.352   08 Jun 2027 07:12:27.497            30.145                 Moscow          2732.000
       260   08 Jun 2027 07:12:32.656   08 Jun 2027 07:12:55.689            23.033                Novosib          2579.500
       261   08 Jun 2027 07:13:07.798   08 Jun 2027 07:13:33.281            25.483              Murmansk1          1902.000
       262   08 Jun 2027 08:42:42.368   08 Jun 2027 08:45:09.235           146.867                 Moscow         14830.000
       263   08 Jun 2027 08:45:13.013   08 Jun 2027 08:45:29.527            16.514              Murmansk2          1889.000
       264   08 Jun 2027 08:45:40.968   08 Jun 2027 08:46:32.923            51.955              Murmansk2          5720.500
       265   08 Jun 2027 08:46:35.881   08 Jun 2027 08:47:02.574            26.693              Murmansk2          1479.000
       266   08 Jun 2027 08:47:09.821   08 Jun 2027 08:48:01.981            52.160                Novosib          3623.500
       267   08 Jun 2027 08:48:04.088   08 Jun 2027 08:48:16.936            12.848              Murmansk1          1053.500
       268   08 Jun 2027 08:48:17.139   08 Jun 2027 08:48:27.744            10.605                Novosib           101.500
       269   08 Jun 2027 08:48:41.072   08 Jun 2027 08:49:44.732            63.660              Murmansk1          3608.500
       270   08 Jun 2027 08:49:53.395   08 Jun 2027 08:50:28.649            35.254                Norilsk          4331.500
       271   09 Jun 2027 04:06:30.268   09 Jun 2027 04:07:23.780            53.512                Novosib          5452.500
       272   09 Jun 2027 04:07:28.716   09 Jun 2027 04:08:09.131            40.415               Magadan1          2468.000
       273   09 Jun 2027 04:08:09.766   09 Jun 2027 04:08:39.387            29.621                Norilsk           317.500
       274   09 Jun 2027 04:08:42.921   09 Jun 2027 04:09:19.201            36.280               Magadan2          1767.000
       275   09 Jun 2027 04:09:22.640   09 Jun 2027 04:09:37.313            14.673                Norilsk          1719.500
       276   09 Jun 2027 04:09:37.879   09 Jun 2027 04:09:43.473             5.594                Norilsk           283.000
       277   09 Jun 2027 04:09:47.574   09 Jun 2027 04:10:12.395            24.821               Magadan1          2050.500
       278   09 Jun 2027 04:10:12.828   09 Jun 2027 04:10:25.316            12.488                Novosib           216.500
       279   09 Jun 2027 04:10:26.645   09 Jun 2027 04:11:05.483            38.838                Norilsk           664.500
       280   09 Jun 2027 04:11:06.788   09 Jun 2027 04:12:04.927            58.139                Novosib           652.500
       281   09 Jun 2027 04:12:06.488   09 Jun 2027 04:12:19.463            12.975              Murmansk2           780.500
       282   09 Jun 2027 04:12:20.566   09 Jun 2027 04:12:25.086             4.520               Magadan2           551.500
       283   09 Jun 2027 04:12:31.845   09 Jun 2027 04:13:20.331            48.486              Murmansk1          3379.500
       284   09 Jun 2027 04:13:24.011   09 Jun 2027 04:13:49.339            25.328                Novosib          1840.000
       285   09 Jun 2027 05:43:21.466   09 Jun 2027 05:44:19.630            58.164                Norilsk          7256.000
       286   09 Jun 2027 05:44:45.917   09 Jun 2027 05:46:33.076           107.159                Norilsk         13143.500
       287   09 Jun 2027 05:46:34.873   09 Jun 2027 05:46:55.185            20.312                Novosib           898.500
       288   09 Jun 2027 05:46:59.444   09 Jun 2027 05:47:20.131            20.687                 Moscow          2129.500
       289   09 Jun 2027 05:47:28.772   09 Jun 2027 05:48:49.201            80.429                Irkutsk          4320.500
       290   09 Jun 2027 05:48:52.179   09 Jun 2027 05:49:33.556            41.377                 Moscow          1489.000
       291   09 Jun 2027 05:49:36.244   09 Jun 2027 05:50:08.428            32.184                 Moscow          1007.500
       292   09 Jun 2027 07:21:09.251   09 Jun 2027 07:21:20.617            11.366                Norilsk          1420.750
       293   09 Jun 2027 07:21:26.762   09 Jun 2027 07:22:03.910            37.148                Irkutsk          4237.750
       294   09 Jun 2027 07:22:12.378   09 Jun 2027 07:22:48.193            35.815                Norilsk          4234.000
       295   09 Jun 2027 07:22:59.823   09 Jun 2027 07:23:47.797            47.974              Murmansk1          5815.000
       296   09 Jun 2027 07:23:51.077   09 Jun 2027 07:24:07.113            16.036              Murmansk2          1640.000
       297   09 Jun 2027 07:24:10.504   09 Jun 2027 07:25:16.315            65.811                Norilsk          1695.500
       298   09 Jun 2027 08:54:55.039   09 Jun 2027 08:56:39.627           104.588                 Moscow          7556.500
       299   09 Jun 2027 08:56:44.728   09 Jun 2027 08:57:05.678            20.950                 Moscow          2550.500
       300   09 Jun 2027 08:57:08.890   09 Jun 2027 08:57:40.413            31.523                 Moscow          1606.000
       301   09 Jun 2027 08:57:53.568   09 Jun 2027 08:59:02.524            68.956              Murmansk1          6577.500
       302   09 Jun 2027 08:59:28.535   09 Jun 2027 09:01:42.814           134.279                Norilsk         13005.500
       303   09 Jun 2027 09:01:48.988   09 Jun 2027 09:02:30.375            41.387                Norilsk          3087.000
       304   10 Jun 2027 04:18:33.314   10 Jun 2027 04:19:57.421            84.107                Irkutsk         10090.500
       305   10 Jun 2027 04:20:17.150   10 Jun 2027 04:21:55.032            97.882                Novosib          9864.500
       306   10 Jun 2027 04:21:59.477   10 Jun 2027 04:22:34.012            34.535                Novosib          2222.500
       307   10 Jun 2027 04:22:37.948   10 Jun 2027 04:23:00.297            22.349                Norilsk          1968.000
       308   10 Jun 2027 04:23:06.296   10 Jun 2027 04:24:33.600            87.304                Irkutsk          2999.500
       309   10 Jun 2027 04:24:45.453   10 Jun 2027 04:25:51.434            65.981              Murmansk2          5926.500
       310   10 Jun 2027 05:55:06.452   10 Jun 2027 05:55:10.646             4.194                Novosib           524.250
       311   10 Jun 2027 05:55:10.774   10 Jun 2027 05:56:14.715            63.941                Norilsk          3929.750
       312   10 Jun 2027 05:56:20.194   10 Jun 2027 05:56:57.731            37.537                Novosib          2739.500
       313   10 Jun 2027 05:57:00.329   10 Jun 2027 05:57:24.815            24.486                Norilsk          1299.000
       314   10 Jun 2027 05:57:26.200   10 Jun 2027 05:57:56.503            30.303              Murmansk2           692.500
       315   10 Jun 2027 05:58:02.163   10 Jun 2027 05:58:24.557            22.394                Norilsk          2799.250
       316   10 Jun 2027 05:58:28.058   10 Jun 2027 05:58:46.953            18.895                Novosib          1781.250
       317   10 Jun 2027 05:58:50.592   10 Jun 2027 05:59:12.841            22.249              Murmansk1          1819.500
       318   10 Jun 2027 05:59:15.305   10 Jun 2027 06:00:00.056            44.751                Norilsk          1232.000
       319   10 Jun 2027 06:00:05.987   10 Jun 2027 06:00:50.959            44.972              Murmansk2          2965.500
       320   10 Jun 2027 06:00:59.895   10 Jun 2027 06:01:35.562            35.667                 Moscow          1369.000
       321   10 Jun 2027 06:01:36.325   10 Jun 2027 06:02:11.526            35.201              Murmansk1           381.500
       322   10 Jun 2027 07:33:07.778   10 Jun 2027 07:33:51.563            43.785                 Moscow           783.500
       323   10 Jun 2027 07:34:07.953   10 Jun 2027 07:35:21.811            73.858                Novosib          8195.000
       324   10 Jun 2027 07:35:25.885   10 Jun 2027 07:35:49.802            23.917              Murmansk2          2037.000
       325   10 Jun 2027 07:35:50.882   10 Jun 2027 07:36:00.569             9.687                 Moscow           540.000
       326   10 Jun 2027 07:36:01.313   10 Jun 2027 07:36:15.267            13.954                Novosib           372.000
       327   10 Jun 2027 07:36:19.647   10 Jun 2027 07:36:37.240            17.593                Norilsk          2190.000
       328   10 Jun 2027 07:36:52.969   10 Jun 2027 07:38:01.383            68.414              Murmansk1          7864.500
       329   10 Jun 2027 09:07:06.803   10 Jun 2027 09:07:47.008            40.205                 Moscow          4913.500
       330   10 Jun 2027 09:07:56.172   10 Jun 2027 09:08:41.101            44.929              Murmansk1          4582.000
       331   10 Jun 2027 09:08:49.504   10 Jun 2027 09:10:02.290            72.786                 Moscow          4201.500
       332   10 Jun 2027 09:10:06.769   10 Jun 2027 09:10:35.760            28.991              Murmansk2          2239.500
       333   10 Jun 2027 09:10:38.019   10 Jun 2027 09:11:19.315            41.296                 Moscow          1129.500
       334   10 Jun 2027 09:11:26.952   10 Jun 2027 09:12:07.606            40.654                Norilsk          3818.500
       335   10 Jun 2027 09:12:12.595   10 Jun 2027 09:12:37.152            24.557              Murmansk1          2494.500
       336   10 Jun 2027 09:12:38.214   10 Jun 2027 09:12:44.751             6.537                Norilsk           531.000
       337   10 Jun 2027 09:12:52.676   10 Jun 2027 09:14:37.021           104.345                 Moscow          3962.500
       338   11 Jun 2027 03:00:00.270   11 Jun 2027 03:00:16.050            15.780                Anadyr1           135.000
       339   11 Jun 2027 03:00:18.850   11 Jun 2027 03:00:40.390            21.540               Magadan1          1400.000
       340   11 Jun 2027 03:00:44.759   11 Jun 2027 03:01:42.502            57.743                Novosib          1066.500
       341   11 Jun 2027 03:01:43.339   11 Jun 2027 03:01:59.428            16.089                Norilsk           176.000
       342   11 Jun 2027 04:30:44.204   11 Jun 2027 04:32:22.144            97.940                Novosib         12037.500
       343   11 Jun 2027 04:32:24.840   11 Jun 2027 04:32:38.762            13.922               Magadan1          1348.000
       344   11 Jun 2027 04:32:50.826   11 Jun 2027 04:33:57.737            66.911                Irkutsk          6032.000
       345   11 Jun 2027 04:34:04.140   11 Jun 2027 04:34:46.450            42.310                Novosib          3201.500
       346   11 Jun 2027 04:34:55.745   11 Jun 2027 04:35:37.151            41.406                Norilsk          4647.500
       347   11 Jun 2027 04:35:52.820   11 Jun 2027 04:36:38.616            45.796                Norilsk          5724.500
       348   11 Jun 2027 04:36:51.197   11 Jun 2027 04:37:04.033            12.836                Norilsk          1604.500
       349   11 Jun 2027 04:37:08.403   11 Jun 2027 04:37:43.087            34.684                Irkutsk          4335.500
       350   11 Jun 2027 04:37:52.740   11 Jun 2027 04:38:55.594            62.854              Murmansk1          4645.500
       351   11 Jun 2027 06:07:31.423   11 Jun 2027 06:08:10.427            39.004                Norilsk          4253.500
       352   11 Jun 2027 06:08:20.250   11 Jun 2027 06:09:10.391            50.141                Novosib          4911.500
       353   11 Jun 2027 06:09:13.717   11 Jun 2027 06:09:37.068            23.351              Murmansk1          1663.000
       354   11 Jun 2027 06:09:43.753   11 Jun 2027 06:10:16.917            33.164                Novosib          3342.500
       355   11 Jun 2027 06:10:24.010   11 Jun 2027 06:11:09.927            45.917                Norilsk          3546.500
       356   11 Jun 2027 06:11:22.161   11 Jun 2027 06:11:57.294            35.133                Norilsk          4391.625
       357   11 Jun 2027 06:12:07.107   11 Jun 2027 06:12:43.279            36.172              Murmansk1          4521.500
       358   11 Jun 2027 06:12:43.279   11 Jun 2027 06:13:11.352            28.073              Murmansk2          2110.375
       359   11 Jun 2027 06:13:18.929   11 Jun 2027 06:14:11.978            53.049              Murmansk2          3788.500
       360   11 Jun 2027 07:44:31.354   11 Jun 2027 07:45:24.378            53.024                Norilsk          6015.500
       361   11 Jun 2027 07:45:41.159   11 Jun 2027 07:47:08.649            87.490                Norilsk          8390.500
       362   11 Jun 2027 07:47:09.789   11 Jun 2027 07:48:05.962            56.173                Novosib           570.000
       363   11 Jun 2027 07:48:07.355   11 Jun 2027 07:48:46.674            39.319              Murmansk2           696.500
       364   11 Jun 2027 07:49:02.985   11 Jun 2027 07:49:43.286            40.301                Norilsk          5037.625
       365   11 Jun 2027 07:49:50.378   11 Jun 2027 07:50:29.692            39.314                 Moscow          3117.875
       366   11 Jun 2027 09:19:25.194   11 Jun 2027 09:19:54.970            29.776                 Moscow           522.500
       367   11 Jun 2027 09:21:07.152   11 Jun 2027 09:21:32.377            25.225              Murmansk1          1768.500
       368   11 Jun 2027 09:22:00.773   11 Jun 2027 09:23:59.135           118.362              Murmansk2         14198.000
       369   11 Jun 2027 09:24:03.127   11 Jun 2027 09:24:28.040            24.913              Murmansk1          1996.000
       370   12 Jun 2027 03:04:07.747   12 Jun 2027 03:05:17.267            69.520               Magadan2          7417.000
       371   12 Jun 2027 03:05:23.235   12 Jun 2027 03:06:00.364            37.129               Magadan1          2984.000
       372   12 Jun 2027 03:06:09.391   12 Jun 2027 03:06:29.584            20.193               Magadan2          2524.125
       373   12 Jun 2027 03:06:29.584   12 Jun 2027 03:06:52.850            23.266               Magadan1          1989.375
       374   12 Jun 2027 03:07:07.874   12 Jun 2027 03:08:14.524            66.650                Irkutsk          7512.000
       375   12 Jun 2027 03:08:23.277   12 Jun 2027 03:08:59.382            36.105                Novosib          4376.500
       376   12 Jun 2027 03:09:00.280   12 Jun 2027 03:09:34.121            33.841                Anadyr2           449.000
       377   12 Jun 2027 03:09:36.235   12 Jun 2027 03:10:10.550            34.315                Anadyr1          1057.000
       378   12 Jun 2027 03:10:13.505   12 Jun 2027 03:10:33.069            19.564                Norilsk          1477.500
       379   12 Jun 2027 03:10:33.628   12 Jun 2027 03:11:37.361            63.733                Irkutsk           279.500
       380   12 Jun 2027 03:11:42.501   12 Jun 2027 03:11:55.889            13.388                Norilsk          1673.500
       381   12 Jun 2027 03:11:57.136   12 Jun 2027 03:12:24.867            27.731                Anadyr1          1520.000
       382   12 Jun 2027 03:12:26.588   12 Jun 2027 03:12:36.285             9.697               Magadan1           860.500
       383   12 Jun 2027 03:12:45.874   12 Jun 2027 03:13:02.553            16.679                Irkutsk          2084.875
       384   12 Jun 2027 03:13:10.207   12 Jun 2027 03:14:21.986            71.779              Murmansk2          6536.625
       385   12 Jun 2027 04:42:51.887   12 Jun 2027 04:43:25.204            33.317                Norilsk          2772.500
       386   12 Jun 2027 04:44:10.119   12 Jun 2027 04:46:51.799           161.680                Norilsk         20210.000
       387   12 Jun 2027 04:46:55.549   12 Jun 2027 04:46:56.632             1.083                Norilsk           135.375
       388   12 Jun 2027 04:46:57.071   12 Jun 2027 04:48:03.799            66.728              Murmansk2          4206.626
       389   12 Jun 2027 04:48:12.527   12 Jun 2027 04:48:38.926            26.399              Murmansk2          3299.875
       390   12 Jun 2027 04:48:38.926   12 Jun 2027 04:48:57.225            18.299              Murmansk1          1064.125
       391   12 Jun 2027 04:48:59.297   12 Jun 2027 04:50:01.829            62.532                Novosib          1036.000
       392   12 Jun 2027 06:19:56.023   12 Jun 2027 06:20:02.643             6.620                  Delhi           827.500
       393   12 Jun 2027 06:20:06.744   12 Jun 2027 06:20:46.966            40.222                Norilsk          5027.750
       394   12 Jun 2027 06:21:01.612   12 Jun 2027 06:22:26.871            85.259              Murmansk1          8039.750
       395   12 Jun 2027 06:22:28.335   12 Jun 2027 06:22:50.372            22.037              Murmansk2           732.000
       396   12 Jun 2027 06:22:58.566   12 Jun 2027 06:23:34.949            36.383                Novosib          4097.000
       397   12 Jun 2027 06:23:38.586   12 Jun 2027 06:23:55.054            16.468                Norilsk          1818.500
       398   12 Jun 2027 06:23:57.777   12 Jun 2027 06:24:40.913            43.136                Novosib          1361.500
       399   12 Jun 2027 06:24:50.353   12 Jun 2027 06:25:54.146            63.793                Novosib          4720.000
       400   12 Jun 2027 07:56:50.099   12 Jun 2027 07:58:02.926            72.827                 Moscow          8657.500
       401   12 Jun 2027 07:58:09.721   12 Jun 2027 07:59:09.842            60.121                Novosib          3397.500
       402   12 Jun 2027 07:59:13.265   12 Jun 2027 07:59:45.729            32.464              Murmansk1          1711.500
       403   12 Jun 2027 07:59:57.665   12 Jun 2027 08:01:24.084            86.419                Norilsk          5968.000
       404   12 Jun 2027 09:34:41.859   12 Jun 2027 09:35:04.067            22.208              Murmansk2           980.500
       405   12 Jun 2027 09:35:12.738   12 Jun 2027 09:35:43.595            30.857                 Moscow          3857.125
       406   12 Jun 2027 09:35:50.994   12 Jun 2027 09:36:43.141            52.147              Murmansk1          3809.875
       407   13 Jun 2027 03:18:52.907   13 Jun 2027 03:19:25.195            32.288               Magadan2          3560.500
       408   13 Jun 2027 03:19:29.477   13 Jun 2027 03:19:35.415             5.938                Irkutsk           742.250
       409   13 Jun 2027 03:19:36.348   13 Jun 2027 03:20:17.604            41.256                Novosib          1865.250
       410   13 Jun 2027 03:20:21.052   13 Jun 2027 03:20:29.674             8.622               Magadan1          1077.750
       411   13 Jun 2027 03:20:31.518   13 Jun 2027 03:21:00.664            29.146               Magadan1          1568.250
       412   13 Jun 2027 03:21:06.975   13 Jun 2027 03:21:42.457            35.482                Novosib          3155.500
       413   13 Jun 2027 03:21:48.259   13 Jun 2027 03:22:25.472            37.213               Magadan1          2901.000
       414   13 Jun 2027 03:22:33.120   13 Jun 2027 03:23:46.687            73.567                Irkutsk          3824.000
       415   13 Jun 2027 03:24:02.729   13 Jun 2027 03:25:33.910            91.181               Magadan2          8021.000
       416   13 Jun 2027 03:25:40.366   13 Jun 2027 03:26:14.345            33.979              Murmansk1          2367.500
       417   13 Jun 2027 04:55:01.658   13 Jun 2027 04:56:05.006            63.348                Novosib          3028.000
       418   13 Jun 2027 04:56:18.563   13 Jun 2027 04:57:00.912            42.349                Norilsk          5293.625
       419   13 Jun 2027 04:57:05.187   13 Jun 2027 04:58:29.404            84.217                Irkutsk          3622.375
       420   13 Jun 2027 04:58:35.965   13 Jun 2027 04:59:14.613            38.648                Norilsk          3280.500
       421   13 Jun 2027 04:59:27.342   13 Jun 2027 05:00:04.015            36.673                Novosib          4584.125
       422   13 Jun 2027 05:00:11.657   13 Jun 2027 05:01:08.768            57.111                Irkutsk          5601.375
       423   13 Jun 2027 05:01:12.329   13 Jun 2027 05:01:45.270            32.941                Irkutsk          1780.500
       424   13 Jun 2027 06:32:47.057   13 Jun 2027 06:33:41.500            54.443                Irkutsk          4176.500
       425   13 Jun 2027 06:33:42.547   13 Jun 2027 06:34:37.586            55.039                Irkutsk           523.500
       426   13 Jun 2027 06:34:50.640   13 Jun 2027 06:35:19.964            29.324                Norilsk          3665.500
       427   13 Jun 2027 06:35:20.650   13 Jun 2027 06:35:54.855            34.205                Irkutsk          3204.500
       428   13 Jun 2027 06:35:54.990   13 Jun 2027 06:36:10.292            15.302                Irkutsk            67.500
       429   13 Jun 2027 06:36:16.456   13 Jun 2027 06:36:52.742            36.286              Murmansk2          3082.000
       430   13 Jun 2027 06:36:53.452   13 Jun 2027 06:37:50.153            56.701              Murmansk1           355.000
       431   13 Jun 2027 08:08:45.645   13 Jun 2027 08:09:12.788            27.143              Murmansk1           912.500
       432   13 Jun 2027 08:09:21.862   13 Jun 2027 08:10:11.230            49.368                Novosib          4537.000
       433   13 Jun 2027 08:10:18.485   13 Jun 2027 08:10:54.083            35.598                Norilsk          3627.500
       434   13 Jun 2027 08:10:59.854   13 Jun 2027 08:11:55.388            55.534                 Moscow          2885.500
       435   13 Jun 2027 08:12:13.805   13 Jun 2027 08:13:30.152            76.347                Novosib          9208.500
