uniorb/output/strategy_2/Drop/Drop_KinoSat_110601.txt

KinoSat_110601
-------------------------
    Access    *     Start Time (UTCG)     *     Stop Time (UTCG)  *   Duration (s)        *       Station  *  Data (Mbytes)
         1   01 Jun 2027 04:22:07.181   01 Jun 2027 04:23:58.611           111.430                Anadyr2          3482.187
         2   01 Jun 2027 04:23:58.611   01 Jun 2027 04:24:22.622            24.011                Anadyr1           750.344
         3   01 Jun 2027 04:24:23.920   01 Jun 2027 04:25:30.304            66.384                Anadyr1          2074.500
         4   01 Jun 2027 04:25:48.191   01 Jun 2027 04:26:34.203            46.012               Magadan1          1437.875
         5   01 Jun 2027 04:27:21.644   01 Jun 2027 04:28:29.907            68.263               Magadan1          2133.219
         6   01 Jun 2027 04:28:29.907   01 Jun 2027 04:28:40.530            10.623               Magadan2           331.969
         7   01 Jun 2027 04:28:53.942   01 Jun 2027 04:29:21.817            27.875                Norilsk           871.094
         8   01 Jun 2027 04:29:57.399   01 Jun 2027 04:29:58.866             1.467                Norilsk            45.844
         9   01 Jun 2027 05:04:09.033   01 Jun 2027 05:07:44.443           215.410            RioGallegos          6731.563
        10   01 Jun 2027 05:08:58.421   01 Jun 2027 05:10:19.587            81.166            RioGallegos          2536.438
        11   01 Jun 2027 05:59:52.485   01 Jun 2027 06:02:06.920           134.435               Magadan1          4201.094
        12   01 Jun 2027 06:02:16.424   01 Jun 2027 06:02:24.901             8.477                Norilsk           264.906
        13   01 Jun 2027 06:02:38.798   01 Jun 2027 06:03:26.780            47.982                Irkutsk          1499.437
        14   01 Jun 2027 06:03:37.559   01 Jun 2027 06:03:54.544            16.985                Novosib           530.781
        15   01 Jun 2027 06:03:55.751   01 Jun 2027 06:04:36.669            40.918                Norilsk          1278.687
        16   01 Jun 2027 06:04:49.334   01 Jun 2027 06:05:14.808            25.474              Murmansk1           796.062
        17   01 Jun 2027 06:05:40.351   01 Jun 2027 06:05:44.419             4.068              Murmansk1           127.125
        18   01 Jun 2027 06:06:04.995   01 Jun 2027 06:06:25.600            20.605              Murmansk2           643.906
        19   01 Jun 2027 06:39:16.899   01 Jun 2027 06:40:32.516            75.617            RioGallegos          2363.031
        20   01 Jun 2027 07:14:06.225   01 Jun 2027 07:17:15.979           189.754                Sumatra          5929.812
        21   01 Jun 2027 07:24:49.317   01 Jun 2027 07:29:20.120           270.803                  Delhi          8462.594
        22   01 Jun 2027 07:29:35.198   01 Jun 2027 07:32:54.879           199.681                  Delhi          6240.031
        23   01 Jun 2027 07:36:02.591   01 Jun 2027 07:36:50.932            48.341                Novosib          1510.656
        24   01 Jun 2027 07:38:12.926   01 Jun 2027 07:38:18.255             5.329                Irkutsk           166.531
        25   01 Jun 2027 07:38:28.861   01 Jun 2027 07:39:24.835            55.974                Irkutsk          1749.188
        26   01 Jun 2027 07:39:52.428   01 Jun 2027 07:40:51.972            59.544                Novosib          1860.750
        27   01 Jun 2027 07:41:03.502   01 Jun 2027 07:41:08.870             5.368                Norilsk           167.750
        28   01 Jun 2027 07:41:10.379   01 Jun 2027 07:41:35.807            25.428              Murmansk1           794.625
        29   01 Jun 2027 07:42:06.265   01 Jun 2027 07:42:15.012             8.747                 Moscow           273.344
        30   01 Jun 2027 08:53:45.728   01 Jun 2027 08:55:26.967           101.239                Sumatra          3163.719
        31   01 Jun 2027 08:58:17.795   01 Jun 2027 09:00:16.065           118.270                  Delhi          3695.937
        32   01 Jun 2027 09:02:04.784   01 Jun 2027 09:03:30.279            85.495                  Delhi          2671.719
        33   01 Jun 2027 09:14:12.346   01 Jun 2027 09:14:12.754             0.408                Novosib            12.750
        34   01 Jun 2027 09:14:18.373   01 Jun 2027 09:14:37.529            19.156                 Moscow           598.625
        35   01 Jun 2027 09:14:47.749   01 Jun 2027 09:16:04.736            76.987              Murmansk2          2405.844
        36   01 Jun 2027 09:16:15.747   01 Jun 2027 09:16:16.076             0.329                Norilsk            10.281
        37   01 Jun 2027 09:16:25.267   01 Jun 2027 09:18:41.308           136.041                 Moscow          4251.281
        38   01 Jun 2027 10:47:29.398   01 Jun 2027 10:48:49.807            80.409              Murmansk1          2512.781
        39   01 Jun 2027 10:49:12.960   01 Jun 2027 10:54:10.218           297.258                 Moscow          9289.313
        40   01 Jun 2027 10:56:07.883   01 Jun 2027 10:56:47.043            39.160              Murmansk2          1223.750
        41   01 Jun 2027 11:57:38.719   01 Jun 2027 12:05:02.002           443.283               CapeTown         13852.594
        42   01 Jun 2027 12:22:59.838   01 Jun 2027 12:23:50.018            50.180              Murmansk1          1568.125
        43   01 Jun 2027 12:37:17.883   01 Jun 2027 12:46:14.132           536.249                Anadyr2         16757.781
        44   01 Jun 2027 14:12:44.853   01 Jun 2027 14:13:08.729            23.876                Anadyr1           746.125
        45   01 Jun 2027 14:16:27.530   01 Jun 2027 14:23:14.130           406.600               Magadan1         12706.250
        46   01 Jun 2027 15:51:02.583   01 Jun 2027 15:52:33.559            90.976               Magadan2          2843.000
        47   01 Jun 2027 15:54:55.005   01 Jun 2027 15:56:05.293            70.288               Magadan1          2196.500
        48   01 Jun 2027 17:24:30.448   01 Jun 2027 17:24:54.339            23.891                Anadyr2           746.594
        49   01 Jun 2027 17:25:33.791   01 Jun 2027 17:25:41.038             7.247                Anadyr2           226.469
        50   01 Jun 2027 17:26:50.692   01 Jun 2027 17:28:18.520            87.828               Magadan1          2744.625
        51   01 Jun 2027 17:29:37.424   01 Jun 2027 17:30:26.721            49.297                Norilsk          1540.531
        52   01 Jun 2027 17:30:58.640   01 Jun 2027 17:32:03.646            65.006                Norilsk          2031.437
        53   01 Jun 2027 17:32:32.632   01 Jun 2027 17:38:37.616           364.984                Irkutsk         11405.750
        54   01 Jun 2027 17:49:30.064   01 Jun 2027 17:52:30.075           180.011                Sumatra          5625.344
        55   01 Jun 2027 19:07:31.469   01 Jun 2027 19:14:14.482           403.013                Novosib         12594.156
        56   01 Jun 2027 20:43:49.835   01 Jun 2027 20:44:20.929            31.094              Murmansk2           971.688
        57   01 Jun 2027 20:56:53.651   01 Jun 2027 20:57:05.618            11.967                  Delhi           373.969
        58   01 Jun 2027 20:59:11.634   01 Jun 2027 21:00:38.641            87.007                  Delhi          2718.969
        59   01 Jun 2027 22:16:37.448   01 Jun 2027 22:18:13.422            95.974              Murmansk2          2999.187
        60   01 Jun 2027 22:19:00.032   01 Jun 2027 22:22:21.646           201.614              Murmansk1          6300.437
        61   01 Jun 2027 22:22:27.408   01 Jun 2027 22:27:06.002           278.594                 Moscow          8706.062
        62   01 Jun 2027 22:48:31.056   01 Jun 2027 22:53:56.419           325.363               CapeTown         10167.594
        63   02 Jun 2027 01:21:12.276   02 Jun 2027 01:21:23.027            10.751               Magadan1           335.969
        64   02 Jun 2027 01:28:26.413   02 Jun 2027 01:28:35.329             8.916              Murmansk1           278.625
        65   02 Jun 2027 01:28:35.329   02 Jun 2027 01:30:36.624           121.295              Murmansk2          3790.469
        66   02 Jun 2027 01:34:37.485   02 Jun 2027 01:35:01.994            24.509              Murmansk2           765.906
        67   02 Jun 2027 01:40:01.279   02 Jun 2027 01:40:05.523             4.244                 Moscow           132.625
        68   02 Jun 2027 01:41:11.186   02 Jun 2027 01:41:22.640            11.454                 Moscow           357.938
        69   02 Jun 2027 01:57:28.847   02 Jun 2027 01:58:44.096            75.249               CapeTown          2351.531
        70   02 Jun 2027 02:52:03.854   02 Jun 2027 02:54:39.274           155.420               Magadan1          4856.875
        71   02 Jun 2027 02:55:16.487   02 Jun 2027 02:55:41.090            24.603               Magadan2           768.844
        72   02 Jun 2027 02:55:52.087   02 Jun 2027 02:56:03.268            11.181               Magadan2           349.406
        73   02 Jun 2027 02:56:17.848   02 Jun 2027 02:56:22.999             5.151               Magadan1           160.969
        74   02 Jun 2027 02:57:06.480   02 Jun 2027 02:57:22.602            16.122               Magadan1           503.813
        75   02 Jun 2027 02:59:41.526   02 Jun 2027 03:00:19.390            37.864               Magadan1          1183.250
        76   02 Jun 2027 03:00:48.832   02 Jun 2027 03:03:56.444           187.612                Anadyr2          5862.875
        77   02 Jun 2027 03:03:56.444   02 Jun 2027 03:04:26.770            30.326                Anadyr1           947.687
        78   02 Jun 2027 03:43:56.109   02 Jun 2027 03:47:47.455           231.346            RioGallegos          7229.562
        79   02 Jun 2027 04:34:07.808   02 Jun 2027 04:34:17.776             9.968                Anadyr2           311.500
        80   02 Jun 2027 04:34:28.606   02 Jun 2027 04:34:33.962             5.356               Magadan2           167.375
        81   02 Jun 2027 04:34:33.962   02 Jun 2027 04:34:39.378             5.416               Magadan1           169.250
        82   02 Jun 2027 04:34:40.818   02 Jun 2027 04:34:47.822             7.004                Anadyr1           218.875
        83   02 Jun 2027 04:35:15.359   02 Jun 2027 04:35:44.972            29.613               Magadan1           925.406
        84   02 Jun 2027 04:36:00.075   02 Jun 2027 04:40:07.761           247.686                Anadyr1          7740.188
        85   02 Jun 2027 04:40:21.884   02 Jun 2027 04:40:38.654            16.770               Magadan2           524.062
        86   02 Jun 2027 05:15:53.141   02 Jun 2027 05:21:55.980           362.839            RioGallegos         11338.719
        87   02 Jun 2027 05:54:17.503   02 Jun 2027 05:59:38.931           321.428                Sumatra         10044.625
        88   02 Jun 2027 06:11:22.334   02 Jun 2027 06:11:57.719            35.385                Norilsk          1105.781
        89   02 Jun 2027 06:12:08.412   02 Jun 2027 06:15:44.200           215.788                Irkutsk          6743.375
        90   02 Jun 2027 06:16:07.140   02 Jun 2027 06:16:32.467            25.327              Murmansk2           791.469
        91   02 Jun 2027 06:17:16.920   02 Jun 2027 06:17:27.738            10.818              Murmansk1           338.062
        92   02 Jun 2027 06:51:27.330   02 Jun 2027 06:52:19.626            52.296            RioGallegos          1634.250
        93   02 Jun 2027 07:26:05.335   02 Jun 2027 07:28:34.774           149.439                Sumatra          4669.969
        94   02 Jun 2027 07:36:07.653   02 Jun 2027 07:43:25.999           438.346                  Delhi         13698.313
        95   02 Jun 2027 07:47:45.614   02 Jun 2027 07:47:55.255             9.641                Novosib           301.281
        96   02 Jun 2027 07:48:59.105   02 Jun 2027 07:49:53.596            54.491                 Moscow          1702.844
        97   02 Jun 2027 07:50:05.830   02 Jun 2027 07:50:50.503            44.673              Murmansk1          1396.031
        98   02 Jun 2027 07:50:52.887   02 Jun 2027 07:51:37.821            44.934                Novosib          1404.187
        99   02 Jun 2027 07:51:47.128   02 Jun 2027 07:52:50.644            63.516                 Moscow          1984.875
       100   02 Jun 2027 09:10:26.494   02 Jun 2027 09:11:55.615            89.121                  Delhi          2785.031
       101   02 Jun 2027 09:14:19.556   02 Jun 2027 09:15:35.669            76.113                  Delhi          2378.531
       102   02 Jun 2027 09:24:38.625   02 Jun 2027 09:25:34.164            55.539                Novosib          1735.594
       103   02 Jun 2027 09:26:13.773   02 Jun 2027 09:26:26.689            12.916                Norilsk           403.625
       104   02 Jun 2027 09:26:35.444   02 Jun 2027 09:26:49.304            13.860                Novosib           433.125
       105   02 Jun 2027 09:26:56.377   02 Jun 2027 09:27:21.451            25.074              Murmansk2           783.562
       106   02 Jun 2027 09:27:28.254   02 Jun 2027 09:27:45.387            17.133                 Moscow           535.406
       107   02 Jun 2027 09:27:49.984   02 Jun 2027 09:28:36.961            46.977                Novosib          1468.031
       108   02 Jun 2027 09:29:32.627   02 Jun 2027 09:29:35.341             2.714              Murmansk2            84.812
       109   02 Jun 2027 09:29:39.971   02 Jun 2027 09:29:52.808            12.837                 Moscow           401.156
       110   02 Jun 2027 09:30:34.242   02 Jun 2027 09:30:48.752            14.510              Murmansk1           453.438
       111   02 Jun 2027 10:58:08.648   02 Jun 2027 10:59:11.461            62.813              Murmansk2          1962.906
       112   02 Jun 2027 10:59:17.882   02 Jun 2027 10:59:46.889            29.007                 Moscow           906.469
       113   02 Jun 2027 11:00:07.375   02 Jun 2027 11:00:51.399            44.024              Murmansk1          1375.750
       114   02 Jun 2027 11:01:02.283   02 Jun 2027 11:01:18.545            16.262                 Moscow           508.188
       115   02 Jun 2027 11:01:20.645   02 Jun 2027 11:01:51.375            30.730              Murmansk1           960.313
       116   02 Jun 2027 11:02:10.427   02 Jun 2027 11:02:21.430            11.003                 Moscow           343.844
       117   02 Jun 2027 11:02:36.523   02 Jun 2027 11:02:49.042            12.519              Murmansk2           391.219
       118   02 Jun 2027 11:02:50.801   02 Jun 2027 11:02:55.557             4.756                Norilsk           148.625
       119   02 Jun 2027 11:03:16.104   02 Jun 2027 11:04:04.224            48.120                 Moscow          1503.750
       120   02 Jun 2027 11:04:14.050   02 Jun 2027 11:04:38.712            24.662              Murmansk2           770.687
       121   02 Jun 2027 11:09:59.521   02 Jun 2027 11:10:05.551             6.030              Murmansk1           188.437
       122   02 Jun 2027 12:09:12.211   02 Jun 2027 12:12:27.405           195.194               CapeTown          6099.813
       123   02 Jun 2027 12:12:41.729   02 Jun 2027 12:15:52.460           190.731               CapeTown          5960.344
       124   02 Jun 2027 12:38:32.403   02 Jun 2027 12:39:13.445            41.042              Murmansk2          1282.562
       125   02 Jun 2027 12:49:11.796   02 Jun 2027 12:51:45.469           153.673                Anadyr1          4802.281
       126   02 Jun 2027 12:52:28.927   02 Jun 2027 12:54:50.369           141.442                Anadyr2          4420.062
       127   02 Jun 2027 12:55:40.825   02 Jun 2027 12:58:49.523           188.698                Anadyr1          5896.813
       128   02 Jun 2027 14:24:45.293   02 Jun 2027 14:26:26.716           101.423                Anadyr2          3169.469
       129   02 Jun 2027 14:28:06.972   02 Jun 2027 14:36:06.953           479.981               Magadan1         14999.406
       130   02 Jun 2027 16:04:19.215   02 Jun 2027 16:04:49.959            30.744               Magadan2           960.750
       131   02 Jun 2027 16:05:34.976   02 Jun 2027 16:06:57.238            82.262               Magadan2          2570.688
       132   02 Jun 2027 16:58:05.997   02 Jun 2027 17:00:50.006           164.009            RioGallegos          5125.281
       133   02 Jun 2027 17:38:45.233   02 Jun 2027 17:39:41.972            56.739                Norilsk          1773.094
       134   02 Jun 2027 17:43:57.872   02 Jun 2027 17:51:39.068           461.196                Irkutsk         14412.375
       135   02 Jun 2027 17:59:31.104   02 Jun 2027 18:06:21.927           410.823                Sumatra         12838.219
       136   02 Jun 2027 19:21:16.275   02 Jun 2027 19:25:27.663           251.388                Novosib          7855.875
       137   02 Jun 2027 20:53:42.273   02 Jun 2027 20:57:45.587           243.314              Murmansk1          7603.563
       138   02 Jun 2027 22:28:36.870   02 Jun 2027 22:30:24.105           107.235              Murmansk1          3351.094
       139   02 Jun 2027 22:30:36.321   02 Jun 2027 22:34:00.190           203.869              Murmansk1          6370.906
       140   02 Jun 2027 22:34:03.074   02 Jun 2027 22:40:35.002           391.928                 Moscow         12247.750
       141   02 Jun 2027 22:59:17.634   02 Jun 2027 23:06:46.274           448.640               CapeTown         14020.000
       142   03 Jun 2027 02:10:23.923   03 Jun 2027 02:11:45.951            82.028               CapeTown          2563.375
       143   03 Jun 2027 03:10:59.863   03 Jun 2027 03:12:34.736            94.873               Magadan1          2964.781
       144   03 Jun 2027 03:12:43.943   03 Jun 2027 03:14:14.276            90.333                Anadyr2          2822.906
       145   03 Jun 2027 03:14:32.447   03 Jun 2027 03:15:10.825            38.378               Magadan2          1199.313
       146   03 Jun 2027 03:15:49.021   03 Jun 2027 03:16:24.996            35.975                Anadyr2          1124.219
       147   03 Jun 2027 04:47:07.143   03 Jun 2027 04:47:20.999            13.856                Irkutsk           433.000
       148   03 Jun 2027 04:47:36.694   03 Jun 2027 04:50:45.602           188.908               Magadan2          5903.375
       149   03 Jun 2027 04:50:45.602   03 Jun 2027 04:51:30.409            44.807               Magadan1          1400.219
       150   03 Jun 2027 04:51:30.409   03 Jun 2027 04:51:33.960             3.551               Magadan2           110.969
       151   03 Jun 2027 04:51:58.248   03 Jun 2027 04:52:03.965             5.717                Irkutsk           178.656
       152   03 Jun 2027 04:52:16.087   03 Jun 2027 04:52:35.864            19.777               Magadan2           618.031
       153   03 Jun 2027 04:53:28.098   03 Jun 2027 04:53:42.563            14.465                Norilsk           452.031
       154   03 Jun 2027 04:58:41.211   03 Jun 2027 04:58:50.897             9.686              Murmansk1           302.687
       155   03 Jun 2027 05:27:40.442   03 Jun 2027 05:32:13.229           272.787            RioGallegos          8524.594
       156   03 Jun 2027 05:34:13.914   03 Jun 2027 05:34:58.727            44.813            RioGallegos          1400.406
       157   03 Jun 2027 05:35:24.978   03 Jun 2027 05:35:36.549            11.571            RioGallegos           361.594
       158   03 Jun 2027 05:36:12.270   03 Jun 2027 05:37:07.108            54.838            RioGallegos          1713.687
       159   03 Jun 2027 06:04:55.691   03 Jun 2027 06:12:54.184           478.493                Sumatra         14952.906
       160   03 Jun 2027 06:22:37.309   03 Jun 2027 06:23:31.448            54.139               Magadan1          1691.844
       161   03 Jun 2027 06:23:38.990   03 Jun 2027 06:23:40.691             1.701               Magadan1            53.156
       162   03 Jun 2027 06:24:13.072   03 Jun 2027 06:24:26.694            13.622                Irkutsk           425.688
       163   03 Jun 2027 06:24:32.010   03 Jun 2027 06:24:52.405            20.395                Novosib           637.344
       164   03 Jun 2027 06:25:02.881   03 Jun 2027 06:26:39.074            96.193                Novosib          3006.031
       165   03 Jun 2027 06:26:52.910   03 Jun 2027 06:28:00.323            67.413              Murmansk2          2106.656
       166   03 Jun 2027 06:28:40.489   03 Jun 2027 06:28:48.356             7.867              Murmansk1           245.844
       167   03 Jun 2027 06:29:15.424   03 Jun 2027 06:29:18.948             3.524              Murmansk2           110.125
       168   03 Jun 2027 06:29:44.574   03 Jun 2027 06:29:58.981            14.407              Murmansk2           450.219
       169   03 Jun 2027 06:30:32.408   03 Jun 2027 06:31:00.085            27.677              Murmansk1           864.906
       170   03 Jun 2027 06:32:28.640   03 Jun 2027 06:32:40.134            11.494              Murmansk2           359.188
       171   03 Jun 2027 07:03:41.621   03 Jun 2027 07:04:21.083            39.462            RioGallegos          1233.187
       172   03 Jun 2027 07:06:08.794   03 Jun 2027 07:06:46.053            37.259            RioGallegos          1164.344
       173   03 Jun 2027 07:38:10.052   03 Jun 2027 07:40:04.981           114.929                Sumatra          3591.531
       174   03 Jun 2027 07:45:44.980   03 Jun 2027 07:46:31.631            46.651                Sumatra          1457.844
       175   03 Jun 2027 07:47:35.204   03 Jun 2027 07:48:51.044            75.840                  Delhi          2370.000
       176   03 Jun 2027 07:48:52.528   03 Jun 2027 07:50:56.442           123.914                  Delhi          3872.312
       177   03 Jun 2027 07:52:55.498   03 Jun 2027 07:54:26.085            90.587                  Delhi          2830.844
       178   03 Jun 2027 07:59:18.934   03 Jun 2027 07:59:26.614             7.680                Norilsk           240.000
       179   03 Jun 2027 08:00:06.271   03 Jun 2027 08:00:46.888            40.617              Murmansk1          1269.281
       180   03 Jun 2027 08:00:46.888   03 Jun 2027 08:01:04.457            17.569              Murmansk2           549.031
       181   03 Jun 2027 08:01:22.816   03 Jun 2027 08:02:20.459            57.643              Murmansk1          1801.344
       182   03 Jun 2027 08:02:22.937   03 Jun 2027 08:02:27.574             4.637              Murmansk2           144.906
       183   03 Jun 2027 08:02:33.940   03 Jun 2027 08:03:13.136            39.196                Norilsk          1224.875
       184   03 Jun 2027 08:03:15.936   03 Jun 2027 08:03:25.502             9.566                Norilsk           298.937
       185   03 Jun 2027 08:03:34.366   03 Jun 2027 08:03:56.962            22.596                Norilsk           706.125
       186   03 Jun 2027 08:04:11.733   03 Jun 2027 08:04:23.591            11.858                Novosib           370.562
       187   03 Jun 2027 08:04:30.399   03 Jun 2027 08:05:11.459            41.060              Murmansk2          1283.125
       188   03 Jun 2027 08:05:57.182   03 Jun 2027 08:06:02.560             5.378                 Moscow           168.062
       189   03 Jun 2027 08:45:46.718   03 Jun 2027 08:46:26.097            39.379            RioGallegos          1230.594
       190   03 Jun 2027 09:22:41.170   03 Jun 2027 09:25:14.802           153.632                  Delhi          4801.000
       191   03 Jun 2027 09:26:30.156   03 Jun 2027 09:26:56.459            26.303                  Delhi           821.969
       192   03 Jun 2027 09:35:36.677   03 Jun 2027 09:35:40.781             4.104                Novosib           128.250
       193   03 Jun 2027 09:35:41.445   03 Jun 2027 09:36:26.356            44.911              Murmansk2          1403.469
       194   03 Jun 2027 09:36:33.957   03 Jun 2027 09:36:54.847            20.890              Murmansk2           652.812
       195   03 Jun 2027 09:37:03.702   03 Jun 2027 09:37:04.247             0.545                 Moscow            17.031
       196   03 Jun 2027 09:37:09.484   03 Jun 2027 09:37:36.718            27.234              Murmansk1           851.062
       197   03 Jun 2027 09:37:37.306   03 Jun 2027 09:38:02.818            25.512                 Moscow           797.250
       198   03 Jun 2027 09:38:07.127   03 Jun 2027 09:38:28.591            21.464                Novosib           670.750
       199   03 Jun 2027 09:38:41.146   03 Jun 2027 09:38:44.408             3.262              Murmansk2           101.938
       200   03 Jun 2027 09:38:54.302   03 Jun 2027 09:39:08.593            14.291              Murmansk2           446.594
       201   03 Jun 2027 09:39:14.961   03 Jun 2027 09:39:17.509             2.548                Norilsk            79.625
       202   03 Jun 2027 09:39:23.874   03 Jun 2027 09:40:12.186            48.312              Murmansk2          1509.750
       203   03 Jun 2027 09:40:25.228   03 Jun 2027 09:41:22.073            56.845                 Moscow          1776.406
       204   03 Jun 2027 11:10:26.332   03 Jun 2027 11:10:34.559             8.227              Murmansk1           257.094
       205   03 Jun 2027 11:11:02.725   03 Jun 2027 11:12:04.503            61.778                 Moscow          1930.562
       206   03 Jun 2027 11:12:17.488   03 Jun 2027 11:13:06.386            48.898                 Moscow          1528.063
       207   03 Jun 2027 11:13:25.485   03 Jun 2027 11:13:30.484             4.999              Murmansk1           156.219
       208   03 Jun 2027 11:13:39.280   03 Jun 2027 11:14:20.139            40.859                 Moscow          1276.844
       209   03 Jun 2027 11:14:22.112   03 Jun 2027 11:15:18.524            56.412                 Moscow          1762.875
       210   03 Jun 2027 12:20:52.900   03 Jun 2027 12:24:40.618           227.718               CapeTown          7116.188
       211   03 Jun 2027 12:25:59.693   03 Jun 2027 12:27:10.142            70.449               CapeTown          2201.531
       212   03 Jun 2027 12:47:35.830   03 Jun 2027 12:48:46.436            70.606              Murmansk1          2206.438
       213   03 Jun 2027 13:01:07.350   03 Jun 2027 13:07:10.046           362.696                Anadyr2         11334.250
       214   03 Jun 2027 13:08:51.942   03 Jun 2027 13:10:39.254           107.312                Anadyr2          3353.500
       215   03 Jun 2027 14:36:46.004   03 Jun 2027 14:37:59.874            73.870                Anadyr2          2308.438
       216   03 Jun 2027 14:38:44.899   03 Jun 2027 14:39:23.872            38.973                Anadyr1          1217.906
       217   03 Jun 2027 14:39:52.355   03 Jun 2027 14:45:56.846           364.491               Magadan2         11390.344
       218   03 Jun 2027 14:45:57.679   03 Jun 2027 14:48:51.084           173.405               Magadan1          5418.906
       219   03 Jun 2027 16:15:00.311   03 Jun 2027 16:15:25.016            24.705               Magadan1           772.031
       220   03 Jun 2027 16:16:02.868   03 Jun 2027 16:16:27.990            25.122               Magadan1           785.063
       221   03 Jun 2027 16:18:59.622   03 Jun 2027 16:19:09.827            10.205               Magadan2           318.906
       222   03 Jun 2027 17:08:50.235   03 Jun 2027 17:14:37.913           347.678            RioGallegos         10864.938
       223   03 Jun 2027 17:50:41.273   03 Jun 2027 17:52:39.412           118.139                Norilsk          3691.844
       224   03 Jun 2027 17:55:34.306   03 Jun 2027 18:03:10.443           456.137                Irkutsk         14254.281
       225   03 Jun 2027 18:10:27.021   03 Jun 2027 18:19:19.948           532.927                Sumatra         16653.969
       226   03 Jun 2027 19:34:30.737   03 Jun 2027 19:36:59.356           148.619                Novosib          4644.344
       227   03 Jun 2027 19:40:52.816   03 Jun 2027 19:46:43.798           350.982                  Delhi         10968.187
       228   03 Jun 2027 21:05:23.341   03 Jun 2027 21:10:46.416           323.075              Murmansk2         10096.094
       229   03 Jun 2027 22:40:36.848   03 Jun 2027 22:41:29.664            52.816              Murmansk2          1650.500
       230   03 Jun 2027 22:43:38.517   03 Jun 2027 22:45:58.651           140.134              Murmansk1          4379.187
       231   03 Jun 2027 22:51:37.454   03 Jun 2027 22:52:38.414            60.960                 Moscow          1905.000
       232   03 Jun 2027 23:10:23.859   03 Jun 2027 23:18:23.569           479.710               CapeTown         14990.937
       233   04 Jun 2027 03:23:32.054   04 Jun 2027 03:23:40.028             7.974                Anadyr1           249.187
       234   04 Jun 2027 03:23:42.557   04 Jun 2027 03:23:44.334             1.777               Magadan1            55.531
       235   04 Jun 2027 03:23:50.662   04 Jun 2027 03:24:36.803            46.141               Magadan1          1441.906
       236   04 Jun 2027 03:24:52.267   04 Jun 2027 03:26:11.407            79.140                Anadyr2          2473.125
       237   04 Jun 2027 03:26:15.523   04 Jun 2027 03:27:00.580            45.057                Anadyr1          1408.031
       238   04 Jun 2027 03:28:25.916   04 Jun 2027 03:28:55.274            29.358               Magadan2           917.437
       239   04 Jun 2027 04:11:59.921   04 Jun 2027 04:12:34.131            34.210            RioGallegos          1069.062
       240   04 Jun 2027 04:54:37.726   04 Jun 2027 04:55:48.292            70.566                Irkutsk          2205.187
       241   04 Jun 2027 04:59:20.464   04 Jun 2027 05:00:16.158            55.694                Irkutsk          1740.437
       242   04 Jun 2027 05:00:24.994   04 Jun 2027 05:00:28.003             3.009                Novosib            94.031
       243   04 Jun 2027 05:00:38.587   04 Jun 2027 05:00:52.089            13.502                Novosib           421.938
       244   04 Jun 2027 05:00:56.122   04 Jun 2027 05:03:00.528           124.406                Irkutsk          3887.687
       245   04 Jun 2027 05:03:10.624   04 Jun 2027 05:03:30.035            19.411               Magadan2           606.594
       246   04 Jun 2027 05:03:30.035   04 Jun 2027 05:03:36.661             6.626               Magadan1           207.063
       247   04 Jun 2027 05:04:12.573   04 Jun 2027 05:04:31.963            19.390               Magadan1           605.938
       248   04 Jun 2027 05:04:38.440   04 Jun 2027 05:05:21.693            43.253              Murmansk2          1351.656
       249   04 Jun 2027 05:06:39.976   04 Jun 2027 05:07:08.146            28.170                Norilsk           880.313
       250   04 Jun 2027 05:10:27.634   04 Jun 2027 05:11:04.725            37.091              Murmansk1          1159.094
       251   04 Jun 2027 05:39:30.908   04 Jun 2027 05:43:14.181           223.273            RioGallegos          6977.281
       252   04 Jun 2027 05:44:39.053   04 Jun 2027 05:45:18.843            39.790            RioGallegos          1243.437
       253   04 Jun 2027 06:16:03.140   04 Jun 2027 06:24:19.414           496.274                Sumatra         15508.562
       254   04 Jun 2027 06:35:12.487   04 Jun 2027 06:35:20.868             8.381                Norilsk           261.906
       255   04 Jun 2027 06:35:41.208   04 Jun 2027 06:35:53.676            12.468                Novosib           389.625
       256   04 Jun 2027 06:36:16.961   04 Jun 2027 06:37:01.927            44.966                Irkutsk          1405.188
       257   04 Jun 2027 06:37:15.563   04 Jun 2027 06:38:11.913            56.350                Irkutsk          1760.937
       258   04 Jun 2027 06:38:16.702   04 Jun 2027 06:38:55.856            39.154                Norilsk          1223.562
       259   04 Jun 2027 06:38:58.892   04 Jun 2027 06:39:47.924            49.032                Novosib          1532.250
       260   04 Jun 2027 06:40:11.101   04 Jun 2027 06:40:37.737            26.636                Irkutsk           832.375
       261   04 Jun 2027 06:41:03.517   04 Jun 2027 06:41:20.866            17.349              Murmansk1           542.156
       262   04 Jun 2027 06:41:20.866   04 Jun 2027 06:41:45.086            24.220              Murmansk2           756.875
       263   04 Jun 2027 06:41:45.086   04 Jun 2027 06:41:56.804            11.718              Murmansk1           366.187
       264   04 Jun 2027 07:16:00.090   04 Jun 2027 07:16:20.191            20.101            RioGallegos           628.156
       265   04 Jun 2027 07:16:51.711   04 Jun 2027 07:17:43.727            52.016            RioGallegos          1625.500
       266   04 Jun 2027 07:50:20.657   04 Jun 2027 07:51:43.720            83.063                Sumatra          2595.719
       267   04 Jun 2027 07:59:10.188   04 Jun 2027 08:02:50.548           220.360                  Delhi          6886.250
       268   04 Jun 2027 08:02:55.886   04 Jun 2027 08:03:53.455            57.569                  Delhi          1799.031
       269   04 Jun 2027 08:11:20.415   04 Jun 2027 08:11:22.266             1.851                Norilsk            57.844
       270   04 Jun 2027 08:11:54.177   04 Jun 2027 08:12:33.394            39.217              Murmansk1          1225.531
       271   04 Jun 2027 08:12:45.004   04 Jun 2027 08:12:48.393             3.389              Murmansk1           105.906
       272   04 Jun 2027 08:12:49.981   04 Jun 2027 08:13:01.801            11.820                Norilsk           369.375
       273   04 Jun 2027 08:13:04.153   04 Jun 2027 08:13:23.694            19.541              Murmansk2           610.656
       274   04 Jun 2027 08:13:23.694   04 Jun 2027 08:13:26.090             2.396              Murmansk1            74.875
       275   04 Jun 2027 08:13:26.526   04 Jun 2027 08:14:04.106            37.580                 Moscow          1174.375
       276   04 Jun 2027 08:14:07.754   04 Jun 2027 08:14:58.885            51.131              Murmansk2          1597.844
       277   04 Jun 2027 08:14:59.785   04 Jun 2027 08:15:27.865            28.080                 Moscow           877.500
       278   04 Jun 2027 08:15:36.115   04 Jun 2027 08:16:25.207            49.092              Murmansk1          1534.125
       279   04 Jun 2027 08:17:03.808   04 Jun 2027 08:17:08.666             4.858                 Moscow           151.813
       280   04 Jun 2027 08:17:38.221   04 Jun 2027 08:18:52.871            74.650                 Moscow          2332.812
       281   04 Jun 2027 09:35:02.598   04 Jun 2027 09:37:10.626           128.028                  Delhi          4000.875
       282   04 Jun 2027 09:38:37.113   04 Jun 2027 09:38:44.833             7.720                  Delhi           241.250
       283   04 Jun 2027 09:43:52.686   04 Jun 2027 09:44:59.940            67.254                  Delhi          2101.687
       284   04 Jun 2027 09:47:48.391   04 Jun 2027 09:48:01.582            13.191                Novosib           412.219
       285   04 Jun 2027 09:48:03.782   04 Jun 2027 09:49:14.902            71.120                 Moscow          2222.500
       286   04 Jun 2027 09:49:27.103   04 Jun 2027 09:49:39.809            12.706                Novosib           397.063
       287   04 Jun 2027 09:49:41.606   04 Jun 2027 09:50:35.442            53.836                Novosib          1682.375
       288   04 Jun 2027 09:50:39.841   04 Jun 2027 09:50:52.696            12.855              Murmansk2           401.719
       289   04 Jun 2027 09:50:52.696   04 Jun 2027 09:51:11.491            18.795              Murmansk1           587.344
       290   04 Jun 2027 09:51:12.989   04 Jun 2027 09:51:28.828            15.839                Norilsk           494.969
       291   04 Jun 2027 09:51:35.711   04 Jun 2027 09:52:14.403            38.692              Murmansk1          1209.125
       292   04 Jun 2027 09:55:59.784   04 Jun 2027 09:56:01.043             1.259              Murmansk2            39.344
       293   04 Jun 2027 11:25:49.243   04 Jun 2027 11:26:06.536            17.293                 Moscow           540.406
       294   04 Jun 2027 11:26:17.881   04 Jun 2027 11:26:32.611            14.730                 Moscow           460.313
       295   04 Jun 2027 11:26:34.709   04 Jun 2027 11:26:38.346             3.637              Murmansk2           113.656
       296   04 Jun 2027 11:26:38.346   04 Jun 2027 11:27:10.488            32.142              Murmansk1          1004.437
       297   04 Jun 2027 11:28:27.652   04 Jun 2027 11:28:32.125             4.473                 Moscow           139.781
       298   04 Jun 2027 11:39:33.475   04 Jun 2027 11:41:25.269           111.794                Anadyr2          3493.563
       299   04 Jun 2027 12:32:38.904   04 Jun 2027 12:34:37.704           118.800               CapeTown          3712.500
       300   04 Jun 2027 12:36:39.673   04 Jun 2027 12:36:51.245            11.572               CapeTown           361.625
       301   04 Jun 2027 12:44:03.366   04 Jun 2027 12:44:39.544            36.178               CapeTown          1130.562
       302   04 Jun 2027 12:59:57.070   04 Jun 2027 13:01:27.408            90.338              Murmansk2          2823.063
       303   04 Jun 2027 13:03:03.748   04 Jun 2027 13:04:05.740            61.992              Murmansk2          1937.250
       304   04 Jun 2027 13:13:04.164   04 Jun 2027 13:13:52.284            48.120                Anadyr2          1503.750
       305   04 Jun 2027 13:13:52.284   04 Jun 2027 13:14:55.459            63.175                Anadyr1          1974.219
       306   04 Jun 2027 13:15:04.210   04 Jun 2027 13:18:34.418           210.208                Anadyr2          6569.000
       307   04 Jun 2027 14:40:10.910   04 Jun 2027 14:41:53.722           102.812              Murmansk1          3212.875
       308   04 Jun 2027 14:48:46.930   04 Jun 2027 14:49:58.930            72.000                Anadyr1          2250.000
       309   04 Jun 2027 14:51:21.062   04 Jun 2027 14:51:57.396            36.334                Anadyr2          1135.438
       310   04 Jun 2027 14:53:10.084   04 Jun 2027 15:01:28.712           498.628               Magadan1         15582.125
       311   04 Jun 2027 16:27:00.112   04 Jun 2027 16:28:23.065            82.953               Magadan2          2592.281
       312   04 Jun 2027 17:20:11.740   04 Jun 2027 17:27:45.368           453.628            RioGallegos         14175.875
       313   04 Jun 2027 18:04:42.473   04 Jun 2027 18:05:52.045            69.572                Norilsk          2174.125
       314   04 Jun 2027 18:06:31.712   04 Jun 2027 18:06:57.266            25.554                Norilsk           798.563
       315   04 Jun 2027 18:07:17.218   04 Jun 2027 18:08:31.241            74.023                Irkutsk          2313.219
       316   04 Jun 2027 18:10:15.054   04 Jun 2027 18:15:14.568           299.514                Irkutsk          9359.812
       317   04 Jun 2027 18:21:42.955   04 Jun 2027 18:21:46.418             3.463                Sumatra           108.219
       318   04 Jun 2027 18:23:47.417   04 Jun 2027 18:29:20.042           332.625                Sumatra         10394.531
       319   04 Jun 2027 19:51:50.577   04 Jun 2027 19:59:58.521           487.944                  Delhi         15248.250
       320   04 Jun 2027 21:17:11.780   04 Jun 2027 21:17:41.755            29.975              Murmansk2           936.719
       321   04 Jun 2027 21:18:26.854   04 Jun 2027 21:23:37.821           310.967              Murmansk1          9717.719
       322   04 Jun 2027 22:57:35.074   04 Jun 2027 22:58:25.588            50.514                 Moscow          1578.562
       323   04 Jun 2027 23:21:41.825   04 Jun 2027 23:24:02.916           141.091               CapeTown          4409.094
       324   04 Jun 2027 23:25:34.716   04 Jun 2027 23:28:59.345           204.629               CapeTown          6394.656
       325   05 Jun 2027 00:59:39.608   05 Jun 2027 01:00:59.670            80.062               CapeTown          2501.938
       326   05 Jun 2027 01:53:06.840   05 Jun 2027 01:53:20.671            13.831               Magadan2           432.219
       327   05 Jun 2027 01:53:54.426   05 Jun 2027 01:54:45.629            51.203               Magadan1          1600.094
       328   05 Jun 2027 01:55:19.637   05 Jun 2027 01:55:43.187            23.550               Magadan1           735.937
       329   05 Jun 2027 02:01:02.043   05 Jun 2027 02:01:16.540            14.497               Magadan1           453.031
       330   05 Jun 2027 02:01:36.825   05 Jun 2027 02:01:47.634            10.809               Magadan2           337.781
       331   05 Jun 2027 02:03:28.673   05 Jun 2027 02:03:43.742            15.069               Magadan1           470.906
       332   05 Jun 2027 02:04:29.299   05 Jun 2027 02:05:34.435            65.136              Murmansk1          2035.500
       333   05 Jun 2027 02:06:10.009   05 Jun 2027 02:06:25.243            15.234              Murmansk2           476.063
       334   05 Jun 2027 02:07:20.049   05 Jun 2027 02:07:40.850            20.801              Murmansk1           650.031
       335   05 Jun 2027 02:07:58.830   05 Jun 2027 02:08:50.877            52.047                 Moscow          1626.469
       336   05 Jun 2027 02:14:19.534   05 Jun 2027 02:14:36.243            16.709                 Moscow           522.156
       337   05 Jun 2027 03:35:23.625   05 Jun 2027 03:36:43.283            79.658                Anadyr1          2489.312
       338   05 Jun 2027 03:36:43.283   05 Jun 2027 03:38:12.141            88.858                Anadyr2          2776.812
       339   05 Jun 2027 03:39:45.992   05 Jun 2027 03:39:54.396             8.404               Magadan2           262.625
       340   05 Jun 2027 03:40:23.211   05 Jun 2027 03:40:23.420             0.209                Anadyr2             6.531
       341   05 Jun 2027 03:40:34.733   05 Jun 2027 03:41:00.087            25.354                Anadyr2           792.313
       342   05 Jun 2027 04:22:44.165   05 Jun 2027 04:23:24.590            40.425            RioGallegos          1263.281
       343   05 Jun 2027 04:24:27.548   05 Jun 2027 04:24:46.835            19.287            RioGallegos           602.719
       344   05 Jun 2027 05:07:53.936   05 Jun 2027 05:08:02.743             8.807                Irkutsk           275.219
       345   05 Jun 2027 05:11:33.275   05 Jun 2027 05:11:43.760            10.485                Irkutsk           327.656
       346   05 Jun 2027 05:12:47.151   05 Jun 2027 05:13:34.967            47.816                Irkutsk          1494.250
       347   05 Jun 2027 05:13:46.280   05 Jun 2027 05:15:00.164            73.884               Magadan2          2308.875
       348   05 Jun 2027 05:15:35.166   05 Jun 2027 05:16:26.676            51.510               Magadan1          1609.688
       349   05 Jun 2027 05:18:14.370   05 Jun 2027 05:18:37.360            22.990                Norilsk           718.438
       350   05 Jun 2027 05:21:39.772   05 Jun 2027 05:21:47.414             7.642                Norilsk           238.812
       351   05 Jun 2027 05:57:05.128   05 Jun 2027 05:57:50.099            44.971            RioGallegos          1405.344
       352   05 Jun 2027 05:59:00.116   05 Jun 2027 05:59:47.873            47.757            RioGallegos          1492.406
       353   05 Jun 2027 06:00:37.596   05 Jun 2027 06:00:56.271            18.675            RioGallegos           583.594
       354   05 Jun 2027 06:27:25.781   05 Jun 2027 06:28:14.099            48.318                Sumatra          1509.938
       355   05 Jun 2027 06:28:39.078   05 Jun 2027 06:30:45.173           126.095                Sumatra          3940.469
       356   05 Jun 2027 06:31:12.432   05 Jun 2027 06:34:38.361           205.929                Sumatra          6435.281
       357   05 Jun 2027 06:47:09.546   05 Jun 2027 06:47:14.078             4.532                Norilsk           141.625
       358   05 Jun 2027 06:47:21.392   05 Jun 2027 06:47:39.416            18.024                Irkutsk           563.250
       359   05 Jun 2027 06:47:41.281   05 Jun 2027 06:48:22.722            41.441                Novosib          1295.031
       360   05 Jun 2027 06:48:50.414   05 Jun 2027 06:49:06.826            16.412                Norilsk           512.875
       361   05 Jun 2027 06:49:22.684   05 Jun 2027 06:50:10.373            47.689                Irkutsk          1490.281
       362   05 Jun 2027 06:50:27.292   05 Jun 2027 06:50:28.621             1.329                Irkutsk            41.531
       363   05 Jun 2027 06:50:30.985   05 Jun 2027 06:52:09.087            98.102              Murmansk2          3065.688
       364   05 Jun 2027 06:52:25.440   05 Jun 2027 06:52:28.180             2.740                Norilsk            85.625
       365   05 Jun 2027 06:52:45.660   05 Jun 2027 06:53:22.655            36.995              Murmansk1          1156.094
       366   05 Jun 2027 06:54:24.390   05 Jun 2027 06:54:48.479            24.089              Murmansk2           752.781
       367   05 Jun 2027 06:58:25.378   05 Jun 2027 06:58:32.769             7.391              Murmansk1           230.969
       368   05 Jun 2027 07:28:23.166   05 Jun 2027 07:28:51.893            28.727            RioGallegos           897.719
       369   05 Jun 2027 07:30:09.533   05 Jun 2027 07:30:17.441             7.908            RioGallegos           247.125
       370   05 Jun 2027 07:30:56.652   05 Jun 2027 07:30:58.314             1.662            RioGallegos            51.938
       371   05 Jun 2027 07:31:38.999   05 Jun 2027 07:32:57.546            78.547            RioGallegos          2454.594
       372   05 Jun 2027 08:02:37.872   05 Jun 2027 08:03:29.452            51.580                Sumatra          1611.875
       373   05 Jun 2027 08:10:51.575   05 Jun 2027 08:14:49.932           238.357                  Delhi          7448.656
       374   05 Jun 2027 08:24:20.457   05 Jun 2027 08:24:32.887            12.430                Novosib           388.438
       375   05 Jun 2027 08:24:41.784   05 Jun 2027 08:25:16.293            34.509              Murmansk2          1078.406
       376   05 Jun 2027 08:25:24.275   05 Jun 2027 08:25:56.690            32.415              Murmansk2          1012.969
       377   05 Jun 2027 08:25:59.745   05 Jun 2027 08:26:47.575            47.830                Irkutsk          1494.687
       378   05 Jun 2027 08:26:56.516   05 Jun 2027 08:27:29.505            32.989              Murmansk2          1030.906
       379   05 Jun 2027 08:27:37.617   05 Jun 2027 08:28:50.603            72.986                 Moscow          2280.813
       380   05 Jun 2027 09:47:32.079   05 Jun 2027 09:50:12.304           160.225                  Delhi          5007.031
       381   05 Jun 2027 09:51:28.972   05 Jun 2027 09:51:56.725            27.753                  Delhi           867.281
       382   05 Jun 2027 09:59:55.869   05 Jun 2027 10:00:33.886            38.017                Norilsk          1188.031
       383   05 Jun 2027 10:00:51.986   05 Jun 2027 10:01:18.822            26.836                Novosib           838.625
       384   05 Jun 2027 10:01:21.394   05 Jun 2027 10:02:41.628            80.234                Novosib          2507.313
       385   05 Jun 2027 10:02:51.586   05 Jun 2027 10:02:59.463             7.877              Murmansk1           246.156
       386   05 Jun 2027 10:03:27.488   05 Jun 2027 10:03:57.237            29.749              Murmansk1           929.656
       387   05 Jun 2027 10:04:44.226   05 Jun 2027 10:04:54.170             9.944                 Moscow           310.750
       388   05 Jun 2027 10:07:03.534   05 Jun 2027 10:07:38.551            35.017                 Moscow          1094.281
       389   05 Jun 2027 11:50:35.451   05 Jun 2027 11:55:04.907           269.456                Anadyr1          8420.500
       390   05 Jun 2027 13:12:20.610   05 Jun 2027 13:14:11.397           110.787              Murmansk2          3462.094
       391   05 Jun 2027 13:14:59.948   05 Jun 2027 13:16:04.961            65.013              Murmansk1          2031.656
       392   05 Jun 2027 13:25:01.948   05 Jun 2027 13:27:54.910           172.962                Anadyr2          5405.063
       393   05 Jun 2027 13:28:51.206   05 Jun 2027 13:30:31.986           100.780                Anadyr2          3149.375
       394   05 Jun 2027 13:32:11.661   05 Jun 2027 13:33:36.462            84.801                Anadyr2          2650.031
       395   05 Jun 2027 15:00:48.024   05 Jun 2027 15:01:58.530            70.506                Anadyr2          2203.312
       396   05 Jun 2027 15:02:52.095   05 Jun 2027 15:03:35.318            43.223                Anadyr1          1350.719
       397   05 Jun 2027 15:04:01.084   05 Jun 2027 15:06:24.980           143.896               Magadan2          4496.750
       398   05 Jun 2027 15:07:02.983   05 Jun 2027 15:09:35.568           152.585               Magadan1          4768.281
       399   05 Jun 2027 15:10:58.584   05 Jun 2027 15:13:02.991           124.407               Magadan1          3887.719
       400   05 Jun 2027 16:39:00.418   05 Jun 2027 16:39:28.133            27.715               Magadan2           866.094
       401   05 Jun 2027 16:41:18.989   05 Jun 2027 16:42:14.690            55.701               Magadan2          1740.656
       402   05 Jun 2027 16:42:35.312   05 Jun 2027 16:43:14.822            39.510               Magadan1          1234.687
       403   05 Jun 2027 16:46:55.747   05 Jun 2027 16:47:13.807            18.060               Magadan2           564.375
       404   05 Jun 2027 16:48:35.506   05 Jun 2027 16:49:51.870            76.364               Magadan2          2386.375
       405   05 Jun 2027 17:31:46.126   05 Jun 2027 17:38:28.448           402.322            RioGallegos         12572.562
       406   05 Jun 2027 18:14:37.414   05 Jun 2027 18:15:38.176            60.762                Norilsk          1898.812
       407   05 Jun 2027 18:19:04.456   05 Jun 2027 18:20:57.027           112.571                Irkutsk          3517.844
       408   05 Jun 2027 18:22:24.847   05 Jun 2027 18:23:24.478            59.631                Irkutsk          1863.469
       409   05 Jun 2027 18:33:11.157   05 Jun 2027 18:36:42.040           210.883                Sumatra          6590.094
       410   05 Jun 2027 18:37:59.304   05 Jun 2027 18:40:05.682           126.378                Sumatra          3949.313
       411   05 Jun 2027 19:54:43.304   05 Jun 2027 19:56:10.087            86.783                Novosib          2711.969
       412   05 Jun 2027 19:56:56.026   05 Jun 2027 19:57:19.102            23.076                Novosib           721.125
       413   05 Jun 2027 20:03:10.454   05 Jun 2027 20:10:43.471           453.017                  Delhi         14156.781
       414   05 Jun 2027 21:29:04.164   05 Jun 2027 21:36:23.211           439.047              Murmansk2         13720.219
       415   05 Jun 2027 23:09:30.698   05 Jun 2027 23:10:26.928            56.230                 Moscow          1757.188
       416   05 Jun 2027 23:14:13.705   05 Jun 2027 23:14:57.163            43.458                 Moscow          1358.063
       417   05 Jun 2027 23:18:05.790   05 Jun 2027 23:18:52.586            46.796                 Moscow          1462.375
       418   05 Jun 2027 23:33:08.403   05 Jun 2027 23:33:16.640             8.237               CapeTown           257.406
       419   05 Jun 2027 23:34:13.375   05 Jun 2027 23:36:22.653           129.278               CapeTown          4039.938
       420   05 Jun 2027 23:38:27.819   05 Jun 2027 23:40:00.567            92.748               CapeTown          2898.375
       421   06 Jun 2027 00:48:17.059   06 Jun 2027 00:48:22.694             5.635                 Moscow           176.094
       422   06 Jun 2027 00:51:00.146   06 Jun 2027 00:52:13.853            73.707                 Moscow          2303.344
       423   06 Jun 2027 01:07:53.568   06 Jun 2027 01:09:09.834            76.266               CapeTown          2383.313
       424   06 Jun 2027 02:04:37.963   06 Jun 2027 02:04:46.948             8.985                Anadyr2           280.781
       425   06 Jun 2027 02:04:46.948   06 Jun 2027 02:04:59.219            12.271                Anadyr1           383.469
       426   06 Jun 2027 02:05:26.133   06 Jun 2027 02:05:33.181             7.048                Anadyr2           220.250
       427   06 Jun 2027 02:05:54.266   06 Jun 2027 02:07:37.410           103.144               Magadan1          3223.250
       428   06 Jun 2027 02:08:18.892   06 Jun 2027 02:08:21.900             3.008               Magadan2            94.000
       429   06 Jun 2027 02:09:48.375   06 Jun 2027 02:10:14.773            26.398               Magadan1           824.938
       430   06 Jun 2027 02:12:37.070   06 Jun 2027 02:13:03.100            26.030               Magadan2           813.437
       431   06 Jun 2027 02:15:29.230   06 Jun 2027 02:15:59.092            29.862               Magadan2           933.187
       432   06 Jun 2027 02:16:29.816   06 Jun 2027 02:16:47.620            17.804              Murmansk2           556.375
       433   06 Jun 2027 02:16:47.620   06 Jun 2027 02:17:49.932            62.312              Murmansk1          1947.250
       434   06 Jun 2027 02:20:04.581   06 Jun 2027 02:20:47.028            42.447                 Moscow          1326.469
       435   06 Jun 2027 02:23:40.780   06 Jun 2027 02:23:48.526             7.746                 Moscow           242.063
       436   06 Jun 2027 02:24:48.828   06 Jun 2027 02:25:13.088            24.260                 Moscow           758.125
       437   06 Jun 2027 02:28:04.683   06 Jun 2027 02:29:33.387            88.704                 Moscow          2772.000
       438   06 Jun 2027 03:47:43.666   06 Jun 2027 03:48:42.371            58.705                Irkutsk          1834.531
       439   06 Jun 2027 03:48:50.933   06 Jun 2027 03:50:13.130            82.197                Anadyr2          2568.656
       440   06 Jun 2027 03:50:17.592   06 Jun 2027 03:50:29.315            11.723                Anadyr2           366.344
       441   06 Jun 2027 03:50:35.698   06 Jun 2027 03:50:36.424             0.726               Magadan1            22.688
       442   06 Jun 2027 03:50:41.699   06 Jun 2027 03:51:57.145            75.446                Anadyr2          2357.687
       443   06 Jun 2027 03:51:59.735   06 Jun 2027 03:52:56.713            56.978               Magadan1          1780.563
       444   06 Jun 2027 04:34:05.006   06 Jun 2027 04:34:17.159            12.153            RioGallegos           379.781
       445   06 Jun 2027 05:25:42.282   06 Jun 2027 05:28:19.631           157.349               Magadan2          4917.156
       446   06 Jun 2027 05:29:26.048   06 Jun 2027 05:29:26.960             0.912                Novosib            28.500
       447   06 Jun 2027 05:30:05.190   06 Jun 2027 05:30:34.159            28.969                Norilsk           905.281
       448   06 Jun 2027 05:33:32.116   06 Jun 2027 05:33:46.752            14.636                Norilsk           457.375
       449   06 Jun 2027 05:36:32.436   06 Jun 2027 05:36:34.642             2.206              Murmansk1            68.938
       450   06 Jun 2027 06:03:21.351   06 Jun 2027 06:05:43.540           142.189            RioGallegos          4443.406
       451   06 Jun 2027 06:06:37.935   06 Jun 2027 06:07:29.637            51.702            RioGallegos          1615.687
       452   06 Jun 2027 06:07:49.556   06 Jun 2027 06:08:02.647            13.091            RioGallegos           409.094
       453   06 Jun 2027 06:08:21.133   06 Jun 2027 06:08:54.580            33.447            RioGallegos          1045.219
       454   06 Jun 2027 06:10:59.279   06 Jun 2027 06:11:45.603            46.324            RioGallegos          1447.625
       455   06 Jun 2027 06:11:52.184   06 Jun 2027 06:12:24.920            32.736            RioGallegos          1023.000
       456   06 Jun 2027 06:12:47.369   06 Jun 2027 06:12:55.674             8.305            RioGallegos           259.531
       457   06 Jun 2027 06:38:58.742   06 Jun 2027 06:40:30.237            91.495                Sumatra          2859.219
       458   06 Jun 2027 06:42:40.321   06 Jun 2027 06:45:38.898           178.577                Sumatra          5580.531
       459   06 Jun 2027 06:59:15.483   06 Jun 2027 06:59:24.592             9.109                Norilsk           284.656
       460   06 Jun 2027 06:59:43.070   06 Jun 2027 07:00:01.651            18.581                Norilsk           580.656
       461   06 Jun 2027 07:00:22.465   06 Jun 2027 07:00:44.522            22.057                Irkutsk           689.281
       462   06 Jun 2027 07:01:12.155   06 Jun 2027 07:01:26.076            13.921                Norilsk           435.031
       463   06 Jun 2027 07:01:26.812   06 Jun 2027 07:02:28.549            61.737              Murmansk1          1929.281
       464   06 Jun 2027 07:02:39.925   06 Jun 2027 07:02:42.643             2.718                Irkutsk            84.938
       465   06 Jun 2027 07:02:45.179   06 Jun 2027 07:03:21.166            35.987                Irkutsk          1124.594
       466   06 Jun 2027 07:03:28.517   06 Jun 2027 07:03:51.568            23.051                Novosib           720.344
       467   06 Jun 2027 07:03:56.272   06 Jun 2027 07:04:54.464            58.192              Murmansk2          1818.500
       468   06 Jun 2027 07:04:54.464   06 Jun 2027 07:05:24.278            29.814              Murmansk1           931.687
       469   06 Jun 2027 07:40:51.467   06 Jun 2027 07:41:05.896            14.429            RioGallegos           450.906
       470   06 Jun 2027 07:42:01.154   06 Jun 2027 07:42:07.916             6.762            RioGallegos           211.313
       471   06 Jun 2027 07:43:36.049   06 Jun 2027 07:45:07.352            91.303            RioGallegos          2853.219
       472   06 Jun 2027 08:15:03.068   06 Jun 2027 08:15:21.317            18.249                Sumatra           570.281
       473   06 Jun 2027 08:18:07.129   06 Jun 2027 08:18:24.772            17.643                Sumatra           551.344
       474   06 Jun 2027 08:22:38.752   06 Jun 2027 08:26:17.139           218.387                  Delhi          6824.594
       475   06 Jun 2027 08:36:01.880   06 Jun 2027 08:37:09.080            67.200                 Moscow          2100.000
       476   06 Jun 2027 08:37:24.514   06 Jun 2027 08:37:28.927             4.413              Murmansk1           137.906
       477   06 Jun 2027 08:37:36.248   06 Jun 2027 08:38:22.266            46.018                Irkutsk          1438.062
       478   06 Jun 2027 08:38:32.180   06 Jun 2027 08:38:36.140             3.960                Norilsk           123.750
       479   06 Jun 2027 08:38:41.189   06 Jun 2027 08:39:05.465            24.276                Norilsk           758.625
       480   06 Jun 2027 08:39:09.483   06 Jun 2027 08:39:24.312            14.829                Novosib           463.406
       481   06 Jun 2027 08:39:25.172   06 Jun 2027 08:40:11.435            46.263              Murmansk2          1445.719
       482   06 Jun 2027 08:40:35.167   06 Jun 2027 08:40:41.027             5.860                 Moscow           183.125
