uniorb/output/strategy_2/Drop/Drop_KinoSat_111610.txt

KinoSat_111610
-------------------------
    Access    *     Start Time (UTCG)     *     Stop Time (UTCG)  *   Duration (s)        *       Station  *  Data (Mbytes)
         1   01 Jun 2027 04:05:58.944   01 Jun 2027 04:06:57.442            58.498                Norilsk          1828.062
         2   01 Jun 2027 04:07:52.285   01 Jun 2027 04:08:23.080            30.795                Norilsk           962.344
         3   01 Jun 2027 04:08:38.158   01 Jun 2027 04:10:27.471           109.313              Murmansk2          3416.031
         4   01 Jun 2027 04:10:27.569   01 Jun 2027 04:11:10.145            42.576                 Moscow          1330.500
         5   01 Jun 2027 05:41:33.219   01 Jun 2027 05:41:57.159            23.940              Murmansk2           748.125
         6   01 Jun 2027 05:42:08.944   01 Jun 2027 05:42:20.404            11.460                Norilsk           358.125
         7   01 Jun 2027 05:42:50.103   01 Jun 2027 05:43:26.673            36.570              Murmansk1          1142.813
         8   01 Jun 2027 05:43:35.277   01 Jun 2027 05:46:51.837           196.560              Murmansk1          6142.500
         9   01 Jun 2027 07:06:01.618   01 Jun 2027 07:11:10.920           309.302                Anadyr1          9665.688
        10   01 Jun 2027 08:42:37.225   01 Jun 2027 08:43:31.105            53.880                Anadyr2          1683.750
        11   01 Jun 2027 08:43:51.324   01 Jun 2027 08:46:46.867           175.543               Magadan2          5485.719
        12   01 Jun 2027 10:16:59.064   01 Jun 2027 10:21:54.994           295.930               Magadan2          9247.813
        13   01 Jun 2027 10:23:29.932   01 Jun 2027 10:23:38.609             8.677                Novosib           271.156
        14   01 Jun 2027 11:33:00.207   01 Jun 2027 11:34:35.772            95.565                Sumatra          2986.406
        15   01 Jun 2027 11:53:36.328   01 Jun 2027 11:57:15.617           219.289                Irkutsk          6852.781
        16   01 Jun 2027 11:57:43.359   01 Jun 2027 11:58:29.090            45.731              Murmansk2          1429.094
        17   01 Jun 2027 11:58:29.090   01 Jun 2027 11:59:15.618            46.528              Murmansk1          1454.000
        18   01 Jun 2027 11:59:21.830   01 Jun 2027 11:59:50.747            28.917                Novosib           903.656
        19   01 Jun 2027 12:04:18.583   01 Jun 2027 12:04:55.526            36.943              Murmansk2          1154.469
        20   01 Jun 2027 12:05:33.556   01 Jun 2027 12:05:50.268            16.712              Murmansk2           522.250
        21   01 Jun 2027 12:35:40.540   01 Jun 2027 12:38:14.979           154.439            RioGallegos          4826.219
        22   01 Jun 2027 12:40:15.982   01 Jun 2027 12:41:36.668            80.686            RioGallegos          2521.438
        23   01 Jun 2027 12:44:06.781   01 Jun 2027 12:44:53.679            46.898            RioGallegos          1465.562
        24   01 Jun 2027 13:10:00.883   01 Jun 2027 13:12:10.083           129.200                Sumatra          4037.500
        25   01 Jun 2027 13:13:02.475   01 Jun 2027 13:14:47.262           104.787                Sumatra          3274.594
        26   01 Jun 2027 13:25:49.541   01 Jun 2027 13:32:24.600           395.059                Irkutsk         12345.594
        27   01 Jun 2027 14:55:45.280   01 Jun 2027 14:59:56.850           251.570                  Delhi          7861.563
        28   01 Jun 2027 15:04:12.589   01 Jun 2027 15:09:45.333           332.744                Novosib         10398.250
        29   01 Jun 2027 15:15:52.892   01 Jun 2027 15:15:58.009             5.117              Murmansk2           159.906
        30   01 Jun 2027 15:16:46.897   01 Jun 2027 15:17:05.661            18.764              Murmansk2           586.375
        31   01 Jun 2027 16:18:56.521   01 Jun 2027 16:20:06.191            69.670               CapeTown          2177.187
        32   01 Jun 2027 16:22:02.248   01 Jun 2027 16:22:33.720            31.472               CapeTown           983.500
        33   01 Jun 2027 16:22:52.918   01 Jun 2027 16:24:04.302            71.384               CapeTown          2230.750
        34   01 Jun 2027 16:41:22.649   01 Jun 2027 16:41:36.177            13.528              Murmansk2           422.750
        35   01 Jun 2027 16:42:25.706   01 Jun 2027 16:43:17.781            52.075                 Moscow          1627.344
        36   01 Jun 2027 16:44:18.433   01 Jun 2027 16:44:29.616            11.183              Murmansk1           349.469
        37   01 Jun 2027 16:45:02.155   01 Jun 2027 16:45:28.468            26.313              Murmansk1           822.281
        38   01 Jun 2027 16:45:42.394   01 Jun 2027 16:46:37.062            54.668                 Moscow          1708.375
        39   01 Jun 2027 16:46:59.320   01 Jun 2027 16:47:10.591            11.271                 Moscow           352.219
        40   01 Jun 2027 16:47:42.792   01 Jun 2027 16:48:21.252            38.460                 Moscow          1201.875
        41   01 Jun 2027 16:49:17.760   01 Jun 2027 16:49:31.484            13.724              Murmansk1           428.875
        42   01 Jun 2027 16:50:17.616   01 Jun 2027 16:50:57.949            40.333              Murmansk2          1260.406
        43   01 Jun 2027 16:50:57.949   01 Jun 2027 16:51:52.717            54.768              Murmansk1          1711.500
        44   01 Jun 2027 16:52:29.916   01 Jun 2027 16:53:04.584            34.668              Murmansk2          1083.375
        45   01 Jun 2027 16:58:14.370   01 Jun 2027 16:58:25.802            11.432                Anadyr1           357.250
        46   01 Jun 2027 16:58:34.678   01 Jun 2027 16:58:55.919            21.241                Anadyr2           663.781
        47   01 Jun 2027 16:59:19.192   01 Jun 2027 16:59:35.071            15.879                Anadyr1           496.219
        48   01 Jun 2027 17:00:00.780   01 Jun 2027 17:00:11.015            10.235                Anadyr2           319.844
        49   01 Jun 2027 17:00:18.791   01 Jun 2027 17:00:35.299            16.508                Anadyr2           515.875
        50   01 Jun 2027 17:01:05.222   01 Jun 2027 17:01:39.911            34.689                Anadyr1          1084.031
        51   01 Jun 2027 17:01:58.034   01 Jun 2027 17:02:25.027            26.993                Anadyr1           843.531
        52   01 Jun 2027 17:02:48.314   01 Jun 2027 17:03:04.671            16.357                Anadyr2           511.156
        53   01 Jun 2027 17:58:04.592   01 Jun 2027 17:58:53.830            49.238               CapeTown          1538.688
        54   01 Jun 2027 18:02:03.989   01 Jun 2027 18:02:57.211            53.222               CapeTown          1663.187
        55   01 Jun 2027 18:18:58.917   01 Jun 2027 18:22:28.495           209.578                 Moscow          6549.312
        56   01 Jun 2027 18:24:27.039   01 Jun 2027 18:24:58.153            31.114              Murmansk2           972.312
        57   01 Jun 2027 18:25:13.501   01 Jun 2027 18:25:30.540            17.039              Murmansk2           532.469
        58   01 Jun 2027 18:26:23.482   01 Jun 2027 18:26:28.277             4.795              Murmansk1           149.844
        59   01 Jun 2027 18:27:11.295   01 Jun 2027 18:28:41.432            90.137              Murmansk1          2816.781
        60   01 Jun 2027 18:37:16.268   01 Jun 2027 18:37:23.960             7.692                Anadyr1           240.375
        61   01 Jun 2027 18:37:33.098   01 Jun 2027 18:38:05.396            32.298                Anadyr2          1009.312
        62   01 Jun 2027 18:38:27.927   01 Jun 2027 18:38:31.548             3.621                Anadyr1           113.156
        63   01 Jun 2027 18:38:38.051   01 Jun 2027 18:38:52.935            14.884               Magadan1           465.125
        64   01 Jun 2027 18:39:20.358   01 Jun 2027 18:39:31.708            11.350               Magadan2           354.688
        65   01 Jun 2027 18:40:02.758   01 Jun 2027 18:40:55.528            52.770                Anadyr2          1649.063
        66   01 Jun 2027 18:40:55.528   01 Jun 2027 18:41:06.848            11.320                Anadyr1           353.750
        67   01 Jun 2027 18:41:15.302   01 Jun 2027 18:41:22.456             7.154                Anadyr1           223.562
        68   01 Jun 2027 18:41:27.664   01 Jun 2027 18:42:00.114            32.450                Anadyr1          1014.063
        69   01 Jun 2027 18:42:00.114   01 Jun 2027 18:42:20.168            20.054                Anadyr2           626.688
        70   01 Jun 2027 19:31:42.804   01 Jun 2027 19:32:51.518            68.714               CapeTown          2147.313
        71   01 Jun 2027 19:33:55.719   01 Jun 2027 19:35:22.440            86.721               CapeTown          2710.031
        72   01 Jun 2027 20:07:09.693   01 Jun 2027 20:07:35.742            26.049                Anadyr1           814.031
        73   01 Jun 2027 20:07:38.378   01 Jun 2027 20:08:06.452            28.074                Anadyr1           877.312
        74   01 Jun 2027 20:08:42.555   01 Jun 2027 20:08:57.431            14.876                Anadyr1           464.875
        75   01 Jun 2027 20:09:23.248   01 Jun 2027 20:10:10.677            47.429               Magadan2          1482.156
        76   01 Jun 2027 20:10:50.578   01 Jun 2027 20:11:01.338            10.760                Anadyr2           336.250
        77   01 Jun 2027 20:11:05.451   01 Jun 2027 20:11:36.403            30.952               Magadan2           967.250
        78   01 Jun 2027 20:11:47.521   01 Jun 2027 20:12:22.687            35.166               Magadan2          1098.938
        79   01 Jun 2027 20:12:49.200   01 Jun 2027 20:12:50.898             1.698                Anadyr2            53.063
        80   01 Jun 2027 20:13:13.085   01 Jun 2027 20:13:39.292            26.207                Anadyr1           818.969
        81   01 Jun 2027 20:13:54.146   01 Jun 2027 20:14:10.672            16.526                Anadyr1           516.437
        82   01 Jun 2027 20:14:14.655   01 Jun 2027 20:14:34.643            19.988               Magadan2           624.625
        83   01 Jun 2027 20:15:06.695   01 Jun 2027 20:15:10.095             3.400               Magadan1           106.250
        84   01 Jun 2027 20:15:16.350   01 Jun 2027 20:15:30.027            13.677               Magadan2           427.406
        85   01 Jun 2027 20:15:36.368   01 Jun 2027 20:16:07.910            31.542               Magadan2           985.687
        86   01 Jun 2027 20:16:38.871   01 Jun 2027 20:17:04.028            25.157                Anadyr2           786.156
        87   01 Jun 2027 20:17:07.272   01 Jun 2027 20:17:30.209            22.937                Anadyr1           716.781
        88   01 Jun 2027 20:17:40.931   01 Jun 2027 20:18:18.045            37.114                Anadyr1          1159.812
        89   01 Jun 2027 20:18:54.260   01 Jun 2027 20:19:13.651            19.391               Magadan1           605.969
        90   01 Jun 2027 20:19:13.651   01 Jun 2027 20:19:26.059            12.408               Magadan2           387.750
        91   01 Jun 2027 20:19:37.745   01 Jun 2027 20:20:11.889            34.144               Magadan1          1067.000
        92   01 Jun 2027 20:20:45.778   01 Jun 2027 20:20:56.724            10.946               Magadan2           342.062
        93   01 Jun 2027 21:42:35.793   01 Jun 2027 21:44:39.071           123.278                Anadyr2          3852.438
        94   01 Jun 2027 21:44:48.552   01 Jun 2027 21:46:27.319            98.767                Anadyr1          3086.469
        95   01 Jun 2027 21:46:31.955   01 Jun 2027 21:46:38.287             6.332                Norilsk           197.875
        96   01 Jun 2027 21:47:06.400   01 Jun 2027 21:47:33.878            27.478               Magadan1           858.687
        97   01 Jun 2027 21:47:44.457   01 Jun 2027 21:47:45.697             1.240                Anadyr2            38.750
        98   01 Jun 2027 21:47:47.890   01 Jun 2027 21:48:04.906            17.016                Anadyr2           531.750
        99   01 Jun 2027 21:48:43.459   01 Jun 2027 21:48:55.878            12.419               Magadan1           388.094
       100   01 Jun 2027 21:49:10.033   01 Jun 2027 21:49:17.892             7.859                Anadyr1           245.594
       101   01 Jun 2027 21:49:43.810   01 Jun 2027 21:49:56.638            12.828                Norilsk           400.875
       102   01 Jun 2027 21:50:00.879   01 Jun 2027 21:50:28.606            27.727               Magadan2           866.469
       103   01 Jun 2027 21:51:05.169   01 Jun 2027 21:51:55.766            50.597                Anadyr2          1581.156
       104   01 Jun 2027 21:52:43.044   01 Jun 2027 21:52:44.763             1.719               Magadan1            53.719
       105   01 Jun 2027 21:53:03.363   01 Jun 2027 21:53:42.742            39.379               Magadan1          1230.594
       106   01 Jun 2027 21:54:22.504   01 Jun 2027 21:54:43.473            20.969               Magadan1           655.281
       107   01 Jun 2027 21:55:08.139   01 Jun 2027 21:55:26.762            18.623               Magadan1           581.969
       108   01 Jun 2027 21:56:14.527   01 Jun 2027 21:56:47.674            33.147               Magadan1          1035.844
       109   01 Jun 2027 21:57:05.511   01 Jun 2027 21:57:31.767            26.256               Magadan1           820.500
       110   01 Jun 2027 22:41:18.832   01 Jun 2027 22:41:50.528            31.696            RioGallegos           990.500
       111   01 Jun 2027 22:42:44.213   01 Jun 2027 22:43:55.747            71.534            RioGallegos          2235.438
       112   01 Jun 2027 22:45:04.293   01 Jun 2027 22:45:22.750            18.457            RioGallegos           576.781
       113   01 Jun 2027 22:46:22.979   01 Jun 2027 22:46:59.724            36.745            RioGallegos          1148.281
       114   01 Jun 2027 23:18:10.029   01 Jun 2027 23:20:25.495           135.466                Anadyr2          4233.313
       115   01 Jun 2027 23:20:53.780   01 Jun 2027 23:20:57.524             3.744                Norilsk           117.000
       116   01 Jun 2027 23:21:06.178   01 Jun 2027 23:21:48.856            42.678               Magadan2          1333.687
       117   01 Jun 2027 23:23:21.435   01 Jun 2027 23:23:31.574            10.139                Norilsk           316.844
       118   01 Jun 2027 23:23:53.243   01 Jun 2027 23:24:07.204            13.961                Anadyr1           436.281
       119   01 Jun 2027 23:24:22.132   01 Jun 2027 23:24:33.523            11.391               Magadan2           355.969
       120   01 Jun 2027 23:24:50.858   01 Jun 2027 23:24:53.922             3.064                Norilsk            95.750
       121   01 Jun 2027 23:25:09.137   01 Jun 2027 23:25:37.573            28.436               Magadan2           888.625
       122   01 Jun 2027 23:26:51.162   01 Jun 2027 23:27:31.146            39.984               Magadan1          1249.500
       123   01 Jun 2027 23:27:58.609   01 Jun 2027 23:28:12.746            14.137               Magadan1           441.781
       124   01 Jun 2027 23:28:22.967   01 Jun 2027 23:28:36.129            13.162               Magadan1           411.313
       125   01 Jun 2027 23:29:28.383   01 Jun 2027 23:30:08.790            40.407               Magadan2          1262.719
       126   01 Jun 2027 23:31:43.198   01 Jun 2027 23:32:02.160            18.962               Magadan1           592.563
       127   01 Jun 2027 23:32:45.862   01 Jun 2027 23:32:57.369            11.507                Irkutsk           359.594
       128   01 Jun 2027 23:33:37.285   01 Jun 2027 23:34:04.042            26.757                Irkutsk           836.156
       129   01 Jun 2027 23:34:43.471   01 Jun 2027 23:35:05.270            21.799                Irkutsk           681.219
       130   01 Jun 2027 23:35:56.430   01 Jun 2027 23:36:01.344             4.914                Irkutsk           153.563
       131   01 Jun 2027 23:44:59.898   01 Jun 2027 23:46:02.495            62.597                Sumatra          1956.156
       132   01 Jun 2027 23:47:45.323   01 Jun 2027 23:49:15.313            89.990                Sumatra          2812.187
       133   02 Jun 2027 00:22:40.082   02 Jun 2027 00:23:32.287            52.205            RioGallegos          1631.406
       134   02 Jun 2027 00:52:48.619   02 Jun 2027 00:53:12.270            23.651                Anadyr2           739.094
       135   02 Jun 2027 00:53:40.410   02 Jun 2027 00:54:25.606            45.196                Anadyr1          1412.375
       136   02 Jun 2027 00:56:23.590   02 Jun 2027 00:57:46.626            83.036                Norilsk          2594.875
       137   02 Jun 2027 00:59:08.131   02 Jun 2027 00:59:58.324            50.193               Magadan2          1568.531
       138   02 Jun 2027 01:01:00.643   02 Jun 2027 01:01:16.094            15.451               Magadan2           482.844
       139   02 Jun 2027 01:02:10.371   02 Jun 2027 01:02:29.808            19.437                Novosib           607.406
       140   02 Jun 2027 01:03:05.413   02 Jun 2027 01:04:05.899            60.486               Magadan2          1890.188
       141   02 Jun 2027 01:07:15.529   02 Jun 2027 01:07:41.832            26.303                Norilsk           821.969
       142   02 Jun 2027 01:08:36.863   02 Jun 2027 01:08:53.890            17.027                Novosib           532.094
       143   02 Jun 2027 01:09:37.758   02 Jun 2027 01:09:54.440            16.682                Irkutsk           521.313
       144   02 Jun 2027 01:10:57.306   02 Jun 2027 01:11:01.122             3.816                Novosib           119.250
       145   02 Jun 2027 01:11:03.493   02 Jun 2027 01:11:05.974             2.481                Irkutsk            77.531
       146   02 Jun 2027 01:11:29.072   02 Jun 2027 01:11:52.318            23.246                Novosib           726.437
       147   02 Jun 2027 01:12:16.229   02 Jun 2027 01:12:43.171            26.942                Novosib           841.937
       148   02 Jun 2027 01:16:32.433   02 Jun 2027 01:18:04.499            92.066                Sumatra          2877.063
       149   02 Jun 2027 01:51:15.120   02 Jun 2027 01:51:53.661            38.541            RioGallegos          1204.406
       150   02 Jun 2027 01:52:56.604   02 Jun 2027 01:52:58.791             2.187            RioGallegos            68.344
       151   02 Jun 2027 01:54:27.393   02 Jun 2027 01:55:11.839            44.446            RioGallegos          1388.937
       152   02 Jun 2027 01:55:57.888   02 Jun 2027 01:56:04.788             6.900            RioGallegos           215.625
       153   02 Jun 2027 01:58:32.095   02 Jun 2027 01:58:38.574             6.479            RioGallegos           202.469
       154   02 Jun 2027 02:26:20.212   02 Jun 2027 02:26:25.840             5.628                Anadyr2           175.875
       155   02 Jun 2027 02:27:35.741   02 Jun 2027 02:28:55.031            79.290                Anadyr1          2477.813
       156   02 Jun 2027 02:31:41.803   02 Jun 2027 02:31:55.531            13.728                Anadyr2           429.000
       157   02 Jun 2027 02:32:06.290   02 Jun 2027 02:32:13.765             7.475                Anadyr2           233.594
       158   02 Jun 2027 02:32:22.915   02 Jun 2027 02:32:50.126            27.211                Norilsk           850.344
       159   02 Jun 2027 02:34:07.411   02 Jun 2027 02:34:23.410            15.999                Norilsk           499.969
       160   02 Jun 2027 02:34:41.362   02 Jun 2027 02:34:59.439            18.077              Murmansk1           564.906
       161   02 Jun 2027 02:36:13.788   02 Jun 2027 02:36:42.267            28.479              Murmansk2           889.969
       162   02 Jun 2027 02:38:15.896   02 Jun 2027 02:39:03.254            47.358                Novosib          1479.937
       163   02 Jun 2027 02:41:14.839   02 Jun 2027 02:42:33.238            78.399                Irkutsk          2449.969
       164   02 Jun 2027 02:47:45.799   02 Jun 2027 02:48:17.454            31.655                Novosib           989.219
       165   02 Jun 2027 02:49:45.031   02 Jun 2027 02:51:18.884            93.853                  Delhi          2932.906
       166   02 Jun 2027 04:18:46.624   02 Jun 2027 04:19:21.556            34.932              Murmansk2          1091.625
       167   02 Jun 2027 04:19:50.245   02 Jun 2027 04:20:06.013            15.768              Murmansk1           492.750
       168   02 Jun 2027 04:20:44.819   02 Jun 2027 04:26:24.901           340.082                 Moscow         10627.563
       169   02 Jun 2027 04:41:35.476   02 Jun 2027 04:44:22.006           166.530               CapeTown          5204.063
       170   02 Jun 2027 04:45:13.665   02 Jun 2027 04:46:11.141            57.476               CapeTown          1796.125
       171   02 Jun 2027 04:46:12.617   02 Jun 2027 04:47:26.363            73.746               CapeTown          2304.563
       172   02 Jun 2027 05:41:36.717   02 Jun 2027 05:41:50.829            14.112                Anadyr2           441.000
       173   02 Jun 2027 05:41:59.483   02 Jun 2027 05:42:30.126            30.643               Magadan2           957.594
       174   02 Jun 2027 05:42:54.456   02 Jun 2027 05:43:06.336            11.880                Anadyr2           371.250
       175   02 Jun 2027 05:43:06.336   02 Jun 2027 05:44:48.608           102.272                Anadyr1          3196.000
       176   02 Jun 2027 05:46:41.271   02 Jun 2027 05:46:45.840             4.569               Magadan1           142.781
       177   02 Jun 2027 05:53:32.607   02 Jun 2027 05:53:54.664            22.057              Murmansk1           689.281
       178   02 Jun 2027 05:54:02.691   02 Jun 2027 05:54:30.831            28.140                Norilsk           879.375
       179   02 Jun 2027 05:55:37.721   02 Jun 2027 05:56:04.878            27.157              Murmansk1           848.656
       180   02 Jun 2027 05:57:06.900   02 Jun 2027 05:57:55.012            48.112              Murmansk1          1503.500
       181   02 Jun 2027 05:57:55.012   02 Jun 2027 05:58:35.626            40.614              Murmansk2          1269.188
       182   02 Jun 2027 07:18:03.627   02 Jun 2027 07:18:27.124            23.497                Anadyr1           734.281
       183   02 Jun 2027 07:18:41.546   02 Jun 2027 07:22:54.213           252.667               Magadan1          7895.844
       184   02 Jun 2027 07:32:25.138   02 Jun 2027 07:32:53.147            28.009                 Moscow           875.281
       185   02 Jun 2027 08:51:27.051   02 Jun 2027 08:52:19.812            52.761                Anadyr1          1648.781
       186   02 Jun 2027 08:52:50.834   02 Jun 2027 08:55:50.865           180.031               Magadan1          5625.969
       187   02 Jun 2027 08:56:05.296   02 Jun 2027 08:57:34.582            89.286               Magadan2          2790.187
       188   02 Jun 2027 08:57:34.582   02 Jun 2027 08:58:46.422            71.840               Magadan1          2245.000
       189   02 Jun 2027 09:36:07.695   02 Jun 2027 09:36:19.082            11.387            RioGallegos           355.844
       190   02 Jun 2027 09:37:55.460   02 Jun 2027 09:38:09.803            14.343            RioGallegos           448.219
       191   02 Jun 2027 10:27:10.420   02 Jun 2027 10:32:48.370           337.950               Magadan1         10560.938
       192   02 Jun 2027 10:33:31.191   02 Jun 2027 10:34:10.651            39.460              Murmansk2          1233.125
       193   02 Jun 2027 10:34:13.722   02 Jun 2027 10:35:06.293            52.571                Norilsk          1642.844
       194   02 Jun 2027 11:09:18.740   02 Jun 2027 11:10:06.669            47.929            RioGallegos          1497.781
       195   02 Jun 2027 11:10:32.046   02 Jun 2027 11:11:23.272            51.226            RioGallegos          1600.813
       196   02 Jun 2027 11:44:12.290   02 Jun 2027 11:44:47.946            35.656                Sumatra          1114.250
       197   02 Jun 2027 12:00:18.420   02 Jun 2027 12:01:00.452            42.032                  Delhi          1313.500
       198   02 Jun 2027 12:06:45.474   02 Jun 2027 12:07:40.984            55.510                Irkutsk          1734.687
       199   02 Jun 2027 12:11:45.485   02 Jun 2027 12:12:05.011            19.526                 Moscow           610.187
       200   02 Jun 2027 12:13:19.900   02 Jun 2027 12:13:28.449             8.549              Murmansk1           267.156
       201   02 Jun 2027 12:14:14.878   02 Jun 2027 12:15:15.290            60.412              Murmansk2          1887.875
       202   02 Jun 2027 12:50:09.991   02 Jun 2027 12:52:16.782           126.791            RioGallegos          3962.219
       203   02 Jun 2027 13:23:13.984   02 Jun 2027 13:24:00.449            46.465                Sumatra          1452.031
       204   02 Jun 2027 13:26:59.528   02 Jun 2027 13:27:25.340            25.812                Sumatra           806.625
       205   02 Jun 2027 13:37:12.489   02 Jun 2027 13:38:16.003            63.514                Novosib          1984.812
       206   02 Jun 2027 13:39:11.638   02 Jun 2027 13:40:38.416            86.778                Irkutsk          2711.813
       207   02 Jun 2027 13:43:06.702   02 Jun 2027 13:43:40.359            33.657                Irkutsk          1051.781
       208   02 Jun 2027 15:10:19.633   02 Jun 2027 15:11:39.063            79.430                  Delhi          2482.188
       209   02 Jun 2027 15:12:48.466   02 Jun 2027 15:14:53.667           125.201                 Moscow          3912.531
       210   02 Jun 2027 15:15:10.391   02 Jun 2027 15:15:31.555            21.164                 Moscow           661.375
       211   02 Jun 2027 15:16:02.034   02 Jun 2027 15:16:29.122            27.088                 Moscow           846.500
       212   02 Jun 2027 15:17:26.590   02 Jun 2027 15:17:29.396             2.806              Murmansk2            87.687
       213   02 Jun 2027 15:17:44.577   02 Jun 2027 15:18:49.194            64.617              Murmansk2          2019.281
       214   02 Jun 2027 15:19:28.066   02 Jun 2027 15:20:24.104            56.038                Norilsk          1751.188
       215   02 Jun 2027 15:23:28.892   02 Jun 2027 15:24:51.973            83.081                Norilsk          2596.281
       216   02 Jun 2027 16:27:52.507   02 Jun 2027 16:28:44.895            52.388               CapeTown          1637.125
       217   02 Jun 2027 16:31:39.630   02 Jun 2027 16:31:43.313             3.683               CapeTown           115.094
       218   02 Jun 2027 16:32:08.340   02 Jun 2027 16:33:43.749            95.409               CapeTown          2981.531
       219   02 Jun 2027 16:50:08.980   02 Jun 2027 16:50:48.679            39.699                 Moscow          1240.594
       220   02 Jun 2027 16:53:58.844   02 Jun 2027 16:54:27.325            28.481                 Moscow           890.031
       221   02 Jun 2027 16:57:06.609   02 Jun 2027 16:57:21.456            14.847              Murmansk1           463.969
       222   02 Jun 2027 17:00:47.834   02 Jun 2027 17:02:58.820           130.986              Murmansk1          4093.312
       223   02 Jun 2027 17:08:11.551   02 Jun 2027 17:08:34.727            23.176                Anadyr1           724.250
       224   02 Jun 2027 17:12:06.154   02 Jun 2027 17:12:19.216            13.062                Anadyr2           408.187
       225   02 Jun 2027 17:15:26.075   02 Jun 2027 17:15:54.781            28.706                Anadyr1           897.063
       226   02 Jun 2027 18:02:10.970   02 Jun 2027 18:02:21.868            10.898               CapeTown           340.563
       227   02 Jun 2027 18:06:07.386   02 Jun 2027 18:06:59.768            52.382               CapeTown          1636.938
       228   02 Jun 2027 18:11:35.843   02 Jun 2027 18:11:48.840            12.997               CapeTown           406.156
       229   02 Jun 2027 18:31:56.525   02 Jun 2027 18:37:13.822           317.297              Murmansk2          9915.531
       230   02 Jun 2027 18:46:36.802   02 Jun 2027 18:46:58.077            21.275               Magadan1           664.844
       231   02 Jun 2027 18:49:35.412   02 Jun 2027 18:49:36.435             1.023               Magadan1            31.969
       232   02 Jun 2027 18:50:13.991   02 Jun 2027 18:50:15.501             1.510               Magadan1            47.187
       233   02 Jun 2027 18:50:21.369   02 Jun 2027 18:50:36.976            15.607               Magadan1           487.719
       234   02 Jun 2027 18:51:56.322   02 Jun 2027 18:52:57.747            61.425               Magadan1          1919.531
       235   02 Jun 2027 19:42:22.122   02 Jun 2027 19:44:48.362           146.240               CapeTown          4570.000
       236   02 Jun 2027 20:18:43.009   02 Jun 2027 20:19:28.713            45.704                Anadyr1          1428.250
       237   02 Jun 2027 20:19:49.096   02 Jun 2027 20:20:05.089            15.993                Anadyr1           499.781
       238   02 Jun 2027 20:20:44.129   02 Jun 2027 20:22:03.798            79.669                Anadyr1          2489.656
       239   02 Jun 2027 20:22:05.003   02 Jun 2027 20:23:04.805            59.802               Magadan1          1868.813
       240   02 Jun 2027 20:23:48.467   02 Jun 2027 20:24:01.097            12.630               Magadan2           394.688
       241   02 Jun 2027 20:26:54.497   02 Jun 2027 20:27:03.924             9.427               Magadan2           294.594
       242   02 Jun 2027 20:27:28.916   02 Jun 2027 20:27:43.492            14.576               Magadan2           455.500
       243   02 Jun 2027 20:32:51.056   02 Jun 2027 20:33:08.057            17.001               Magadan1           531.281
       244   02 Jun 2027 21:54:36.342   02 Jun 2027 21:58:16.938           220.596                Anadyr1          6893.625
       245   02 Jun 2027 21:58:20.921   02 Jun 2027 22:00:24.791           123.870                Norilsk          3870.937
       246   02 Jun 2027 22:00:41.300   02 Jun 2027 22:02:09.670            88.370               Magadan2          2761.563
       247   02 Jun 2027 22:03:17.477   02 Jun 2027 22:03:53.955            36.478                Irkutsk          1139.938
       248   02 Jun 2027 22:04:16.656   02 Jun 2027 22:05:03.061            46.405                Irkutsk          1450.156
       249   02 Jun 2027 22:08:11.923   02 Jun 2027 22:08:19.662             7.739                Irkutsk           241.844
       250   02 Jun 2027 22:48:47.192   02 Jun 2027 22:49:43.945            56.753            RioGallegos          1773.531
       251   02 Jun 2027 22:53:21.796   02 Jun 2027 22:53:53.568            31.772            RioGallegos           992.875
       252   02 Jun 2027 22:54:06.063   02 Jun 2027 22:54:52.887            46.824            RioGallegos          1463.250
       253   02 Jun 2027 22:58:16.695   02 Jun 2027 22:58:28.322            11.627            RioGallegos           363.344
       254   02 Jun 2027 23:30:05.838   02 Jun 2027 23:31:23.665            77.827                Anadyr1          2432.094
       255   02 Jun 2027 23:32:24.172   02 Jun 2027 23:32:25.893             1.721                Anadyr2            53.781
       256   02 Jun 2027 23:32:26.350   02 Jun 2027 23:34:08.231           101.881                Norilsk          3183.781
       257   02 Jun 2027 23:34:23.199   02 Jun 2027 23:35:19.748            56.549               Magadan2          1767.156
       258   02 Jun 2027 23:36:24.885   02 Jun 2027 23:36:41.282            16.397               Magadan2           512.406
       259   02 Jun 2027 23:36:59.912   02 Jun 2027 23:38:00.331            60.419                Irkutsk          1888.094
       260   02 Jun 2027 23:38:16.476   02 Jun 2027 23:38:57.725            41.249                Novosib          1289.031
       261   02 Jun 2027 23:40:14.797   02 Jun 2027 23:40:52.010            37.213                Novosib          1162.906
       262   02 Jun 2027 23:43:11.424   02 Jun 2027 23:44:05.709            54.285                Novosib          1696.406
       263   02 Jun 2027 23:50:39.346   02 Jun 2027 23:51:25.017            45.671                Sumatra          1427.219
       264   02 Jun 2027 23:58:56.252   02 Jun 2027 23:59:44.626            48.374                Sumatra          1511.688
       265   03 Jun 2027 00:30:10.219   03 Jun 2027 00:30:29.878            19.659            RioGallegos           614.344
       266   03 Jun 2027 00:33:58.977   03 Jun 2027 00:34:58.694            59.717            RioGallegos          1866.156
       267   03 Jun 2027 01:05:05.691   03 Jun 2027 01:05:39.337            33.646                Anadyr2          1051.438
       268   03 Jun 2027 01:06:18.429   03 Jun 2027 01:06:47.350            28.921                Anadyr2           903.781
       269   03 Jun 2027 01:07:18.724   03 Jun 2027 01:07:30.218            11.494                Anadyr2           359.188
       270   03 Jun 2027 01:08:25.900   03 Jun 2027 01:10:14.422           108.522                Norilsk          3391.312
       271   03 Jun 2027 01:11:29.206   03 Jun 2027 01:11:34.417             5.211               Magadan1           162.844
       272   03 Jun 2027 01:12:00.959   03 Jun 2027 01:12:47.150            46.191               Magadan1          1443.469
       273   03 Jun 2027 01:13:15.384   03 Jun 2027 01:15:10.800           115.416                Novosib          3606.750
       274   03 Jun 2027 01:19:49.374   03 Jun 2027 01:20:37.612            48.238                  Delhi          1507.437
       275   03 Jun 2027 01:26:00.848   03 Jun 2027 01:26:01.573             0.725                  Delhi            22.656
       276   03 Jun 2027 01:26:31.667   03 Jun 2027 01:27:08.722            37.055                  Delhi          1157.969
       277   03 Jun 2027 01:33:03.334   03 Jun 2027 01:33:42.654            39.320                Sumatra          1228.750
       278   03 Jun 2027 02:01:00.932   03 Jun 2027 02:02:20.266            79.334            RioGallegos          2479.188
       279   03 Jun 2027 02:07:20.780   03 Jun 2027 02:07:47.460            26.680            RioGallegos           833.750
       280   03 Jun 2027 02:38:15.910   03 Jun 2027 02:38:19.799             3.889                Anadyr2           121.531
       281   03 Jun 2027 02:39:35.430   03 Jun 2027 02:39:56.827            21.397                Anadyr1           668.656
       282   03 Jun 2027 02:40:46.366   03 Jun 2027 02:40:56.166             9.800                Anadyr2           306.250
       283   03 Jun 2027 02:43:20.212   03 Jun 2027 02:43:27.623             7.411                Anadyr2           231.594
       284   03 Jun 2027 02:44:12.211   03 Jun 2027 02:45:15.404            63.193               Magadan2          1974.781
       285   03 Jun 2027 02:45:16.908   03 Jun 2027 02:45:55.711            38.803                Norilsk          1212.594
       286   03 Jun 2027 02:46:40.362   03 Jun 2027 02:48:31.110           110.748              Murmansk1          3460.875
       287   03 Jun 2027 02:49:11.456   03 Jun 2027 02:49:54.682            43.226                Irkutsk          1350.812
       288   03 Jun 2027 02:51:55.200   03 Jun 2027 02:51:59.074             3.874                Irkutsk           121.063
       289   03 Jun 2027 02:54:39.475   03 Jun 2027 02:55:01.740            22.265                Irkutsk           695.781
       290   03 Jun 2027 02:56:16.722   03 Jun 2027 02:56:49.509            32.787                  Delhi          1024.594
       291   03 Jun 2027 02:57:27.253   03 Jun 2027 02:57:34.009             6.756                  Delhi           211.125
       292   03 Jun 2027 03:00:40.546   03 Jun 2027 03:01:14.020            33.474                  Delhi          1046.062
       293   03 Jun 2027 04:31:14.642   03 Jun 2027 04:31:21.831             7.189              Murmansk1           224.656
       294   03 Jun 2027 04:31:42.980   03 Jun 2027 04:32:49.522            66.542                 Moscow          2079.438
       295   03 Jun 2027 04:33:02.458   03 Jun 2027 04:33:16.370            13.912                 Moscow           434.750
       296   03 Jun 2027 04:33:46.339   03 Jun 2027 04:33:58.158            11.819                 Moscow           369.344
       297   03 Jun 2027 04:34:01.269   03 Jun 2027 04:34:01.930             0.661              Murmansk1            20.656
       298   03 Jun 2027 04:34:01.930   03 Jun 2027 04:34:54.442            52.512              Murmansk2          1641.000
       299   03 Jun 2027 04:35:17.158   03 Jun 2027 04:38:34.428           197.270                 Moscow          6164.688
       300   03 Jun 2027 04:49:50.138   03 Jun 2027 04:53:15.980           205.842               CapeTown          6432.562
       301   03 Jun 2027 05:52:51.652   03 Jun 2027 05:56:40.813           229.161                Anadyr2          7161.281
       302   03 Jun 2027 06:27:18.619   03 Jun 2027 06:27:46.539            27.920               CapeTown           872.500
       303   03 Jun 2027 07:26:53.583   03 Jun 2027 07:27:35.530            41.947                Anadyr2          1310.844
       304   03 Jun 2027 07:27:41.640   03 Jun 2027 07:27:45.968             4.328                Anadyr1           135.250
       305   03 Jun 2027 07:28:09.426   03 Jun 2027 07:28:12.962             3.536               Magadan1           110.500
       306   03 Jun 2027 07:28:25.725   03 Jun 2027 07:29:35.842            70.117               Magadan2          2191.156
       307   03 Jun 2027 07:30:02.175   03 Jun 2027 07:30:03.534             1.359                Norilsk            42.469
       308   03 Jun 2027 07:30:07.633   03 Jun 2027 07:30:16.407             8.774                Anadyr2           274.188
       309   03 Jun 2027 07:30:40.256   03 Jun 2027 07:31:04.519            24.263               Magadan2           758.219
       310   03 Jun 2027 07:31:07.657   03 Jun 2027 07:31:08.570             0.913               Magadan1            28.531
       311   03 Jun 2027 07:31:28.638   03 Jun 2027 07:32:32.675            64.037                Anadyr2          2001.156
       312   03 Jun 2027 07:40:59.753   03 Jun 2027 07:41:04.950             5.197                 Moscow           162.406
       313   03 Jun 2027 07:41:35.140   03 Jun 2027 07:42:33.288            58.148                 Moscow          1817.125
       314   03 Jun 2027 09:02:11.797   03 Jun 2027 09:03:18.927            67.130               Magadan1          2097.813
       315   03 Jun 2027 09:03:18.927   03 Jun 2027 09:04:05.025            46.098               Magadan2          1440.562
       316   03 Jun 2027 09:04:42.194   03 Jun 2027 09:05:43.732            61.538                Irkutsk          1923.063
       317   03 Jun 2027 09:05:47.004   03 Jun 2027 09:07:00.067            73.063                Anadyr2          2283.219
       318   03 Jun 2027 09:07:00.067   03 Jun 2027 09:07:42.074            42.007                Anadyr1          1312.719
       319   03 Jun 2027 09:07:48.148   03 Jun 2027 09:09:15.039            86.891                Anadyr1          2715.344
       320   03 Jun 2027 09:09:50.873   03 Jun 2027 09:10:00.864             9.991                Norilsk           312.219
       321   03 Jun 2027 09:10:06.042   03 Jun 2027 09:11:11.203            65.161              Murmansk1          2036.281
       322   03 Jun 2027 09:46:03.418   03 Jun 2027 09:46:30.281            26.863            RioGallegos           839.469
       323   03 Jun 2027 09:48:25.745   03 Jun 2027 09:49:17.568            51.823            RioGallegos          1619.469
       324   03 Jun 2027 10:25:04.191   03 Jun 2027 10:25:16.900            12.709                Sumatra           397.156
       325   03 Jun 2027 10:28:19.078   03 Jun 2027 10:28:48.916            29.838                Sumatra           932.438
       326   03 Jun 2027 10:39:31.078   03 Jun 2027 10:39:57.976            26.898                Irkutsk           840.562
       327   03 Jun 2027 10:40:08.128   03 Jun 2027 10:40:11.511             3.383                Novosib           105.719
       328   03 Jun 2027 10:40:48.563   03 Jun 2027 10:40:59.024            10.461                Irkutsk           326.906
       329   03 Jun 2027 10:40:59.267   03 Jun 2027 10:42:17.276            78.009               Magadan2          2437.781
       330   03 Jun 2027 10:42:45.430   03 Jun 2027 10:43:29.577            44.147                Irkutsk          1379.594
       331   03 Jun 2027 10:43:40.431   03 Jun 2027 10:44:09.193            28.762                Norilsk           898.813
       332   03 Jun 2027 10:44:18.888   03 Jun 2027 10:44:31.963            13.075                Irkutsk           408.594
       333   03 Jun 2027 10:44:38.501   03 Jun 2027 10:45:11.129            32.628                Novosib          1019.625
       334   03 Jun 2027 10:45:21.145   03 Jun 2027 10:45:52.264            31.119              Murmansk2           972.469
       335   03 Jun 2027 10:45:54.678   03 Jun 2027 10:46:37.056            42.378              Murmansk1          1324.313
       336   03 Jun 2027 11:21:28.211   03 Jun 2027 11:21:59.694            31.483            RioGallegos           983.844
       337   03 Jun 2027 11:22:37.473   03 Jun 2027 11:23:19.261            41.788            RioGallegos          1305.875
       338   03 Jun 2027 11:56:09.934   03 Jun 2027 11:56:52.342            42.408                Sumatra          1325.250
       339   03 Jun 2027 12:02:48.654   03 Jun 2027 12:04:42.405           113.751                Sumatra          3554.719
       340   03 Jun 2027 12:11:09.225   03 Jun 2027 12:11:44.637            35.412                Irkutsk          1106.625
       341   03 Jun 2027 12:14:44.356   03 Jun 2027 12:15:53.777            69.421                Norilsk          2169.406
       342   03 Jun 2027 12:22:04.041   03 Jun 2027 12:22:23.952            19.911                Norilsk           622.219
       343   03 Jun 2027 12:27:16.742   03 Jun 2027 12:27:21.498             4.756              Murmansk1           148.625
       344   03 Jun 2027 12:27:35.348   03 Jun 2027 12:27:53.362            18.014              Murmansk2           562.938
       345   03 Jun 2027 12:29:28.810   03 Jun 2027 12:29:32.524             3.714              Murmansk2           116.062
       346   03 Jun 2027 13:01:30.899   03 Jun 2027 13:04:16.507           165.608            RioGallegos          5175.250
       347   03 Jun 2027 13:48:15.185   03 Jun 2027 13:49:19.992            64.807                Novosib          2025.219
       348   03 Jun 2027 13:50:12.301   03 Jun 2027 13:53:04.041           171.740                Novosib          5366.875
       349   03 Jun 2027 14:00:02.161   03 Jun 2027 14:01:25.666            83.505                Norilsk          2609.531
       350   03 Jun 2027 15:24:46.432   03 Jun 2027 15:25:54.754            68.322                 Moscow          2135.063
       351   03 Jun 2027 15:27:00.112   03 Jun 2027 15:28:33.846            93.734                 Moscow          2929.187
       352   03 Jun 2027 15:29:28.325   03 Jun 2027 15:30:01.611            33.286              Murmansk2          1040.187
       353   03 Jun 2027 15:30:19.720   03 Jun 2027 15:30:33.898            14.178              Murmansk2           443.063
       354   03 Jun 2027 15:31:16.908   03 Jun 2027 15:31:33.544            16.636              Murmansk2           519.875
       355   03 Jun 2027 15:32:09.375   03 Jun 2027 15:33:38.371            88.996                Norilsk          2781.125
       356   03 Jun 2027 15:35:26.839   03 Jun 2027 15:36:58.617            91.778                Norilsk          2868.062
       357   03 Jun 2027 16:39:23.443   03 Jun 2027 16:40:27.664            64.221               CapeTown          2006.906
       358   03 Jun 2027 16:49:04.088   03 Jun 2027 16:49:31.346            27.258               CapeTown           851.813
       359   03 Jun 2027 17:02:05.805   03 Jun 2027 17:02:23.528            17.723                 Moscow           553.844
       360   03 Jun 2027 17:03:13.257   03 Jun 2027 17:03:38.910            25.653                 Moscow           801.656
       361   03 Jun 2027 17:04:33.512   03 Jun 2027 17:05:58.639            85.127                 Moscow          2660.219
       362   03 Jun 2027 17:09:06.172   03 Jun 2027 17:09:18.034            11.862              Murmansk1           370.688
       363   03 Jun 2027 17:09:32.815   03 Jun 2027 17:09:57.329            24.514              Murmansk2           766.062
       364   03 Jun 2027 17:14:59.299   03 Jun 2027 17:15:04.209             4.910              Murmansk2           153.438
       365   03 Jun 2027 17:19:16.181   03 Jun 2027 17:20:34.647            78.466                Anadyr2          2452.062
       366   03 Jun 2027 17:20:55.302   03 Jun 2027 17:21:44.955            49.653                Anadyr1          1551.656
       367   03 Jun 2027 18:14:15.746   03 Jun 2027 18:16:04.642           108.896               CapeTown          3403.000
       368   03 Jun 2027 18:44:33.175   03 Jun 2027 18:45:25.244            52.069              Murmansk1          1627.156
       369   03 Jun 2027 18:45:29.281   03 Jun 2027 18:47:19.295           110.014              Murmansk2          3437.937
       370   03 Jun 2027 18:49:13.543   03 Jun 2027 18:49:29.620            16.077              Murmansk2           502.406
       371   03 Jun 2027 18:49:39.164   03 Jun 2027 18:49:57.549            18.385              Murmansk1           574.531
       372   03 Jun 2027 18:58:14.410   03 Jun 2027 18:58:23.167             8.757                Anadyr1           273.656
       373   03 Jun 2027 18:59:09.198   03 Jun 2027 19:00:40.213            91.015               Magadan2          2844.219
       374   03 Jun 2027 19:02:15.777   03 Jun 2027 19:02:35.198            19.421               Magadan1           606.906
       375   03 Jun 2027 19:54:28.617   03 Jun 2027 19:55:51.775            83.158               CapeTown          2598.687
       376   03 Jun 2027 20:30:44.743   03 Jun 2027 20:32:21.477            96.734                Anadyr2          3022.937
       377   03 Jun 2027 20:32:36.107   03 Jun 2027 20:34:35.613           119.506                Anadyr1          3734.563
       378   03 Jun 2027 20:35:12.249   03 Jun 2027 20:37:17.147           124.898               Magadan1          3903.062
       379   03 Jun 2027 20:41:06.147   03 Jun 2027 20:41:22.388            16.241               Magadan2           507.531
       380   03 Jun 2027 20:41:33.025   03 Jun 2027 20:41:56.446            23.421               Magadan2           731.906
       381   03 Jun 2027 21:29:15.815   03 Jun 2027 21:29:37.702            21.887            RioGallegos           683.969
       382   03 Jun 2027 22:06:36.542   03 Jun 2027 22:08:42.053           125.511                Anadyr2          3922.219
       383   03 Jun 2027 22:08:47.985   03 Jun 2027 22:10:41.983           113.998                Norilsk          3562.437
       384   03 Jun 2027 22:10:49.933   03 Jun 2027 22:10:55.903             5.970                Norilsk           186.563
       385   03 Jun 2027 22:11:10.037   03 Jun 2027 22:11:16.641             6.604                Anadyr1           206.375
       386   03 Jun 2027 22:11:24.832   03 Jun 2027 22:11:32.789             7.957                Anadyr1           248.656
       387   03 Jun 2027 22:11:33.018   03 Jun 2027 22:12:48.083            75.065               Magadan2          2345.781
       388   03 Jun 2027 22:13:16.949   03 Jun 2027 22:13:57.613            40.664                Norilsk          1270.750
       389   03 Jun 2027 22:14:09.229   03 Jun 2027 22:15:00.162            50.933                Irkutsk          1591.656
       390   03 Jun 2027 22:16:04.204   03 Jun 2027 22:16:12.402             8.198               Magadan2           256.187
       391   03 Jun 2027 22:16:38.884   03 Jun 2027 22:17:01.945            23.061                Irkutsk           720.656
       392   03 Jun 2027 22:19:15.575   03 Jun 2027 22:19:52.784            37.209                Irkutsk          1162.781
       393   03 Jun 2027 22:30:04.021   03 Jun 2027 22:31:28.726            84.705                Sumatra          2647.031
       394   03 Jun 2027 22:34:47.064   03 Jun 2027 22:35:59.652            72.588                Sumatra          2268.375
       395   03 Jun 2027 23:42:00.661   03 Jun 2027 23:42:30.118            29.457                Anadyr1           920.531
       396   03 Jun 2027 23:42:36.503   03 Jun 2027 23:44:23.349           106.846                Anadyr2          3338.937
       397   03 Jun 2027 23:44:51.727   03 Jun 2027 23:45:12.748            21.021                Norilsk           656.906
       398   03 Jun 2027 23:45:49.245   03 Jun 2027 23:46:10.376            21.131                Norilsk           660.344
       399   03 Jun 2027 23:46:55.631   03 Jun 2027 23:47:22.257            26.626               Magadan2           832.062
       400   03 Jun 2027 23:47:25.642   03 Jun 2027 23:48:01.127            35.485               Magadan2          1108.906
       401   03 Jun 2027 23:48:26.721   03 Jun 2027 23:49:32.814            66.093                Irkutsk          2065.406
       402   03 Jun 2027 23:49:55.382   03 Jun 2027 23:50:57.305            61.923                Novosib          1935.094
       403   03 Jun 2027 23:52:37.782   03 Jun 2027 23:52:41.728             3.946                Novosib           123.312
       404   03 Jun 2027 23:52:47.887   03 Jun 2027 23:53:27.947            40.060                Novosib          1251.875
       405   03 Jun 2027 23:55:07.994   03 Jun 2027 23:55:41.793            33.799                Novosib          1056.219
       406   04 Jun 2027 00:06:37.377   04 Jun 2027 00:06:45.684             8.307                Sumatra           259.594
       407   04 Jun 2027 00:14:11.363   04 Jun 2027 00:14:51.143            39.780                Sumatra          1243.125
       408   04 Jun 2027 00:36:25.479   04 Jun 2027 00:37:27.654            62.175            RioGallegos          1942.969
       409   04 Jun 2027 00:48:17.130   04 Jun 2027 00:48:20.856             3.726            RioGallegos           116.438
       410   04 Jun 2027 01:16:19.853   04 Jun 2027 01:16:58.193            38.340                Anadyr2          1198.125
       411   04 Jun 2027 01:16:58.193   04 Jun 2027 01:17:38.744            40.551                Anadyr1          1267.219
       412   04 Jun 2027 01:18:30.292   04 Jun 2027 01:18:42.827            12.535                Anadyr1           391.719
       413   04 Jun 2027 01:18:42.827   04 Jun 2027 01:18:48.219             5.392                Anadyr2           168.500
       414   04 Jun 2027 01:19:07.311   04 Jun 2027 01:19:19.879            12.568                Anadyr1           392.750
       415   04 Jun 2027 01:20:28.177   04 Jun 2027 01:22:26.873           118.696                Norilsk          3709.250
       416   04 Jun 2027 01:23:48.032   04 Jun 2027 01:24:30.282            42.250              Murmansk1          1320.312
       417   04 Jun 2027 01:24:30.282   04 Jun 2027 01:25:55.888            85.606              Murmansk2          2675.188
       418   04 Jun 2027 01:25:56.642   04 Jun 2027 01:26:20.231            23.589                Novosib           737.156
       419   04 Jun 2027 01:30:03.449   04 Jun 2027 01:30:10.975             7.526                Irkutsk           235.188
       420   04 Jun 2027 01:31:19.510   04 Jun 2027 01:31:24.772             5.262                Novosib           164.437
       421   04 Jun 2027 01:31:42.451   04 Jun 2027 01:32:30.415            47.964                  Delhi          1498.875
       422   04 Jun 2027 01:38:32.678   04 Jun 2027 01:38:57.200            24.522                  Delhi           766.312
       423   04 Jun 2027 01:41:31.854   04 Jun 2027 01:41:55.152            23.298                  Delhi           728.063
       424   04 Jun 2027 02:13:14.432   04 Jun 2027 02:15:26.291           131.859            RioGallegos          4120.594
       425   04 Jun 2027 02:18:21.337   04 Jun 2027 02:18:38.692            17.355            RioGallegos           542.344
       426   04 Jun 2027 02:19:55.768   04 Jun 2027 02:20:15.515            19.747            RioGallegos           617.094
       427   04 Jun 2027 02:49:39.571   04 Jun 2027 02:49:59.863            20.292                Anadyr1           634.125
       428   04 Jun 2027 02:53:29.489   04 Jun 2027 02:53:45.231            15.742                Anadyr1           491.937
       429   04 Jun 2027 02:55:52.575   04 Jun 2027 02:56:44.427            51.852               Magadan1          1620.375
       430   04 Jun 2027 02:57:06.749   04 Jun 2027 02:57:45.914            39.165                Norilsk          1223.906
       431   04 Jun 2027 02:58:40.103   04 Jun 2027 02:59:30.928            50.825              Murmansk2          1588.281
       432   04 Jun 2027 03:00:01.507   04 Jun 2027 03:00:16.947            15.440              Murmansk1           482.500
       433   04 Jun 2027 03:03:38.637   04 Jun 2027 03:03:42.742             4.105              Murmansk2           128.281
       434   04 Jun 2027 03:03:49.120   04 Jun 2027 03:04:24.876            35.756                Novosib          1117.375
       435   04 Jun 2027 03:04:29.135   04 Jun 2027 03:04:52.024            22.889                 Moscow           715.281
       436   04 Jun 2027 03:04:52.777   04 Jun 2027 03:05:36.391            43.614              Murmansk2          1362.937
       437   04 Jun 2027 03:05:36.391   04 Jun 2027 03:06:06.759            30.368              Murmansk1           949.000
       438   04 Jun 2027 03:06:15.673   04 Jun 2027 03:07:02.769            47.096              Murmansk2          1471.750
       439   04 Jun 2027 03:07:06.259   04 Jun 2027 03:07:51.113            44.854              Murmansk1          1401.688
       440   04 Jun 2027 03:08:42.770   04 Jun 2027 03:11:30.526           167.756                  Delhi          5242.375
       441   04 Jun 2027 04:41:04.621   04 Jun 2027 04:41:07.596             2.975                Novosib            92.969
       442   04 Jun 2027 04:41:28.013   04 Jun 2027 04:42:08.712            40.699                Novosib          1271.844
       443   04 Jun 2027 04:43:41.628   04 Jun 2027 04:44:51.251            69.623                 Moscow          2175.719
       444   04 Jun 2027 04:45:19.120   04 Jun 2027 04:46:38.793            79.673                 Moscow          2489.781
       445   04 Jun 2027 04:46:59.024   04 Jun 2027 04:47:09.452            10.428              Murmansk1           325.875
       446   04 Jun 2027 04:47:20.033   04 Jun 2027 04:47:23.877             3.844                 Moscow           120.125
       447   04 Jun 2027 05:01:43.920   04 Jun 2027 05:04:47.368           183.448               CapeTown          5732.750
       448   04 Jun 2027 06:04:56.631   04 Jun 2027 06:06:28.978            92.347               Magadan1          2885.844
       449   04 Jun 2027 06:06:28.978   04 Jun 2027 06:06:53.544            24.566               Magadan2           767.688
       450   04 Jun 2027 06:07:05.758   04 Jun 2027 06:08:01.737            55.979                Anadyr1          1749.344
       451   04 Jun 2027 06:08:54.239   04 Jun 2027 06:09:12.494            18.255               Magadan2           570.469
       452   04 Jun 2027 07:38:46.913   04 Jun 2027 07:39:43.053            56.140                Anadyr1          1754.375
       453   04 Jun 2027 07:40:05.775   04 Jun 2027 07:40:17.064            11.289               Magadan2           352.781
       454   04 Jun 2027 07:40:47.636   04 Jun 2027 07:41:02.480            14.844               Magadan2           463.875
       455   04 Jun 2027 07:41:07.815   04 Jun 2027 07:42:38.132            90.317               Magadan1          2822.406
       456   04 Jun 2027 07:42:51.769   04 Jun 2027 07:43:11.231            19.462               Magadan1           608.187
       457   04 Jun 2027 07:43:29.355   04 Jun 2027 07:44:49.210            79.855                Anadyr1          2495.469
       458   04 Jun 2027 07:51:41.125   04 Jun 2027 07:51:45.316             4.191                 Moscow           130.969
       459   04 Jun 2027 07:52:37.370   04 Jun 2027 07:53:39.757            62.387                 Moscow          1949.594
       460   04 Jun 2027 09:13:10.606   04 Jun 2027 09:13:54.518            43.912               Magadan1          1372.250
       461   04 Jun 2027 09:15:20.040   04 Jun 2027 09:15:45.142            25.102               Magadan2           784.437
       462   04 Jun 2027 09:15:58.125   04 Jun 2027 09:18:53.314           175.189                Anadyr1          5474.656
       463   04 Jun 2027 09:19:04.673   04 Jun 2027 09:20:10.044            65.371               Magadan2          2042.844
       464   04 Jun 2027 09:20:16.280   04 Jun 2027 09:20:41.502            25.222                Norilsk           788.187
       465   04 Jun 2027 09:20:42.844   04 Jun 2027 09:21:05.069            22.225               Magadan2           694.531
       466   04 Jun 2027 09:21:13.853   04 Jun 2027 09:22:05.455            51.602                Anadyr1          1612.563
       467   04 Jun 2027 09:22:13.793   04 Jun 2027 09:22:37.418            23.625              Murmansk1           738.281
       468   04 Jun 2027 09:22:41.380   04 Jun 2027 09:22:58.414            17.034              Murmansk1           532.312
       469   04 Jun 2027 09:22:58.414   04 Jun 2027 09:23:15.099            16.685              Murmansk2           521.406
       470   04 Jun 2027 09:57:49.756   04 Jun 2027 09:58:10.651            20.895            RioGallegos           652.969
       471   04 Jun 2027 09:58:32.464   04 Jun 2027 09:59:06.724            34.260            RioGallegos          1070.625
       472   04 Jun 2027 10:02:15.617   04 Jun 2027 10:03:04.674            49.057            RioGallegos          1533.031
       473   04 Jun 2027 10:35:22.097   04 Jun 2027 10:37:02.713           100.616                Sumatra          3144.250
       474   04 Jun 2027 10:51:49.008   04 Jun 2027 10:54:04.291           135.283               Magadan2          4227.594
       475   04 Jun 2027 10:54:04.291   04 Jun 2027 10:55:24.201            79.910               Magadan1          2497.188
       476   04 Jun 2027 10:56:00.424   04 Jun 2027 10:56:46.899            46.475               Magadan1          1452.344
       477   04 Jun 2027 10:56:54.285   04 Jun 2027 10:57:52.721            58.436              Murmansk2          1826.125
       478   04 Jun 2027 10:58:00.304   04 Jun 2027 10:58:42.250            41.946              Murmansk1          1310.812
       479   04 Jun 2027 11:33:41.498   04 Jun 2027 11:34:40.822            59.324            RioGallegos          1853.875
       480   04 Jun 2027 12:08:13.242   04 Jun 2027 12:09:48.628            95.386                Sumatra          2980.813
       481   04 Jun 2027 12:22:44.999   04 Jun 2027 12:23:51.061            66.062                Irkutsk          2064.437
       482   04 Jun 2027 12:24:23.933   04 Jun 2027 12:25:43.958            80.025                Novosib          2500.781
