uniorb/output/strategy_2/Drop/Drop_KinoSat_111803.txt

KinoSat_111803
-------------------------
    Access    *     Start Time (UTCG)     *     Stop Time (UTCG)  *   Duration (s)        *       Station  *  Data (Mbytes)
         1   01 Jun 2027 03:27:03.974   01 Jun 2027 03:27:07.224             3.250              Murmansk2           101.562
         2   01 Jun 2027 03:27:27.481   01 Jun 2027 03:27:45.131            17.650                Norilsk           551.562
         3   01 Jun 2027 03:28:05.479   01 Jun 2027 03:28:45.893            40.414              Murmansk2          1262.938
         4   01 Jun 2027 03:29:07.184   01 Jun 2027 03:29:20.066            12.882              Murmansk1           402.563
         5   01 Jun 2027 03:29:32.378   01 Jun 2027 03:29:44.216            11.838                 Moscow           369.938
         6   01 Jun 2027 03:30:07.414   01 Jun 2027 03:30:25.765            18.351                Norilsk           573.469
         7   01 Jun 2027 03:30:34.774   01 Jun 2027 03:30:36.608             1.834                Novosib            57.312
         8   01 Jun 2027 03:30:45.359   01 Jun 2027 03:31:46.932            61.573                Irkutsk          1924.156
         9   01 Jun 2027 03:32:06.175   01 Jun 2027 03:34:18.927           132.752                 Moscow          4148.500
        10   01 Jun 2027 03:34:47.752   01 Jun 2027 03:35:06.349            18.597                Novosib           581.156
        11   01 Jun 2027 03:35:28.146   01 Jun 2027 03:36:15.261            47.115                Novosib          1472.344
        12   01 Jun 2027 04:47:21.044   01 Jun 2027 04:50:25.437           184.393                Anadyr2          5762.281
        13   01 Jun 2027 04:53:33.115   01 Jun 2027 04:53:43.818            10.703                Anadyr2           334.469
        14   01 Jun 2027 05:03:41.456   01 Jun 2027 05:04:17.384            35.928                Novosib          1122.750
        15   01 Jun 2027 05:06:20.684   01 Jun 2027 05:06:24.368             3.684                Norilsk           115.125
        16   01 Jun 2027 05:06:40.084   01 Jun 2027 05:07:37.112            57.028                Novosib          1782.125
        17   01 Jun 2027 05:07:39.051   01 Jun 2027 05:10:15.030           155.979              Murmansk1          4874.344
        18   01 Jun 2027 05:12:10.513   01 Jun 2027 05:13:17.817            67.304                 Moscow          2103.250
        19   01 Jun 2027 05:13:29.181   01 Jun 2027 05:13:31.799             2.618                 Moscow            81.812
        20   01 Jun 2027 05:13:42.866   01 Jun 2027 05:13:56.376            13.510                 Moscow           422.188
        21   01 Jun 2027 05:27:54.605   01 Jun 2027 05:28:40.087            45.482               CapeTown          1421.312
        22   01 Jun 2027 05:29:35.071   01 Jun 2027 05:31:58.136           143.065               CapeTown          4470.781
        23   01 Jun 2027 05:35:35.972   01 Jun 2027 05:35:55.204            19.232               CapeTown           601.000
        24   01 Jun 2027 05:37:09.966   01 Jun 2027 05:37:53.326            43.360               CapeTown          1355.000
        25   01 Jun 2027 06:29:04.094   01 Jun 2027 06:32:07.888           183.794                Anadyr2          5743.562
        26   01 Jun 2027 06:32:07.888   01 Jun 2027 06:32:37.375            29.487                Anadyr1           921.469
        27   01 Jun 2027 06:32:50.048   01 Jun 2027 06:33:42.349            52.301                Anadyr1          1634.406
        28   01 Jun 2027 06:41:09.728   01 Jun 2027 06:41:35.902            26.174              Murmansk1           817.937
        29   01 Jun 2027 06:42:08.441   01 Jun 2027 06:42:16.562             8.121              Murmansk1           253.781
        30   01 Jun 2027 06:42:37.194   01 Jun 2027 06:43:44.062            66.868              Murmansk2          2089.625
        31   01 Jun 2027 06:44:14.557   01 Jun 2027 06:44:45.557            31.000              Murmansk1           968.750
        32   01 Jun 2027 06:45:10.952   01 Jun 2027 06:45:55.331            44.379              Murmansk2          1386.844
        33   01 Jun 2027 08:05:42.511   01 Jun 2027 08:06:05.041            22.530                Norilsk           704.063
        34   01 Jun 2027 08:06:16.758   01 Jun 2027 08:07:55.694            98.936               Magadan2          3091.750
        35   01 Jun 2027 08:07:55.694   01 Jun 2027 08:09:54.802           119.108               Magadan1          3722.125
        36   01 Jun 2027 08:10:35.075   01 Jun 2027 08:10:40.463             5.388              Murmansk2           168.375
        37   01 Jun 2027 08:15:14.290   01 Jun 2027 08:15:37.090            22.800                 Moscow           712.500
        38   01 Jun 2027 08:16:16.721   01 Jun 2027 08:16:20.916             4.195                 Moscow           131.094
        39   01 Jun 2027 08:18:31.612   01 Jun 2027 08:19:21.954            50.342                 Moscow          1573.188
        40   01 Jun 2027 08:22:18.710   01 Jun 2027 08:22:24.748             6.038                 Moscow           188.688
        41   01 Jun 2027 09:38:37.476   01 Jun 2027 09:39:59.763            82.287                Anadyr2          2571.469
        42   01 Jun 2027 09:40:28.386   01 Jun 2027 09:41:15.136            46.750               Magadan2          1460.938
        43   01 Jun 2027 09:41:15.136   01 Jun 2027 09:42:53.739            98.603               Magadan1          3081.344
        44   01 Jun 2027 09:43:35.876   01 Jun 2027 09:43:55.723            19.847               Magadan2           620.219
        45   01 Jun 2027 09:44:02.923   01 Jun 2027 09:46:20.433           137.510               Magadan1          4297.188
        46   01 Jun 2027 11:13:09.113   01 Jun 2027 11:19:23.426           374.313               Magadan2         11697.281
        47   01 Jun 2027 11:21:23.422   01 Jun 2027 11:22:06.632            43.210                Irkutsk          1350.312
        48   01 Jun 2027 12:38:35.351   01 Jun 2027 12:39:49.927            74.576                Sumatra          2330.500
        49   01 Jun 2027 12:45:36.476   01 Jun 2027 12:47:02.704            86.228                Irkutsk          2694.625
        50   01 Jun 2027 12:48:25.166   01 Jun 2027 12:50:07.943           102.777                Irkutsk          3211.781
        51   01 Jun 2027 12:51:30.373   01 Jun 2027 12:51:58.094            27.721                Norilsk           866.281
        52   01 Jun 2027 12:55:20.995   01 Jun 2027 12:56:37.811            76.816                Irkutsk          2400.500
        53   01 Jun 2027 13:35:51.911   01 Jun 2027 13:42:42.948           411.037            RioGallegos         12844.906
        54   01 Jun 2027 14:10:30.116   01 Jun 2027 14:12:18.178           108.062                Sumatra          3376.937
        55   01 Jun 2027 14:14:40.292   01 Jun 2027 14:16:42.569           122.277                Sumatra          3821.156
        56   01 Jun 2027 14:26:25.254   01 Jun 2027 14:30:16.701           231.447                Irkutsk          7232.719
        57   01 Jun 2027 14:31:14.804   01 Jun 2027 14:31:27.861            13.057                Irkutsk           408.031
        58   01 Jun 2027 15:56:58.643   01 Jun 2027 16:00:04.784           186.141                  Delhi          5816.906
        59   01 Jun 2027 16:05:02.229   01 Jun 2027 16:08:32.291           210.062                Novosib          6564.437
        60   01 Jun 2027 16:12:15.948   01 Jun 2027 16:12:22.125             6.177                Norilsk           193.031
        61   01 Jun 2027 17:44:51.059   01 Jun 2027 17:44:55.897             4.838              Murmansk1           151.187
        62   01 Jun 2027 18:49:44.078   01 Jun 2027 18:51:53.788           129.710               CapeTown          4053.438
        63   01 Jun 2027 19:19:22.943   01 Jun 2027 19:20:01.185            38.242              Murmansk1          1195.063
        64   01 Jun 2027 19:20:49.393   01 Jun 2027 19:27:53.414           424.021              Murmansk1         13250.656
        65   01 Jun 2027 20:27:58.663   01 Jun 2027 20:31:48.442           229.779               CapeTown          7180.594
        66   01 Jun 2027 20:32:29.806   01 Jun 2027 20:32:38.387             8.581               CapeTown           268.156
        67   01 Jun 2027 21:08:40.774   01 Jun 2027 21:09:42.788            62.014               Magadan1          1937.937
        68   01 Jun 2027 21:09:42.788   01 Jun 2027 21:09:45.444             2.656               Magadan2            83.000
        69   01 Jun 2027 21:10:29.934   01 Jun 2027 21:10:54.963            25.029               Magadan2           782.156
        70   01 Jun 2027 21:10:54.963   01 Jun 2027 21:11:12.960            17.997               Magadan1           562.406
        71   01 Jun 2027 21:11:38.560   01 Jun 2027 21:11:44.531             5.971               Magadan1           186.594
        72   01 Jun 2027 21:13:02.312   01 Jun 2027 21:13:47.683            45.371               Magadan1          1417.844
        73   01 Jun 2027 22:42:10.250   01 Jun 2027 22:45:54.447           224.197                Anadyr1          7006.156
        74   01 Jun 2027 22:45:54.952   01 Jun 2027 22:48:08.658           133.706               Magadan1          4178.313
        75   01 Jun 2027 22:48:20.527   01 Jun 2027 22:48:41.731            21.204               Magadan2           662.625
        76   01 Jun 2027 22:49:27.174   01 Jun 2027 22:49:46.978            19.804               Magadan1           618.875
        77   01 Jun 2027 22:49:50.897   01 Jun 2027 22:50:03.248            12.351               Magadan1           385.969
        78   01 Jun 2027 22:50:31.378   01 Jun 2027 22:51:22.695            51.317                Irkutsk          1603.656
        79   01 Jun 2027 23:36:21.952   01 Jun 2027 23:39:20.130           178.178            RioGallegos          5568.063
        80   01 Jun 2027 23:45:51.181   01 Jun 2027 23:46:46.017            54.836            RioGallegos          1713.625
        81   02 Jun 2027 00:17:40.970   02 Jun 2027 00:18:05.895            24.925                Anadyr1           778.906
        82   02 Jun 2027 00:18:06.610   02 Jun 2027 00:18:22.730            16.120                Anadyr2           503.750
        83   02 Jun 2027 00:18:51.905   02 Jun 2027 00:19:18.987            27.082                Anadyr1           846.313
        84   02 Jun 2027 00:19:59.336   02 Jun 2027 00:21:45.478           106.142                Norilsk          3316.937
        85   02 Jun 2027 00:21:53.142   02 Jun 2027 00:22:29.944            36.802               Magadan2          1150.063
        86   02 Jun 2027 00:22:42.321   02 Jun 2027 00:23:03.403            21.082               Magadan2           658.813
        87   02 Jun 2027 00:23:30.650   02 Jun 2027 00:24:52.060            81.410               Magadan2          2544.063
        88   02 Jun 2027 00:25:09.723   02 Jun 2027 00:25:37.789            28.066                Irkutsk           877.062
        89   02 Jun 2027 00:26:27.227   02 Jun 2027 00:26:29.940             2.713                Irkutsk            84.781
        90   02 Jun 2027 00:26:44.633   02 Jun 2027 00:27:47.633            63.000                Novosib          1968.750
        91   02 Jun 2027 00:37:44.652   02 Jun 2027 00:40:50.799           186.147                Sumatra          5817.094
        92   02 Jun 2027 00:49:52.295   02 Jun 2027 00:50:03.788            11.493                Sumatra           359.156
        93   02 Jun 2027 01:11:55.055   02 Jun 2027 01:12:08.027            12.972            RioGallegos           405.375
        94   02 Jun 2027 01:12:19.720   02 Jun 2027 01:12:30.228            10.508            RioGallegos           328.375
        95   02 Jun 2027 01:14:04.734   02 Jun 2027 01:15:07.563            62.829            RioGallegos          1963.406
        96   02 Jun 2027 01:23:46.770   02 Jun 2027 01:24:27.163            40.393            RioGallegos          1262.281
        97   02 Jun 2027 01:52:49.456   02 Jun 2027 01:53:44.235            54.779                Anadyr2          1711.844
        98   02 Jun 2027 01:54:16.980   02 Jun 2027 01:54:30.047            13.067                Anadyr2           408.344
        99   02 Jun 2027 01:55:59.013   02 Jun 2027 01:57:17.502            78.489                Norilsk          2452.781
       100   02 Jun 2027 01:57:20.097   02 Jun 2027 01:57:21.475             1.378                Norilsk            43.062
       101   02 Jun 2027 01:57:33.936   02 Jun 2027 01:57:44.622            10.686                Norilsk           333.937
       102   02 Jun 2027 01:59:52.912   02 Jun 2027 02:02:06.755           133.843                Novosib          4182.594
       103   02 Jun 2027 02:03:04.410   02 Jun 2027 02:03:58.487            54.077                Novosib          1689.906
       104   02 Jun 2027 02:07:24.739   02 Jun 2027 02:07:57.161            32.422                  Delhi          1013.188
       105   02 Jun 2027 02:10:57.023   02 Jun 2027 02:11:33.395            36.372                  Delhi          1136.625
       106   02 Jun 2027 02:16:12.444   02 Jun 2027 02:16:52.668            40.224                  Delhi          1257.000
       107   02 Jun 2027 02:17:22.506   02 Jun 2027 02:20:53.010           210.504                Sumatra          6578.250
       108   02 Jun 2027 02:52:37.906   02 Jun 2027 02:52:53.254            15.348            RioGallegos           479.625
       109   02 Jun 2027 02:56:46.535   02 Jun 2027 02:57:45.393            58.858            RioGallegos          1839.313
       110   02 Jun 2027 03:38:51.793   02 Jun 2027 03:39:07.362            15.569              Murmansk2           486.531
       111   02 Jun 2027 03:39:31.020   02 Jun 2027 03:41:07.135            96.115                Irkutsk          3003.594
       112   02 Jun 2027 03:42:24.898   02 Jun 2027 03:44:04.669            99.771                 Moscow          3117.844
       113   02 Jun 2027 05:15:55.085   02 Jun 2027 05:16:24.815            29.730                Novosib           929.063
       114   02 Jun 2027 05:17:48.457   02 Jun 2027 05:19:03.713            75.256                Novosib          2351.750
       115   02 Jun 2027 05:19:41.143   02 Jun 2027 05:20:21.195            40.052              Murmansk2          1251.625
       116   02 Jun 2027 05:20:56.223   02 Jun 2027 05:22:29.100            92.877              Murmansk2          2902.406
       117   02 Jun 2027 05:24:08.712   02 Jun 2027 05:26:06.606           117.894                 Moscow          3684.188
       118   02 Jun 2027 06:40:23.772   02 Jun 2027 06:40:59.572            35.800               Magadan1          1118.750
       119   02 Jun 2027 06:41:05.826   02 Jun 2027 06:41:46.344            40.518                Anadyr1          1266.188
       120   02 Jun 2027 06:41:56.612   02 Jun 2027 06:42:12.384            15.772               Magadan1           492.875
       121   02 Jun 2027 06:42:41.554   02 Jun 2027 06:44:01.715            80.161                Anadyr2          2505.031
       122   02 Jun 2027 06:45:52.108   02 Jun 2027 06:46:12.416            20.308               Magadan2           634.625
       123   02 Jun 2027 06:52:48.421   02 Jun 2027 06:53:05.446            17.025              Murmansk2           532.031
       124   02 Jun 2027 06:54:35.467   02 Jun 2027 06:55:08.995            33.528                 Moscow          1047.750
       125   02 Jun 2027 06:57:51.665   02 Jun 2027 06:58:45.374            53.709              Murmansk1          1678.406
       126   02 Jun 2027 08:16:43.121   02 Jun 2027 08:17:13.683            30.562               Magadan2           955.062
       127   02 Jun 2027 08:17:32.001   02 Jun 2027 08:17:45.957            13.956                Norilsk           436.125
       128   02 Jun 2027 08:17:54.487   02 Jun 2027 08:20:32.383           157.896                Anadyr1          4934.250
       129   02 Jun 2027 08:20:32.383   02 Jun 2027 08:21:30.238            57.855                Anadyr2          1807.969
       130   02 Jun 2027 09:49:51.318   02 Jun 2027 09:52:26.027           154.709               Magadan2          4834.656
       131   02 Jun 2027 09:52:40.966   02 Jun 2027 09:57:58.321           317.355                Anadyr1          9917.344
       132   02 Jun 2027 11:27:19.121   02 Jun 2027 11:27:32.766            13.645                Norilsk           426.406
       133   02 Jun 2027 11:27:37.535   02 Jun 2027 11:27:42.006             4.471                Irkutsk           139.719
       134   02 Jun 2027 11:28:34.467   02 Jun 2027 11:32:58.956           264.489               Magadan2          8265.281
       135   02 Jun 2027 11:33:14.575   02 Jun 2027 11:33:37.659            23.084                Novosib           721.375
       136   02 Jun 2027 11:33:40.291   02 Jun 2027 11:34:14.840            34.549              Murmansk2          1079.656
       137   02 Jun 2027 11:34:55.911   02 Jun 2027 11:35:33.573            37.662              Murmansk2          1176.938
       138   02 Jun 2027 12:08:59.777   02 Jun 2027 12:09:39.207            39.430            RioGallegos          1232.188
       139   02 Jun 2027 12:12:53.872   02 Jun 2027 12:13:10.982            17.110            RioGallegos           534.688
       140   02 Jun 2027 12:43:43.684   02 Jun 2027 12:44:26.010            42.326                Sumatra          1322.688
       141   02 Jun 2027 12:46:32.841   02 Jun 2027 12:46:37.782             4.941                Sumatra           154.406
       142   02 Jun 2027 12:55:22.802   02 Jun 2027 12:55:51.442            28.640                Sumatra           895.000
       143   02 Jun 2027 12:57:53.160   02 Jun 2027 13:00:22.356           149.196                Irkutsk          4662.375
       144   02 Jun 2027 13:01:47.167   02 Jun 2027 13:02:22.127            34.960                Irkutsk          1092.500
       145   02 Jun 2027 13:03:10.274   02 Jun 2027 13:03:57.887            47.613                Norilsk          1487.906
       146   02 Jun 2027 13:09:21.346   02 Jun 2027 13:09:33.294            11.948                Norilsk           373.375
       147   02 Jun 2027 13:13:32.896   02 Jun 2027 13:14:48.756            75.860                Norilsk          2370.625
       148   02 Jun 2027 13:48:50.619   02 Jun 2027 13:49:28.434            37.815            RioGallegos          1181.719
       149   02 Jun 2027 13:52:52.217   02 Jun 2027 13:53:06.299            14.082            RioGallegos           440.062
       150   02 Jun 2027 14:30:07.332   02 Jun 2027 14:32:23.489           136.157                  Delhi          4254.906
       151   02 Jun 2027 14:35:44.281   02 Jun 2027 14:36:37.348            53.067                Novosib          1658.344
       152   02 Jun 2027 14:39:47.479   02 Jun 2027 14:40:22.452            34.973                Norilsk          1092.906
       153   02 Jun 2027 14:40:36.002   02 Jun 2027 14:40:43.824             7.822                Norilsk           244.438
       154   02 Jun 2027 14:40:55.158   02 Jun 2027 14:41:32.630            37.472                Norilsk          1171.000
       155   02 Jun 2027 14:43:19.046   02 Jun 2027 14:44:19.678            60.632                Norilsk          1894.750
       156   02 Jun 2027 14:49:04.751   02 Jun 2027 14:49:20.042            15.291                Norilsk           477.844
       157   02 Jun 2027 16:12:20.384   02 Jun 2027 16:14:34.122           133.738                 Moscow          4179.312
       158   02 Jun 2027 16:14:46.245   02 Jun 2027 16:15:37.694            51.449                 Moscow          1607.781
       159   02 Jun 2027 16:15:45.683   02 Jun 2027 16:16:44.426            58.743              Murmansk2          1835.719
       160   02 Jun 2027 16:16:44.426   02 Jun 2027 16:16:53.702             9.276              Murmansk1           289.875
       161   02 Jun 2027 16:19:34.025   02 Jun 2027 16:21:06.007            91.982                Norilsk          2874.438
       162   02 Jun 2027 16:23:09.088   02 Jun 2027 16:25:14.199           125.111                Norilsk          3909.719
       163   02 Jun 2027 17:27:01.687   02 Jun 2027 17:27:32.808            31.121               CapeTown           972.531
       164   02 Jun 2027 17:28:03.501   02 Jun 2027 17:30:02.854           119.353               CapeTown          3729.781
       165   02 Jun 2027 17:49:34.195   02 Jun 2027 17:49:56.747            22.552                 Moscow           704.750
       166   02 Jun 2027 17:52:45.489   02 Jun 2027 17:53:03.466            17.977              Murmansk1           561.781
       167   02 Jun 2027 17:53:20.418   02 Jun 2027 17:54:36.783            76.365                 Moscow          2386.406
       168   02 Jun 2027 17:55:01.884   02 Jun 2027 17:56:44.612           102.728              Murmansk1          3210.250
       169   02 Jun 2027 18:11:02.324   02 Jun 2027 18:11:11.967             9.643                Anadyr2           301.344
       170   02 Jun 2027 18:11:51.732   02 Jun 2027 18:11:54.585             2.853                Anadyr1            89.156
       171   02 Jun 2027 18:12:22.951   02 Jun 2027 18:12:49.143            26.192                Anadyr2           818.500
       172   02 Jun 2027 19:01:48.445   02 Jun 2027 19:03:45.350           116.905               CapeTown          3653.281
       173   02 Jun 2027 19:08:05.961   02 Jun 2027 19:10:20.514           134.553               CapeTown          4204.781
       174   02 Jun 2027 19:31:58.982   02 Jun 2027 19:32:56.889            57.907              Murmansk1          1809.594
       175   02 Jun 2027 19:34:28.976   02 Jun 2027 19:37:29.782           180.806              Murmansk2          5650.188
       176   02 Jun 2027 19:37:45.969   02 Jun 2027 19:39:48.053           122.084              Murmansk2          3815.125
       177   02 Jun 2027 20:41:24.930   02 Jun 2027 20:43:45.102           140.172               CapeTown          4380.375
       178   02 Jun 2027 21:18:18.253   02 Jun 2027 21:19:01.836            43.583                Anadyr2          1361.969
       179   02 Jun 2027 21:19:09.199   02 Jun 2027 21:19:22.924            13.725                Anadyr2           428.906
       180   02 Jun 2027 21:20:39.445   02 Jun 2027 21:21:32.261            52.816               Magadan2          1650.500
       181   02 Jun 2027 21:21:32.261   02 Jun 2027 21:22:19.695            47.434               Magadan1          1482.312
       182   02 Jun 2027 21:22:48.077   02 Jun 2027 21:23:03.859            15.782               Magadan2           493.188
       183   02 Jun 2027 21:23:27.779   02 Jun 2027 21:23:33.262             5.483               Magadan1           171.344
       184   02 Jun 2027 21:23:33.262   02 Jun 2027 21:24:33.109            59.847               Magadan2          1870.219
       185   02 Jun 2027 22:54:10.623   02 Jun 2027 22:58:50.697           280.074                Anadyr1          8752.313
       186   02 Jun 2027 22:58:55.753   02 Jun 2027 22:59:09.783            14.030                Anadyr2           438.438
       187   02 Jun 2027 22:59:11.407   02 Jun 2027 23:00:11.099            59.692               Magadan1          1865.375
       188   02 Jun 2027 23:00:21.573   02 Jun 2027 23:00:57.263            35.690                Norilsk          1115.313
       189   02 Jun 2027 23:01:34.623   02 Jun 2027 23:01:42.735             8.112               Magadan2           253.500
       190   02 Jun 2027 23:01:48.268   02 Jun 2027 23:01:56.026             7.758                Irkutsk           242.437
       191   02 Jun 2027 23:02:52.387   02 Jun 2027 23:04:05.697            73.310                Irkutsk          2290.937
       192   02 Jun 2027 23:04:26.408   02 Jun 2027 23:05:30.710            64.302                Irkutsk          2009.437
       193   02 Jun 2027 23:17:57.751   02 Jun 2027 23:19:10.022            72.271                Sumatra          2258.469
       194   02 Jun 2027 23:20:46.784   02 Jun 2027 23:21:49.812            63.028                Sumatra          1969.625
       195   02 Jun 2027 23:57:46.564   02 Jun 2027 23:58:15.945            29.381            RioGallegos           918.156
       196   03 Jun 2027 00:00:06.063   03 Jun 2027 00:00:16.833            10.770            RioGallegos           336.562
       197   03 Jun 2027 00:29:36.087   03 Jun 2027 00:31:01.584            85.497                Anadyr1          2671.781
       198   03 Jun 2027 00:32:00.977   03 Jun 2027 00:33:47.729           106.752                Norilsk          3336.000
       199   03 Jun 2027 00:34:03.955   03 Jun 2027 00:34:27.410            23.455               Magadan2           732.969
       200   03 Jun 2027 00:34:35.781   03 Jun 2027 00:34:41.385             5.604               Magadan1           175.125
       201   03 Jun 2027 00:34:53.109   03 Jun 2027 00:36:29.066            95.957               Magadan1          2998.656
       202   03 Jun 2027 00:36:57.746   03 Jun 2027 00:38:49.557           111.811                Novosib          3494.094
       203   03 Jun 2027 00:49:44.130   03 Jun 2027 00:52:06.501           142.371                Sumatra          4449.094
       204   03 Jun 2027 01:27:54.685   03 Jun 2027 01:28:41.848            47.163            RioGallegos          1473.844
       205   03 Jun 2027 01:32:55.917   03 Jun 2027 01:33:19.002            23.085            RioGallegos           721.406
       206   03 Jun 2027 02:03:57.256   03 Jun 2027 02:04:49.817            52.561                Anadyr2          1642.531
       207   03 Jun 2027 02:05:45.556   03 Jun 2027 02:05:59.534            13.978                Anadyr2           436.813
       208   03 Jun 2027 02:07:49.019   03 Jun 2027 02:08:14.649            25.630                Anadyr1           800.938
       209   03 Jun 2027 02:08:41.736   03 Jun 2027 02:09:05.560            23.824               Magadan1           744.500
       210   03 Jun 2027 02:09:05.885   03 Jun 2027 02:09:46.818            40.933                Norilsk          1279.156
       211   03 Jun 2027 02:11:09.113   03 Jun 2027 02:11:22.423            13.310                Norilsk           415.937
       212   03 Jun 2027 02:11:25.224   03 Jun 2027 02:13:06.221           100.997              Murmansk1          3156.156
       213   03 Jun 2027 02:13:12.383   03 Jun 2027 02:13:35.882            23.499                Novosib           734.344
       214   03 Jun 2027 02:14:17.913   03 Jun 2027 02:14:56.277            38.364                Novosib          1198.875
       215   03 Jun 2027 02:19:01.419   03 Jun 2027 02:19:50.061            48.642                Novosib          1520.063
       216   03 Jun 2027 02:25:39.685   03 Jun 2027 02:26:01.992            22.307                  Delhi           697.094
       217   03 Jun 2027 02:31:13.255   03 Jun 2027 02:31:33.683            20.428                  Delhi           638.375
       218   03 Jun 2027 03:00:46.070   03 Jun 2027 03:01:58.146            72.076            RioGallegos          2252.375
       219   03 Jun 2027 03:02:49.482   03 Jun 2027 03:03:14.081            24.599            RioGallegos           768.719
       220   03 Jun 2027 03:03:21.472   03 Jun 2027 03:05:15.759           114.287            RioGallegos          3571.469
       221   03 Jun 2027 03:08:25.887   03 Jun 2027 03:09:09.403            43.516            RioGallegos          1359.875
       222   03 Jun 2027 03:50:59.897   03 Jun 2027 03:51:08.429             8.532                Irkutsk           266.625
       223   03 Jun 2027 03:52:57.988   03 Jun 2027 03:53:29.685            31.697              Murmansk2           990.531
       224   03 Jun 2027 03:53:34.288   03 Jun 2027 03:54:15.372            41.084                Norilsk          1283.875
       225   03 Jun 2027 03:54:35.895   03 Jun 2027 03:54:51.739            15.844              Murmansk2           495.125
       226   03 Jun 2027 03:55:13.793   03 Jun 2027 03:55:55.245            41.452                Norilsk          1295.375
       227   03 Jun 2027 03:56:11.312   03 Jun 2027 03:58:17.303           125.991                  Delhi          3937.219
       228   03 Jun 2027 05:27:10.770   03 Jun 2027 05:28:25.573            74.803                Novosib          2337.594
       229   03 Jun 2027 05:29:46.454   03 Jun 2027 05:30:01.003            14.549                Novosib           454.656
       230   03 Jun 2027 05:30:20.644   03 Jun 2027 05:30:55.944            35.300              Murmansk2          1103.125
       231   03 Jun 2027 05:31:00.183   03 Jun 2027 05:31:10.330            10.147                 Moscow           317.094
       232   03 Jun 2027 05:31:12.798   03 Jun 2027 05:32:49.168            96.370              Murmansk2          3011.563
       233   03 Jun 2027 05:33:03.380   03 Jun 2027 05:34:12.704            69.324              Murmansk1          2166.375
       234   03 Jun 2027 05:34:12.704   03 Jun 2027 05:34:30.569            17.865              Murmansk2           558.281
       235   03 Jun 2027 05:36:46.836   03 Jun 2027 05:36:56.983            10.147                 Moscow           317.094
       236   03 Jun 2027 05:49:18.538   03 Jun 2027 05:52:09.930           171.392               CapeTown          5356.000
       237   03 Jun 2027 06:52:23.466   03 Jun 2027 06:52:49.765            26.299                Anadyr2           821.844
       238   03 Jun 2027 06:53:07.461   03 Jun 2027 06:53:57.260            49.799                Anadyr2          1556.219
       239   03 Jun 2027 06:54:55.687   03 Jun 2027 06:56:10.323            74.636               Magadan1          2332.375
       240   03 Jun 2027 07:08:44.724   03 Jun 2027 07:09:08.781            24.057                 Moscow           751.781
       241   03 Jun 2027 07:28:42.135   03 Jun 2027 07:30:03.457            81.322               CapeTown          2541.313
       242   03 Jun 2027 08:26:26.296   03 Jun 2027 08:27:04.009            37.713                Anadyr2          1178.531
       243   03 Jun 2027 08:27:36.434   03 Jun 2027 08:27:45.307             8.873               Magadan2           277.281
       244   03 Jun 2027 08:27:45.752   03 Jun 2027 08:28:21.674            35.922                Anadyr1          1122.563
       245   03 Jun 2027 08:28:21.674   03 Jun 2027 08:28:53.589            31.915                Anadyr2           997.344
       246   03 Jun 2027 08:29:21.439   03 Jun 2027 08:30:18.024            56.585               Magadan2          1768.281
       247   03 Jun 2027 08:30:38.826   03 Jun 2027 08:31:00.179            21.353               Magadan2           667.281
       248   03 Jun 2027 08:31:13.922   03 Jun 2027 08:32:29.378            75.456               Magadan2          2358.000
       249   03 Jun 2027 09:13:16.166   03 Jun 2027 09:13:39.154            22.988            RioGallegos           718.375
       250   03 Jun 2027 09:15:29.275   03 Jun 2027 09:15:41.435            12.160            RioGallegos           380.000
       251   03 Jun 2027 09:18:06.305   03 Jun 2027 09:18:14.755             8.450            RioGallegos           264.063
       252   03 Jun 2027 10:00:44.991   03 Jun 2027 10:01:39.335            54.344               Magadan1          1698.250
       253   03 Jun 2027 10:02:41.124   03 Jun 2027 10:03:01.643            20.519               Magadan1           641.219
       254   03 Jun 2027 10:03:16.857   03 Jun 2027 10:03:41.989            25.132               Magadan2           785.375
       255   03 Jun 2027 10:03:41.989   03 Jun 2027 10:06:33.507           171.518               Magadan1          5359.938
       256   03 Jun 2027 10:06:43.547   03 Jun 2027 10:09:43.975           180.428                Anadyr2          5638.375
       257   03 Jun 2027 10:09:58.938   03 Jun 2027 10:10:21.605            22.667                Norilsk           708.344
       258   03 Jun 2027 10:12:05.284   03 Jun 2027 10:12:39.168            33.884              Murmansk2          1058.875
       259   03 Jun 2027 10:45:26.052   03 Jun 2027 10:45:33.230             7.178            RioGallegos           224.312
       260   03 Jun 2027 10:47:29.865   03 Jun 2027 10:48:04.037            34.172            RioGallegos          1067.875
       261   03 Jun 2027 10:53:40.365   03 Jun 2027 10:53:49.734             9.369            RioGallegos           292.781
       262   03 Jun 2027 11:23:10.507   03 Jun 2027 11:24:39.867            89.360                Sumatra          2792.500
       263   03 Jun 2027 11:39:06.794   03 Jun 2027 11:44:29.785           322.991               Magadan1         10093.469
       264   03 Jun 2027 11:44:57.029   03 Jun 2027 11:45:58.081            61.052              Murmansk1          1907.875
       265   03 Jun 2027 11:46:14.690   03 Jun 2027 11:46:43.586            28.896              Murmansk2           903.000
       266   03 Jun 2027 11:46:54.657   03 Jun 2027 11:47:15.009            20.352              Murmansk1           636.000
       267   03 Jun 2027 12:21:12.375   03 Jun 2027 12:21:56.889            44.514            RioGallegos          1391.062
       268   03 Jun 2027 12:22:40.013   03 Jun 2027 12:24:01.663            81.650            RioGallegos          2551.562
       269   03 Jun 2027 12:55:46.002   03 Jun 2027 12:57:34.383           108.381                Sumatra          3386.906
       270   03 Jun 2027 13:08:55.590   03 Jun 2027 13:09:53.710            58.120                  Delhi          1816.250
       271   03 Jun 2027 13:10:14.132   03 Jun 2027 13:10:24.108             9.976                Irkutsk           311.750
       272   03 Jun 2027 13:12:02.697   03 Jun 2027 13:13:01.141            58.444                Novosib          1826.375
       273   03 Jun 2027 13:14:23.055   03 Jun 2027 13:15:28.477            65.422                Irkutsk          2044.438
       274   03 Jun 2027 13:18:11.574   03 Jun 2027 13:18:46.971            35.397                Irkutsk          1106.156
       275   03 Jun 2027 13:26:49.470   03 Jun 2027 13:27:07.626            18.156                Norilsk           567.375
       276   03 Jun 2027 14:02:11.625   03 Jun 2027 14:04:34.357           142.732            RioGallegos          4460.375
       277   03 Jun 2027 14:48:09.358   03 Jun 2027 14:49:16.296            66.938                Novosib          2091.813
       278   03 Jun 2027 14:51:49.870   03 Jun 2027 14:55:36.763           226.893                Novosib          7090.406
       279   03 Jun 2027 14:57:36.519   03 Jun 2027 14:58:30.373            53.854                Novosib          1682.937
       280   03 Jun 2027 16:24:20.709   03 Jun 2027 16:27:06.219           165.510                 Moscow          5172.187
       281   03 Jun 2027 16:27:49.399   03 Jun 2027 16:28:43.198            53.799              Murmansk1          1681.219
       282   03 Jun 2027 16:32:18.574   03 Jun 2027 16:37:46.278           327.704                Norilsk         10240.750
       283   03 Jun 2027 18:02:03.024   03 Jun 2027 18:02:57.599            54.575                 Moscow          1705.469
       284   03 Jun 2027 18:05:03.805   03 Jun 2027 18:05:55.984            52.179              Murmansk2          1630.594
       285   03 Jun 2027 18:06:26.447   03 Jun 2027 18:07:04.425            37.978                 Moscow          1186.813
       286   03 Jun 2027 18:08:43.669   03 Jun 2027 18:09:25.669            42.000              Murmansk2          1312.500
       287   03 Jun 2027 18:13:31.184   03 Jun 2027 18:14:38.418            67.234              Murmansk1          2101.063
       288   03 Jun 2027 18:23:42.238   03 Jun 2027 18:23:55.647            13.409                Anadyr1           419.031
       289   03 Jun 2027 18:28:17.335   03 Jun 2027 18:28:23.047             5.712                Anadyr2           178.500
       290   03 Jun 2027 19:13:55.676   03 Jun 2027 19:15:40.399           104.723               CapeTown          3272.594
       291   03 Jun 2027 19:18:08.490   03 Jun 2027 19:18:10.347             1.857               CapeTown            58.031
       292   03 Jun 2027 19:22:05.776   03 Jun 2027 19:22:42.890            37.114               CapeTown          1159.812
       293   03 Jun 2027 19:22:49.765   03 Jun 2027 19:23:21.401            31.636               CapeTown           988.625
       294   03 Jun 2027 19:44:38.534   03 Jun 2027 19:46:05.584            87.050              Murmansk1          2720.312
       295   03 Jun 2027 19:46:21.636   03 Jun 2027 19:50:16.600           234.964              Murmansk2          7342.625
       296   03 Jun 2027 20:01:10.467   03 Jun 2027 20:01:23.309            12.842               Magadan2           401.312
       297   03 Jun 2027 20:02:18.438   03 Jun 2027 20:02:55.876            37.438               Magadan2          1169.938
       298   03 Jun 2027 21:30:20.050   03 Jun 2027 21:31:59.914            99.864                Anadyr2          3120.750
       299   03 Jun 2027 21:32:08.256   03 Jun 2027 21:34:32.101           143.845                Anadyr1          4495.156
       300   03 Jun 2027 21:34:36.718   03 Jun 2027 21:36:07.451            90.733               Magadan1          2835.406
       301   03 Jun 2027 21:37:02.020   03 Jun 2027 21:38:05.399            63.379               Magadan2          1980.594
       302   03 Jun 2027 21:38:22.058   03 Jun 2027 21:39:03.728            41.670               Magadan1          1302.188
       303   03 Jun 2027 21:40:49.983   03 Jun 2027 21:42:27.125            97.142               Magadan2          3035.687
       304   03 Jun 2027 22:26:51.990   03 Jun 2027 22:28:24.636            92.646            RioGallegos          2895.187
       305   03 Jun 2027 22:31:33.334   03 Jun 2027 22:31:36.713             3.379            RioGallegos           105.594
       306   03 Jun 2027 23:06:10.599   03 Jun 2027 23:08:33.087           142.488                Anadyr2          4452.750
       307   03 Jun 2027 23:08:33.360   03 Jun 2027 23:10:40.273           126.913               Magadan2          3966.031
       308   03 Jun 2027 23:13:11.320   03 Jun 2027 23:13:39.417            28.097               Magadan2           878.031
       309   03 Jun 2027 23:13:52.424   03 Jun 2027 23:14:56.350            63.926                Irkutsk          1997.688
       310   03 Jun 2027 23:18:36.583   03 Jun 2027 23:18:44.436             7.853                Irkutsk           245.406
       311   03 Jun 2027 23:28:34.733   03 Jun 2027 23:30:29.338           114.605                Sumatra          3581.406
       312   03 Jun 2027 23:34:15.987   03 Jun 2027 23:35:55.951            99.964                Sumatra          3123.875
       313   04 Jun 2027 00:41:30.139   04 Jun 2027 00:42:56.520            86.381                Anadyr1          2699.406
       314   04 Jun 2027 00:43:32.948   04 Jun 2027 00:43:44.925            11.977                Anadyr1           374.281
       315   04 Jun 2027 00:44:02.857   04 Jun 2027 00:45:44.825           101.968                Norilsk          3186.500
       316   04 Jun 2027 00:46:26.498   04 Jun 2027 00:46:41.487            14.989               Magadan1           468.406
       317   04 Jun 2027 00:47:59.452   04 Jun 2027 00:49:09.698            70.246                Irkutsk          2195.187
       318   04 Jun 2027 00:49:19.651   04 Jun 2027 00:50:56.003            96.352                Irkutsk          3011.000
       319   04 Jun 2027 00:54:39.923   04 Jun 2027 00:55:17.433            37.510                Novosib          1172.188
       320   04 Jun 2027 00:59:19.113   04 Jun 2027 00:59:52.673            33.560                  Delhi          1048.750
       321   04 Jun 2027 01:04:50.633   04 Jun 2027 01:06:18.565            87.932                Sumatra          2747.875
       322   04 Jun 2027 01:40:31.373   04 Jun 2027 01:41:03.589            32.216            RioGallegos          1006.750
       323   04 Jun 2027 01:45:06.232   04 Jun 2027 01:45:41.421            35.189            RioGallegos          1099.656
       324   04 Jun 2027 02:15:41.407   04 Jun 2027 02:15:55.039            13.632                Anadyr1           426.000
       325   04 Jun 2027 02:16:47.123   04 Jun 2027 02:17:42.954            55.831                Anadyr2          1744.719
       326   04 Jun 2027 02:18:11.934   04 Jun 2027 02:18:16.873             4.939                Anadyr1           154.344
       327   04 Jun 2027 02:20:03.744   04 Jun 2027 02:21:16.321            72.577                Norilsk          2268.031
       328   04 Jun 2027 02:21:21.792   04 Jun 2027 02:21:34.316            12.524               Magadan2           391.375
       329   04 Jun 2027 02:22:34.706   04 Jun 2027 02:22:37.837             3.131                Norilsk            97.844
       330   04 Jun 2027 02:23:02.861   04 Jun 2027 02:23:17.167            14.306                Norilsk           447.063
       331   04 Jun 2027 02:23:29.514   04 Jun 2027 02:23:52.765            23.251              Murmansk1           726.594
       332   04 Jun 2027 02:23:56.052   04 Jun 2027 02:24:04.253             8.201              Murmansk2           256.281
       333   04 Jun 2027 02:24:04.505   04 Jun 2027 02:25:42.097            97.592                Irkutsk          3049.750
       334   04 Jun 2027 02:29:21.060   04 Jun 2027 02:29:56.081            35.021                Irkutsk          1094.406
       335   04 Jun 2027 02:31:57.528   04 Jun 2027 02:33:43.559           106.031                  Delhi          3313.469
       336   04 Jun 2027 03:13:02.121   04 Jun 2027 03:13:29.837            27.716            RioGallegos           866.125
       337   04 Jun 2027 03:15:32.441   04 Jun 2027 03:17:48.223           135.782            RioGallegos          4243.187
       338   04 Jun 2027 03:20:08.529   04 Jun 2027 03:20:27.767            19.238            RioGallegos           601.188
       339   04 Jun 2027 04:05:46.552   04 Jun 2027 04:06:20.745            34.193              Murmansk1          1068.531
       340   04 Jun 2027 04:06:45.779   04 Jun 2027 04:08:52.567           126.788              Murmansk2          3962.125
       341   04 Jun 2027 04:09:07.635   04 Jun 2027 04:10:13.431            65.796                 Moscow          2056.125
       342   04 Jun 2027 04:10:26.022   04 Jun 2027 04:10:43.431            17.409                Novosib           544.031
       343   04 Jun 2027 04:11:48.104   04 Jun 2027 04:16:46.268           298.164                  Delhi          9317.625
       344   04 Jun 2027 05:41:15.283   04 Jun 2027 05:41:38.890            23.607                Novosib           737.719
       345   04 Jun 2027 05:42:09.996   04 Jun 2027 05:43:31.912            81.916                Novosib          2559.875
       346   04 Jun 2027 05:43:45.481   04 Jun 2027 05:44:45.291            59.810              Murmansk2          1869.062
       347   04 Jun 2027 05:44:45.291   04 Jun 2027 05:45:32.419            47.128              Murmansk1          1472.750
       348   04 Jun 2027 06:01:16.433   04 Jun 2027 06:03:56.911           160.478               CapeTown          5014.938
       349   04 Jun 2027 07:04:18.238   04 Jun 2027 07:05:08.960            50.722                Anadyr1          1585.062
       350   04 Jun 2027 07:05:13.154   04 Jun 2027 07:06:10.522            57.368                Anadyr1          1792.750
       351   04 Jun 2027 07:06:29.968   04 Jun 2027 07:06:34.664             4.696               Magadan2           146.750
       352   04 Jun 2027 07:06:40.333   04 Jun 2027 07:07:05.066            24.733                Anadyr2           772.906
       353   04 Jun 2027 07:08:53.534   04 Jun 2027 07:09:29.471            35.937                Anadyr2          1123.031
       354   04 Jun 2027 07:14:39.556   04 Jun 2027 07:15:10.029            30.473                 Moscow           952.281
       355   04 Jun 2027 07:40:37.148   04 Jun 2027 07:41:55.661            78.513               CapeTown          2453.531
       356   04 Jun 2027 08:40:14.813   04 Jun 2027 08:40:38.787            23.974                Anadyr2           749.188
       357   04 Jun 2027 08:40:38.787   04 Jun 2027 08:40:51.516            12.729                Anadyr1           397.781
       358   04 Jun 2027 08:41:18.740   04 Jun 2027 08:42:58.491            99.751                Anadyr2          3117.219
       359   04 Jun 2027 08:42:58.491   04 Jun 2027 08:44:23.556            85.065                Anadyr1          2658.281
       360   04 Jun 2027 10:14:42.110   04 Jun 2027 10:18:32.994           230.884               Magadan1          7215.125
       361   04 Jun 2027 10:19:22.044   04 Jun 2027 10:21:21.758           119.714                Anadyr2          3741.063
       362   04 Jun 2027 10:21:36.226   04 Jun 2027 10:21:50.450            14.224                Norilsk           444.500
       363   04 Jun 2027 10:21:59.905   04 Jun 2027 10:22:15.581            15.676                Norilsk           489.875
       364   04 Jun 2027 10:22:21.578   04 Jun 2027 10:22:36.721            15.143              Murmansk2           473.219
       365   04 Jun 2027 10:26:04.287   04 Jun 2027 10:26:13.503             9.216              Murmansk1           288.000
       366   04 Jun 2027 10:57:15.024   04 Jun 2027 10:58:00.124            45.100            RioGallegos          1409.375
       367   04 Jun 2027 11:00:09.135   04 Jun 2027 11:00:20.610            11.475            RioGallegos           358.594
       368   04 Jun 2027 11:01:52.566   04 Jun 2027 11:02:36.170            43.604            RioGallegos          1362.625
       369   04 Jun 2027 11:34:05.912   04 Jun 2027 11:36:04.650           118.738                Sumatra          3710.563
       370   04 Jun 2027 11:51:22.017   04 Jun 2027 11:51:56.015            33.998                Novosib          1062.438
       371   04 Jun 2027 11:52:23.312   04 Jun 2027 11:53:29.153            65.841                Novosib          2057.531
       372   04 Jun 2027 11:53:35.092   04 Jun 2027 11:53:37.841             2.749                Norilsk            85.906
       373   04 Jun 2027 11:53:37.963   04 Jun 2027 11:54:21.686            43.723                Irkutsk          1366.344
       374   04 Jun 2027 11:54:40.096   04 Jun 2027 11:55:00.159            20.063                Norilsk           626.969
       375   04 Jun 2027 11:55:22.146   04 Jun 2027 11:55:30.407             8.261                Norilsk           258.156
       376   04 Jun 2027 11:55:34.072   04 Jun 2027 11:55:38.385             4.313                Novosib           134.781
       377   04 Jun 2027 11:55:40.746   04 Jun 2027 11:56:23.699            42.953                Novosib          1342.281
       378   04 Jun 2027 11:56:29.847   04 Jun 2027 11:56:57.570            27.723              Murmansk2           866.344
       379   04 Jun 2027 11:57:00.930   04 Jun 2027 11:57:05.212             4.282                Novosib           133.813
       380   04 Jun 2027 11:57:07.378   04 Jun 2027 11:57:25.774            18.396                Norilsk           574.875
       381   04 Jun 2027 11:57:34.109   04 Jun 2027 11:58:29.208            55.099              Murmansk1          1721.844
       382   04 Jun 2027 12:01:07.271   04 Jun 2027 12:01:40.265            32.994              Murmansk2          1031.062
       383   04 Jun 2027 12:02:18.984   04 Jun 2027 12:02:40.175            21.191              Murmansk2           662.219
       384   04 Jun 2027 12:03:33.847   04 Jun 2027 12:03:55.542            21.695              Murmansk2           677.969
       385   04 Jun 2027 12:04:45.750   04 Jun 2027 12:05:00.725            14.975              Murmansk2           467.969
       386   04 Jun 2027 12:05:15.059   04 Jun 2027 12:05:36.446            21.387              Murmansk2           668.344
       387   04 Jun 2027 12:06:04.340   04 Jun 2027 12:06:06.176             1.836              Murmansk2            57.375
       388   04 Jun 2027 12:38:50.525   04 Jun 2027 12:39:27.915            37.390            RioGallegos          1168.438
       389   04 Jun 2027 12:41:50.098   04 Jun 2027 12:42:39.605            49.507            RioGallegos          1547.094
       390   04 Jun 2027 12:44:18.477   04 Jun 2027 12:45:15.120            56.643            RioGallegos          1770.094
       391   04 Jun 2027 13:13:30.927   04 Jun 2027 13:16:01.508           150.581                Sumatra          4705.656
       392   04 Jun 2027 13:22:39.878   04 Jun 2027 13:22:59.049            19.171                Irkutsk           599.094
       393   04 Jun 2027 13:23:17.250   04 Jun 2027 13:23:20.885             3.635                Irkutsk           113.594
       394   04 Jun 2027 13:26:23.010   04 Jun 2027 13:27:30.290            67.280                Irkutsk          2102.500
       395   04 Jun 2027 13:30:18.919   04 Jun 2027 13:32:38.343           139.424                Irkutsk          4357.000
       396   04 Jun 2027 14:52:30.153   04 Jun 2027 14:53:13.282            43.129                  Delhi          1347.781
       397   04 Jun 2027 14:56:59.273   04 Jun 2027 14:57:31.769            32.496                  Delhi          1015.500
       398   04 Jun 2027 14:59:53.299   04 Jun 2027 15:02:24.119           150.820                  Delhi          4713.125
       399   04 Jun 2027 15:03:49.123   04 Jun 2027 15:05:38.975           109.852                Novosib          3432.875
       400   04 Jun 2027 15:09:22.829   04 Jun 2027 15:09:39.844            17.015                Norilsk           531.719
       401   04 Jun 2027 15:10:45.690   04 Jun 2027 15:11:03.136            17.446                Novosib           545.188
       402   04 Jun 2027 15:13:34.513   04 Jun 2027 15:13:53.406            18.893                Norilsk           590.406
       403   04 Jun 2027 16:36:23.975   04 Jun 2027 16:39:33.585           189.610                 Moscow          5925.312
       404   04 Jun 2027 16:41:11.115   04 Jun 2027 16:42:04.481            53.366              Murmansk1          1667.688
       405   04 Jun 2027 16:45:08.112   04 Jun 2027 16:49:34.776           266.664                Norilsk          8333.250
       406   04 Jun 2027 18:00:22.279   04 Jun 2027 18:00:40.156            17.877               CapeTown           558.656
       407   04 Jun 2027 18:02:05.062   04 Jun 2027 18:02:09.362             4.300               CapeTown           134.375
       408   04 Jun 2027 18:14:37.283   04 Jun 2027 18:16:21.920           104.637                 Moscow          3269.906
       409   04 Jun 2027 18:17:24.287   04 Jun 2027 18:19:09.663           105.376              Murmansk1          3293.000
       410   04 Jun 2027 18:26:15.471   04 Jun 2027 18:27:00.540            45.069              Murmansk2          1408.406
       411   04 Jun 2027 18:31:23.331   04 Jun 2027 18:31:37.313            13.982                Anadyr1           436.938
       412   04 Jun 2027 18:39:07.981   04 Jun 2027 18:40:09.062            61.081                Anadyr2          1908.781
       413   04 Jun 2027 19:26:05.997   04 Jun 2027 19:27:38.549            92.552               CapeTown          2892.250
       414   04 Jun 2027 19:29:48.586   04 Jun 2027 19:30:30.389            41.803               CapeTown          1306.344
       415   04 Jun 2027 19:34:37.215   04 Jun 2027 19:35:31.267            54.052               CapeTown          1689.125
       416   04 Jun 2027 19:57:22.189   04 Jun 2027 20:03:55.861           393.672              Murmansk2         12302.250
       417   04 Jun 2027 21:42:21.767   04 Jun 2027 21:45:27.427           185.660                Anadyr1          5801.875
       418   04 Jun 2027 21:45:29.376   04 Jun 2027 21:45:33.682             4.306                Anadyr1           134.563
       419   04 Jun 2027 21:45:47.311   04 Jun 2027 21:46:20.169            32.858                Anadyr1          1026.812
       420   04 Jun 2027 21:46:25.046   04 Jun 2027 21:47:35.057            70.011               Magadan2          2187.844
       421   04 Jun 2027 21:47:35.057   04 Jun 2027 21:48:25.229            50.172               Magadan1          1567.875
       422   04 Jun 2027 21:49:00.116   04 Jun 2027 21:49:11.325            11.209               Magadan2           350.281
       423   04 Jun 2027 21:49:43.737   04 Jun 2027 21:49:46.593             2.856               Magadan2            89.250
       424   04 Jun 2027 21:49:48.378   04 Jun 2027 21:49:51.953             3.575               Magadan2           111.719
       425   04 Jun 2027 21:54:29.168   04 Jun 2027 21:54:47.953            18.785               Magadan2           587.031
       426   04 Jun 2027 22:38:03.682   04 Jun 2027 22:40:23.291           139.609            RioGallegos          4362.781
       427   04 Jun 2027 22:40:33.443   04 Jun 2027 22:40:51.124            17.681            RioGallegos           552.531
       428   04 Jun 2027 22:43:27.779   04 Jun 2027 22:44:07.043            39.264            RioGallegos          1227.000
       429   04 Jun 2027 23:18:10.115   04 Jun 2027 23:19:53.075           102.960                Anadyr1          3217.500
       430   04 Jun 2027 23:20:15.502   04 Jun 2027 23:21:48.701            93.199                Norilsk          2912.469
       431   04 Jun 2027 23:22:10.112   04 Jun 2027 23:22:21.952            11.840               Magadan1           370.000
       432   04 Jun 2027 23:22:21.952   04 Jun 2027 23:22:42.793            20.841               Magadan2           651.281
       433   04 Jun 2027 23:22:52.491   04 Jun 2027 23:23:24.052            31.561               Magadan2           986.281
       434   04 Jun 2027 23:24:39.373   04 Jun 2027 23:25:41.647            62.274               Magadan2          1946.063
       435   04 Jun 2027 23:32:47.088   04 Jun 2027 23:33:16.053            28.965                Irkutsk           905.156
       436   04 Jun 2027 23:39:42.002   04 Jun 2027 23:41:34.851           112.849                Sumatra          3526.531
       437   04 Jun 2027 23:48:32.359   04 Jun 2027 23:48:44.584            12.225                Sumatra           382.031
       438   05 Jun 2027 00:12:08.857   05 Jun 2027 00:13:18.742            69.885            RioGallegos          2183.906
       439   05 Jun 2027 00:20:26.178   05 Jun 2027 00:20:34.060             7.882            RioGallegos           246.312
       440   05 Jun 2027 00:21:08.975   05 Jun 2027 00:21:40.965            31.990            RioGallegos           999.688
       441   05 Jun 2027 00:53:23.034   05 Jun 2027 00:53:40.866            17.832                Anadyr2           557.250
       442   05 Jun 2027 00:53:52.618   05 Jun 2027 00:54:24.793            32.175                Anadyr1          1005.469
       443   05 Jun 2027 00:54:53.160   05 Jun 2027 00:55:53.898            60.738                Anadyr2          1898.062
       444   05 Jun 2027 00:56:15.033   05 Jun 2027 00:57:32.196            77.163                Norilsk          2411.344
       445   05 Jun 2027 00:57:39.678   05 Jun 2027 00:58:39.060            59.382               Magadan2          1855.687
       446   05 Jun 2027 00:59:59.299   05 Jun 2027 01:00:55.375            56.076                Irkutsk          1752.375
       447   05 Jun 2027 01:01:03.871   05 Jun 2027 01:01:53.321            49.450                Novosib          1545.312
       448   05 Jun 2027 01:05:22.515   05 Jun 2027 01:05:40.866            18.351                Novosib           573.469
       449   05 Jun 2027 01:06:40.936   05 Jun 2027 01:07:03.234            22.298                Irkutsk           696.813
       450   05 Jun 2027 01:09:54.274   05 Jun 2027 01:11:17.224            82.950                  Delhi          2592.188
       451   05 Jun 2027 01:18:35.288   05 Jun 2027 01:19:32.322            57.034                Sumatra          1782.312
       452   05 Jun 2027 01:23:48.342   05 Jun 2027 01:24:43.435            55.093                Sumatra          1721.656
       453   05 Jun 2027 01:59:24.126   05 Jun 2027 01:59:40.121            15.995            RioGallegos           499.844
       454   05 Jun 2027 02:27:24.575   05 Jun 2027 02:27:35.963            11.388                Anadyr1           355.875
       455   05 Jun 2027 02:27:54.032   05 Jun 2027 02:28:49.404            55.372                Anadyr1          1730.375
       456   05 Jun 2027 02:32:06.017   05 Jun 2027 02:33:21.814            75.797                Norilsk          2368.656
       457   05 Jun 2027 02:34:50.440   05 Jun 2027 02:36:04.018            73.578              Murmansk1          2299.312
       458   05 Jun 2027 02:36:11.001   05 Jun 2027 02:37:26.880            75.879                Irkutsk          2371.219
       459   05 Jun 2027 02:40:14.447   05 Jun 2027 02:40:24.667            10.220                Irkutsk           319.375
       460   05 Jun 2027 02:41:02.165   05 Jun 2027 02:41:47.833            45.668                Irkutsk          1427.125
       461   05 Jun 2027 02:43:39.481   05 Jun 2027 02:46:10.664           151.183                  Delhi          4724.469
       462   05 Jun 2027 03:27:08.233   05 Jun 2027 03:28:26.852            78.619            RioGallegos          2456.844
       463   05 Jun 2027 03:29:37.335   05 Jun 2027 03:30:38.355            61.020            RioGallegos          1906.875
       464   05 Jun 2027 04:14:23.436   05 Jun 2027 04:15:01.203            37.767                Irkutsk          1180.219
       465   05 Jun 2027 04:17:32.220   05 Jun 2027 04:17:56.856            24.636              Murmansk2           769.875
       466   05 Jun 2027 04:18:16.762   05 Jun 2027 04:18:54.887            38.125              Murmansk2          1191.406
       467   05 Jun 2027 04:18:54.887   05 Jun 2027 04:19:29.970            35.083              Murmansk1          1096.344
       468   05 Jun 2027 04:19:49.708   05 Jun 2027 04:19:59.140             9.432              Murmansk1           294.750
       469   05 Jun 2027 04:20:24.308   05 Jun 2027 04:21:17.294            52.986              Murmansk1          1655.812
       470   05 Jun 2027 04:21:41.199   05 Jun 2027 04:21:49.261             8.062                Novosib           251.937
       471   05 Jun 2027 04:24:05.669   05 Jun 2027 04:24:46.130            40.461                 Moscow          1264.406
       472   05 Jun 2027 04:24:47.663   05 Jun 2027 04:24:58.519            10.856                 Moscow           339.250
       473   05 Jun 2027 04:25:28.940   05 Jun 2027 04:26:09.437            40.497                  Delhi          1265.531
       474   05 Jun 2027 04:26:23.894   05 Jun 2027 04:27:36.258            72.364                  Delhi          2261.375
       475   05 Jun 2027 05:53:34.216   05 Jun 2027 05:54:20.289            46.073                Novosib          1439.781
       476   05 Jun 2027 05:54:48.748   05 Jun 2027 05:56:23.373            94.625              Murmansk2          2957.031
       477   05 Jun 2027 05:56:23.939   05 Jun 2027 05:57:04.663            40.724                 Moscow          1272.625
       478   05 Jun 2027 05:57:44.312   05 Jun 2027 05:57:53.491             9.179                 Moscow           286.844
       479   05 Jun 2027 05:59:46.661   05 Jun 2027 06:00:49.616            62.955                 Moscow          1967.344
       480   05 Jun 2027 06:22:15.301   05 Jun 2027 06:22:20.277             4.976               CapeTown           155.500
       481   05 Jun 2027 07:16:10.999   05 Jun 2027 07:17:10.271            59.272                Anadyr2          1852.250
       482   05 Jun 2027 07:17:29.546   05 Jun 2027 07:17:49.143            19.597               Magadan1           612.406
