uniorb/output/strategy_2/Drop/Drop_KinoSat_111801.txt

KinoSat_111801
-------------------------
    Access    *     Start Time (UTCG)     *     Stop Time (UTCG)  *   Duration (s)        *       Station  *  Data (Mbytes)
         1   01 Jun 2027 03:44:08.222   01 Jun 2027 03:44:14.172             5.950                Irkutsk           185.937
         2   01 Jun 2027 03:46:47.696   01 Jun 2027 03:46:54.789             7.093              Murmansk1           221.656
         3   01 Jun 2027 03:47:10.008   01 Jun 2027 03:47:58.765            48.757              Murmansk1          1523.656
         4   01 Jun 2027 03:49:34.466   01 Jun 2027 03:54:44.719           310.253                 Moscow          9695.406
         5   01 Jun 2027 03:54:49.174   01 Jun 2027 03:55:05.785            16.611                Novosib           519.094
         6   01 Jun 2027 05:21:33.307   01 Jun 2027 05:22:04.191            30.884                Novosib           965.125
         7   01 Jun 2027 05:23:51.861   01 Jun 2027 05:24:12.822            20.961                Norilsk           655.031
         8   01 Jun 2027 05:24:47.053   01 Jun 2027 05:25:45.605            58.552                Novosib          1829.750
         9   01 Jun 2027 05:26:30.453   01 Jun 2027 05:26:50.903            20.450              Murmansk1           639.063
        10   01 Jun 2027 05:26:52.894   01 Jun 2027 05:26:54.106             1.212                Novosib            37.875
        11   01 Jun 2027 05:27:03.647   01 Jun 2027 05:27:35.054            31.407                Novosib           981.469
        12   01 Jun 2027 05:28:01.717   01 Jun 2027 05:28:03.373             1.656              Murmansk1            51.750
        13   01 Jun 2027 05:28:03.373   01 Jun 2027 05:28:38.190            34.817              Murmansk2          1088.031
        14   01 Jun 2027 05:28:38.190   01 Jun 2027 05:29:25.874            47.684              Murmansk1          1490.125
        15   01 Jun 2027 05:32:45.984   01 Jun 2027 05:33:01.390            15.406                 Moscow           481.437
        16   01 Jun 2027 05:44:29.407   01 Jun 2027 05:47:43.087           193.680               CapeTown          6052.500
        17   01 Jun 2027 05:50:34.965   01 Jun 2027 05:51:31.551            56.586               CapeTown          1768.312
        18   01 Jun 2027 05:52:21.931   01 Jun 2027 05:53:59.923            97.992               CapeTown          3062.250
        19   01 Jun 2027 05:54:54.660   01 Jun 2027 05:56:54.600           119.940               CapeTown          3748.125
        20   01 Jun 2027 06:47:27.745   01 Jun 2027 06:49:50.178           142.433                Anadyr2          4451.031
        21   01 Jun 2027 06:51:05.913   01 Jun 2027 06:52:00.776            54.863                Anadyr2          1714.469
        22   01 Jun 2027 07:01:30.647   01 Jun 2027 07:02:13.478            42.831                 Moscow          1338.469
        23   01 Jun 2027 08:24:42.955   01 Jun 2027 08:28:22.732           219.777               Magadan1          6868.031
        24   01 Jun 2027 08:28:44.441   01 Jun 2027 08:29:54.116            69.675                Anadyr1          2177.344
        25   01 Jun 2027 08:33:38.910   01 Jun 2027 08:34:32.599            53.689                 Moscow          1677.781
        26   01 Jun 2027 09:56:53.419   01 Jun 2027 09:57:49.004            55.585               Magadan2          1737.031
        27   01 Jun 2027 09:58:06.094   01 Jun 2027 10:04:59.165           413.071                Anadyr1         12908.469
        28   01 Jun 2027 11:36:08.816   01 Jun 2027 11:39:52.182           223.366               Magadan2          6980.188
        29   01 Jun 2027 11:41:23.872   01 Jun 2027 11:41:52.061            28.189              Murmansk2           880.906
        30   01 Jun 2027 11:45:21.654   01 Jun 2027 11:46:00.678            39.024                Norilsk          1219.500
        31   01 Jun 2027 12:16:15.162   01 Jun 2027 12:19:11.023           175.861            RioGallegos          5495.656
        32   01 Jun 2027 12:19:52.518   01 Jun 2027 12:20:42.352            49.834            RioGallegos          1557.313
        33   01 Jun 2027 12:50:52.857   01 Jun 2027 12:53:10.013           137.156                Sumatra          4286.125
        34   01 Jun 2027 13:02:48.045   01 Jun 2027 13:03:34.074            46.029                Sumatra          1438.406
        35   01 Jun 2027 13:05:13.362   01 Jun 2027 13:09:31.197           257.835                Irkutsk          8057.344
        36   01 Jun 2027 13:10:42.643   01 Jun 2027 13:11:06.808            24.165                Norilsk           755.156
        37   01 Jun 2027 13:56:42.327   01 Jun 2027 14:02:23.975           341.648            RioGallegos         10676.500
        38   01 Jun 2027 14:43:06.877   01 Jun 2027 14:43:24.106            17.229                Novosib           538.406
        39   01 Jun 2027 14:44:45.262   01 Jun 2027 14:48:06.812           201.550                Novosib          6298.437
        40   01 Jun 2027 16:19:28.730   01 Jun 2027 16:20:41.578            72.848                 Moscow          2276.500
        41   01 Jun 2027 16:21:36.034   01 Jun 2027 16:21:56.808            20.774                 Moscow           649.188
        42   01 Jun 2027 16:22:56.171   01 Jun 2027 16:24:29.617            93.446              Murmansk2          2920.188
        43   01 Jun 2027 16:27:07.998   01 Jun 2027 16:29:21.889           133.891                Norilsk          4184.094
        44   01 Jun 2027 16:30:18.921   01 Jun 2027 16:32:57.015           158.094                Norilsk          4940.438
        45   01 Jun 2027 17:43:15.669   01 Jun 2027 17:43:21.109             5.440               CapeTown           170.000
        46   01 Jun 2027 17:44:15.690   01 Jun 2027 17:44:39.755            24.065               CapeTown           752.031
        47   01 Jun 2027 17:56:58.920   01 Jun 2027 17:57:39.169            40.249                 Moscow          1257.781
        48   01 Jun 2027 17:58:19.223   01 Jun 2027 18:01:40.819           201.596                 Moscow          6299.875
        49   01 Jun 2027 18:09:13.948   01 Jun 2027 18:09:29.800            15.852              Murmansk2           495.375
        50   01 Jun 2027 18:09:47.052   01 Jun 2027 18:09:54.000             6.948              Murmansk1           217.125
        51   01 Jun 2027 18:15:57.643   01 Jun 2027 18:16:26.185            28.542                Anadyr1           891.937
        52   01 Jun 2027 18:18:39.659   01 Jun 2027 18:18:51.220            11.561                Anadyr1           361.281
        53   01 Jun 2027 18:19:22.743   01 Jun 2027 18:19:52.637            29.894                Anadyr1           934.188
        54   01 Jun 2027 18:22:48.939   01 Jun 2027 18:23:11.491            22.552                Anadyr2           704.750
        55   01 Jun 2027 19:09:00.825   01 Jun 2027 19:10:24.165            83.340               CapeTown          2604.375
        56   01 Jun 2027 19:11:56.310   01 Jun 2027 19:12:52.195            55.885               CapeTown          1746.406
        57   01 Jun 2027 19:15:02.209   01 Jun 2027 19:17:31.866           149.657               CapeTown          4676.781
        58   01 Jun 2027 19:39:30.113   01 Jun 2027 19:47:32.844           482.731              Murmansk2         15085.344
        59   01 Jun 2027 21:25:27.822   01 Jun 2027 21:27:09.901           102.079                Anadyr2          3189.969
        60   01 Jun 2027 21:27:47.538   01 Jun 2027 21:30:54.704           187.166               Magadan2          5848.938
        61   01 Jun 2027 21:32:11.464   01 Jun 2027 21:32:43.723            32.259               Magadan2          1008.094
        62   01 Jun 2027 21:34:43.833   01 Jun 2027 21:35:09.075            25.242               Magadan2           788.812
        63   01 Jun 2027 21:35:23.900   01 Jun 2027 21:35:50.238            26.338               Magadan2           823.063
        64   01 Jun 2027 21:36:13.850   01 Jun 2027 21:36:21.701             7.851               Magadan2           245.344
        65   01 Jun 2027 21:37:57.303   01 Jun 2027 21:38:03.700             6.397               Magadan2           199.906
        66   01 Jun 2027 21:38:37.184   01 Jun 2027 21:39:08.482            31.298               Magadan2           978.063
        67   01 Jun 2027 21:39:14.165   01 Jun 2027 21:39:24.207            10.042               Magadan2           313.813
        68   01 Jun 2027 22:22:34.415   01 Jun 2027 22:24:27.437           113.022            RioGallegos          3531.937
        69   01 Jun 2027 22:25:56.614   01 Jun 2027 22:25:57.154             0.540            RioGallegos            16.875
        70   01 Jun 2027 23:01:19.178   01 Jun 2027 23:05:01.589           222.411                Anadyr2          6950.344
        71   01 Jun 2027 23:05:01.833   01 Jun 2027 23:06:45.044           103.211                Norilsk          3225.344
        72   01 Jun 2027 23:06:47.151   01 Jun 2027 23:07:21.292            34.141               Magadan1          1066.906
        73   01 Jun 2027 23:08:20.214   01 Jun 2027 23:09:00.034            39.820               Magadan2          1244.375
        74   01 Jun 2027 23:09:12.167   01 Jun 2027 23:09:19.867             7.700               Magadan2           240.625
        75   01 Jun 2027 23:09:53.403   01 Jun 2027 23:10:11.110            17.707               Magadan2           553.344
        76   01 Jun 2027 23:10:31.003   01 Jun 2027 23:11:02.190            31.187               Magadan1           974.594
        77   01 Jun 2027 23:11:59.235   01 Jun 2027 23:12:38.878            39.643                Irkutsk          1238.844
        78   01 Jun 2027 23:13:44.363   01 Jun 2027 23:14:27.815            43.452               Magadan2          1357.875
        79   01 Jun 2027 23:24:12.407   01 Jun 2027 23:25:49.084            96.677                Sumatra          3021.156
        80   01 Jun 2027 23:29:28.279   01 Jun 2027 23:30:53.167            84.888                Sumatra          2652.750
        81   02 Jun 2027 00:02:54.647   02 Jun 2027 00:03:13.990            19.343            RioGallegos           604.469
        82   02 Jun 2027 00:04:38.859   02 Jun 2027 00:04:58.008            19.149            RioGallegos           598.406
        83   02 Jun 2027 00:06:00.886   02 Jun 2027 00:06:37.809            36.923            RioGallegos          1153.844
        84   02 Jun 2027 00:07:18.386   02 Jun 2027 00:07:35.503            17.117            RioGallegos           534.906
        85   02 Jun 2027 00:36:41.273   02 Jun 2027 00:38:07.428            86.155                Anadyr2          2692.344
        86   02 Jun 2027 00:39:10.554   02 Jun 2027 00:39:46.709            36.155                Norilsk          1129.844
        87   02 Jun 2027 00:39:47.857   02 Jun 2027 00:40:07.504            19.647               Magadan1           613.969
        88   02 Jun 2027 00:40:16.015   02 Jun 2027 00:40:39.639            23.624                Norilsk           738.250
        89   02 Jun 2027 00:40:57.200   02 Jun 2027 00:41:30.111            32.911               Magadan2          1028.469
        90   02 Jun 2027 00:42:14.159   02 Jun 2027 00:42:42.571            28.412                Norilsk           887.875
        91   02 Jun 2027 00:43:08.334   02 Jun 2027 00:43:22.821            14.487                Irkutsk           452.719
        92   02 Jun 2027 00:43:57.276   02 Jun 2027 00:45:59.777           122.501                Novosib          3828.156
        93   02 Jun 2027 00:50:48.560   02 Jun 2027 00:51:46.082            57.522                Novosib          1797.562
        94   02 Jun 2027 00:53:13.122   02 Jun 2027 00:53:51.188            38.066                Irkutsk          1189.563
        95   02 Jun 2027 00:54:55.058   02 Jun 2027 00:55:22.542            27.484                Irkutsk           858.875
        96   02 Jun 2027 01:03:19.731   02 Jun 2027 01:05:45.785           146.054                Sumatra          4564.187
        97   02 Jun 2027 01:40:13.767   02 Jun 2027 01:40:47.690            33.923            RioGallegos          1060.094
        98   02 Jun 2027 01:42:29.453   02 Jun 2027 01:42:47.495            18.042            RioGallegos           563.812
        99   02 Jun 2027 01:43:14.114   02 Jun 2027 01:43:32.388            18.274            RioGallegos           571.063
       100   02 Jun 2027 02:12:10.732   02 Jun 2027 02:12:55.375            44.643                Anadyr1          1395.094
       101   02 Jun 2027 02:14:59.618   02 Jun 2027 02:15:13.356            13.738                Anadyr2           429.313
       102   02 Jun 2027 02:15:14.203   02 Jun 2027 02:16:07.985            53.782                Norilsk          1680.687
       103   02 Jun 2027 02:17:46.963   02 Jun 2027 02:18:15.117            28.154                Norilsk           879.813
       104   02 Jun 2027 02:18:19.109   02 Jun 2027 02:19:04.236            45.127              Murmansk1          1410.219
       105   02 Jun 2027 02:19:10.573   02 Jun 2027 02:19:37.954            27.381                Irkutsk           855.656
       106   02 Jun 2027 02:21:27.926   02 Jun 2027 02:21:37.985            10.059                Irkutsk           314.344
       107   02 Jun 2027 02:22:47.209   02 Jun 2027 02:22:51.330             4.121                Novosib           128.781
       108   02 Jun 2027 02:22:58.425   02 Jun 2027 02:23:18.002            19.577                Novosib           611.781
       109   02 Jun 2027 02:24:39.002   02 Jun 2027 02:24:49.241            10.239                Irkutsk           319.969
       110   02 Jun 2027 02:25:58.018   02 Jun 2027 02:26:06.156             8.138                Novosib           254.313
       111   02 Jun 2027 02:26:17.557   02 Jun 2027 02:26:34.903            17.346                Novosib           542.063
       112   02 Jun 2027 02:27:20.459   02 Jun 2027 02:27:37.293            16.834                Irkutsk           526.063
       113   02 Jun 2027 02:28:47.615   02 Jun 2027 02:29:24.417            36.802                Irkutsk          1150.063
       114   02 Jun 2027 02:30:31.804   02 Jun 2027 02:30:59.969            28.165                Irkutsk           880.156
       115   02 Jun 2027 02:33:33.692   02 Jun 2027 02:34:11.156            37.464                  Delhi          1170.750
       116   02 Jun 2027 02:35:55.649   02 Jun 2027 02:36:34.325            38.676                  Delhi          1208.625
       117   02 Jun 2027 03:08:03.549   02 Jun 2027 03:10:49.934           166.385            RioGallegos          5199.531
       118   02 Jun 2027 03:12:13.696   02 Jun 2027 03:12:41.525            27.829            RioGallegos           869.656
       119   02 Jun 2027 03:14:34.363   02 Jun 2027 03:15:24.187            49.824            RioGallegos          1557.000
       120   02 Jun 2027 03:58:02.146   02 Jun 2027 03:58:07.986             5.840                Irkutsk           182.500
       121   02 Jun 2027 04:00:33.692   02 Jun 2027 04:00:58.095            24.403                Irkutsk           762.594
       122   02 Jun 2027 04:01:18.719   02 Jun 2027 04:01:35.043            16.324                Irkutsk           510.125
       123   02 Jun 2027 04:01:57.323   02 Jun 2027 04:03:25.840            88.517              Murmansk2          2766.156
       124   02 Jun 2027 04:03:45.195   02 Jun 2027 04:03:52.091             6.896                Norilsk           215.500
       125   02 Jun 2027 04:03:58.648   02 Jun 2027 04:04:17.065            18.417                 Moscow           575.531
       126   02 Jun 2027 05:36:03.343   02 Jun 2027 05:36:37.124            33.781                Novosib          1055.656
       127   02 Jun 2027 05:37:03.722   02 Jun 2027 05:38:53.865           110.143                Novosib          3441.969
       128   02 Jun 2027 05:39:50.512   02 Jun 2027 05:39:56.326             5.814              Murmansk2           181.687
       129   02 Jun 2027 05:40:13.819   02 Jun 2027 05:41:15.898            62.079              Murmansk1          1939.969
       130   02 Jun 2027 05:41:15.898   02 Jun 2027 05:41:36.426            20.528              Murmansk2           641.500
       131   02 Jun 2027 05:42:06.599   02 Jun 2027 05:42:59.635            53.036                 Moscow          1657.375
       132   02 Jun 2027 07:00:48.458   02 Jun 2027 07:03:18.405           149.947               Magadan1          4685.844
       133   02 Jun 2027 07:03:18.405   02 Jun 2027 07:03:41.482            23.077               Magadan2           721.156
       134   02 Jun 2027 07:04:01.816   02 Jun 2027 07:06:04.452           122.636                Anadyr2          3832.375
       135   02 Jun 2027 08:36:35.888   02 Jun 2027 08:40:15.259           219.371               Magadan2          6855.344
       136   02 Jun 2027 08:40:18.037   02 Jun 2027 08:40:56.204            38.167                Anadyr2          1192.719
       137   02 Jun 2027 10:09:50.172   02 Jun 2027 10:10:27.173            37.001               Magadan1          1156.281
       138   02 Jun 2027 10:10:27.173   02 Jun 2027 10:11:11.782            44.609               Magadan2          1394.031
       139   02 Jun 2027 10:11:28.451   02 Jun 2027 10:13:41.757           133.306               Magadan2          4165.813
       140   02 Jun 2027 10:13:41.757   02 Jun 2027 10:14:53.003            71.246               Magadan1          2226.437
       141   02 Jun 2027 10:15:10.829   02 Jun 2027 10:15:59.240            48.411                Norilsk          1512.844
       142   02 Jun 2027 10:16:03.487   02 Jun 2027 10:16:12.489             9.002                Irkutsk           281.312
       143   02 Jun 2027 10:16:14.642   02 Jun 2027 10:16:15.162             0.520                Norilsk            16.250
       144   02 Jun 2027 10:16:18.311   02 Jun 2027 10:16:28.268             9.957              Murmansk2           311.156
       145   02 Jun 2027 10:16:36.438   02 Jun 2027 10:16:40.964             4.526                Novosib           141.438
       146   02 Jun 2027 10:16:44.994   02 Jun 2027 10:16:56.110            11.116                Norilsk           347.375
       147   02 Jun 2027 10:17:08.611   02 Jun 2027 10:17:26.574            17.963                Norilsk           561.344
       148   02 Jun 2027 10:17:30.651   02 Jun 2027 10:17:31.906             1.255              Murmansk2            39.219
       149   02 Jun 2027 10:17:49.763   02 Jun 2027 10:17:55.482             5.719              Murmansk1           178.719
       150   02 Jun 2027 10:18:41.412   02 Jun 2027 10:18:50.503             9.091              Murmansk1           284.094
       151   02 Jun 2027 10:22:28.022   02 Jun 2027 10:23:06.530            38.508              Murmansk1          1203.375
       152   02 Jun 2027 10:52:27.734   02 Jun 2027 10:52:57.268            29.534            RioGallegos           922.937
       153   02 Jun 2027 10:56:41.008   02 Jun 2027 10:57:01.815            20.807            RioGallegos           650.219
       154   02 Jun 2027 11:29:38.008   02 Jun 2027 11:29:49.729            11.721                Sumatra           366.281
       155   02 Jun 2027 11:31:14.470   02 Jun 2027 11:31:43.585            29.115                Sumatra           909.844
       156   02 Jun 2027 11:31:51.297   02 Jun 2027 11:32:25.152            33.855                Sumatra          1057.969
       157   02 Jun 2027 11:46:30.851   02 Jun 2027 11:46:35.172             4.321                Norilsk           135.031
       158   02 Jun 2027 11:46:36.222   02 Jun 2027 11:47:30.566            54.344                Novosib          1698.250
       159   02 Jun 2027 11:48:16.466   02 Jun 2027 11:48:20.540             4.074                Irkutsk           127.313
       160   02 Jun 2027 11:48:25.879   02 Jun 2027 11:51:11.781           165.902               Magadan2          5184.438
       161   02 Jun 2027 11:51:21.919   02 Jun 2027 11:52:16.545            54.626                Novosib          1707.062
       162   02 Jun 2027 11:52:31.344   02 Jun 2027 11:53:25.382            54.038              Murmansk2          1688.687
       163   02 Jun 2027 11:53:53.518   02 Jun 2027 11:54:02.976             9.458              Murmansk2           295.562
       164   02 Jun 2027 12:28:30.089   02 Jun 2027 12:29:48.617            78.528            RioGallegos          2454.000
       165   02 Jun 2027 12:33:06.647   02 Jun 2027 12:33:08.215             1.568            RioGallegos            49.000
       166   02 Jun 2027 12:33:12.497   02 Jun 2027 12:33:45.387            32.890            RioGallegos          1027.813
       167   02 Jun 2027 12:37:55.201   02 Jun 2027 12:39:24.914            89.713            RioGallegos          2803.531
       168   02 Jun 2027 13:05:10.196   02 Jun 2027 13:05:58.637            48.441                Sumatra          1513.781
       169   02 Jun 2027 13:08:39.315   02 Jun 2027 13:09:09.563            30.248                Sumatra           945.250
       170   02 Jun 2027 13:11:13.288   02 Jun 2027 13:11:32.030            18.742                Sumatra           585.688
       171   02 Jun 2027 13:11:48.170   02 Jun 2027 13:12:38.713            50.543                Sumatra          1579.469
       172   02 Jun 2027 13:17:37.053   02 Jun 2027 13:18:04.314            27.261                Irkutsk           851.906
       173   02 Jun 2027 13:19:10.735   02 Jun 2027 13:20:02.617            51.882                Novosib          1621.313
       174   02 Jun 2027 13:22:44.680   02 Jun 2027 13:22:46.944             2.264                Irkutsk            70.750
       175   02 Jun 2027 13:24:23.768   02 Jun 2027 13:24:43.862            20.094                Norilsk           627.937
       176   02 Jun 2027 13:25:18.338   02 Jun 2027 13:25:40.495            22.157                Irkutsk           692.406
       177   02 Jun 2027 13:27:33.669   02 Jun 2027 13:28:03.872            30.203                Irkutsk           943.844
       178   02 Jun 2027 13:35:39.574   02 Jun 2027 13:36:07.245            27.671              Murmansk2           864.719
       179   02 Jun 2027 14:10:36.632   02 Jun 2027 14:13:03.352           146.720            RioGallegos          4585.000
       180   02 Jun 2027 14:47:30.202   02 Jun 2027 14:47:51.231            21.029                  Delhi           657.156
       181   02 Jun 2027 14:52:05.599   02 Jun 2027 14:52:22.606            17.007                  Delhi           531.469
       182   02 Jun 2027 14:55:27.066   02 Jun 2027 14:57:21.654           114.588                  Delhi          3580.875
       183   02 Jun 2027 14:58:57.967   02 Jun 2027 15:00:37.660            99.693                Novosib          3115.406
       184   02 Jun 2027 15:02:31.377   02 Jun 2027 15:02:58.565            27.188                Norilsk           849.625
       185   02 Jun 2027 15:09:26.850   02 Jun 2027 15:09:55.955            29.105                Norilsk           909.531
       186   02 Jun 2027 16:31:30.762   02 Jun 2027 16:34:31.181           180.419                 Moscow          5638.094
       187   02 Jun 2027 16:35:00.825   02 Jun 2027 16:35:50.954            50.129              Murmansk1          1566.531
       188   02 Jun 2027 16:39:55.276   02 Jun 2027 16:44:25.303           270.027                Norilsk          8438.344
       189   02 Jun 2027 17:50:47.815   02 Jun 2027 17:51:48.782            60.967               CapeTown          1905.219
       190   02 Jun 2027 18:09:30.808   02 Jun 2027 18:10:51.178            80.370                 Moscow          2511.563
       191   02 Jun 2027 18:12:23.999   02 Jun 2027 18:14:17.523           113.524              Murmansk1          3547.625
       192   02 Jun 2027 18:15:51.387   02 Jun 2027 18:15:57.159             5.772              Murmansk1           180.375
       193   02 Jun 2027 18:15:57.159   02 Jun 2027 18:17:04.353            67.194              Murmansk2          2099.812
       194   02 Jun 2027 18:29:53.605   02 Jun 2027 18:30:07.537            13.932                Anadyr1           435.375
       195   02 Jun 2027 18:31:00.730   02 Jun 2027 18:31:05.112             4.382                Anadyr1           136.938
       196   02 Jun 2027 18:31:46.130   02 Jun 2027 18:32:22.915            36.785                Anadyr1          1149.531
       197   02 Jun 2027 18:35:24.599   02 Jun 2027 18:35:25.041             0.442                Anadyr1            13.812
       198   02 Jun 2027 18:35:36.824   02 Jun 2027 18:36:05.236            28.412                Anadyr1           887.875
       199   02 Jun 2027 19:21:09.815   02 Jun 2027 19:21:14.046             4.231               CapeTown           132.219
       200   02 Jun 2027 19:22:47.385   02 Jun 2027 19:23:44.150            56.765               CapeTown          1773.906
       201   02 Jun 2027 19:27:17.868   02 Jun 2027 19:28:46.420            88.552               CapeTown          2767.250
       202   02 Jun 2027 19:52:11.965   02 Jun 2027 19:54:11.064           119.099              Murmansk2          3721.844
       203   02 Jun 2027 19:54:16.526   02 Jun 2027 19:56:50.801           154.275              Murmansk1          4821.094
       204   02 Jun 2027 19:57:46.596   02 Jun 2027 19:59:04.387            77.791              Murmansk2          2430.969
       205   02 Jun 2027 21:37:29.578   02 Jun 2027 21:39:08.700            99.122                Anadyr2          3097.562
       206   02 Jun 2027 21:39:17.779   02 Jun 2027 21:41:04.901           107.122                Anadyr1          3347.562
       207   02 Jun 2027 21:41:28.015   02 Jun 2027 21:42:45.931            77.916               Magadan1          2434.875
       208   02 Jun 2027 21:42:45.931   02 Jun 2027 21:44:17.221            91.290               Magadan2          2852.812
       209   02 Jun 2027 21:44:29.805   02 Jun 2027 21:44:40.571            10.766               Magadan2           336.437
       210   02 Jun 2027 21:44:52.728   02 Jun 2027 21:45:02.839            10.111               Magadan2           315.969
       211   02 Jun 2027 21:47:53.316   02 Jun 2027 21:48:00.283             6.967               Magadan2           217.719
       212   02 Jun 2027 21:48:05.403   02 Jun 2027 21:48:08.921             3.518               Magadan1           109.937
       213   02 Jun 2027 21:48:08.921   02 Jun 2027 21:49:04.014            55.093               Magadan2          1721.656
       214   02 Jun 2027 22:33:28.961   02 Jun 2027 22:36:06.562           157.601            RioGallegos          4925.031
       215   02 Jun 2027 23:13:18.891   02 Jun 2027 23:15:33.149           134.258                Anadyr2          4195.562
       216   02 Jun 2027 23:15:43.468   02 Jun 2027 23:16:52.887            69.419               Magadan2          2169.344
       217   02 Jun 2027 23:16:53.189   02 Jun 2027 23:17:29.572            36.383               Magadan2          1136.969
       218   02 Jun 2027 23:18:40.249   02 Jun 2027 23:18:50.617            10.368               Magadan2           324.000
       219   02 Jun 2027 23:19:57.487   02 Jun 2027 23:20:41.184            43.697               Magadan1          1365.531
       220   02 Jun 2027 23:20:49.141   02 Jun 2027 23:20:59.639            10.498                Irkutsk           328.062
       221   02 Jun 2027 23:21:58.943   02 Jun 2027 23:22:22.812            23.869               Magadan1           745.906
       222   02 Jun 2027 23:22:47.188   02 Jun 2027 23:23:09.308            22.120                Irkutsk           691.250
       223   02 Jun 2027 23:24:34.874   02 Jun 2027 23:24:38.736             3.862                Irkutsk           120.688
       224   02 Jun 2027 23:25:36.637   02 Jun 2027 23:26:57.621            80.984                Irkutsk          2530.750
       225   02 Jun 2027 23:35:10.115   02 Jun 2027 23:37:08.443           118.328                Sumatra          3697.750
       226   03 Jun 2027 00:15:17.971   03 Jun 2027 00:15:28.349            10.378            RioGallegos           324.312
       227   03 Jun 2027 00:16:50.963   03 Jun 2027 00:18:01.234            70.271            RioGallegos          2195.969
       228   03 Jun 2027 00:48:34.661   03 Jun 2027 00:49:01.264            26.603                Anadyr2           831.344
       229   03 Jun 2027 00:49:30.318   03 Jun 2027 00:50:03.373            33.055                Anadyr1          1032.969
       230   03 Jun 2027 00:51:09.348   03 Jun 2027 00:51:17.805             8.457                Anadyr2           264.281
       231   03 Jun 2027 00:51:28.775   03 Jun 2027 00:52:00.596            31.821                Norilsk           994.406
       232   03 Jun 2027 00:52:08.958   03 Jun 2027 00:53:38.602            89.644               Magadan2          2801.375
       233   03 Jun 2027 00:55:07.747   03 Jun 2027 00:56:48.466           100.719                Irkutsk          3147.469
       234   03 Jun 2027 00:58:39.102   03 Jun 2027 00:59:19.928            40.826                Novosib          1275.813
       235   03 Jun 2027 01:01:33.125   03 Jun 2027 01:03:50.926           137.801                Novosib          4306.281
       236   03 Jun 2027 01:17:05.100   03 Jun 2027 01:17:49.126            44.026                Sumatra          1375.813
       237   03 Jun 2027 01:20:28.413   03 Jun 2027 01:21:19.730            51.317                Sumatra          1603.656
       238   03 Jun 2027 01:55:07.108   03 Jun 2027 01:55:19.370            12.262            RioGallegos           383.188
       239   03 Jun 2027 02:22:40.211   03 Jun 2027 02:23:06.215            26.004                Anadyr2           812.625
       240   03 Jun 2027 02:23:58.709   03 Jun 2027 02:24:20.341            21.632                Anadyr2           676.000
       241   03 Jun 2027 02:24:42.189   03 Jun 2027 02:25:16.148            33.959                Anadyr1          1061.219
       242   03 Jun 2027 02:27:13.592   03 Jun 2027 02:28:10.397            56.805                Norilsk          1775.156
       243   03 Jun 2027 02:28:13.280   03 Jun 2027 02:28:53.736            40.456               Magadan2          1264.250
       244   03 Jun 2027 02:30:03.464   03 Jun 2027 02:30:51.158            47.694              Murmansk1          1490.437
       245   03 Jun 2027 02:31:01.164   03 Jun 2027 02:31:11.114             9.950                Novosib           310.938
       246   03 Jun 2027 02:31:16.706   03 Jun 2027 02:31:52.602            35.896                Irkutsk          1121.750
       247   03 Jun 2027 02:31:58.444   03 Jun 2027 02:32:39.707            41.263                Irkutsk          1289.469
       248   03 Jun 2027 02:38:48.487   03 Jun 2027 02:39:25.649            37.162                Irkutsk          1161.312
       249   03 Jun 2027 02:41:35.919   03 Jun 2027 02:42:19.317            43.398                  Delhi          1356.187
       250   03 Jun 2027 02:50:13.341   03 Jun 2027 02:50:39.131            25.790                  Delhi           805.937
       251   03 Jun 2027 03:20:21.830   03 Jun 2027 03:21:11.164            49.334            RioGallegos          1541.687
       252   03 Jun 2027 03:22:27.225   03 Jun 2027 03:24:59.213           151.988            RioGallegos          4749.625
       253   03 Jun 2027 03:25:03.033   03 Jun 2027 03:25:27.096            24.063            RioGallegos           751.969
       254   03 Jun 2027 04:09:34.064   03 Jun 2027 04:10:08.935            34.871                Irkutsk          1089.719
       255   03 Jun 2027 04:12:09.864   03 Jun 2027 04:12:44.014            34.150                Norilsk          1067.187
       256   03 Jun 2027 04:13:50.698   03 Jun 2027 04:14:00.314             9.616              Murmansk2           300.500
       257   03 Jun 2027 04:14:00.314   03 Jun 2027 04:14:38.041            37.727              Murmansk1          1178.969
       258   03 Jun 2027 04:14:54.668   03 Jun 2027 04:16:15.813            81.145              Murmansk1          2535.781
       259   03 Jun 2027 04:21:33.450   03 Jun 2027 04:23:17.115           103.665                  Delhi          3239.531
       260   03 Jun 2027 05:49:19.282   03 Jun 2027 05:49:51.989            32.707              Murmansk2          1022.094
       261   03 Jun 2027 05:50:16.188   03 Jun 2027 05:51:34.346            78.158                 Moscow          2442.437
       262   03 Jun 2027 05:51:37.603   03 Jun 2027 05:52:39.890            62.287              Murmansk2          1946.469
       263   03 Jun 2027 05:52:47.895   03 Jun 2027 05:53:16.403            28.508                 Moscow           890.875
       264   03 Jun 2027 06:08:26.050   03 Jun 2027 06:10:53.537           147.487               CapeTown          4608.969
       265   03 Jun 2027 07:11:23.104   03 Jun 2027 07:12:18.321            55.217                Anadyr2          1725.531
       266   03 Jun 2027 07:12:28.414   03 Jun 2027 07:12:40.716            12.302               Magadan1           384.437
       267   03 Jun 2027 07:12:40.716   03 Jun 2027 07:13:02.567            21.851               Magadan2           682.844
       268   03 Jun 2027 07:13:10.642   03 Jun 2027 07:13:38.154            27.512               Magadan2           859.750
       269   03 Jun 2027 07:13:38.154   03 Jun 2027 07:13:39.617             1.463               Magadan1            45.719
       270   03 Jun 2027 07:13:48.225   03 Jun 2027 07:14:40.670            52.445                Anadyr1          1638.906
       271   03 Jun 2027 07:16:36.713   03 Jun 2027 07:17:23.120            46.407                Anadyr1          1450.219
       272   03 Jun 2027 07:48:40.563   03 Jun 2027 07:51:59.219           198.656               CapeTown          6208.000
       273   03 Jun 2027 08:47:42.031   03 Jun 2027 08:50:07.094           145.063                Anadyr2          4533.219
       274   03 Jun 2027 08:50:23.928   03 Jun 2027 08:51:38.139            74.211               Magadan1          2319.094
       275   03 Jun 2027 08:52:43.777   03 Jun 2027 08:52:51.614             7.837                Anadyr2           244.906
       276   03 Jun 2027 09:31:21.451   03 Jun 2027 09:31:40.256            18.805            RioGallegos           587.656
       277   03 Jun 2027 09:34:50.761   03 Jun 2027 09:35:47.091            56.330            RioGallegos          1760.313
       278   03 Jun 2027 10:21:50.878   03 Jun 2027 10:24:01.414           130.536               Magadan1          4079.250
       279   03 Jun 2027 10:24:15.089   03 Jun 2027 10:28:10.104           235.015                Anadyr1          7344.219
       280   03 Jun 2027 10:28:31.124   03 Jun 2027 10:29:21.478            50.354               Magadan2          1573.563
       281   03 Jun 2027 10:29:27.976   03 Jun 2027 10:29:30.291             2.315              Murmansk1            72.344
       282   03 Jun 2027 10:30:36.422   03 Jun 2027 10:30:51.042            14.620              Murmansk1           456.875
       283   03 Jun 2027 11:04:18.600   03 Jun 2027 11:05:21.329            62.729            RioGallegos          1960.281
       284   03 Jun 2027 11:09:33.681   03 Jun 2027 11:10:22.878            49.197            RioGallegos          1537.406
       285   03 Jun 2027 11:43:51.472   03 Jun 2027 11:44:51.987            60.515                Sumatra          1891.094
       286   03 Jun 2027 11:58:46.234   03 Jun 2027 11:59:22.254            36.020                Norilsk          1125.625
       287   03 Jun 2027 11:59:34.544   03 Jun 2027 12:00:47.192            72.648                Norilsk          2270.250
       288   03 Jun 2027 12:01:05.077   03 Jun 2027 12:01:35.528            30.451                Novosib           951.594
       289   03 Jun 2027 12:01:41.618   03 Jun 2027 12:03:15.984            94.366                Irkutsk          2948.937
       290   03 Jun 2027 12:04:53.290   03 Jun 2027 12:06:30.676            97.386                Novosib          3043.313
       291   03 Jun 2027 12:45:08.024   03 Jun 2027 12:45:39.733            31.709            RioGallegos           990.906
       292   03 Jun 2027 12:46:30.833   03 Jun 2027 12:47:04.365            33.532            RioGallegos          1047.875
       293   03 Jun 2027 12:49:36.655   03 Jun 2027 12:50:42.022            65.367            RioGallegos          2042.719
       294   03 Jun 2027 13:17:49.358   03 Jun 2027 13:19:44.764           115.406                Sumatra          3606.437
       295   03 Jun 2027 13:23:48.657   03 Jun 2027 13:24:58.560            69.903                Sumatra          2184.469
       296   03 Jun 2027 13:34:29.301   03 Jun 2027 13:35:07.537            38.236                Irkutsk          1194.875
       297   03 Jun 2027 13:37:14.212   03 Jun 2027 13:40:07.170           172.958                Irkutsk          5404.937
       298   03 Jun 2027 15:04:09.618   03 Jun 2027 15:05:09.634            60.016                  Delhi          1875.500
       299   03 Jun 2027 15:07:55.247   03 Jun 2027 15:09:50.579           115.332                  Delhi          3604.125
       300   03 Jun 2027 15:10:56.668   03 Jun 2027 15:11:50.943            54.275                Novosib          1696.094
       301   03 Jun 2027 15:11:58.164   03 Jun 2027 15:12:40.172            42.008                Norilsk          1312.750
       302   03 Jun 2027 15:16:21.682   03 Jun 2027 15:16:31.637             9.955                Norilsk           311.094
       303   03 Jun 2027 15:18:04.722   03 Jun 2027 15:18:05.446             0.724                Novosib            22.625
       304   03 Jun 2027 15:18:30.170   03 Jun 2027 15:20:11.663           101.493                Norilsk          3171.656
       305   03 Jun 2027 16:43:35.799   03 Jun 2027 16:45:00.710            84.911                 Moscow          2653.469
       306   03 Jun 2027 16:46:40.052   03 Jun 2027 16:46:59.537            19.485                 Moscow           608.906
       307   03 Jun 2027 16:47:07.137   03 Jun 2027 16:47:48.054            40.917              Murmansk2          1278.656
       308   03 Jun 2027 16:48:20.905   03 Jun 2027 16:48:47.488            26.583              Murmansk2           830.719
       309   03 Jun 2027 16:52:35.136   03 Jun 2027 16:53:16.245            41.109                 Moscow          1284.656
       310   03 Jun 2027 16:53:45.785   03 Jun 2027 16:57:09.446           203.661                Norilsk          6364.406
       311   03 Jun 2027 17:59:53.185   03 Jun 2027 18:00:53.660            60.475               CapeTown          1889.844
       312   03 Jun 2027 18:07:47.519   03 Jun 2027 18:08:27.672            40.153               CapeTown          1254.781
       313   03 Jun 2027 18:22:08.707   03 Jun 2027 18:26:25.181           256.474                 Moscow          8014.812
       314   03 Jun 2027 18:34:17.426   03 Jun 2027 18:35:09.979            52.553              Murmansk1          1642.281
       315   03 Jun 2027 19:33:22.122   03 Jun 2027 19:34:47.222            85.100               CapeTown          2659.375
       316   03 Jun 2027 20:04:58.440   03 Jun 2027 20:11:13.163           374.723              Murmansk2         11710.094
       317   03 Jun 2027 21:49:31.229   03 Jun 2027 21:53:18.499           227.270                Anadyr1          7102.187
       318   03 Jun 2027 21:53:21.463   03 Jun 2027 21:54:40.015            78.552                Anadyr2          2454.750
       319   03 Jun 2027 21:54:56.360   03 Jun 2027 21:56:59.001           122.641               Magadan1          3832.531
       320   03 Jun 2027 21:56:59.001   03 Jun 2027 21:57:36.425            37.424               Magadan2          1169.500
       321   03 Jun 2027 22:44:53.421   03 Jun 2027 22:47:43.298           169.877            RioGallegos          5308.656
       322   03 Jun 2027 22:49:53.800   03 Jun 2027 22:50:02.911             9.111            RioGallegos           284.719
       323   03 Jun 2027 22:50:39.522   03 Jun 2027 22:51:11.504            31.982            RioGallegos           999.438
       324   03 Jun 2027 23:25:18.104   03 Jun 2027 23:26:28.177            70.073                Anadyr2          2189.781
       325   03 Jun 2027 23:26:32.579   03 Jun 2027 23:26:50.558            17.979                Anadyr1           561.844
       326   03 Jun 2027 23:27:23.255   03 Jun 2027 23:28:58.666            95.411                Norilsk          2981.594
       327   03 Jun 2027 23:29:00.640   03 Jun 2027 23:29:31.565            30.925               Magadan1           966.406
       328   03 Jun 2027 23:30:31.110   03 Jun 2027 23:31:29.195            58.085               Magadan2          1815.156
       329   03 Jun 2027 23:32:01.658   03 Jun 2027 23:32:26.784            25.126                Irkutsk           785.187
       330   03 Jun 2027 23:34:04.757   03 Jun 2027 23:34:25.322            20.565                Irkutsk           642.656
       331   03 Jun 2027 23:36:02.581   03 Jun 2027 23:36:21.306            18.725                Irkutsk           585.156
       332   03 Jun 2027 23:39:29.064   03 Jun 2027 23:39:57.710            28.646                Irkutsk           895.188
       333   03 Jun 2027 23:46:27.314   03 Jun 2027 23:47:58.563            91.249                Sumatra          2851.531
       334   03 Jun 2027 23:52:35.731   03 Jun 2027 23:53:00.923            25.192                Sumatra           787.250
       335   04 Jun 2027 00:19:16.421   04 Jun 2027 00:20:26.481            70.060            RioGallegos          2189.375
       336   04 Jun 2027 00:28:55.078   04 Jun 2027 00:29:53.698            58.620            RioGallegos          1831.875
       337   04 Jun 2027 01:00:26.847   04 Jun 2027 01:00:40.133            13.286                Anadyr1           415.187
       338   04 Jun 2027 01:01:02.324   04 Jun 2027 01:01:39.782            37.458                Anadyr2          1170.563
       339   04 Jun 2027 01:02:01.072   04 Jun 2027 01:02:25.269            24.197                Anadyr2           756.156
       340   04 Jun 2027 01:03:14.715   04 Jun 2027 01:04:39.058            84.343                Norilsk          2635.719
       341   04 Jun 2027 01:07:08.179   04 Jun 2027 01:10:14.255           186.076                Irkutsk          5814.875
       342   04 Jun 2027 01:16:36.668   04 Jun 2027 01:17:26.643            49.975                Novosib          1561.719
       343   04 Jun 2027 01:21:18.589   04 Jun 2027 01:22:52.589            94.000                Sumatra          2937.500
       344   04 Jun 2027 01:56:57.764   04 Jun 2027 01:57:23.486            25.722            RioGallegos           803.813
       345   04 Jun 2027 02:00:13.803   04 Jun 2027 02:00:32.826            19.023            RioGallegos           594.469
       346   04 Jun 2027 02:00:39.899   04 Jun 2027 02:00:58.271            18.372            RioGallegos           574.125
       347   04 Jun 2027 02:04:49.243   04 Jun 2027 02:04:59.947            10.704            RioGallegos           334.500
       348   04 Jun 2027 02:05:47.772   04 Jun 2027 02:06:24.340            36.568            RioGallegos          1142.750
       349   04 Jun 2027 02:34:57.641   04 Jun 2027 02:35:34.119            36.478                Anadyr2          1139.938
       350   04 Jun 2027 02:39:15.809   04 Jun 2027 02:40:29.085            73.276                Norilsk          2289.875
       351   04 Jun 2027 02:41:53.857   04 Jun 2027 02:43:15.947            82.090              Murmansk2          2565.312
       352   04 Jun 2027 02:43:23.731   04 Jun 2027 02:44:16.294            52.563                Irkutsk          1642.594
       353   04 Jun 2027 02:44:43.995   04 Jun 2027 02:45:03.159            19.164                Irkutsk           598.875
       354   04 Jun 2027 02:47:21.776   04 Jun 2027 02:47:28.857             7.081                Irkutsk           221.281
       355   04 Jun 2027 02:48:24.333   04 Jun 2027 02:49:16.568            52.235                Irkutsk          1632.344
       356   04 Jun 2027 02:54:24.851   04 Jun 2027 02:54:47.284            22.433                  Delhi           701.031
       357   04 Jun 2027 03:01:49.473   04 Jun 2027 03:03:05.108            75.635                  Delhi          2363.594
       358   04 Jun 2027 03:32:45.882   04 Jun 2027 03:33:44.567            58.685            RioGallegos          1833.906
       359   04 Jun 2027 03:34:00.884   04 Jun 2027 03:35:21.961            81.077            RioGallegos          2533.656
       360   04 Jun 2027 03:36:25.993   04 Jun 2027 03:37:56.448            90.455            RioGallegos          2826.719
       361   04 Jun 2027 04:22:13.141   04 Jun 2027 04:23:03.654            50.513                Irkutsk          1578.531
       362   04 Jun 2027 04:25:52.702   04 Jun 2027 04:25:59.146             6.444                Novosib           201.375
       363   04 Jun 2027 04:26:07.885   04 Jun 2027 04:26:39.799            31.914              Murmansk2           997.313
       364   04 Jun 2027 04:27:00.558   04 Jun 2027 04:27:56.564            56.006              Murmansk2          1750.187
       365   04 Jun 2027 04:28:34.653   04 Jun 2027 04:28:35.493             0.840                Novosib            26.250
       366   04 Jun 2027 04:29:29.764   04 Jun 2027 04:30:27.705            57.941                  Delhi          1810.656
       367   04 Jun 2027 04:33:37.430   04 Jun 2027 04:33:45.808             8.378                  Delhi           261.812
       368   04 Jun 2027 06:01:21.063   04 Jun 2027 06:02:18.898            57.835                 Moscow          1807.344
       369   04 Jun 2027 06:02:23.317   04 Jun 2027 06:03:11.126            47.809                 Moscow          1494.031
       370   04 Jun 2027 06:03:24.757   04 Jun 2027 06:03:47.585            22.828              Murmansk2           713.375
       371   04 Jun 2027 06:03:47.585   04 Jun 2027 06:03:50.704             3.119              Murmansk1            97.469
       372   04 Jun 2027 06:04:08.323   04 Jun 2027 06:04:17.857             9.534              Murmansk2           297.938
       373   04 Jun 2027 06:04:41.152   04 Jun 2027 06:04:44.134             2.982              Murmansk1            93.188
       374   04 Jun 2027 06:05:23.489   04 Jun 2027 06:05:53.846            30.357              Murmansk1           948.656
       375   04 Jun 2027 06:20:32.044   04 Jun 2027 06:22:37.724           125.680               CapeTown          3927.500
       376   04 Jun 2027 06:29:25.520   04 Jun 2027 06:29:53.428            27.908               CapeTown           872.125
       377   04 Jun 2027 07:23:14.323   04 Jun 2027 07:24:19.501            65.178                Anadyr1          2036.813
       378   04 Jun 2027 07:24:35.233   04 Jun 2027 07:24:50.576            15.343               Magadan2           479.469
       379   04 Jun 2027 07:25:05.533   04 Jun 2027 07:25:45.257            39.724                Anadyr2          1241.375
       380   04 Jun 2027 07:26:23.665   04 Jun 2027 07:26:24.724             1.059               Magadan2            33.094
       381   04 Jun 2027 07:26:59.490   04 Jun 2027 07:28:02.942            63.452                Anadyr2          1982.875
       382   04 Jun 2027 08:58:15.487   04 Jun 2027 08:59:54.497            99.010                Anadyr2          3094.062
       383   04 Jun 2027 08:59:54.497   04 Jun 2027 09:00:17.066            22.569                Anadyr1           705.281
       384   04 Jun 2027 09:00:31.146   04 Jun 2027 09:01:03.358            32.212               Magadan1          1006.625
       385   04 Jun 2027 09:01:05.902   04 Jun 2027 09:01:53.619            47.717               Magadan2          1491.156
       386   04 Jun 2027 09:01:53.619   04 Jun 2027 09:02:28.131            34.512               Magadan1          1078.500
       387   04 Jun 2027 09:03:18.968   04 Jun 2027 09:03:44.769            25.801                Norilsk           806.281
       388   04 Jun 2027 09:05:12.808   04 Jun 2027 09:05:46.555            33.747                Anadyr2          1054.594
       389   04 Jun 2027 09:42:47.806   04 Jun 2027 09:43:06.571            18.765            RioGallegos           586.406
       390   04 Jun 2027 09:44:31.106   04 Jun 2027 09:45:07.397            36.291            RioGallegos          1134.094
       391   04 Jun 2027 10:31:46.618   04 Jun 2027 10:33:51.043           124.425               Magadan1          3888.281
       392   04 Jun 2027 10:35:14.612   04 Jun 2027 10:38:24.051           189.439               Magadan1          5919.969
       393   04 Jun 2027 10:39:26.385   04 Jun 2027 10:39:26.957             0.572                Irkutsk            17.875
       394   04 Jun 2027 10:39:31.575   04 Jun 2027 10:40:29.568            57.993               Magadan2          1812.281
       395   04 Jun 2027 10:40:35.028   04 Jun 2027 10:41:02.236            27.208               Magadan1           850.250
       396   04 Jun 2027 10:41:10.486   04 Jun 2027 10:41:29.267            18.781              Murmansk2           586.906
       397   04 Jun 2027 10:46:11.183   04 Jun 2027 10:46:18.749             7.566              Murmansk1           236.438
       398   04 Jun 2027 10:49:06.255   04 Jun 2027 10:49:08.656             2.401              Murmansk2            75.031
       399   04 Jun 2027 10:49:57.326   04 Jun 2027 10:50:35.214            37.888              Murmansk2          1184.000
       400   04 Jun 2027 11:16:12.694   04 Jun 2027 11:17:21.187            68.493            RioGallegos          2140.406
       401   04 Jun 2027 11:52:10.710   04 Jun 2027 11:52:51.598            40.888                Sumatra          1277.750
       402   04 Jun 2027 12:05:41.067   04 Jun 2027 12:06:04.905            23.838                Irkutsk           744.937
       403   04 Jun 2027 12:06:57.953   04 Jun 2027 12:07:21.799            23.846                Novosib           745.188
       404   04 Jun 2027 12:08:55.948   04 Jun 2027 12:09:14.547            18.599                Novosib           581.219
       405   04 Jun 2027 12:10:33.707   04 Jun 2027 12:10:48.330            14.623                Norilsk           456.969
       406   04 Jun 2027 12:11:31.219   04 Jun 2027 12:12:30.884            59.665                Norilsk          1864.531
       407   04 Jun 2027 12:17:11.519   04 Jun 2027 12:18:18.852            67.333                Norilsk          2104.156
       408   04 Jun 2027 12:54:03.496   04 Jun 2027 12:54:58.827            55.331            RioGallegos          1729.094
       409   04 Jun 2027 13:00:54.676   04 Jun 2027 13:03:10.063           135.387            RioGallegos          4230.844
       410   04 Jun 2027 13:31:54.402   04 Jun 2027 13:32:37.037            42.635                Sumatra          1332.344
       411   04 Jun 2027 13:42:06.720   04 Jun 2027 13:43:24.739            78.019                Novosib          2438.094
       412   04 Jun 2027 13:45:19.656   04 Jun 2027 13:45:35.540            15.884                Novosib           496.375
       413   04 Jun 2027 13:46:08.104   04 Jun 2027 13:47:32.848            84.744                Irkutsk          2648.250
       414   04 Jun 2027 13:55:45.026   04 Jun 2027 13:56:24.969            39.943                Norilsk          1248.219
       415   04 Jun 2027 15:12:23.523   04 Jun 2027 15:17:23.804           300.281                  Delhi          9383.781
       416   04 Jun 2027 15:21:30.791   04 Jun 2027 15:22:54.272            83.481                Novosib          2608.781
       417   04 Jun 2027 15:24:26.349   04 Jun 2027 15:24:36.083             9.734                Norilsk           304.188
       418   04 Jun 2027 15:29:16.045   04 Jun 2027 15:29:27.445            11.400                Norilsk           356.250
       419   04 Jun 2027 15:32:09.102   04 Jun 2027 15:33:02.839            53.737                Norilsk          1679.281
       420   04 Jun 2027 16:55:43.954   04 Jun 2027 16:57:26.323           102.369                 Moscow          3199.031
       421   04 Jun 2027 16:58:50.345   04 Jun 2027 16:59:33.245            42.900                 Moscow          1340.625
       422   04 Jun 2027 16:59:43.618   04 Jun 2027 17:00:22.819            39.201              Murmansk2          1225.031
       423   04 Jun 2027 17:05:38.010   04 Jun 2027 17:06:12.162            34.152              Murmansk1          1067.250
       424   04 Jun 2027 17:06:57.896   04 Jun 2027 17:09:20.996           143.100                Norilsk          4471.875
       425   04 Jun 2027 18:09:24.256   04 Jun 2027 18:10:10.575            46.319               CapeTown          1447.469
       426   04 Jun 2027 18:19:41.391   04 Jun 2027 18:20:16.639            35.248               CapeTown          1101.500
       427   04 Jun 2027 18:34:54.123   04 Jun 2027 18:39:29.393           275.270                 Moscow          8602.187
       428   04 Jun 2027 18:53:54.601   04 Jun 2027 18:53:58.673             4.072                Anadyr2           127.250
       429   04 Jun 2027 19:45:38.348   04 Jun 2027 19:46:49.880            71.532               CapeTown          2235.375
       430   04 Jun 2027 19:49:21.219   04 Jun 2027 19:50:00.301            39.082               CapeTown          1221.312
       431   04 Jun 2027 19:50:21.484   04 Jun 2027 19:50:25.220             3.736               CapeTown           116.750
       432   04 Jun 2027 19:53:26.154   04 Jun 2027 19:54:11.192            45.038               CapeTown          1407.438
       433   04 Jun 2027 20:17:51.051   04 Jun 2027 20:22:57.874           306.823              Murmansk1          9588.219
       434   04 Jun 2027 20:23:07.057   04 Jun 2027 20:23:09.848             2.791              Murmansk1            87.219
       435   04 Jun 2027 20:28:25.534   04 Jun 2027 20:28:28.319             2.785               Magadan2            87.031
       436   04 Jun 2027 20:28:42.864   04 Jun 2027 20:29:31.679            48.815               Magadan2          1525.469
       437   04 Jun 2027 22:01:32.737   04 Jun 2027 22:05:19.445           226.708                Anadyr2          7084.625
       438   04 Jun 2027 22:05:25.737   04 Jun 2027 22:08:54.247           208.510               Magadan2          6515.938
       439   04 Jun 2027 22:10:50.956   04 Jun 2027 22:11:12.270            21.314               Magadan1           666.063
       440   04 Jun 2027 22:56:29.578   04 Jun 2027 22:59:09.746           160.168            RioGallegos          5005.250
       441   04 Jun 2027 23:01:47.550   04 Jun 2027 23:02:09.279            21.729            RioGallegos           679.031
       442   04 Jun 2027 23:05:26.663   04 Jun 2027 23:05:31.572             4.909            RioGallegos           153.406
       443   04 Jun 2027 23:37:16.729   04 Jun 2027 23:38:38.425            81.696                Anadyr2          2553.000
       444   04 Jun 2027 23:39:05.949   04 Jun 2027 23:40:33.491            87.542                Anadyr1          2735.688
       445   04 Jun 2027 23:40:47.284   04 Jun 2027 23:41:00.250            12.966                Norilsk           405.187
       446   04 Jun 2027 23:41:03.246   04 Jun 2027 23:42:57.153           113.907               Magadan1          3559.594
       447   04 Jun 2027 23:43:49.899   04 Jun 2027 23:44:37.607            47.708                Irkutsk          1490.875
       448   04 Jun 2027 23:52:26.052   04 Jun 2027 23:53:11.728            45.676                Irkutsk          1427.375
       449   04 Jun 2027 23:57:56.626   05 Jun 2027 00:01:00.414           183.788                Sumatra          5743.375
       450   05 Jun 2027 00:41:26.315   05 Jun 2027 00:41:46.337            20.022            RioGallegos           625.688
       451   05 Jun 2027 01:12:17.761   05 Jun 2027 01:13:03.508            45.747                Anadyr2          1429.594
       452   05 Jun 2027 01:13:03.508   05 Jun 2027 01:13:51.510            48.002                Anadyr1          1500.063
       453   05 Jun 2027 01:14:37.774   05 Jun 2027 01:14:45.134             7.360                Anadyr2           230.000
       454   05 Jun 2027 01:15:16.996   05 Jun 2027 01:16:49.981            92.985                Norilsk          2905.781
       455   05 Jun 2027 01:16:52.968   05 Jun 2027 01:17:38.937            45.969               Magadan1          1436.531
       456   05 Jun 2027 01:19:09.536   05 Jun 2027 01:21:06.601           117.065                Irkutsk          3658.281
       457   05 Jun 2027 01:24:08.804   05 Jun 2027 01:24:35.376            26.572                Novosib           830.375
       458   05 Jun 2027 01:27:53.956   05 Jun 2027 01:28:37.312            43.356                  Delhi          1354.875
       459   05 Jun 2027 01:31:03.803   05 Jun 2027 01:31:12.675             8.872                  Delhi           277.250
       460   05 Jun 2027 01:32:44.005   05 Jun 2027 01:34:07.185            83.180                  Delhi          2599.375
       461   05 Jun 2027 01:37:56.982   05 Jun 2027 01:38:54.888            57.906                Sumatra          1809.562
       462   05 Jun 2027 01:41:38.582   05 Jun 2027 01:43:39.672           121.090                Sumatra          3784.062
       463   05 Jun 2027 02:51:17.908   05 Jun 2027 02:52:12.626            54.718                Norilsk          1709.937
       464   05 Jun 2027 02:52:32.672   05 Jun 2027 02:52:59.112            26.440                Norilsk           826.250
       465   05 Jun 2027 02:53:47.654   05 Jun 2027 02:54:34.755            47.101              Murmansk2          1471.906
       466   05 Jun 2027 02:55:04.267   05 Jun 2027 02:55:17.478            13.211                Novosib           412.844
       467   05 Jun 2027 02:55:31.781   05 Jun 2027 02:56:40.888            69.107                Irkutsk          2159.594
       468   05 Jun 2027 02:58:42.450   05 Jun 2027 02:59:04.287            21.837                Irkutsk           682.406
       469   05 Jun 2027 03:00:45.896   05 Jun 2027 03:01:05.817            19.921              Murmansk2           622.531
       470   05 Jun 2027 03:01:16.242   05 Jun 2027 03:02:00.010            43.768                 Moscow          1367.750
       471   05 Jun 2027 03:02:20.884   05 Jun 2027 03:03:03.400            42.516                Irkutsk          1328.625
       472   05 Jun 2027 03:04:03.019   05 Jun 2027 03:04:26.137            23.118                  Delhi           722.438
       473   05 Jun 2027 03:04:47.062   05 Jun 2027 03:05:55.117            68.055                Irkutsk          2126.719
       474   05 Jun 2027 03:45:21.902   05 Jun 2027 03:45:42.205            20.303            RioGallegos           634.469
       475   05 Jun 2027 04:33:49.235   05 Jun 2027 04:33:49.777             0.542                Novosib            16.938
       476   05 Jun 2027 04:34:18.028   05 Jun 2027 04:35:17.534            59.506                Novosib          1859.563
       477   05 Jun 2027 04:37:00.230   05 Jun 2027 04:37:18.091            17.861              Murmansk1           558.156
       478   05 Jun 2027 04:37:43.939   05 Jun 2027 04:38:19.123            35.184                Novosib          1099.500
       479   05 Jun 2027 04:38:38.238   05 Jun 2027 04:39:34.629            56.391                Norilsk          1762.219
       480   05 Jun 2027 04:40:59.748   05 Jun 2027 04:41:27.829            28.081                Novosib           877.531
       481   05 Jun 2027 06:11:19.001   05 Jun 2027 06:11:20.900             1.899                Novosib            59.344
       482   05 Jun 2027 06:12:01.190   05 Jun 2027 06:12:35.103            33.913                Novosib          1059.781
