uniorb/output/strategy_2/Drop/Drop_KinoSat_112002.txt

KinoSat_112002
-------------------------
    Access    *     Start Time (UTCG)     *     Stop Time (UTCG)  *   Duration (s)        *       Station  *  Data (Mbytes)
         1   01 Jun 2027 03:25:59.392   01 Jun 2027 03:26:06.802             7.410               Magadan1           231.562
         2   01 Jun 2027 03:29:41.953   01 Jun 2027 03:30:20.237            38.284              Murmansk2          1196.375
         3   01 Jun 2027 03:31:22.770   01 Jun 2027 03:31:32.509             9.739                Novosib           304.344
         4   01 Jun 2027 03:31:46.932   01 Jun 2027 03:32:44.437            57.505                Irkutsk          1797.031
         5   01 Jun 2027 03:32:51.201   01 Jun 2027 03:45:38.451           767.250                  Delhi         23976.562
         6   01 Jun 2027 04:14:54.404   01 Jun 2027 04:21:33.833           399.429            RioGallegos         12482.156
         7   01 Jun 2027 04:50:25.437   01 Jun 2027 04:50:51.728            26.291                Anadyr2           821.594
         8   01 Jun 2027 04:50:51.728   01 Jun 2027 04:51:20.420            28.692                Anadyr1           896.625
         9   01 Jun 2027 04:51:25.944   01 Jun 2027 04:51:28.280             2.336                Anadyr1            73.000
        10   01 Jun 2027 04:52:57.961   01 Jun 2027 04:53:33.115            35.154                Anadyr2          1098.562
        11   01 Jun 2027 05:03:17.960   01 Jun 2027 05:05:14.206           116.246                Irkutsk          3632.687
        12   01 Jun 2027 05:06:49.764   01 Jun 2027 05:08:03.676            73.912                Irkutsk          2309.750
        13   01 Jun 2027 05:08:51.497   01 Jun 2027 05:09:14.481            22.984              Murmansk2           718.250
        14   01 Jun 2027 05:09:25.295   01 Jun 2027 05:10:34.074            68.779              Murmansk2          2149.344
        15   01 Jun 2027 05:10:55.381   01 Jun 2027 05:17:40.084           404.703                  Delhi         12646.969
        16   01 Jun 2027 06:38:28.852   01 Jun 2027 06:38:50.002            21.150                Novosib           660.937
        17   01 Jun 2027 06:43:36.704   01 Jun 2027 06:44:09.549            32.845                Norilsk          1026.406
        18   01 Jun 2027 06:44:58.322   01 Jun 2027 06:46:24.025            85.703                 Moscow          2678.219
        19   01 Jun 2027 06:46:54.789   01 Jun 2027 06:46:59.672             4.883              Murmansk1           152.594
        20   01 Jun 2027 06:47:26.271   01 Jun 2027 06:48:35.936            69.665              Murmansk1          2177.031
        21   01 Jun 2027 06:48:38.296   01 Jun 2027 06:49:04.622            26.326                 Moscow           822.687
        22   01 Jun 2027 06:49:32.694   01 Jun 2027 06:49:37.709             5.015                 Moscow           156.719
        23   01 Jun 2027 06:51:33.930   01 Jun 2027 06:51:56.946            23.016                 Moscow           719.250
        24   01 Jun 2027 07:02:56.277   01 Jun 2027 07:12:10.208           553.931               CapeTown         17310.344
        25   01 Jun 2027 08:06:55.769   01 Jun 2027 08:08:16.587            80.818                Anadyr1          2525.562
        26   01 Jun 2027 08:08:34.856   01 Jun 2027 08:09:15.236            40.380                Anadyr2          1261.875
        27   01 Jun 2027 08:09:22.046   01 Jun 2027 08:12:36.269           194.223                Anadyr2          6069.469
        28   01 Jun 2027 08:43:20.632   01 Jun 2027 08:48:04.909           284.277               CapeTown          8883.656
        29   01 Jun 2027 09:42:34.992   01 Jun 2027 09:47:52.967           317.975                Anadyr2          9936.719
        30   01 Jun 2027 11:17:58.175   01 Jun 2027 11:22:31.939           273.764               Magadan1          8555.125
        31   01 Jun 2027 13:46:01.558   01 Jun 2027 13:46:11.332             9.774            RioGallegos           305.438
        32   01 Jun 2027 14:09:41.626   01 Jun 2027 14:10:30.116            48.490                Sumatra          1515.312
        33   01 Jun 2027 14:12:18.178   01 Jun 2027 14:14:40.292           142.114                Sumatra          4441.062
        34   01 Jun 2027 14:19:30.495   01 Jun 2027 14:21:40.093           129.598                Sumatra          4049.938
        35   01 Jun 2027 14:24:38.531   01 Jun 2027 14:26:25.254           106.723                Irkutsk          3335.094
        36   01 Jun 2027 14:30:16.701   01 Jun 2027 14:31:14.804            58.103                Irkutsk          1815.719
        37   01 Jun 2027 14:33:33.848   01 Jun 2027 14:35:11.564            97.716                Irkutsk          3053.625
        38   01 Jun 2027 15:54:25.057   01 Jun 2027 15:56:58.643           153.586                  Delhi          4799.563
        39   01 Jun 2027 16:00:04.784   01 Jun 2027 16:04:23.581           258.797                  Delhi          8087.406
        40   01 Jun 2027 16:08:52.497   01 Jun 2027 16:09:25.114            32.617                Novosib          1019.281
        41   01 Jun 2027 17:47:22.589   01 Jun 2027 17:52:09.891           287.302                Norilsk          8978.187
        42   01 Jun 2027 19:18:56.495   01 Jun 2027 19:22:55.752           239.257                 Moscow          7476.781
        43   01 Jun 2027 19:28:47.170   01 Jun 2027 19:30:18.908            91.738              Murmansk1          2866.813
        44   01 Jun 2027 20:27:53.581   01 Jun 2027 20:27:58.663             5.082               CapeTown           158.813
        45   01 Jun 2027 20:31:48.442   01 Jun 2027 20:32:29.806            41.364               CapeTown          1292.625
        46   01 Jun 2027 20:32:38.387   01 Jun 2027 20:33:59.994            81.607               CapeTown          2550.219
        47   01 Jun 2027 20:36:08.771   01 Jun 2027 20:37:40.678            91.907               CapeTown          2872.094
        48   01 Jun 2027 20:59:32.079   01 Jun 2027 21:05:51.150           379.071              Murmansk1         11845.969
        49   01 Jun 2027 22:46:17.662   01 Jun 2027 22:46:59.910            42.248               Magadan2          1320.250
        50   01 Jun 2027 23:39:20.130   01 Jun 2027 23:42:24.605           184.475            RioGallegos          5764.844
        51   01 Jun 2027 23:45:20.225   01 Jun 2027 23:45:51.181            30.956            RioGallegos           967.375
        52   01 Jun 2027 23:46:56.496   01 Jun 2027 23:47:16.494            19.998            RioGallegos           624.937
        53   02 Jun 2027 00:19:48.280   02 Jun 2027 00:21:26.719            98.439                Anadyr2          3076.219
        54   02 Jun 2027 00:21:52.498   02 Jun 2027 00:23:47.961           115.463                Norilsk          3608.219
        55   02 Jun 2027 00:25:26.814   02 Jun 2027 00:25:43.390            16.576               Magadan1           518.000
        56   02 Jun 2027 00:25:57.723   02 Jun 2027 00:26:10.014            12.291               Magadan1           384.094
        57   02 Jun 2027 00:26:29.940   02 Jun 2027 00:27:43.456            73.516                Irkutsk          2297.375
        58   02 Jun 2027 00:28:39.626   02 Jun 2027 00:29:57.687            78.061                Irkutsk          2439.406
        59   02 Jun 2027 00:30:52.792   02 Jun 2027 00:31:27.440            34.648                Irkutsk          1082.750
        60   02 Jun 2027 00:33:27.845   02 Jun 2027 00:33:35.353             7.508                Irkutsk           234.625
        61   02 Jun 2027 00:36:24.428   02 Jun 2027 00:36:37.937            13.509                Irkutsk           422.156
        62   02 Jun 2027 00:40:53.875   02 Jun 2027 00:43:45.587           171.712                Sumatra          5366.000
        63   02 Jun 2027 00:50:27.710   02 Jun 2027 00:51:21.676            53.966                Sumatra          1686.437
        64   02 Jun 2027 01:17:38.119   02 Jun 2027 01:17:47.613             9.494            RioGallegos           296.687
        65   02 Jun 2027 01:19:58.110   02 Jun 2027 01:20:56.181            58.071            RioGallegos          1814.719
        66   02 Jun 2027 01:54:56.539   02 Jun 2027 01:55:53.080            56.541                Anadyr1          1766.906
        67   02 Jun 2027 01:56:48.881   02 Jun 2027 01:57:16.154            27.273                Anadyr1           852.281
        68   02 Jun 2027 01:57:44.622   02 Jun 2027 01:57:45.290             0.668                Norilsk            20.875
        69   02 Jun 2027 01:58:03.215   02 Jun 2027 01:58:19.070            15.855                Anadyr2           495.469
        70   02 Jun 2027 01:58:25.059   02 Jun 2027 01:59:38.676            73.617               Magadan2          2300.531
        71   02 Jun 2027 02:00:25.270   02 Jun 2027 02:00:56.674            31.404               Magadan1           981.375
        72   02 Jun 2027 02:01:38.179   02 Jun 2027 02:04:41.666           183.487                Irkutsk          5733.969
        73   02 Jun 2027 02:10:55.492   02 Jun 2027 02:10:57.693             2.201                Irkutsk            68.781
        74   02 Jun 2027 02:11:33.395   02 Jun 2027 02:13:32.164           118.769                  Delhi          3711.531
        75   02 Jun 2027 02:15:50.354   02 Jun 2027 02:17:22.506            92.152                Sumatra          2879.750
        76   02 Jun 2027 02:20:53.010   02 Jun 2027 02:25:42.316           289.306                Sumatra          9040.813
        77   02 Jun 2027 03:41:28.189   02 Jun 2027 03:42:23.638            55.449              Murmansk2          1732.781
        78   02 Jun 2027 03:42:31.622   02 Jun 2027 03:42:55.811            24.189                Norilsk           755.906
        79   02 Jun 2027 03:42:56.521   02 Jun 2027 03:43:09.938            13.417              Murmansk1           419.281
        80   02 Jun 2027 03:43:27.845   02 Jun 2027 03:43:57.860            30.015                Norilsk           937.969
        81   02 Jun 2027 03:44:53.284   02 Jun 2027 03:57:34.454           761.170                  Delhi         23786.562
        82   02 Jun 2027 04:27:19.534   02 Jun 2027 04:32:39.255           319.721            RioGallegos          9991.281
        83   02 Jun 2027 05:15:23.102   02 Jun 2027 05:15:55.085            31.983                Novosib           999.469
        84   02 Jun 2027 05:16:53.218   02 Jun 2027 05:17:51.840            58.622                Irkutsk          1831.937
        85   02 Jun 2027 05:18:22.108   02 Jun 2027 05:18:26.067             3.959                Norilsk           123.719
        86   02 Jun 2027 05:18:40.770   02 Jun 2027 05:19:41.143            60.373              Murmansk2          1886.656
        87   02 Jun 2027 05:19:52.236   02 Jun 2027 05:20:00.047             7.811                Norilsk           244.094
        88   02 Jun 2027 05:20:04.465   02 Jun 2027 05:21:16.358            71.893                Norilsk          2246.656
        89   02 Jun 2027 05:22:23.075   02 Jun 2027 05:22:29.100             6.025              Murmansk1           188.281
        90   02 Jun 2027 05:22:29.100   02 Jun 2027 05:23:06.597            37.497              Murmansk2          1171.781
        91   02 Jun 2027 05:23:24.096   02 Jun 2027 05:24:40.862            76.766                Novosib          2398.937
        92   02 Jun 2027 05:25:07.972   02 Jun 2027 05:28:03.063           175.091                  Delhi          5471.594
        93   02 Jun 2027 06:55:50.582   02 Jun 2027 06:55:53.295             2.713                Novosib            84.781
        94   02 Jun 2027 06:56:32.611   02 Jun 2027 06:56:39.089             6.478                Norilsk           202.437
        95   02 Jun 2027 06:57:03.822   02 Jun 2027 06:57:14.240            10.418                 Moscow           325.563
        96   02 Jun 2027 06:57:17.240   02 Jun 2027 06:57:27.516            10.276              Murmansk1           321.125
        97   02 Jun 2027 06:57:32.638   02 Jun 2027 06:58:00.639            28.001                 Moscow           875.031
        98   02 Jun 2027 06:58:45.374   02 Jun 2027 07:00:06.103            80.729              Murmansk2          2522.781
        99   02 Jun 2027 07:00:32.993   02 Jun 2027 07:00:43.295            10.302              Murmansk1           321.937
       100   02 Jun 2027 07:01:12.840   02 Jun 2027 07:03:56.005           163.165                 Moscow          5098.906
       101   02 Jun 2027 07:15:02.818   02 Jun 2027 07:19:36.919           274.101               CapeTown          8565.656
       102   02 Jun 2027 07:24:40.945   02 Jun 2027 07:24:46.059             5.114               CapeTown           159.812
       103   02 Jun 2027 07:26:34.551   02 Jun 2027 07:27:38.853            64.302               CapeTown          2009.437
       104   02 Jun 2027 08:18:35.997   02 Jun 2027 08:20:19.741           103.744               Magadan1          3242.000
       105   02 Jun 2027 08:20:32.383   02 Jun 2027 08:24:02.113           209.730                Anadyr1          6554.062
       106   02 Jun 2027 09:51:41.154   02 Jun 2027 09:52:40.966            59.812                Anadyr1          1869.125
       107   02 Jun 2027 09:52:40.966   02 Jun 2027 09:53:59.769            78.803                Anadyr2          2462.594
       108   02 Jun 2027 09:54:29.578   02 Jun 2027 09:55:14.557            44.979                Norilsk          1405.594
       109   02 Jun 2027 09:55:25.209   02 Jun 2027 09:55:57.404            32.195               Magadan1          1006.094
       110   02 Jun 2027 09:56:15.353   02 Jun 2027 09:56:58.593            43.240               Magadan2          1351.250
       111   02 Jun 2027 09:56:58.593   02 Jun 2027 09:58:19.534            80.941               Magadan1          2529.406
       112   02 Jun 2027 09:59:45.346   02 Jun 2027 10:00:20.635            35.289                Anadyr1          1102.781
       113   02 Jun 2027 11:25:03.719   02 Jun 2027 11:26:01.494            57.775               Magadan1          1805.469
       114   02 Jun 2027 11:26:11.165   02 Jun 2027 11:28:34.467           143.302               Magadan1          4478.188
       115   02 Jun 2027 11:29:31.657   02 Jun 2027 11:35:02.288           330.631               Magadan1         10332.219
       116   02 Jun 2027 11:35:24.493   02 Jun 2027 11:35:45.937            21.444                Novosib           670.125
       117   02 Jun 2027 11:35:55.734   02 Jun 2027 11:36:19.358            23.624              Murmansk2           738.250
       118   02 Jun 2027 11:36:46.126   02 Jun 2027 11:36:53.717             7.591              Murmansk2           237.219
       119   02 Jun 2027 11:40:49.237   02 Jun 2027 11:40:57.857             8.620              Murmansk1           269.375
       120   02 Jun 2027 11:42:31.430   02 Jun 2027 11:43:10.561            39.131              Murmansk1          1222.844
       121   02 Jun 2027 12:10:42.312   02 Jun 2027 12:12:03.324            81.012            RioGallegos          2531.625
       122   02 Jun 2027 12:46:37.782   02 Jun 2027 12:47:33.053            55.271                Sumatra          1727.219
       123   02 Jun 2027 12:56:27.546   02 Jun 2027 12:57:30.353            62.807                Sumatra          1962.719
       124   02 Jun 2027 13:00:22.356   02 Jun 2027 13:01:47.167            84.811                Irkutsk          2650.344
       125   02 Jun 2027 13:02:22.127   02 Jun 2027 13:02:35.708            13.581                Irkutsk           424.406
       126   02 Jun 2027 13:03:57.887   02 Jun 2027 13:05:05.515            67.628                Norilsk          2113.375
       127   02 Jun 2027 13:13:08.799   02 Jun 2027 13:13:32.896            24.097                Norilsk           753.031
       128   02 Jun 2027 13:47:45.468   02 Jun 2027 13:48:50.619            65.151            RioGallegos          2035.969
       129   02 Jun 2027 13:49:28.434   02 Jun 2027 13:52:52.217           203.783            RioGallegos          6368.219
       130   02 Jun 2027 14:22:00.974   02 Jun 2027 14:27:29.199           328.225                Sumatra         10257.031
       131   02 Jun 2027 14:37:34.944   02 Jun 2027 14:43:17.966           343.022                Irkutsk         10719.438
       132   02 Jun 2027 16:10:27.184   02 Jun 2027 16:13:17.288           170.104                  Delhi          5315.750
       133   02 Jun 2027 16:15:20.800   02 Jun 2027 16:21:42.063           381.263                Novosib         11914.469
       134   02 Jun 2027 18:02:54.600   02 Jun 2027 18:03:50.485            55.885                Norilsk          1746.406
       135   02 Jun 2027 19:29:28.404   02 Jun 2027 19:36:33.375           424.971                 Moscow         13280.344
       136   02 Jun 2027 20:40:10.359   02 Jun 2027 20:41:24.930            74.571               CapeTown          2330.344
       137   02 Jun 2027 20:43:45.102   02 Jun 2027 20:45:13.335            88.233               CapeTown          2757.281
       138   02 Jun 2027 21:12:25.272   02 Jun 2027 21:17:39.747           314.475              Murmansk1          9827.344
       139   02 Jun 2027 22:56:03.024   02 Jun 2027 22:57:53.711           110.687                Anadyr2          3458.969
       140   02 Jun 2027 22:58:18.696   02 Jun 2027 23:00:21.294           122.598               Magadan2          3831.187
       141   02 Jun 2027 23:01:25.537   02 Jun 2027 23:02:02.876            37.339               Magadan1          1166.844
       142   02 Jun 2027 23:02:02.876   02 Jun 2027 23:02:08.691             5.815               Magadan2           181.719
       143   02 Jun 2027 23:02:58.066   02 Jun 2027 23:03:08.669            10.603               Magadan1           331.344
       144   02 Jun 2027 23:03:28.527   02 Jun 2027 23:04:02.239            33.712               Magadan1          1053.500
       145   02 Jun 2027 23:04:58.651   02 Jun 2027 23:05:32.774            34.123               Magadan2          1066.344
       146   02 Jun 2027 23:50:57.212   02 Jun 2027 23:54:14.290           197.078            RioGallegos          6158.688
       147   02 Jun 2027 23:57:26.112   02 Jun 2027 23:57:46.564            20.452            RioGallegos           639.125
       148   02 Jun 2027 23:59:19.676   02 Jun 2027 23:59:39.456            19.780            RioGallegos           618.125
       149   03 Jun 2027 00:31:46.940   03 Jun 2027 00:33:03.723            76.783                Anadyr1          2399.469
       150   03 Jun 2027 00:33:07.649   03 Jun 2027 00:33:16.339             8.690                Anadyr2           271.563
       151   03 Jun 2027 00:33:52.151   03 Jun 2027 00:35:32.800           100.649                Norilsk          3145.281
       152   03 Jun 2027 00:37:04.334   03 Jun 2027 00:37:45.774            41.440               Magadan2          1295.000
       153   03 Jun 2027 00:38:18.621   03 Jun 2027 00:39:43.647            85.026                Irkutsk          2657.062
       154   03 Jun 2027 00:44:11.488   03 Jun 2027 00:44:56.045            44.557                Irkutsk          1392.406
       155   03 Jun 2027 00:46:58.609   03 Jun 2027 00:47:46.004            47.395                Irkutsk          1481.094
       156   03 Jun 2027 00:52:24.150   03 Jun 2027 00:53:50.774            86.624                Sumatra          2707.000
       157   03 Jun 2027 00:55:35.295   03 Jun 2027 00:56:20.768            45.473                Sumatra          1421.031
       158   03 Jun 2027 01:00:46.063   03 Jun 2027 01:01:41.128            55.065                Sumatra          1720.781
       159   03 Jun 2027 01:30:20.498   03 Jun 2027 01:30:25.414             4.916            RioGallegos           153.625
       160   03 Jun 2027 01:31:53.589   03 Jun 2027 01:32:31.896            38.307            RioGallegos          1197.094
       161   03 Jun 2027 01:37:21.764   03 Jun 2027 01:37:34.084            12.320            RioGallegos           385.000
       162   03 Jun 2027 02:06:47.386   03 Jun 2027 02:07:49.019            61.633                Anadyr2          1926.031
       163   03 Jun 2027 02:08:49.111   03 Jun 2027 02:09:10.385            21.274                Anadyr2           664.813
       164   03 Jun 2027 02:09:47.006   03 Jun 2027 02:11:09.113            82.107                Norilsk          2565.844
       165   03 Jun 2027 02:11:36.528   03 Jun 2027 02:11:51.021            14.493                Norilsk           452.906
       166   03 Jun 2027 02:13:39.717   03 Jun 2027 02:15:59.572           139.855                Irkutsk          4370.469
       167   03 Jun 2027 02:16:57.886   03 Jun 2027 02:17:13.063            15.177                Irkutsk           474.281
       168   03 Jun 2027 02:20:36.683   03 Jun 2027 02:20:40.782             4.099                Irkutsk           128.094
       169   03 Jun 2027 02:22:10.261   03 Jun 2027 02:22:37.374            27.113                Novosib           847.281
       170   03 Jun 2027 02:23:13.347   03 Jun 2027 02:25:19.274           125.927                  Delhi          3935.219
       171   03 Jun 2027 02:29:50.994   03 Jun 2027 02:34:02.989           251.995                Sumatra          7874.844
       172   03 Jun 2027 03:53:29.685   03 Jun 2027 03:53:44.807            15.122              Murmansk2           472.562
       173   03 Jun 2027 03:54:15.412   03 Jun 2027 03:54:21.130             5.718                Irkutsk           178.687
       174   03 Jun 2027 03:54:21.532   03 Jun 2027 03:55:54.321            92.789              Murmansk1          2899.656
       175   03 Jun 2027 03:55:55.245   03 Jun 2027 03:56:17.750            22.505                Norilsk           703.281
       176   03 Jun 2027 03:56:24.763   03 Jun 2027 03:57:30.575            65.812                Novosib          2056.625
       177   03 Jun 2027 03:57:40.994   03 Jun 2027 03:59:10.722            89.728                Novosib          2804.000
       178   03 Jun 2027 03:59:58.723   03 Jun 2027 04:03:10.744           192.021                  Delhi          6000.656
       179   03 Jun 2027 04:05:37.148   03 Jun 2027 04:09:25.003           227.855                  Delhi          7120.469
       180   03 Jun 2027 04:39:58.175   03 Jun 2027 04:43:28.849           210.674            RioGallegos          6583.562
       181   03 Jun 2027 05:28:25.573   03 Jun 2027 05:28:44.150            18.577                Novosib           580.531
       182   03 Jun 2027 05:29:53.353   03 Jun 2027 05:30:23.666            30.313                Norilsk           947.281
       183   03 Jun 2027 05:30:55.944   03 Jun 2027 05:31:12.798            16.854              Murmansk2           526.687
       184   03 Jun 2027 05:31:12.798   03 Jun 2027 05:31:58.863            46.065              Murmansk1          1439.531
       185   03 Jun 2027 05:32:05.986   03 Jun 2027 05:32:45.595            39.609                 Moscow          1237.781
       186   03 Jun 2027 05:32:49.168   03 Jun 2027 05:33:03.380            14.212              Murmansk1           444.125
       187   03 Jun 2027 05:33:03.380   03 Jun 2027 05:34:12.704            69.324              Murmansk2          2166.375
       188   03 Jun 2027 05:35:23.939   03 Jun 2027 05:35:32.274             8.335              Murmansk2           260.469
       189   03 Jun 2027 05:38:13.622   03 Jun 2027 05:38:45.524            31.902                 Moscow           996.938
       190   03 Jun 2027 05:52:22.103   03 Jun 2027 05:53:06.095            43.992               CapeTown          1374.750
       191   03 Jun 2027 05:56:31.347   03 Jun 2027 05:57:21.632            50.285               CapeTown          1571.406
       192   03 Jun 2027 07:04:00.825   03 Jun 2027 07:04:37.569            36.744                Novosib          1148.250
       193   03 Jun 2027 07:05:40.323   03 Jun 2027 07:05:41.719             1.396                Novosib            43.625
       194   03 Jun 2027 07:06:21.238   03 Jun 2027 07:07:11.374            50.136                 Moscow          1566.750
       195   03 Jun 2027 07:07:38.210   03 Jun 2027 07:08:27.774            49.564                Norilsk          1548.875
       196   03 Jun 2027 07:08:34.684   03 Jun 2027 07:09:01.031            26.347              Murmansk2           823.344
       197   03 Jun 2027 07:09:01.031   03 Jun 2027 07:09:18.084            17.053              Murmansk1           532.906
       198   03 Jun 2027 07:09:21.405   03 Jun 2027 07:10:19.244            57.839                 Moscow          1807.469
       199   03 Jun 2027 07:12:03.953   03 Jun 2027 07:12:43.563            39.610                 Moscow          1237.813
       200   03 Jun 2027 07:27:14.843   03 Jun 2027 07:28:42.135            87.292               CapeTown          2727.875
       201   03 Jun 2027 07:30:03.457   03 Jun 2027 07:32:06.202           122.745               CapeTown          3835.781
       202   03 Jun 2027 07:36:07.941   03 Jun 2027 07:37:02.772            54.831               CapeTown          1713.469
       203   03 Jun 2027 08:30:13.878   03 Jun 2027 08:30:38.826            24.948               Magadan1           779.625
       204   03 Jun 2027 08:30:57.915   03 Jun 2027 08:32:28.732            90.817                Anadyr1          2838.031
       205   03 Jun 2027 08:32:40.651   03 Jun 2027 08:33:09.582            28.931                Norilsk           904.094
       206   03 Jun 2027 08:33:14.233   03 Jun 2027 08:33:31.375            17.142               Magadan2           535.687
       207   03 Jun 2027 08:34:45.475   03 Jun 2027 08:35:53.946            68.471                Anadyr1          2139.719
       208   03 Jun 2027 08:45:44.448   03 Jun 2027 08:45:44.830             0.382                 Moscow            11.937
       209   03 Jun 2027 08:46:52.650   03 Jun 2027 08:47:04.715            12.065                 Moscow           377.031
       210   03 Jun 2027 10:02:17.745   03 Jun 2027 10:07:44.515           326.770                Anadyr1         10211.563
       211   03 Jun 2027 10:08:01.750   03 Jun 2027 10:08:12.275            10.525               Magadan2           328.906
       212   03 Jun 2027 10:08:57.057   03 Jun 2027 10:09:05.265             8.208                Norilsk           256.500
       213   03 Jun 2027 10:09:05.736   03 Jun 2027 10:09:36.969            31.233               Magadan1           976.031
       214   03 Jun 2027 10:09:43.975   03 Jun 2027 10:12:17.586           153.611                Anadyr1          4800.344
       215   03 Jun 2027 11:37:35.025   03 Jun 2027 11:41:15.697           220.672               Magadan2          6896.000
       216   03 Jun 2027 11:41:38.109   03 Jun 2027 11:47:39.862           361.753               Magadan2         11304.781
       217   03 Jun 2027 12:58:12.681   03 Jun 2027 12:58:52.809            40.128                Sumatra          1254.000
       218   03 Jun 2027 13:04:36.795   03 Jun 2027 13:04:58.235            21.440                Sumatra           670.000
       219   03 Jun 2027 13:09:53.587   03 Jun 2027 13:09:58.367             4.780                Sumatra           149.375
       220   03 Jun 2027 13:11:08.985   03 Jun 2027 13:14:23.055           194.070                Irkutsk          6064.687
       221   03 Jun 2027 13:21:23.707   03 Jun 2027 13:21:57.165            33.458                Norilsk          1045.563
       222   03 Jun 2027 13:30:34.183   03 Jun 2027 13:30:39.128             4.945              Murmansk2           154.531
       223   03 Jun 2027 14:00:15.292   03 Jun 2027 14:02:11.625           116.333            RioGallegos          3635.406
       224   03 Jun 2027 14:04:34.357   03 Jun 2027 14:05:56.197            81.840            RioGallegos          2557.500
       225   03 Jun 2027 14:09:47.189   03 Jun 2027 14:10:17.551            30.362            RioGallegos           948.813
       226   03 Jun 2027 14:34:28.870   03 Jun 2027 14:36:49.216           140.346                Sumatra          4385.812
       227   03 Jun 2027 14:37:33.072   03 Jun 2027 14:40:48.592           195.520                Sumatra          6110.000
       228   03 Jun 2027 14:49:57.124   03 Jun 2027 14:56:44.412           407.288                Irkutsk         12727.750
       229   03 Jun 2027 16:21:17.378   03 Jun 2027 16:28:45.115           447.737                  Delhi         13991.781
       230   03 Jun 2027 16:29:17.332   03 Jun 2027 16:35:37.103           379.771                Novosib         11867.844
       231   03 Jun 2027 19:42:25.368   03 Jun 2027 19:49:11.535           406.167                 Moscow         12692.719
       232   03 Jun 2027 20:54:19.562   03 Jun 2027 20:54:46.870            27.308               CapeTown           853.375
       233   03 Jun 2027 20:54:46.952   03 Jun 2027 20:58:06.444           199.492               CapeTown          6234.125
       234   03 Jun 2027 21:25:28.590   03 Jun 2027 21:29:20.314           231.724              Murmansk1          7241.375
       235   03 Jun 2027 23:09:33.764   03 Jun 2027 23:09:52.402            18.638                Anadyr2           582.437
       236   03 Jun 2027 23:10:20.143   03 Jun 2027 23:11:36.041            75.898               Magadan1          2371.813
       237   03 Jun 2027 23:11:53.090   03 Jun 2027 23:12:13.274            20.184               Magadan1           630.750
       238   03 Jun 2027 23:13:51.147   03 Jun 2027 23:14:02.797            11.650               Magadan2           364.062
       239   03 Jun 2027 23:14:57.755   03 Jun 2027 23:15:18.262            20.507               Magadan1           640.844
       240   03 Jun 2027 23:17:16.432   03 Jun 2027 23:17:27.956            11.524               Magadan1           360.125
       241   03 Jun 2027 23:21:12.573   03 Jun 2027 23:21:49.170            36.597               Magadan2          1143.656
       242   03 Jun 2027 23:23:00.214   03 Jun 2027 23:23:15.597            15.383               Magadan1           480.719
       243   04 Jun 2027 00:02:40.723   04 Jun 2027 00:04:54.190           133.467            RioGallegos          4170.844
       244   04 Jun 2027 00:05:36.556   04 Jun 2027 00:06:06.702            30.146            RioGallegos           942.062
       245   04 Jun 2027 00:09:32.990   04 Jun 2027 00:09:43.556            10.566            RioGallegos           330.187
       246   04 Jun 2027 00:12:05.025   04 Jun 2027 00:12:33.356            28.331            RioGallegos           885.344
       247   04 Jun 2027 00:43:44.925   04 Jun 2027 00:44:54.851            69.926                Anadyr1          2185.187
       248   04 Jun 2027 00:45:12.663   04 Jun 2027 00:45:29.092            16.429                Anadyr2           513.406
       249   04 Jun 2027 00:45:52.520   04 Jun 2027 00:47:34.301           101.781                Norilsk          3180.656
       250   04 Jun 2027 00:48:30.230   04 Jun 2027 00:48:43.620            13.390               Magadan1           418.438
       251   04 Jun 2027 00:48:54.361   04 Jun 2027 00:49:24.450            30.089               Magadan1           940.281
       252   04 Jun 2027 00:50:06.039   04 Jun 2027 00:50:39.325            33.286               Magadan1          1040.187
       253   04 Jun 2027 00:50:56.003   04 Jun 2027 00:51:44.779            48.776                Irkutsk          1524.250
       254   04 Jun 2027 00:52:34.851   04 Jun 2027 00:53:49.243            74.392                Irkutsk          2324.750
       255   04 Jun 2027 00:55:58.636   04 Jun 2027 00:56:23.381            24.745                Irkutsk           773.281
       256   04 Jun 2027 00:58:35.014   04 Jun 2027 00:58:40.481             5.467                Irkutsk           170.844
       257   04 Jun 2027 00:58:51.522   04 Jun 2027 00:59:23.441            31.919                Irkutsk           997.469
       258   04 Jun 2027 01:04:03.157   04 Jun 2027 01:04:50.633            47.476                Sumatra          1483.625
       259   04 Jun 2027 01:10:27.584   04 Jun 2027 01:11:24.871            57.287                Sumatra          1790.219
       260   04 Jun 2027 01:41:43.245   04 Jun 2027 01:42:04.148            20.903            RioGallegos           653.219
       261   04 Jun 2027 01:44:53.273   04 Jun 2027 01:45:06.232            12.959            RioGallegos           404.969
       262   04 Jun 2027 01:46:28.957   04 Jun 2027 01:47:21.752            52.795            RioGallegos          1649.844
       263   04 Jun 2027 02:18:36.907   04 Jun 2027 02:18:43.613             6.706                Anadyr2           209.562
       264   04 Jun 2027 02:19:06.460   04 Jun 2027 02:19:56.123            49.663                Anadyr2          1551.969
       265   04 Jun 2027 02:21:39.173   04 Jun 2027 02:21:54.714            15.541                Anadyr1           485.656
       266   04 Jun 2027 02:22:31.274   04 Jun 2027 02:23:55.550            84.276               Magadan2          2633.625
       267   04 Jun 2027 02:25:42.097   04 Jun 2027 02:27:51.131           129.034                Irkutsk          4032.313
       268   04 Jun 2027 02:29:56.081   04 Jun 2027 02:31:05.409            69.328                Irkutsk          2166.500
       269   04 Jun 2027 02:39:08.333   04 Jun 2027 02:39:49.609            41.276                  Delhi          1289.875
       270   04 Jun 2027 02:40:46.913   04 Jun 2027 02:48:06.118           439.205                Sumatra         13725.156
       271   04 Jun 2027 04:05:09.714   04 Jun 2027 04:05:56.514            46.800                Irkutsk          1462.500
       272   04 Jun 2027 04:06:17.658   04 Jun 2027 04:07:15.974            58.316                Novosib          1822.375
       273   04 Jun 2027 04:07:28.159   04 Jun 2027 04:08:08.354            40.195              Murmansk1          1256.094
       274   04 Jun 2027 04:08:13.156   04 Jun 2027 04:10:14.851           121.695                Irkutsk          3802.969
       275   04 Jun 2027 04:11:50.409   04 Jun 2027 04:11:53.687             3.278                Novosib           102.438
       276   04 Jun 2027 04:12:17.481   04 Jun 2027 04:12:39.410            21.929                Novosib           685.281
       277   04 Jun 2027 04:13:33.809   04 Jun 2027 04:14:18.063            44.254                Novosib          1382.938
       278   04 Jun 2027 04:16:46.268   04 Jun 2027 04:18:51.714           125.446                  Delhi          3920.187
       279   04 Jun 2027 05:42:35.679   04 Jun 2027 05:43:08.796            33.117              Murmansk1          1034.906
       280   04 Jun 2027 05:43:30.151   04 Jun 2027 05:44:27.558            57.407                 Moscow          1793.969
       281   04 Jun 2027 05:44:34.215   04 Jun 2027 05:44:38.424             4.209                 Moscow           131.531
       282   04 Jun 2027 05:44:45.291   04 Jun 2027 05:45:32.419            47.128              Murmansk2          1472.750
       283   04 Jun 2027 05:45:32.419   04 Jun 2027 05:46:03.002            30.583              Murmansk1           955.719
       284   04 Jun 2027 05:46:25.343   04 Jun 2027 05:46:51.533            26.190              Murmansk2           818.438
       285   04 Jun 2027 05:47:08.258   04 Jun 2027 05:47:38.204            29.946                Novosib           935.813
       286   04 Jun 2027 05:47:56.743   04 Jun 2027 05:48:43.247            46.504                 Moscow          1453.250
       287   04 Jun 2027 05:48:51.258   04 Jun 2027 05:48:54.600             3.342                 Moscow           104.437
       288   04 Jun 2027 05:49:13.814   04 Jun 2027 05:50:15.767            61.953                 Moscow          1936.031
       289   04 Jun 2027 06:03:56.911   04 Jun 2027 06:05:16.420            79.509               CapeTown          2484.656
       290   04 Jun 2027 06:05:51.524   04 Jun 2027 06:07:09.923            78.399               CapeTown          2449.969
       291   04 Jun 2027 07:18:14.636   04 Jun 2027 07:18:16.871             2.235                 Moscow            69.844
       292   04 Jun 2027 07:18:21.465   04 Jun 2027 07:18:25.246             3.781                Norilsk           118.156
       293   04 Jun 2027 07:18:26.823   04 Jun 2027 07:18:50.750            23.927                 Moscow           747.719
       294   04 Jun 2027 07:19:10.915   04 Jun 2027 07:19:25.115            14.200                 Moscow           443.750
       295   04 Jun 2027 07:19:39.295   04 Jun 2027 07:19:57.611            18.316                Norilsk           572.375
       296   04 Jun 2027 07:20:06.269   04 Jun 2027 07:20:11.103             4.834              Murmansk2           151.062
       297   04 Jun 2027 07:20:11.103   04 Jun 2027 07:20:27.558            16.455              Murmansk1           514.219
       298   04 Jun 2027 07:20:53.832   04 Jun 2027 07:21:17.309            23.477              Murmansk1           733.656
       299   04 Jun 2027 07:21:17.309   04 Jun 2027 07:21:17.367             0.058              Murmansk2             1.812
       300   04 Jun 2027 07:21:31.839   04 Jun 2027 07:22:28.733            56.894              Murmansk2          1777.937
       301   04 Jun 2027 07:24:41.577   04 Jun 2027 07:24:51.596            10.019              Murmansk2           313.094
       302   04 Jun 2027 07:39:32.874   04 Jun 2027 07:40:37.148            64.274               CapeTown          2008.563
       303   04 Jun 2027 07:41:55.661   04 Jun 2027 07:44:45.010           169.349               CapeTown          5292.156
       304   04 Jun 2027 08:42:37.417   04 Jun 2027 08:43:14.140            36.723               Magadan2          1147.594
       305   04 Jun 2027 08:44:23.556   04 Jun 2027 08:45:04.088            40.532                Anadyr2          1266.625
       306   04 Jun 2027 08:45:04.088   04 Jun 2027 08:45:19.863            15.775                Anadyr1           492.969
       307   04 Jun 2027 08:46:44.734   04 Jun 2027 08:47:42.423            57.689                Anadyr2          1802.781
       308   04 Jun 2027 08:59:46.657   04 Jun 2027 09:00:08.631            21.974                 Moscow           686.688
       309   04 Jun 2027 10:14:51.639   04 Jun 2027 10:22:05.530           433.891                Anadyr1         13559.094
       310   04 Jun 2027 10:22:05.530   04 Jun 2027 10:24:13.130           127.600                Anadyr2          3987.500
       311   04 Jun 2027 11:50:11.352   04 Jun 2027 11:56:07.677           356.325               Magadan1         11135.156
       312   04 Jun 2027 11:56:28.296   04 Jun 2027 11:59:30.810           182.514               Magadan2          5703.562
       313   04 Jun 2027 13:20:12.388   04 Jun 2027 13:22:13.080           120.692                Sumatra          3771.625
       314   04 Jun 2027 13:32:38.343   04 Jun 2027 13:33:00.560            22.217                Irkutsk           694.281
       315   04 Jun 2027 13:33:39.629   04 Jun 2027 13:33:53.400            13.771                Irkutsk           430.344
       316   04 Jun 2027 13:37:13.191   04 Jun 2027 13:37:38.930            25.739                Norilsk           804.344
       317   04 Jun 2027 13:39:12.508   04 Jun 2027 13:39:14.971             2.463                Norilsk            76.969
       318   04 Jun 2027 13:39:37.464   04 Jun 2027 13:39:52.844            15.380                Norilsk           480.625
       319   04 Jun 2027 13:40:58.329   04 Jun 2027 13:40:58.783             0.454                Norilsk            14.188
       320   04 Jun 2027 13:42:56.663   04 Jun 2027 13:43:09.445            12.782              Murmansk2           399.437
       321   04 Jun 2027 14:12:51.525   04 Jun 2027 14:19:00.354           368.829            RioGallegos         11525.906
       322   04 Jun 2027 14:47:08.498   04 Jun 2027 14:56:02.997           534.499                Sumatra         16703.094
       323   04 Jun 2027 15:03:01.868   04 Jun 2027 15:10:15.877           434.009                Irkutsk         13562.781
       324   04 Jun 2027 16:32:39.692   04 Jun 2027 16:39:57.886           438.194                  Delhi         13693.563
       325   04 Jun 2027 16:41:08.944   04 Jun 2027 16:47:34.044           385.100                Novosib         12034.375
       326   04 Jun 2027 19:55:40.739   04 Jun 2027 20:00:30.721           289.982                 Moscow          9061.937
       327   04 Jun 2027 20:00:40.527   04 Jun 2027 20:01:58.273            77.746              Murmansk1          2429.563
       328   04 Jun 2027 21:05:23.580   04 Jun 2027 21:13:16.271           472.691               CapeTown         14771.594
       329   04 Jun 2027 21:39:01.225   04 Jun 2027 21:40:33.620            92.395              Murmansk2          2887.344
       330   05 Jun 2027 00:55:42.156   05 Jun 2027 00:56:20.070            37.914                Anadyr1          1184.812
       331   05 Jun 2027 00:57:53.431   05 Jun 2027 00:58:26.798            33.367                Norilsk          1042.719
       332   05 Jun 2027 00:58:39.060   05 Jun 2027 01:00:19.193           100.133               Magadan2          3129.156
       333   05 Jun 2027 01:00:19.193   05 Jun 2027 01:00:34.985            15.792               Magadan1           493.500
       334   05 Jun 2027 01:02:04.171   05 Jun 2027 01:03:46.767           102.596                Irkutsk          3206.125
       335   05 Jun 2027 01:04:49.361   05 Jun 2027 01:05:22.515            33.154                Novosib          1036.063
       336   05 Jun 2027 01:08:43.601   05 Jun 2027 01:09:34.132            50.531                Irkutsk          1579.094
       337   05 Jun 2027 01:15:49.310   05 Jun 2027 01:16:41.858            52.548                Sumatra          1642.125
       338   05 Jun 2027 01:21:29.747   05 Jun 2027 01:22:40.370            70.623                Sumatra          2206.969
       339   05 Jun 2027 01:53:05.705   05 Jun 2027 01:53:17.635            11.930            RioGallegos           372.812
       340   05 Jun 2027 01:57:29.251   05 Jun 2027 01:57:47.455            18.204            RioGallegos           568.875
       341   05 Jun 2027 01:59:07.822   05 Jun 2027 01:59:24.126            16.304            RioGallegos           509.500
       342   05 Jun 2027 02:00:04.484   05 Jun 2027 02:00:27.294            22.810            RioGallegos           712.812
       343   05 Jun 2027 02:30:25.084   05 Jun 2027 02:31:07.817            42.733                Anadyr1          1335.406
       344   05 Jun 2027 02:32:44.284   05 Jun 2027 02:32:50.452             6.168                Anadyr2           192.750
       345   05 Jun 2027 02:33:51.948   05 Jun 2027 02:35:14.208            82.260                Norilsk          2570.625
       346   05 Jun 2027 02:35:23.621   05 Jun 2027 02:36:11.002            47.381               Magadan1          1480.656
       347   05 Jun 2027 02:37:45.289   05 Jun 2027 02:40:14.447           149.158                Irkutsk          4661.188
       348   05 Jun 2027 02:45:30.644   05 Jun 2027 02:45:51.064            20.420                Irkutsk           638.125
       349   05 Jun 2027 02:51:25.735   05 Jun 2027 02:51:56.078            30.343                  Delhi           948.219
       350   05 Jun 2027 02:53:34.730   05 Jun 2027 03:01:34.430           479.700                Sumatra         14990.625
       351   05 Jun 2027 04:15:01.203   05 Jun 2027 04:16:03.885            62.682                Irkutsk          1958.813
       352   05 Jun 2027 04:18:54.887   05 Jun 2027 04:19:29.970            35.083              Murmansk2          1096.344
       353   05 Jun 2027 04:19:29.970   05 Jun 2027 04:19:49.708            19.738              Murmansk1           616.813
       354   05 Jun 2027 04:19:53.807   05 Jun 2027 04:20:28.491            34.684                Norilsk          1083.875
       355   05 Jun 2027 04:20:29.338   05 Jun 2027 04:22:05.921            96.583                Irkutsk          3018.219
       356   05 Jun 2027 04:24:23.399   05 Jun 2027 04:24:41.908            18.509                Novosib           578.406
       357   05 Jun 2027 05:55:08.403   05 Jun 2027 05:55:30.755            22.352                Norilsk           698.500
       358   05 Jun 2027 05:55:39.190   05 Jun 2027 05:56:23.373            44.183              Murmansk1          1380.719
       359   05 Jun 2027 05:56:23.373   05 Jun 2027 05:57:54.019            90.646              Murmansk2          2832.688
       360   05 Jun 2027 05:58:18.966   05 Jun 2027 05:59:00.027            41.061              Murmansk2          1283.156
       361   05 Jun 2027 05:59:05.959   05 Jun 2027 06:00:07.609            61.650              Murmansk2          1926.563
       362   05 Jun 2027 06:00:49.616   05 Jun 2027 06:01:42.042            52.426                 Moscow          1638.312
       363   05 Jun 2027 06:01:58.752   05 Jun 2027 06:02:18.537            19.785                 Moscow           618.281
       364   05 Jun 2027 06:02:29.329   05 Jun 2027 06:02:51.254            21.925                 Moscow           685.156
       365   05 Jun 2027 06:15:37.824   05 Jun 2027 06:17:32.548           114.724               CapeTown          3585.125
       366   05 Jun 2027 07:19:06.956   05 Jun 2027 07:19:46.081            39.125                Anadyr1          1222.656
       367   05 Jun 2027 07:20:06.304   05 Jun 2027 07:20:36.543            30.239               Magadan1           944.969
       368   05 Jun 2027 07:20:54.135   05 Jun 2027 07:21:27.835            33.700                Anadyr1          1053.125
       369   05 Jun 2027 07:27:46.422   05 Jun 2027 07:28:01.125            14.703                 Moscow           459.469
       370   05 Jun 2027 07:30:09.728   05 Jun 2027 07:30:37.361            27.633                 Moscow           863.531
       371   05 Jun 2027 07:30:37.855   05 Jun 2027 07:31:12.739            34.884              Murmansk1          1090.125
       372   05 Jun 2027 07:31:15.681   05 Jun 2027 07:32:27.496            71.815                 Moscow          2244.219
       373   05 Jun 2027 07:36:30.704   05 Jun 2027 07:36:39.117             8.413                 Moscow           262.906
       374   05 Jun 2027 07:37:45.419   05 Jun 2027 07:37:58.452            13.033                 Moscow           407.281
       375   05 Jun 2027 07:51:57.771   05 Jun 2027 07:54:29.983           152.212               CapeTown          4756.625
       376   05 Jun 2027 08:52:55.554   05 Jun 2027 08:53:45.416            49.862               Magadan1          1558.188
       377   05 Jun 2027 08:54:00.945   05 Jun 2027 08:54:07.050             6.105               Magadan2           190.781
       378   05 Jun 2027 08:54:07.050   05 Jun 2027 08:54:43.868            36.818               Magadan1          1150.562
       379   05 Jun 2027 08:54:58.625   05 Jun 2027 08:56:16.312            77.687                Anadyr1          2427.719
       380   05 Jun 2027 08:56:16.312   05 Jun 2027 08:57:46.938            90.626                Anadyr2          2832.062
       381   05 Jun 2027 10:26:42.597   05 Jun 2027 10:28:06.296            83.699               Magadan2          2615.594
       382   05 Jun 2027 10:28:31.060   05 Jun 2027 10:36:06.797           455.737                Anadyr1         14241.781
       383   05 Jun 2027 12:02:53.717   05 Jun 2027 12:11:18.417           504.700               Magadan2         15771.875
       384   05 Jun 2027 14:25:35.773   05 Jun 2027 14:32:35.083           419.310            RioGallegos         13103.437
       385   05 Jun 2027 15:00:07.557   05 Jun 2027 15:06:59.027           411.470                Sumatra         12858.438
       386   05 Jun 2027 15:16:00.067   05 Jun 2027 15:21:37.663           337.596                Irkutsk         10549.875
       387   05 Jun 2027 16:46:16.089   05 Jun 2027 16:50:36.195           260.106                  Delhi          8128.312
       388   05 Jun 2027 16:54:30.748   05 Jun 2027 16:58:47.482           256.734                Novosib          8022.938
       389   05 Jun 2027 20:09:50.827   05 Jun 2027 20:10:40.521            49.694              Murmansk2          1552.937
       390   05 Jun 2027 20:12:03.493   05 Jun 2027 20:15:28.903           205.410              Murmansk2          6419.063
       391   05 Jun 2027 20:16:08.479   05 Jun 2027 20:16:37.097            28.618              Murmansk2           894.313
       392   05 Jun 2027 21:17:42.782   05 Jun 2027 21:24:13.842           391.060               CapeTown         12220.625
       393   05 Jun 2027 23:33:53.528   05 Jun 2027 23:34:05.188            11.660                Anadyr1           364.375
       394   05 Jun 2027 23:34:24.071   05 Jun 2027 23:36:07.236           103.165               Magadan2          3223.906
       395   05 Jun 2027 23:40:00.985   05 Jun 2027 23:40:18.623            17.638               Magadan2           551.187
       396   05 Jun 2027 23:40:41.152   05 Jun 2027 23:41:31.385            50.233                Irkutsk          1569.781
       397   05 Jun 2027 23:41:42.889   05 Jun 2027 23:42:06.459            23.570                Irkutsk           736.563
       398   06 Jun 2027 00:26:19.589   06 Jun 2027 00:29:48.780           209.191            RioGallegos          6537.219
       399   06 Jun 2027 00:34:46.823   06 Jun 2027 00:35:32.719            45.896            RioGallegos          1434.250
       400   06 Jun 2027 01:07:38.536   06 Jun 2027 01:08:02.165            23.629                Anadyr1           738.406
       401   06 Jun 2027 01:09:30.861   06 Jun 2027 01:10:11.326            40.465                Anadyr2          1264.531
       402   06 Jun 2027 01:10:13.623   06 Jun 2027 01:11:36.712            83.089                Norilsk          2596.531
       403   06 Jun 2027 01:11:57.068   06 Jun 2027 01:13:37.453           100.385               Magadan2          3137.031
       404   06 Jun 2027 01:13:59.934   06 Jun 2027 01:15:18.022            78.088                Irkutsk          2440.250
       405   06 Jun 2027 01:16:57.045   06 Jun 2027 01:17:40.970            43.925                Novosib          1372.656
       406   06 Jun 2027 01:25:26.603   06 Jun 2027 01:25:26.630             0.027                Irkutsk             0.844
       407   06 Jun 2027 01:27:41.718   06 Jun 2027 01:30:45.427           183.709                Sumatra          5740.906
       408   06 Jun 2027 01:39:56.781   06 Jun 2027 01:40:23.429            26.648                Sumatra           832.750
       409   06 Jun 2027 02:10:40.873   06 Jun 2027 02:10:59.595            18.722            RioGallegos           585.062
       410   06 Jun 2027 02:14:34.668   06 Jun 2027 02:14:35.359             0.691            RioGallegos            21.594
       411   06 Jun 2027 02:42:11.938   06 Jun 2027 02:43:09.215            57.277                Anadyr1          1789.906
       412   06 Jun 2027 02:45:30.773   06 Jun 2027 02:45:33.500             2.727                Anadyr2            85.219
       413   06 Jun 2027 02:45:54.452   06 Jun 2027 02:47:03.325            68.873                Norilsk          2152.281
       414   06 Jun 2027 02:48:13.527   06 Jun 2027 02:48:36.097            22.570               Magadan2           705.312
       415   06 Jun 2027 02:49:45.773   06 Jun 2027 02:49:51.622             5.849                Norilsk           182.781
       416   06 Jun 2027 02:49:58.329   06 Jun 2027 02:51:58.783           120.454                Novosib          3764.187
       417   06 Jun 2027 02:52:05.313   06 Jun 2027 02:52:27.568            22.255                Irkutsk           695.469
       418   06 Jun 2027 02:54:31.570   06 Jun 2027 02:54:47.508            15.938                Irkutsk           498.063
       419   06 Jun 2027 02:56:05.134   06 Jun 2027 02:56:38.229            33.095                Irkutsk          1034.219
       420   06 Jun 2027 02:58:24.304   06 Jun 2027 02:58:48.358            24.054                  Delhi           751.688
       421   06 Jun 2027 03:06:51.331   06 Jun 2027 03:12:12.410           321.079                Sumatra         10033.719
       422   06 Jun 2027 03:42:41.461   06 Jun 2027 03:42:55.693            14.232            RioGallegos           444.750
       423   06 Jun 2027 04:28:43.236   06 Jun 2027 04:30:18.053            94.817                Irkutsk          2963.031
       424   06 Jun 2027 04:31:15.966   06 Jun 2027 04:32:49.751            93.785                Irkutsk          2930.781
       425   06 Jun 2027 04:37:29.276   06 Jun 2027 04:38:46.588            77.312                  Delhi          2416.000
       426   06 Jun 2027 06:07:57.839   06 Jun 2027 06:08:37.021            39.182                Norilsk          1224.437
       427   06 Jun 2027 06:08:37.080   06 Jun 2027 06:09:09.234            32.154              Murmansk2          1004.812
       428   06 Jun 2027 06:09:21.185   06 Jun 2027 06:09:59.913            38.728                 Moscow          1210.250
       429   06 Jun 2027 06:10:11.519   06 Jun 2027 06:10:48.501            36.982              Murmansk2          1155.687
       430   06 Jun 2027 06:11:02.987   06 Jun 2027 06:11:16.197            13.210                 Moscow           412.812
       431   06 Jun 2027 06:11:33.880   06 Jun 2027 06:12:28.097            54.217                 Moscow          1694.281
       432   06 Jun 2027 06:12:52.955   06 Jun 2027 06:14:04.337            71.382                 Moscow          2230.688
       433   06 Jun 2027 06:15:03.696   06 Jun 2027 06:15:23.671            19.975                 Moscow           624.219
       434   06 Jun 2027 06:27:24.288   06 Jun 2027 06:28:28.191            63.903               CapeTown          1996.969
       435   06 Jun 2027 06:34:48.943   06 Jun 2027 06:35:04.816            15.873               CapeTown           496.031
       436   06 Jun 2027 07:30:32.527   06 Jun 2027 07:30:41.380             8.853               Magadan1           276.656
       437   06 Jun 2027 07:30:44.520   06 Jun 2027 07:31:54.934            70.414                Anadyr2          2200.437
       438   06 Jun 2027 07:32:10.565   06 Jun 2027 07:32:38.913            28.348               Magadan2           885.875
       439   06 Jun 2027 07:39:17.596   06 Jun 2027 07:40:13.076            55.480                 Moscow          1733.750
       440   06 Jun 2027 07:42:29.202   06 Jun 2027 07:42:50.613            21.411              Murmansk2           669.094
       441   06 Jun 2027 07:43:11.091   06 Jun 2027 07:43:45.036            33.945              Murmansk2          1060.781
       442   06 Jun 2027 07:44:28.843   06 Jun 2027 07:44:50.971            22.128              Murmansk1           691.500
       443   06 Jun 2027 07:46:04.484   06 Jun 2027 07:46:56.849            52.365                 Moscow          1636.406
       444   06 Jun 2027 08:04:30.968   06 Jun 2027 08:10:52.478           381.510               CapeTown         11922.188
       445   06 Jun 2027 09:04:47.675   06 Jun 2027 09:05:26.530            38.855               Magadan2          1214.219
       446   06 Jun 2027 09:06:23.392   06 Jun 2027 09:06:46.019            22.627               Magadan2           707.094
       447   06 Jun 2027 09:06:58.231   06 Jun 2027 09:09:51.591           173.360                Anadyr2          5417.500
       448   06 Jun 2027 09:09:51.591   06 Jun 2027 09:10:17.433            25.842                Anadyr1           807.562
       449   06 Jun 2027 10:40:01.954   06 Jun 2027 10:42:29.551           147.597               Magadan2          4612.406
       450   06 Jun 2027 10:42:40.205   06 Jun 2027 10:43:06.662            26.457                Irkutsk           826.781
       451   06 Jun 2027 10:43:34.441   06 Jun 2027 10:47:57.833           263.392                Anadyr2          8231.000
       452   06 Jun 2027 12:11:50.191   06 Jun 2027 12:12:39.618            49.427                Irkutsk          1544.594
       453   06 Jun 2027 12:15:43.848   06 Jun 2027 12:23:01.041           437.193               Magadan1         13662.281
       454   06 Jun 2027 13:47:44.941   06 Jun 2027 13:50:19.485           154.544                Irkutsk          4829.500
       455   06 Jun 2027 14:38:31.079   06 Jun 2027 14:45:45.625           434.546            RioGallegos         13579.562
       456   06 Jun 2027 15:14:01.853   06 Jun 2027 15:16:58.751           176.898                Sumatra          5528.063
       457   06 Jun 2027 15:29:54.043   06 Jun 2027 15:32:18.377           144.334                Irkutsk          4510.438
       458   06 Jun 2027 17:09:19.699   06 Jun 2027 17:11:16.051           116.352                Norilsk          3636.000
       459   06 Jun 2027 18:39:24.147   06 Jun 2027 18:40:07.336            43.189                 Moscow          1349.656
       460   06 Jun 2027 18:41:04.231   06 Jun 2027 18:43:52.883           168.652                 Moscow          5270.375
       461   06 Jun 2027 18:47:50.627   06 Jun 2027 18:49:19.876            89.249                 Moscow          2789.031
       462   06 Jun 2027 19:01:15.737   06 Jun 2027 19:02:03.629            47.892                Anadyr2          1496.625
       463   06 Jun 2027 19:53:52.059   06 Jun 2027 19:54:15.658            23.599               CapeTown           737.469
       464   06 Jun 2027 19:54:50.081   06 Jun 2027 19:55:33.423            43.342               CapeTown          1354.437
       465   06 Jun 2027 20:00:03.287   06 Jun 2027 20:00:30.483            27.196               CapeTown           849.875
       466   06 Jun 2027 20:21:45.934   06 Jun 2027 20:23:06.972            81.038              Murmansk2          2532.438
       467   06 Jun 2027 20:23:07.942   06 Jun 2027 20:30:23.590           435.648              Murmansk1         13614.000
       468   06 Jun 2027 21:30:53.096   06 Jun 2027 21:34:39.240           226.144               CapeTown          7067.000
       469   06 Jun 2027 22:11:55.385   06 Jun 2027 22:12:28.636            33.251               Magadan1          1039.094
       470   06 Jun 2027 22:12:48.737   06 Jun 2027 22:13:05.836            17.099               Magadan1           534.344
       471   06 Jun 2027 22:14:26.909   06 Jun 2027 22:14:29.116             2.207               Magadan1            68.969
       472   06 Jun 2027 23:44:07.004   06 Jun 2027 23:47:57.196           230.192                Anadyr1          7193.500
       473   06 Jun 2027 23:47:58.366   06 Jun 2027 23:50:52.310           173.944                Norilsk          5435.750
       474   06 Jun 2027 23:51:25.196   06 Jun 2027 23:51:36.266            11.070                Norilsk           345.938
       475   06 Jun 2027 23:51:48.023   06 Jun 2027 23:51:59.704            11.681               Magadan1           365.031
       476   06 Jun 2027 23:52:06.611   06 Jun 2027 23:54:06.858           120.247                Irkutsk          3757.719
       477   06 Jun 2027 23:56:48.880   06 Jun 2027 23:57:08.346            19.466                Irkutsk           608.312
       478   07 Jun 2027 00:08:23.368   07 Jun 2027 00:10:56.615           153.247                Sumatra          4788.969
       479   07 Jun 2027 00:38:13.054   07 Jun 2027 00:39:19.983            66.929            RioGallegos          2091.531
       480   07 Jun 2027 00:49:15.364   07 Jun 2027 00:49:31.537            16.173            RioGallegos           505.406
       481   07 Jun 2027 00:50:02.852   07 Jun 2027 00:50:08.616             5.764            RioGallegos           180.125
       482   07 Jun 2027 01:19:33.962   07 Jun 2027 01:19:44.944            10.982                Anadyr1           343.188
