uniorb/output/strategy_2/Drop/Drop_KinoSat_111109.txt

KinoSat_111109
-------------------------
    Access    *     Start Time (UTCG)     *     Stop Time (UTCG)  *   Duration (s)        *       Station  *  Data (Mbytes)
         1   01 Jun 2027 03:00:02.111   01 Jun 2027 03:01:08.841            66.730                 Moscow          1055.500
         2   01 Jun 2027 03:01:09.280   01 Jun 2027 03:01:21.726            12.446              Murmansk1           219.500
         3   01 Jun 2027 03:18:10.072   01 Jun 2027 03:20:35.886           145.814               CapeTown          4556.687
         4   01 Jun 2027 04:22:16.414   01 Jun 2027 04:22:51.850            35.436                Anadyr1          1107.375
         5   01 Jun 2027 04:23:08.229   01 Jun 2027 04:24:55.429           107.200               Magadan1          3350.000
         6   01 Jun 2027 04:25:27.317   01 Jun 2027 04:25:44.063            16.746               Magadan2           523.313
         7   01 Jun 2027 05:59:57.335   01 Jun 2027 06:00:47.331            49.996                Norilsk          1562.375
         8   01 Jun 2027 06:01:20.489   01 Jun 2027 06:02:36.243            75.754                Anadyr2          2367.312
         9   01 Jun 2027 07:33:20.169   01 Jun 2027 07:33:45.466            25.297                Irkutsk           790.531
        10   01 Jun 2027 07:34:21.679   01 Jun 2027 07:36:23.696           122.017               Magadan1          3813.031
        11   01 Jun 2027 07:36:50.932   01 Jun 2027 07:37:48.861            57.929                Novosib          1810.281
        12   01 Jun 2027 07:37:49.373   01 Jun 2027 07:38:33.912            44.539                Norilsk          1391.844
        13   01 Jun 2027 07:38:35.326   01 Jun 2027 07:39:52.428            77.102                Novosib          2409.438
        14   01 Jun 2027 08:13:58.860   01 Jun 2027 08:14:43.151            44.291            RioGallegos          1384.094
        15   01 Jun 2027 08:15:54.272   01 Jun 2027 08:16:53.116            58.844            RioGallegos          1838.875
        16   01 Jun 2027 08:50:17.449   01 Jun 2027 08:51:15.908            58.459                Sumatra          1826.844
        17   01 Jun 2027 09:10:51.149   01 Jun 2027 09:14:09.030           197.881                Irkutsk          6183.781
        18   01 Jun 2027 09:14:40.390   01 Jun 2027 09:15:47.758            67.368                Norilsk          2105.250
        19   01 Jun 2027 09:15:48.382   01 Jun 2027 09:16:32.803            44.421                Novosib          1388.156
        20   01 Jun 2027 09:16:44.728   01 Jun 2027 09:16:55.909            11.181                Norilsk           349.406
        21   01 Jun 2027 09:16:57.006   01 Jun 2027 09:17:31.014            34.008              Murmansk1          1062.750
        22   01 Jun 2027 09:17:47.077   01 Jun 2027 09:18:22.952            35.875                Norilsk          1121.094
        23   01 Jun 2027 09:50:39.282   01 Jun 2027 09:51:45.424            66.142            RioGallegos          2066.938
        24   01 Jun 2027 09:53:10.946   01 Jun 2027 09:53:57.845            46.899            RioGallegos          1465.594
        25   01 Jun 2027 10:24:57.556   01 Jun 2027 10:26:43.745           106.189                Sumatra          3318.406
        26   01 Jun 2027 10:28:59.129   01 Jun 2027 10:29:41.361            42.232                Sumatra          1319.750
        27   01 Jun 2027 10:33:32.918   01 Jun 2027 10:35:54.456           141.538                  Delhi          4423.063
        28   01 Jun 2027 10:46:54.866   01 Jun 2027 10:48:10.620            75.754                Irkutsk          2367.312
        29   01 Jun 2027 10:48:43.268   01 Jun 2027 10:48:47.110             3.842                Novosib           120.062
        30   01 Jun 2027 10:48:49.807   01 Jun 2027 10:50:46.370           116.563              Murmansk2          3642.594
        31   01 Jun 2027 10:51:13.015   01 Jun 2027 10:51:22.643             9.628                Novosib           300.875
        32   01 Jun 2027 10:51:26.461   01 Jun 2027 10:52:15.006            48.545              Murmansk2          1517.031
        33   01 Jun 2027 12:09:44.016   01 Jun 2027 12:13:31.932           227.916                  Delhi          7122.375
        34   01 Jun 2027 12:18:02.995   01 Jun 2027 12:18:16.245            13.250                Novosib           414.062
        35   01 Jun 2027 12:20:57.832   01 Jun 2027 12:22:48.763           110.931              Murmansk1          3466.594
        36   01 Jun 2027 12:26:28.219   01 Jun 2027 12:26:31.452             3.233                Norilsk           101.031
        37   01 Jun 2027 13:53:20.713   01 Jun 2027 13:56:32.511           191.798                 Moscow          5993.687
        38   01 Jun 2027 13:56:52.268   01 Jun 2027 13:59:29.527           157.259              Murmansk2          4914.344
        39   01 Jun 2027 14:00:24.069   01 Jun 2027 14:00:56.878            32.809              Murmansk2          1025.281
        40   01 Jun 2027 14:02:55.287   01 Jun 2027 14:03:29.536            34.249                Norilsk          1070.281
        41   01 Jun 2027 14:06:08.788   01 Jun 2027 14:06:25.323            16.535                Norilsk           516.719
        42   01 Jun 2027 14:13:29.648   01 Jun 2027 14:14:03.921            34.273                Anadyr2          1071.031
        43   01 Jun 2027 14:14:36.843   01 Jun 2027 14:16:38.280           121.437                Anadyr1          3794.906
        44   01 Jun 2027 15:34:36.582   01 Jun 2027 15:36:00.638            84.056              Murmansk2          2626.750
        45   01 Jun 2027 15:38:18.349   01 Jun 2027 15:39:35.898            77.549              Murmansk2          2423.406
        46   01 Jun 2027 15:47:33.419   01 Jun 2027 15:49:45.667           132.248                Anadyr2          4132.750
        47   01 Jun 2027 17:15:00.277   01 Jun 2027 17:17:26.996           146.719              Murmansk1          4584.969
        48   01 Jun 2027 17:18:05.531   01 Jun 2027 17:19:29.162            83.631              Murmansk2          2613.469
        49   01 Jun 2027 17:23:18.047   01 Jun 2027 17:24:07.730            49.683                Anadyr1          1552.594
        50   01 Jun 2027 17:24:54.339   01 Jun 2027 17:25:17.933            23.594                Anadyr1           737.312
        51   01 Jun 2027 17:26:08.176   01 Jun 2027 17:26:50.692            42.516               Magadan1          1328.625
        52   01 Jun 2027 17:28:18.520   01 Jun 2027 17:28:21.952             3.432               Magadan2           107.250
        53   01 Jun 2027 17:30:47.483   01 Jun 2027 17:31:00.712            13.229               Magadan1           413.406
        54   01 Jun 2027 17:31:17.989   01 Jun 2027 17:31:41.544            23.555               Magadan2           736.094
        55   01 Jun 2027 18:59:13.711   01 Jun 2027 19:02:51.414           217.703                Anadyr1          6803.219
        56   01 Jun 2027 19:02:55.288   01 Jun 2027 19:04:41.349           106.061               Magadan2          3314.406
        57   01 Jun 2027 19:04:53.449   01 Jun 2027 19:05:48.145            54.696               Magadan1          1709.250
        58   01 Jun 2027 19:54:30.267   01 Jun 2027 19:57:26.756           176.489            RioGallegos          5515.281
        59   01 Jun 2027 20:01:09.495   01 Jun 2027 20:01:21.280            11.785            RioGallegos           368.281
        60   01 Jun 2027 20:34:58.841   01 Jun 2027 20:35:28.332            29.491                Anadyr2           921.594
        61   01 Jun 2027 20:37:29.081   01 Jun 2027 20:39:03.886            94.805               Magadan2          2962.656
        62   01 Jun 2027 20:39:03.886   01 Jun 2027 20:40:01.639            57.753               Magadan1          1804.781
        63   01 Jun 2027 20:40:21.868   01 Jun 2027 20:40:58.301            36.433                Norilsk          1138.531
        64   01 Jun 2027 20:41:41.879   01 Jun 2027 20:42:16.980            35.101                Irkutsk          1096.906
        65   01 Jun 2027 20:43:19.167   01 Jun 2027 20:44:34.868            75.701                Irkutsk          2365.656
        66   01 Jun 2027 20:56:40.996   01 Jun 2027 20:58:54.897           133.901                Sumatra          4184.406
        67   01 Jun 2027 22:12:58.912   01 Jun 2027 22:14:19.568            80.656                Norilsk          2520.500
        68   01 Jun 2027 22:16:51.860   01 Jun 2027 22:17:39.144            47.284                Irkutsk          1477.625
        69   01 Jun 2027 22:18:08.319   01 Jun 2027 22:18:14.863             6.544                Novosib           204.500
        70   01 Jun 2027 22:18:23.801   01 Jun 2027 22:18:54.037            30.236                Novosib           944.875
        71   01 Jun 2027 22:22:45.619   01 Jun 2027 22:22:58.998            13.379                Novosib           418.094
        72   01 Jun 2027 22:23:11.623   01 Jun 2027 22:23:17.815             6.192                Novosib           193.500
        73   01 Jun 2027 22:24:24.420   01 Jun 2027 22:26:35.390           130.970                Novosib          4092.812
        74   01 Jun 2027 22:27:12.608   01 Jun 2027 22:28:43.738            91.130                  Delhi          2847.813
        75   01 Jun 2027 23:46:13.470   01 Jun 2027 23:46:27.353            13.883                Anadyr1           433.844
        76   01 Jun 2027 23:48:59.122   01 Jun 2027 23:50:01.816            62.694                Norilsk          1959.187
        77   01 Jun 2027 23:50:38.062   01 Jun 2027 23:51:30.021            51.959               Magadan1          1623.719
        78   01 Jun 2027 23:51:30.021   01 Jun 2027 23:51:32.785             2.764               Magadan2            86.375
        79   01 Jun 2027 23:51:37.806   01 Jun 2027 23:56:21.625           283.819              Murmansk1          8869.344
        80   02 Jun 2027 01:17:15.400   02 Jun 2027 01:17:36.248            20.848                Anadyr1           651.500
        81   02 Jun 2027 01:18:17.772   02 Jun 2027 01:18:30.241            12.469                Anadyr1           389.656
        82   02 Jun 2027 01:18:58.520   02 Jun 2027 01:19:39.606            41.086                Anadyr1          1283.937
        83   02 Jun 2027 01:19:39.606   02 Jun 2027 01:20:02.186            22.580                Anadyr2           705.625
        84   02 Jun 2027 01:23:01.407   02 Jun 2027 01:25:05.477           124.070               Magadan2          3877.188
        85   02 Jun 2027 01:25:42.313   02 Jun 2027 01:26:44.029            61.716               Magadan2          1928.625
        86   02 Jun 2027 01:27:07.884   02 Jun 2027 01:27:42.855            34.971              Murmansk2          1092.844
        87   02 Jun 2027 01:28:08.171   02 Jun 2027 01:28:16.762             8.591              Murmansk2           268.469
        88   02 Jun 2027 01:30:08.771   02 Jun 2027 01:30:32.294            23.523                Novosib           735.094
        89   02 Jun 2027 01:31:44.801   02 Jun 2027 01:31:47.695             2.894                 Moscow            90.438
        90   02 Jun 2027 01:33:17.922   02 Jun 2027 01:33:40.094            22.172              Murmansk1           692.875
        91   02 Jun 2027 01:35:11.193   02 Jun 2027 01:35:42.385            31.192                 Moscow           974.750
        92   02 Jun 2027 01:41:28.825   02 Jun 2027 01:41:56.803            27.978                 Moscow           874.313
        93   02 Jun 2027 01:59:49.474   02 Jun 2027 02:01:05.579            76.105               CapeTown          2378.281
        94   02 Jun 2027 02:51:19.651   02 Jun 2027 02:53:27.213           127.562                Anadyr1          3986.312
        95   02 Jun 2027 02:54:39.274   02 Jun 2027 02:55:16.487            37.213               Magadan2          1162.906
        96   02 Jun 2027 02:56:03.268   02 Jun 2027 02:56:17.848            14.580               Magadan1           455.625
        97   02 Jun 2027 02:58:21.372   02 Jun 2027 02:58:47.262            25.890               Magadan1           809.062
        98   02 Jun 2027 03:12:16.511   02 Jun 2027 03:13:14.552            58.041                 Moscow          1813.781
        99   02 Jun 2027 03:13:33.362   02 Jun 2027 03:14:13.518            40.156                 Moscow          1254.875
       100   02 Jun 2027 03:14:19.308   02 Jun 2027 03:14:36.663            17.355              Murmansk2           542.344
       101   02 Jun 2027 03:30:17.447   02 Jun 2027 03:30:34.345            16.898               CapeTown           528.062
       102   02 Jun 2027 03:31:05.836   02 Jun 2027 03:32:22.635            76.799               CapeTown          2399.969
       103   02 Jun 2027 04:33:19.445   02 Jun 2027 04:34:07.808            48.363                Anadyr2          1511.344
       104   02 Jun 2027 04:34:17.776   02 Jun 2027 04:36:00.075           102.299                Anadyr2          3196.844
       105   02 Jun 2027 06:11:23.906   02 Jun 2027 06:12:08.412            44.506                Irkutsk          1390.812
       106   02 Jun 2027 06:12:46.303   02 Jun 2027 06:13:57.452            71.149                Anadyr1          2223.406
       107   02 Jun 2027 06:13:57.452   02 Jun 2027 06:14:51.001            53.549                Anadyr2          1673.406
       108   02 Jun 2027 06:15:16.012   02 Jun 2027 06:16:07.140            51.128              Murmansk2          1597.750
       109   02 Jun 2027 06:52:19.626   02 Jun 2027 06:52:25.212             5.586            RioGallegos           174.562
       110   02 Jun 2027 07:46:30.649   02 Jun 2027 07:49:33.982           183.333               Magadan2          5729.156
       111   02 Jun 2027 07:50:02.020   02 Jun 2027 07:50:31.776            29.756                Norilsk           929.875
       112   02 Jun 2027 07:50:45.107   02 Jun 2027 07:50:55.622            10.515               Magadan1           328.594
       113   02 Jun 2027 07:51:49.985   02 Jun 2027 07:51:59.709             9.724              Murmansk2           303.875
       114   02 Jun 2027 07:52:34.357   02 Jun 2027 07:53:11.282            36.925              Murmansk2          1153.906
       115   02 Jun 2027 07:53:28.760   02 Jun 2027 07:53:37.377             8.617              Murmansk1           269.281
       116   02 Jun 2027 07:53:45.363   02 Jun 2027 07:54:11.666            26.303              Murmansk1           821.969
       117   02 Jun 2027 08:25:53.808   02 Jun 2027 08:28:37.972           164.164            RioGallegos          5130.125
       118   02 Jun 2027 09:01:44.641   02 Jun 2027 09:03:31.082           106.441                Sumatra          3326.281
       119   02 Jun 2027 09:22:17.491   02 Jun 2027 09:22:50.823            33.332                Novosib          1041.625
       120   02 Jun 2027 09:22:58.616   02 Jun 2027 09:23:12.680            14.064                Irkutsk           439.500
       121   02 Jun 2027 09:23:19.701   02 Jun 2027 09:23:43.490            23.789                Irkutsk           743.406
       122   02 Jun 2027 09:23:53.011   02 Jun 2027 09:25:22.764            89.753                Norilsk          2804.781
       123   02 Jun 2027 09:25:34.164   02 Jun 2027 09:25:59.104            24.940                Novosib           779.375
       124   02 Jun 2027 09:26:00.733   02 Jun 2027 09:26:13.114            12.381                Irkutsk           386.906
       125   02 Jun 2027 09:26:17.103   02 Jun 2027 09:26:56.377            39.274              Murmansk1          1227.312
       126   02 Jun 2027 09:27:01.440   02 Jun 2027 09:27:49.984            48.544                Novosib          1517.000
       127   02 Jun 2027 09:27:54.371   02 Jun 2027 09:28:21.113            26.742              Murmansk1           835.688
       128   02 Jun 2027 10:03:04.461   02 Jun 2027 10:03:53.470            49.009            RioGallegos          1531.531
       129   02 Jun 2027 10:05:16.304   02 Jun 2027 10:05:44.867            28.563            RioGallegos           892.594
       130   02 Jun 2027 10:37:17.939   02 Jun 2027 10:38:39.187            81.248                Sumatra          2539.000
       131   02 Jun 2027 10:58:31.048   02 Jun 2027 10:58:46.423            15.375                Norilsk           480.469
       132   02 Jun 2027 10:58:47.855   02 Jun 2027 10:59:34.788            46.933                Irkutsk          1466.656
       133   02 Jun 2027 10:59:49.268   02 Jun 2027 11:00:02.067            12.799                Novosib           399.969
       134   02 Jun 2027 11:00:07.375   02 Jun 2027 11:00:36.976            29.601              Murmansk2           925.031
       135   02 Jun 2027 11:00:46.628   02 Jun 2027 11:00:48.495             1.867                Novosib            58.344
       136   02 Jun 2027 11:00:51.399   02 Jun 2027 11:01:20.645            29.246              Murmansk1           913.938
       137   02 Jun 2027 11:01:27.506   02 Jun 2027 11:02:10.427            42.921                 Moscow          1341.281
       138   02 Jun 2027 11:02:21.430   02 Jun 2027 11:03:16.104            54.674                 Moscow          1708.562
       139   02 Jun 2027 12:22:17.428   02 Jun 2027 12:25:15.766           178.338                  Delhi          5573.062
       140   02 Jun 2027 12:30:44.384   02 Jun 2027 12:31:17.837            33.453                Novosib          1045.406
       141   02 Jun 2027 12:31:46.197   02 Jun 2027 12:31:51.377             5.180                 Moscow           161.875
       142   02 Jun 2027 12:32:54.105   02 Jun 2027 12:35:20.282           146.177              Murmansk2          4568.031
       143   02 Jun 2027 12:35:35.389   02 Jun 2027 12:36:08.788            33.399              Murmansk1          1043.719
       144   02 Jun 2027 14:05:29.628   02 Jun 2027 14:07:15.810           106.182                 Moscow          3318.187
       145   02 Jun 2027 14:09:00.612   02 Jun 2027 14:13:21.278           260.666              Murmansk1          8145.812
       146   02 Jun 2027 14:16:00.843   02 Jun 2027 14:16:35.968            35.125              Murmansk2          1097.656
       147   02 Jun 2027 14:17:53.903   02 Jun 2027 14:18:27.780            33.877                Norilsk          1058.656
       148   02 Jun 2027 14:24:52.118   02 Jun 2027 14:26:01.483            69.365                Anadyr1          2167.656
       149   02 Jun 2027 14:26:26.716   02 Jun 2027 14:28:37.842           131.126                Anadyr2          4097.687
       150   02 Jun 2027 15:44:53.949   02 Jun 2027 15:45:28.522            34.573                 Moscow          1080.406
       151   02 Jun 2027 15:47:01.178   02 Jun 2027 15:47:38.341            37.163              Murmansk2          1161.344
       152   02 Jun 2027 15:49:53.875   02 Jun 2027 15:50:19.889            26.014              Murmansk1           812.937
       153   02 Jun 2027 15:51:51.494   02 Jun 2027 15:52:04.839            13.345              Murmansk1           417.031
       154   02 Jun 2027 15:59:31.709   02 Jun 2027 16:01:48.203           136.494                Anadyr1          4265.437
       155   02 Jun 2027 16:05:01.417   02 Jun 2027 16:05:39.571            38.154                Anadyr1          1192.312
       156   02 Jun 2027 16:55:25.304   02 Jun 2027 16:56:06.810            41.506               CapeTown          1297.063
       157   02 Jun 2027 17:27:55.964   02 Jun 2027 17:31:42.221           226.257              Murmansk1          7070.531
       158   02 Jun 2027 17:35:19.337   02 Jun 2027 17:36:30.119            70.782                Anadyr1          2211.938
       159   02 Jun 2027 17:36:51.662   02 Jun 2027 17:37:21.924            30.262                Anadyr2           945.688
       160   02 Jun 2027 17:38:01.132   02 Jun 2027 17:39:50.141           109.009               Magadan2          3406.531
       161   02 Jun 2027 19:11:14.798   02 Jun 2027 19:13:13.011           118.213                Anadyr1          3694.156
       162   02 Jun 2027 19:13:26.139   02 Jun 2027 19:15:18.262           112.123                Anadyr2          3503.844
       163   02 Jun 2027 19:15:52.478   02 Jun 2027 19:17:31.674            99.196               Magadan1          3099.875
       164   02 Jun 2027 19:17:31.674   02 Jun 2027 19:17:54.993            23.319               Magadan2           728.719
       165   02 Jun 2027 19:23:16.172   02 Jun 2027 19:23:28.815            12.643               Magadan2           395.094
       166   02 Jun 2027 20:06:08.184   02 Jun 2027 20:09:07.021           178.837            RioGallegos          5588.656
       167   02 Jun 2027 20:09:16.629   02 Jun 2027 20:09:25.514             8.885            RioGallegos           277.656
       168   02 Jun 2027 20:10:34.460   02 Jun 2027 20:12:37.514           123.054            RioGallegos          3845.438
       169   02 Jun 2027 20:49:07.177   02 Jun 2027 20:52:13.378           186.201                Norilsk          5818.781
       170   02 Jun 2027 20:53:05.956   02 Jun 2027 20:53:15.241             9.285                Norilsk           290.156
       171   02 Jun 2027 20:53:30.668   02 Jun 2027 20:54:21.726            51.058                Irkutsk          1595.562
       172   02 Jun 2027 20:54:29.284   02 Jun 2027 20:55:19.639            50.355                Irkutsk          1573.594
       173   02 Jun 2027 21:07:31.839   02 Jun 2027 21:09:12.631           100.792                Sumatra          3149.750
       174   02 Jun 2027 22:25:00.828   02 Jun 2027 22:25:26.180            25.352                Norilsk           792.250
       175   02 Jun 2027 22:25:38.269   02 Jun 2027 22:27:04.570            86.301               Magadan2          2696.906
       176   02 Jun 2027 22:27:52.915   02 Jun 2027 22:28:03.121            10.206               Magadan1           318.938
       177   02 Jun 2027 22:28:11.821   02 Jun 2027 22:28:21.986            10.165               Magadan1           317.656
       178   02 Jun 2027 22:28:40.473   02 Jun 2027 22:29:25.131            44.658               Magadan1          1395.562
       179   02 Jun 2027 22:29:46.432   02 Jun 2027 22:30:18.867            32.435                Novosib          1013.594
       180   02 Jun 2027 22:30:51.954   02 Jun 2027 22:31:34.512            42.558                Novosib          1329.938
       181   02 Jun 2027 22:33:20.901   02 Jun 2027 22:34:30.647            69.746                Novosib          2179.563
       182   02 Jun 2027 22:37:28.414   02 Jun 2027 22:40:29.008           180.594                  Delhi          5643.563
       183   02 Jun 2027 23:58:00.285   02 Jun 2027 23:58:08.697             8.412                Anadyr2           262.875
       184   03 Jun 2027 00:00:09.719   03 Jun 2027 00:01:03.348            53.629                Anadyr2          1675.906
       185   03 Jun 2027 00:01:23.127   03 Jun 2027 00:02:15.097            51.970               Magadan2          1624.062
       186   03 Jun 2027 00:02:23.486   03 Jun 2027 00:03:07.972            44.486               Magadan1          1390.188
       187   03 Jun 2027 00:03:31.608   03 Jun 2027 00:05:36.760           125.152              Murmansk1          3911.000
       188   03 Jun 2027 00:08:54.511   03 Jun 2027 00:09:19.880            25.369                Novosib           792.781
       189   03 Jun 2027 00:09:47.388   03 Jun 2027 00:11:42.881           115.493                 Moscow          3609.156
       190   03 Jun 2027 00:55:12.679   03 Jun 2027 00:55:29.892            17.213            RioGallegos           537.906
       191   03 Jun 2027 00:55:37.220   03 Jun 2027 00:55:56.488            19.268            RioGallegos           602.125
       192   03 Jun 2027 01:28:58.807   03 Jun 2027 01:30:25.762            86.955                Anadyr1          2717.344
       193   03 Jun 2027 01:31:40.920   03 Jun 2027 01:32:11.485            30.565                Anadyr2           955.156
       194   03 Jun 2027 01:34:22.041   03 Jun 2027 01:34:30.713             8.672                Anadyr1           271.000
       195   03 Jun 2027 01:35:10.490   03 Jun 2027 01:36:59.020           108.530               Magadan1          3391.562
       196   03 Jun 2027 01:38:18.212   03 Jun 2027 01:39:00.755            42.543               Magadan2          1329.469
       197   03 Jun 2027 01:39:08.933   03 Jun 2027 01:40:05.507            56.574              Murmansk2          1767.937
       198   03 Jun 2027 01:40:20.764   03 Jun 2027 01:41:16.468            55.704              Murmansk1          1740.750
       199   03 Jun 2027 01:42:04.439   03 Jun 2027 01:44:17.771           133.332                Novosib          4166.625
       200   03 Jun 2027 02:11:45.951   03 Jun 2027 02:12:40.369            54.418               CapeTown          1700.563
       201   03 Jun 2027 03:10:15.494   03 Jun 2027 03:10:59.863            44.369               Magadan2          1386.531
       202   03 Jun 2027 03:24:24.250   03 Jun 2027 03:24:58.609            34.359              Murmansk1          1073.719
       203   03 Jun 2027 04:45:23.515   03 Jun 2027 04:45:29.738             6.223               Magadan2           194.469
       204   03 Jun 2027 04:45:36.513   03 Jun 2027 04:45:45.125             8.612               Magadan1           269.125
       205   03 Jun 2027 04:45:49.483   03 Jun 2027 04:46:08.238            18.755                Anadyr2           586.094
       206   03 Jun 2027 04:46:08.238   03 Jun 2027 04:48:01.453           113.215                Anadyr1          3537.969
       207   03 Jun 2027 04:48:55.684   03 Jun 2027 04:48:56.373             0.689                Anadyr1            21.531
       208   03 Jun 2027 04:49:16.146   03 Jun 2027 04:49:38.245            22.099                Anadyr2           690.594
       209   03 Jun 2027 06:22:22.569   03 Jun 2027 06:23:24.076            61.507                Irkutsk          1922.094
       210   03 Jun 2027 06:23:38.990   03 Jun 2027 06:23:40.691             1.701               Magadan2            53.156
       211   03 Jun 2027 06:23:40.691   03 Jun 2027 06:23:51.558            10.867               Magadan1           339.594
       212   03 Jun 2027 06:24:19.919   03 Jun 2027 06:25:04.644            44.725               Magadan1          1397.656
       213   03 Jun 2027 06:25:58.112   03 Jun 2027 06:26:16.075            17.963                Anadyr1           561.344
       214   03 Jun 2027 06:26:16.075   03 Jun 2027 06:26:49.074            32.999                Anadyr2          1031.219
       215   03 Jun 2027 07:05:47.791   03 Jun 2027 07:06:08.794            21.003            RioGallegos           656.344
       216   03 Jun 2027 07:06:48.105   03 Jun 2027 07:07:36.433            48.328            RioGallegos          1510.250
       217   03 Jun 2027 07:56:43.274   03 Jun 2027 07:57:49.763            66.489               Magadan2          2077.781
       218   03 Jun 2027 07:58:17.722   03 Jun 2027 07:59:01.199            43.477                Irkutsk          1358.656
       219   03 Jun 2027 07:59:04.822   03 Jun 2027 08:00:01.235            56.413                Irkutsk          1762.906
       220   03 Jun 2027 08:00:06.364   03 Jun 2027 08:00:25.284            18.920                Irkutsk           591.250
       221   03 Jun 2027 08:00:34.028   03 Jun 2027 08:00:45.096            11.068                Irkutsk           345.875
       222   03 Jun 2027 08:00:51.965   03 Jun 2027 08:01:00.361             8.396                Norilsk           262.375
       223   03 Jun 2027 08:01:05.576   03 Jun 2027 08:01:45.874            40.298                Novosib          1259.312
       224   03 Jun 2027 08:01:48.661   03 Jun 2027 08:01:52.903             4.242                Norilsk           132.563
       225   03 Jun 2027 08:01:56.516   03 Jun 2027 08:02:25.991            29.475                Irkutsk           921.094
       226   03 Jun 2027 08:02:27.574   03 Jun 2027 08:02:38.507            10.933              Murmansk2           341.656
       227   03 Jun 2027 08:02:40.191   03 Jun 2027 08:02:47.917             7.726               Magadan1           241.438
       228   03 Jun 2027 08:02:53.112   03 Jun 2027 08:03:04.329            11.217                Novosib           350.531
       229   03 Jun 2027 08:03:42.677   03 Jun 2027 08:03:48.884             6.207              Murmansk1           193.969
       230   03 Jun 2027 08:03:48.884   03 Jun 2027 08:04:30.399            41.515              Murmansk2          1297.344
       231   03 Jun 2027 08:37:51.989   03 Jun 2027 08:39:01.330            69.341            RioGallegos          2166.906
       232   03 Jun 2027 09:13:21.070   03 Jun 2027 09:14:09.879            48.809                Sumatra          1525.281
       233   03 Jun 2027 09:15:24.737   03 Jun 2027 09:15:53.742            29.005                Sumatra           906.406
       234   03 Jun 2027 09:26:56.459   03 Jun 2027 09:27:26.653            30.194                  Delhi           943.562
       235   03 Jun 2027 09:29:49.970   03 Jun 2027 09:30:14.362            24.392                  Delhi           762.250
       236   03 Jun 2027 09:33:24.331   03 Jun 2027 09:33:59.369            35.038                Irkutsk          1094.938
       237   03 Jun 2027 09:34:33.267   03 Jun 2027 09:35:02.356            29.089                Novosib           909.031
       238   03 Jun 2027 09:35:05.415   03 Jun 2027 09:35:12.106             6.691                Norilsk           209.094
       239   03 Jun 2027 09:35:21.449   03 Jun 2027 09:35:39.065            17.616                Irkutsk           550.500
       240   03 Jun 2027 09:35:40.781   03 Jun 2027 09:36:43.575            62.794                Novosib          1962.313
       241   03 Jun 2027 09:36:54.847   03 Jun 2027 09:37:09.484            14.637              Murmansk1           457.406
       242   03 Jun 2027 09:37:17.941   03 Jun 2027 09:37:31.265            13.324                Novosib           416.375
       243   03 Jun 2027 09:37:36.718   03 Jun 2027 09:38:41.146            64.428              Murmansk1          2013.375
       244   03 Jun 2027 10:15:35.198   03 Jun 2027 10:16:05.228            30.030            RioGallegos           938.438
       245   03 Jun 2027 10:17:20.770   03 Jun 2027 10:17:22.595             1.825            RioGallegos            57.031
       246   03 Jun 2027 10:20:13.199   03 Jun 2027 10:20:27.099            13.900            RioGallegos           434.375
       247   03 Jun 2027 10:49:47.189   03 Jun 2027 10:49:59.971            12.782                Sumatra           399.438
       248   03 Jun 2027 10:50:21.913   03 Jun 2027 10:50:40.271            18.358                Sumatra           573.687
       249   03 Jun 2027 10:53:48.279   03 Jun 2027 10:54:08.115            19.836                Sumatra           619.875
       250   03 Jun 2027 10:57:06.159   03 Jun 2027 10:57:49.429            43.270                  Delhi          1352.188
       251   03 Jun 2027 11:10:34.559   03 Jun 2027 11:11:05.997            31.438              Murmansk2           982.438
       252   03 Jun 2027 11:11:11.498   03 Jun 2027 11:11:38.550            27.052                Novosib           845.375
       253   03 Jun 2027 11:11:42.462   03 Jun 2027 11:12:49.237            66.775                Novosib          2086.719
       254   03 Jun 2027 11:12:52.898   03 Jun 2027 11:13:08.480            15.582              Murmansk1           486.937
       255   03 Jun 2027 11:13:23.293   03 Jun 2027 11:13:39.508            16.215                Novosib           506.719
       256   03 Jun 2027 11:13:43.063   03 Jun 2027 11:14:37.328            54.265              Murmansk1          1695.781
       257   03 Jun 2027 11:14:49.355   03 Jun 2027 11:15:48.607            59.252                Norilsk          1851.625
       258   03 Jun 2027 12:35:02.763   03 Jun 2027 12:37:05.308           122.545                  Delhi          3829.531
       259   03 Jun 2027 12:37:54.899   03 Jun 2027 12:38:34.874            39.975                  Delhi          1249.219
       260   03 Jun 2027 12:42:58.952   03 Jun 2027 12:44:01.192            62.240                 Moscow          1945.000
       261   03 Jun 2027 12:44:51.681   03 Jun 2027 12:47:35.121           163.440              Murmansk1          5107.500
       262   03 Jun 2027 13:58:54.818   03 Jun 2027 14:00:15.323            80.505               CapeTown          2515.781
       263   03 Jun 2027 14:01:58.920   03 Jun 2027 14:02:45.949            47.029               CapeTown          1469.656
       264   03 Jun 2027 14:17:41.841   03 Jun 2027 14:19:15.512            93.671                 Moscow          2927.219
       265   03 Jun 2027 14:21:10.743   03 Jun 2027 14:24:07.347           176.604              Murmansk2          5518.875
       266   03 Jun 2027 14:36:31.041   03 Jun 2027 14:38:44.899           133.858                Anadyr1          4183.063
       267   03 Jun 2027 14:39:23.872   03 Jun 2027 14:39:35.883            12.011                Anadyr1           375.344
       268   03 Jun 2027 14:39:48.564   03 Jun 2027 14:39:54.045             5.481                Anadyr1           171.281
       269   03 Jun 2027 14:41:09.883   03 Jun 2027 14:42:04.735            54.852                Anadyr2          1714.125
       270   03 Jun 2027 15:30:52.162   03 Jun 2027 15:31:08.251            16.089               CapeTown           502.781
       271   03 Jun 2027 15:58:51.263   03 Jun 2027 15:59:22.061            30.798                 Moscow           962.437
       272   03 Jun 2027 15:59:28.258   03 Jun 2027 16:00:17.044            48.786              Murmansk1          1524.563
       273   03 Jun 2027 16:00:21.204   03 Jun 2027 16:01:42.117            80.913              Murmansk2          2528.531
       274   03 Jun 2027 16:11:30.705   03 Jun 2027 16:13:43.030           132.325                Anadyr2          4135.156
       275   03 Jun 2027 16:23:06.244   03 Jun 2027 16:23:14.424             8.180                Anadyr1           255.625
       276   03 Jun 2027 17:07:47.562   03 Jun 2027 17:08:48.955            61.393               CapeTown          1918.531
       277   03 Jun 2027 17:13:56.322   03 Jun 2027 17:14:32.753            36.431               CapeTown          1138.469
       278   03 Jun 2027 17:41:05.136   03 Jun 2027 17:43:41.251           156.115              Murmansk2          4878.594
       279   03 Jun 2027 17:43:41.251   03 Jun 2027 17:44:04.269            23.018              Murmansk1           719.312
       280   03 Jun 2027 17:47:20.733   03 Jun 2027 17:48:26.780            66.047                Anadyr1          2063.969
       281   03 Jun 2027 17:48:29.363   03 Jun 2027 17:48:44.192            14.829                Anadyr1           463.406
       282   03 Jun 2027 17:49:11.343   03 Jun 2027 17:49:43.053            31.710                Anadyr1           990.938
       283   03 Jun 2027 17:49:55.883   03 Jun 2027 17:51:15.214            79.331               Magadan1          2479.094
       284   03 Jun 2027 17:51:42.256   03 Jun 2027 17:51:59.995            17.739               Magadan1           554.344
       285   03 Jun 2027 19:23:15.685   03 Jun 2027 19:27:19.867           244.182                Anadyr2          7630.688
       286   03 Jun 2027 19:27:29.674   03 Jun 2027 19:28:51.973            82.299               Magadan2          2571.844
       287   03 Jun 2027 19:28:51.973   03 Jun 2027 19:29:30.223            38.250               Magadan1          1195.312
       288   03 Jun 2027 19:35:46.106   03 Jun 2027 19:35:49.458             3.352               Magadan2           104.750
       289   03 Jun 2027 19:36:19.952   03 Jun 2027 19:36:44.796            24.844               Magadan2           776.375
       290   03 Jun 2027 20:17:52.052   03 Jun 2027 20:21:09.236           197.184            RioGallegos          6162.000
       291   03 Jun 2027 20:58:54.328   03 Jun 2027 20:59:31.530            37.202                Anadyr2          1162.562
       292   03 Jun 2027 21:01:25.881   03 Jun 2027 21:01:47.001            21.120                Norilsk           660.000
       293   03 Jun 2027 21:02:02.786   03 Jun 2027 21:04:05.534           122.748               Magadan2          3835.875
       294   03 Jun 2027 21:04:25.745   03 Jun 2027 21:04:56.630            30.885               Magadan1           965.156
       295   03 Jun 2027 21:05:22.256   03 Jun 2027 21:06:25.900            63.644                Irkutsk          1988.875
       296   03 Jun 2027 21:07:56.366   03 Jun 2027 21:09:27.426            91.060                Novosib          2845.625
       297   03 Jun 2027 21:10:28.015   03 Jun 2027 21:11:16.835            48.820                Novosib          1525.625
       298   03 Jun 2027 21:19:12.139   03 Jun 2027 21:20:06.380            54.241                Sumatra          1695.031
       299   03 Jun 2027 21:20:39.364   03 Jun 2027 21:21:34.795            55.431                Sumatra          1732.219
       300   03 Jun 2027 22:37:02.818   03 Jun 2027 22:37:24.472            21.654                Norilsk           676.688
       301   03 Jun 2027 22:37:40.569   03 Jun 2027 22:39:04.139            83.570               Magadan2          2611.562
       302   03 Jun 2027 22:39:58.639   03 Jun 2027 22:40:32.189            33.550                Norilsk          1048.438
       303   03 Jun 2027 22:40:54.349   03 Jun 2027 22:41:58.613            64.264                Irkutsk          2008.250
       304   03 Jun 2027 22:42:09.326   03 Jun 2027 22:43:10.810            61.484                Novosib          1921.375
       305   03 Jun 2027 22:49:03.681   03 Jun 2027 22:51:25.166           141.485                  Delhi          4421.406
       306   04 Jun 2027 00:07:20.916   04 Jun 2027 00:07:47.061            26.145                Anadyr2           817.031
       307   04 Jun 2027 00:08:35.347   04 Jun 2027 00:09:20.147            44.800                Anadyr2          1400.000
       308   04 Jun 2027 00:10:18.320   04 Jun 2027 00:10:22.887             4.567                Anadyr1           142.719
       309   04 Jun 2027 00:12:52.302   04 Jun 2027 00:13:06.628            14.326                Anadyr2           447.687
       310   04 Jun 2027 00:13:15.437   04 Jun 2027 00:14:58.614           103.177                Norilsk          3224.281
       311   04 Jun 2027 00:15:20.572   04 Jun 2027 00:16:11.251            50.679               Magadan1          1583.719
       312   04 Jun 2027 00:16:15.627   04 Jun 2027 00:16:28.417            12.790               Magadan1           399.687
       313   04 Jun 2027 00:16:31.875   04 Jun 2027 00:18:19.736           107.861              Murmansk1          3370.656
       314   04 Jun 2027 00:19:08.667   04 Jun 2027 00:19:13.691             5.024              Murmansk1           157.000
       315   04 Jun 2027 00:20:01.358   04 Jun 2027 00:20:32.108            30.750                Novosib           960.938
       316   04 Jun 2027 00:20:40.131   04 Jun 2027 00:21:44.702            64.571                 Moscow          2017.844
       317   04 Jun 2027 00:22:19.052   04 Jun 2027 00:23:03.004            43.952                 Moscow          1373.500
       318   04 Jun 2027 00:34:51.995   04 Jun 2027 00:35:36.464            44.469                  Delhi          1389.656
       319   04 Jun 2027 01:40:43.148   04 Jun 2027 01:42:19.611            96.463                Anadyr2          3014.469
       320   04 Jun 2027 01:42:58.724   04 Jun 2027 01:43:27.169            28.445                Anadyr1           888.906
       321   04 Jun 2027 01:43:42.176   04 Jun 2027 01:43:56.101            13.925                Anadyr1           435.156
       322   04 Jun 2027 01:45:58.973   04 Jun 2027 01:47:08.282            69.309               Magadan1          2165.906
       323   04 Jun 2027 01:47:13.157   04 Jun 2027 01:47:28.128            14.971               Magadan2           467.844
       324   04 Jun 2027 01:47:45.627   04 Jun 2027 01:47:48.820             3.193               Magadan2            99.781
       325   04 Jun 2027 01:48:03.700   04 Jun 2027 01:48:31.663            27.963               Magadan2           873.844
       326   04 Jun 2027 01:49:08.986   04 Jun 2027 01:49:16.286             7.300                Norilsk           228.125
       327   04 Jun 2027 01:51:06.667   04 Jun 2027 01:51:15.343             8.676                Norilsk           271.125
       328   04 Jun 2027 01:51:32.882   04 Jun 2027 01:53:09.854            96.972              Murmansk1          3030.375
       329   04 Jun 2027 01:53:19.461   04 Jun 2027 01:53:46.388            26.927                Novosib           841.469
       330   04 Jun 2027 01:54:34.552   04 Jun 2027 01:55:28.398            53.846                 Moscow          1682.688
       331   04 Jun 2027 02:02:13.183   04 Jun 2027 02:02:17.941             4.758                 Moscow           148.687
       332   04 Jun 2027 02:03:41.477   04 Jun 2027 02:04:06.985            25.508                 Moscow           797.125
       333   04 Jun 2027 02:19:04.226   04 Jun 2027 02:19:49.115            44.889               CapeTown          1402.781
       334   04 Jun 2027 02:22:19.357   04 Jun 2027 02:23:34.008            74.651               CapeTown          2332.844
       335   04 Jun 2027 03:22:54.978   04 Jun 2027 03:23:32.797            37.819               Magadan1          1181.844
       336   04 Jun 2027 03:36:15.592   04 Jun 2027 03:36:44.199            28.607              Murmansk1           893.969
       337   04 Jun 2027 03:36:44.199   04 Jun 2027 03:36:59.801            15.602              Murmansk2           487.562
       338   04 Jun 2027 03:39:00.807   04 Jun 2027 03:39:56.934            56.127              Murmansk1          1753.969
       339   04 Jun 2027 04:58:08.242   04 Jun 2027 04:58:36.858            28.616                Anadyr1           894.250
       340   04 Jun 2027 04:59:01.195   04 Jun 2027 04:59:17.654            16.459               Magadan1           514.344
       341   04 Jun 2027 04:59:39.495   04 Jun 2027 04:59:48.293             8.798               Magadan2           274.938
       342   04 Jun 2027 05:00:02.698   04 Jun 2027 05:03:51.672           228.974                Anadyr2          7155.437
       343   04 Jun 2027 05:47:42.679   04 Jun 2027 05:48:23.780            41.101            RioGallegos          1284.406
       344   04 Jun 2027 06:33:21.725   04 Jun 2027 06:35:38.992           137.267                Anadyr1          4289.594
       345   04 Jun 2027 06:35:54.798   04 Jun 2027 06:36:05.296            10.498               Magadan2           328.063
       346   04 Jun 2027 06:36:20.007   04 Jun 2027 06:36:59.857            39.850                Anadyr2          1245.313
       347   04 Jun 2027 06:36:59.857   04 Jun 2027 06:37:58.425            58.568                Anadyr1          1830.250
       348   04 Jun 2027 07:15:26.898   04 Jun 2027 07:16:00.090            33.192            RioGallegos          1037.250
       349   04 Jun 2027 08:08:09.835   04 Jun 2027 08:08:40.789            30.954               Magadan1           967.313
       350   04 Jun 2027 08:08:59.698   04 Jun 2027 08:09:13.413            13.715                Norilsk           428.594
       351   04 Jun 2027 08:09:44.339   04 Jun 2027 08:10:17.330            32.991                Irkutsk          1030.969
       352   04 Jun 2027 08:10:20.795   04 Jun 2027 08:11:05.123            44.328               Magadan1          1385.250
       353   04 Jun 2027 08:11:08.679   04 Jun 2027 08:11:59.069            50.390                Irkutsk          1574.688
       354   04 Jun 2027 08:12:02.702   04 Jun 2027 08:12:30.997            28.295                Irkutsk           884.219
       355   04 Jun 2027 08:12:39.401   04 Jun 2027 08:13:20.121            40.720                Irkutsk          1272.500
       356   04 Jun 2027 08:13:26.090   04 Jun 2027 08:14:07.754            41.664              Murmansk1          1302.000
       357   04 Jun 2027 08:14:23.964   04 Jun 2027 08:15:36.115            72.151              Murmansk1          2254.719
       358   04 Jun 2027 08:49:53.454   04 Jun 2027 08:50:24.390            30.936            RioGallegos           966.750
       359   04 Jun 2027 08:57:00.007   04 Jun 2027 08:57:41.660            41.653            RioGallegos          1301.656
       360   04 Jun 2027 09:25:04.899   04 Jun 2027 09:25:17.284            12.385                Sumatra           387.031
       361   04 Jun 2027 09:26:01.415   04 Jun 2027 09:27:22.267            80.852                Sumatra          2526.625
       362   04 Jun 2027 09:37:10.626   04 Jun 2027 09:38:37.113            86.487                  Delhi          2702.719
       363   04 Jun 2027 09:44:55.076   04 Jun 2027 09:45:15.688            20.612                Norilsk           644.125
       364   04 Jun 2027 09:45:17.291   04 Jun 2027 09:45:30.448            13.157                Irkutsk           411.156
       365   04 Jun 2027 09:46:21.392   04 Jun 2027 09:46:40.556            19.164                Irkutsk           598.875
       366   04 Jun 2027 09:47:04.608   04 Jun 2027 09:47:16.886            12.278                Novosib           383.687
       367   04 Jun 2027 09:47:22.347   04 Jun 2027 09:48:52.525            90.178                Irkutsk          2818.062
       368   04 Jun 2027 09:48:58.111   04 Jun 2027 09:49:01.502             3.391                Norilsk           105.969
       369   04 Jun 2027 09:49:03.517   04 Jun 2027 09:50:05.002            61.485              Murmansk2          1921.406
       370   04 Jun 2027 09:50:30.361   04 Jun 2027 09:50:41.864            11.503                Norilsk           359.469
       371   04 Jun 2027 09:50:52.696   04 Jun 2027 09:51:11.491            18.795              Murmansk2           587.344
       372   04 Jun 2027 09:51:44.151   04 Jun 2027 09:51:56.827            12.676                 Moscow           396.125
       373   04 Jun 2027 09:52:15.594   04 Jun 2027 09:52:18.184             2.590                Novosib            80.937
       374   04 Jun 2027 09:52:51.770   04 Jun 2027 09:52:55.557             3.787                Norilsk           118.344
       375   04 Jun 2027 09:53:35.973   04 Jun 2027 09:53:37.412             1.439              Murmansk1            44.969
       376   04 Jun 2027 10:28:12.588   04 Jun 2027 10:29:03.760            51.172            RioGallegos          1599.125
       377   04 Jun 2027 10:31:12.753   04 Jun 2027 10:32:16.116            63.363            RioGallegos          1980.094
       378   04 Jun 2027 11:09:43.676   04 Jun 2027 11:12:00.887           137.211                  Delhi          4287.844
       379   04 Jun 2027 11:23:05.893   04 Jun 2027 11:23:17.755            11.862                Novosib           370.688
       380   04 Jun 2027 11:23:19.285   04 Jun 2027 11:23:57.116            37.831              Murmansk2          1182.219
       381   04 Jun 2027 11:24:02.318   04 Jun 2027 11:24:23.383            21.065                 Moscow           658.281
       382   04 Jun 2027 11:24:23.607   04 Jun 2027 11:24:26.539             2.932              Murmansk2            91.625
       383   04 Jun 2027 11:24:30.472   04 Jun 2027 11:24:52.540            22.068                Norilsk           689.625
       384   04 Jun 2027 11:24:54.273   04 Jun 2027 11:24:56.733             2.460              Murmansk2            76.875
       385   04 Jun 2027 11:24:59.163   04 Jun 2027 11:26:01.382            62.219                Novosib          1944.344
       386   04 Jun 2027 11:26:15.439   04 Jun 2027 11:26:32.926            17.487                Novosib           546.469
       387   04 Jun 2027 11:26:34.252   04 Jun 2027 11:26:48.381            14.129                Norilsk           441.531
       388   04 Jun 2027 11:27:10.488   04 Jun 2027 11:27:37.936            27.448              Murmansk2           857.750
       389   04 Jun 2027 12:48:07.090   04 Jun 2027 12:49:00.285            53.195                  Delhi          1662.344
       390   04 Jun 2027 12:49:41.266   04 Jun 2027 12:52:11.170           149.904                  Delhi          4684.500
       391   04 Jun 2027 12:55:36.700   04 Jun 2027 12:56:14.353            37.653                 Moscow          1176.656
       392   04 Jun 2027 12:56:50.627   04 Jun 2027 12:59:28.836           158.209              Murmansk1          4944.031
       393   04 Jun 2027 13:04:37.606   04 Jun 2027 13:04:41.695             4.089                Norilsk           127.781
       394   04 Jun 2027 13:08:58.631   04 Jun 2027 13:09:36.860            38.229              Murmansk2          1194.656
       395   04 Jun 2027 14:09:30.860   04 Jun 2027 14:11:48.848           137.988               CapeTown          4312.125
       396   04 Jun 2027 14:15:04.254   04 Jun 2027 14:16:27.735            83.481               CapeTown          2608.781
       397   04 Jun 2027 14:33:22.715   04 Jun 2027 14:34:19.360            56.645              Murmansk1          1770.156
       398   04 Jun 2027 14:34:27.103   04 Jun 2027 14:34:45.665            18.562              Murmansk1           580.063
       399   04 Jun 2027 14:36:09.116   04 Jun 2027 14:36:26.268            17.152              Murmansk1           536.000
       400   04 Jun 2027 14:37:00.195   04 Jun 2027 14:37:29.853            29.658              Murmansk1           926.813
       401   04 Jun 2027 14:40:03.916   04 Jun 2027 14:40:10.360             6.444              Murmansk1           201.375
       402   04 Jun 2027 14:48:17.083   04 Jun 2027 14:51:21.062           183.979                Anadyr2          5749.344
       403   04 Jun 2027 14:53:11.191   04 Jun 2027 14:53:47.819            36.628                Anadyr2          1144.625
       404   04 Jun 2027 16:11:16.974   04 Jun 2027 16:11:25.352             8.378                 Moscow           261.812
       405   04 Jun 2027 16:11:57.982   04 Jun 2027 16:13:22.733            84.751              Murmansk1          2648.469
       406   04 Jun 2027 16:14:03.396   04 Jun 2027 16:15:47.607           104.211              Murmansk2          3256.594
       407   04 Jun 2027 16:23:30.272   04 Jun 2027 16:25:15.463           105.191                Anadyr1          3287.219
       408   04 Jun 2027 16:25:42.771   04 Jun 2027 16:25:48.012             5.241                Anadyr2           163.781
       409   04 Jun 2027 16:28:11.365   04 Jun 2027 16:31:02.000           170.635               Magadan1          5332.344
       410   04 Jun 2027 17:59:22.194   04 Jun 2027 18:02:39.532           197.338                Anadyr1          6166.813
       411   04 Jun 2027 18:02:42.968   04 Jun 2027 18:03:16.720            33.752                Anadyr1          1054.750
       412   04 Jun 2027 18:03:21.324   04 Jun 2027 18:05:44.375           143.051               Magadan1          4470.344
       413   04 Jun 2027 19:35:16.338   04 Jun 2027 19:39:07.227           230.889                Anadyr1          7215.281
       414   04 Jun 2027 19:39:35.771   04 Jun 2027 19:41:21.167           105.396                Norilsk          3293.625
       415   04 Jun 2027 19:42:34.808   04 Jun 2027 19:42:50.764            15.956               Magadan2           498.625
       416   04 Jun 2027 19:43:47.514   04 Jun 2027 19:44:18.103            30.589               Magadan1           955.906
       417   04 Jun 2027 20:29:40.006   04 Jun 2027 20:32:55.724           195.718            RioGallegos          6116.188
       418   04 Jun 2027 20:39:37.599   04 Jun 2027 20:39:51.043            13.444            RioGallegos           420.125
       419   04 Jun 2027 20:40:25.344   04 Jun 2027 20:40:35.800            10.456            RioGallegos           326.750
       420   04 Jun 2027 21:11:56.248   04 Jun 2027 21:13:04.128            67.880                Anadyr2          2121.250
       421   04 Jun 2027 21:13:37.249   04 Jun 2027 21:15:28.521           111.272               Magadan2          3477.250
       422   04 Jun 2027 21:16:05.963   04 Jun 2027 21:16:08.514             2.551               Magadan1            79.719
       423   04 Jun 2027 21:17:16.040   04 Jun 2027 21:18:33.697            77.657                Irkutsk          2426.781
       424   04 Jun 2027 21:19:00.800   04 Jun 2027 21:19:33.808            33.008                Novosib          1031.500
       425   04 Jun 2027 21:20:11.127   04 Jun 2027 21:20:58.302            47.175                Novosib          1474.219
       426   04 Jun 2027 21:21:32.783   04 Jun 2027 21:21:49.596            16.813                Novosib           525.406
       427   04 Jun 2027 21:22:33.639   04 Jun 2027 21:22:40.592             6.953                Novosib           217.281
       428   04 Jun 2027 21:23:32.227   04 Jun 2027 21:24:59.924            87.697                Novosib          2740.531
       429   04 Jun 2027 21:32:47.099   04 Jun 2027 21:33:49.571            62.472                Sumatra          1952.250
       430   04 Jun 2027 22:45:31.443   04 Jun 2027 22:45:36.686             5.243                Anadyr2           163.844
       431   04 Jun 2027 22:46:19.150   04 Jun 2027 22:47:16.724            57.574                Anadyr1          1799.187
       432   04 Jun 2027 22:49:04.842   04 Jun 2027 22:49:23.754            18.912                Norilsk           591.000
       433   04 Jun 2027 22:49:42.569   04 Jun 2027 22:50:32.521            49.952               Magadan2          1561.000
       434   04 Jun 2027 22:50:50.255   04 Jun 2027 22:51:14.669            24.414               Magadan2           762.938
       435   04 Jun 2027 22:52:57.161   04 Jun 2027 22:53:17.927            20.766                Irkutsk           648.938
       436   04 Jun 2027 22:53:58.671   04 Jun 2027 22:54:37.136            38.465                Irkutsk          1202.031
       437   04 Jun 2027 22:54:39.874   04 Jun 2027 22:56:09.607            89.733                Novosib          2804.156
       438   04 Jun 2027 22:58:28.071   04 Jun 2027 22:58:57.056            28.985                Novosib           905.781
       439   04 Jun 2027 23:00:45.833   04 Jun 2027 23:02:40.449           114.616                  Delhi          3581.750
       440   05 Jun 2027 00:19:04.109   05 Jun 2027 00:19:06.497             2.388                Anadyr2            74.625
       441   05 Jun 2027 00:19:08.325   05 Jun 2027 00:19:17.034             8.709                Anadyr2           272.156
       442   05 Jun 2027 00:20:44.408   05 Jun 2027 00:21:17.802            33.394                Anadyr1          1043.563
       443   05 Jun 2027 00:21:32.929   05 Jun 2027 00:22:04.216            31.287                Anadyr2           977.719
       444   05 Jun 2027 00:23:46.096   05 Jun 2027 00:24:12.251            26.155                Anadyr2           817.344
       445   05 Jun 2027 00:24:52.882   05 Jun 2027 00:25:01.686             8.804                Anadyr2           275.125
       446   05 Jun 2027 00:25:03.794   05 Jun 2027 00:25:17.601            13.807                Norilsk           431.469
       447   05 Jun 2027 00:25:24.137   05 Jun 2027 00:26:49.249            85.112               Magadan2          2659.750
       448   05 Jun 2027 00:26:49.249   05 Jun 2027 00:27:34.160            44.911               Magadan1          1403.469
       449   05 Jun 2027 00:27:36.300   05 Jun 2027 00:29:38.998           122.698              Murmansk1          3834.312
       450   05 Jun 2027 00:31:05.461   05 Jun 2027 00:31:14.075             8.614              Murmansk1           269.188
       451   05 Jun 2027 00:32:05.718   05 Jun 2027 00:33:02.000            56.282                 Moscow          1758.813
       452   05 Jun 2027 00:35:03.664   05 Jun 2027 00:35:10.246             6.582                 Moscow           205.688
       453   05 Jun 2027 00:36:09.302   05 Jun 2027 00:36:49.501            40.199                 Moscow          1256.219
       454   05 Jun 2027 01:52:28.545   05 Jun 2027 01:54:58.179           149.634                Anadyr2          4676.062
       455   05 Jun 2027 01:55:10.973   05 Jun 2027 01:55:35.750            24.777                Anadyr1           774.281
       456   05 Jun 2027 01:57:24.569   05 Jun 2027 01:57:40.776            16.207                Anadyr2           506.469
       457   05 Jun 2027 01:57:46.800   05 Jun 2027 01:59:02.459            75.659               Magadan2          2364.344
       458   05 Jun 2027 01:59:44.491   05 Jun 2027 01:59:47.918             3.427               Magadan1           107.094
       459   05 Jun 2027 02:00:50.403   05 Jun 2027 02:01:18.289            27.886                Norilsk           871.437
       460   05 Jun 2027 02:02:26.959   05 Jun 2027 02:02:32.670             5.711               Magadan2           178.469
       461   05 Jun 2027 02:03:11.702   05 Jun 2027 02:03:49.052            37.350              Murmansk1          1167.187
       462   05 Jun 2027 02:04:31.054   05 Jun 2027 02:05:10.273            39.219              Murmansk2          1225.594
       463   05 Jun 2027 02:05:34.435   05 Jun 2027 02:05:37.031             2.596              Murmansk1            81.125
       464   05 Jun 2027 02:05:42.438   05 Jun 2027 02:06:55.564            73.126                Novosib          2285.187
       465   05 Jun 2027 02:10:48.046   05 Jun 2027 02:10:52.691             4.645                Novosib           145.156
       466   05 Jun 2027 02:11:47.617   05 Jun 2027 02:11:53.882             6.265                 Moscow           195.781
       467   05 Jun 2027 02:12:40.508   05 Jun 2027 02:13:35.303            54.795                 Moscow          1712.344
       468   05 Jun 2027 02:31:03.447   05 Jun 2027 02:31:48.004            44.557               CapeTown          1392.406
       469   05 Jun 2027 02:38:43.197   05 Jun 2027 02:38:44.535             1.338               CapeTown            41.813
       470   05 Jun 2027 02:41:19.526   05 Jun 2027 02:42:00.664            41.138               CapeTown          1285.562
       471   05 Jun 2027 03:33:50.810   05 Jun 2027 03:33:51.379             0.569               Magadan2            17.781
       472   05 Jun 2027 03:34:31.167   05 Jun 2027 03:34:48.449            17.282               Magadan1           540.062
       473   05 Jun 2027 03:34:51.676   05 Jun 2027 03:35:23.625            31.949                Anadyr1           998.406
       474   05 Jun 2027 03:35:23.625   05 Jun 2027 03:35:34.235            10.610                Anadyr2           331.563
       475   05 Jun 2027 03:35:35.368   05 Jun 2027 03:36:15.490            40.122               Magadan1          1253.812
       476   05 Jun 2027 03:36:38.653   05 Jun 2027 03:37:39.463            60.810               Magadan1          1900.313
       477   05 Jun 2027 03:37:39.463   05 Jun 2027 03:37:53.804            14.341               Magadan2           448.156
       478   05 Jun 2027 03:46:44.595   05 Jun 2027 03:46:48.925             4.330                Norilsk           135.313
       479   05 Jun 2027 05:10:35.850   05 Jun 2027 05:11:56.107            80.257                Anadyr2          2508.031
       480   05 Jun 2027 05:12:03.769   05 Jun 2027 05:15:42.595           218.826                Anadyr1          6838.313
       481   05 Jun 2027 05:59:47.873   05 Jun 2027 06:00:37.596            49.723            RioGallegos          1553.844
       482   05 Jun 2027 06:44:05.972   05 Jun 2027 06:44:13.525             7.553               Magadan1           236.031
