uniorb/output/strategy_2/Drop/Drop_KinoSat_111308.txt

KinoSat_111308
-------------------------
    Access    *     Start Time (UTCG)     *     Stop Time (UTCG)  *   Duration (s)        *       Station  *  Data (Mbytes)
         1   01 Jun 2027 03:00:38.579   01 Jun 2027 03:00:44.331             5.752              Murmansk2           179.750
         2   01 Jun 2027 03:00:47.959   01 Jun 2027 03:00:50.541             2.582              Murmansk2            80.688
         3   01 Jun 2027 03:00:57.356   01 Jun 2027 03:02:19.613            82.257              Murmansk2          2570.531
         4   01 Jun 2027 03:02:19.613   01 Jun 2027 03:02:34.357            14.744              Murmansk1           460.750
         5   01 Jun 2027 03:03:02.562   01 Jun 2027 03:03:50.189            47.627              Murmansk2          1488.344
         6   01 Jun 2027 03:04:28.110   01 Jun 2027 03:05:02.934            34.824              Murmansk1          1088.250
         7   01 Jun 2027 03:05:53.130   01 Jun 2027 03:08:08.183           135.053                 Moscow          4220.406
         8   01 Jun 2027 03:20:35.886   01 Jun 2027 03:26:59.895           384.009               CapeTown         12000.281
         9   01 Jun 2027 04:16:53.893   01 Jun 2027 04:18:13.516            79.623                Anadyr2          2488.219
        10   01 Jun 2027 04:19:39.658   01 Jun 2027 04:20:18.386            38.728               Magadan1          1210.250
        11   01 Jun 2027 04:20:29.085   01 Jun 2027 04:20:39.886            10.801                Anadyr2           337.531
        12   01 Jun 2027 04:21:16.483   01 Jun 2027 04:21:35.416            18.933               Magadan1           591.656
        13   01 Jun 2027 04:23:58.611   01 Jun 2027 04:24:36.686            38.075                Anadyr2          1189.844
        14   01 Jun 2027 04:24:55.429   01 Jun 2027 04:25:48.191            52.762               Magadan1          1648.813
        15   01 Jun 2027 04:26:00.798   01 Jun 2027 04:26:03.826             3.028                Anadyr1            94.625
        16   01 Jun 2027 04:26:03.826   01 Jun 2027 04:26:27.120            23.294                Anadyr2           727.938
        17   01 Jun 2027 05:58:55.576   01 Jun 2027 05:59:14.963            19.387               Magadan2           605.844
        18   01 Jun 2027 05:59:23.920   01 Jun 2027 05:59:49.449            25.529                Anadyr1           797.781
        19   01 Jun 2027 05:59:49.449   01 Jun 2027 06:01:20.489            91.040                Anadyr2          2845.000
        20   01 Jun 2027 06:01:34.573   01 Jun 2027 06:03:26.078           111.505               Magadan2          3484.531
        21   01 Jun 2027 07:36:23.696   01 Jun 2027 07:38:29.263           125.567               Magadan2          3923.969
        22   01 Jun 2027 07:38:57.762   01 Jun 2027 07:41:15.511           137.749               Magadan2          4304.656
        23   01 Jun 2027 09:11:11.042   01 Jun 2027 09:11:44.515            33.473                Novosib          1046.031
        24   01 Jun 2027 09:11:47.707   01 Jun 2027 09:12:58.265            70.558               Magadan1          2204.938
        25   01 Jun 2027 09:13:12.688   01 Jun 2027 09:15:27.548           134.860               Magadan2          4214.375
        26   01 Jun 2027 09:16:10.896   01 Jun 2027 09:16:14.105             3.209               Magadan2           100.281
        27   01 Jun 2027 09:16:30.901   01 Jun 2027 09:17:57.514            86.613              Murmansk2          2706.656
        28   01 Jun 2027 09:18:22.952   01 Jun 2027 09:18:57.702            34.750                Norilsk          1085.938
        29   01 Jun 2027 09:18:59.941   01 Jun 2027 09:19:20.172            20.231              Murmansk2           632.219
        30   01 Jun 2027 09:51:45.424   01 Jun 2027 09:53:10.946            85.522            RioGallegos          2672.563
        31   01 Jun 2027 10:26:43.745   01 Jun 2027 10:28:59.129           135.384                Sumatra          4230.750
        32   01 Jun 2027 10:29:41.361   01 Jun 2027 10:29:59.904            18.543                Sumatra           579.469
        33   01 Jun 2027 10:48:10.620   01 Jun 2027 10:50:02.591           111.971                Irkutsk          3499.094
        34   01 Jun 2027 10:50:35.956   01 Jun 2027 10:52:15.006            99.050              Murmansk1          3095.313
        35   01 Jun 2027 10:52:36.253   01 Jun 2027 10:53:45.089            68.836                Novosib          2151.125
        36   01 Jun 2027 10:53:52.876   01 Jun 2027 10:54:28.323            35.447              Murmansk2          1107.719
        37   01 Jun 2027 10:55:10.662   01 Jun 2027 10:56:07.883            57.221              Murmansk2          1788.156
        38   01 Jun 2027 10:56:47.043   01 Jun 2027 10:57:00.109            13.066              Murmansk2           408.312
        39   01 Jun 2027 11:30:40.134   01 Jun 2027 11:31:17.931            37.797            RioGallegos          1181.156
        40   01 Jun 2027 11:31:52.508   01 Jun 2027 11:32:23.959            31.451            RioGallegos           982.844
        41   01 Jun 2027 11:32:44.108   01 Jun 2027 11:33:54.933            70.825            RioGallegos          2213.281
        42   01 Jun 2027 12:06:48.342   01 Jun 2027 12:09:18.008           149.666                Sumatra          4677.063
        43   01 Jun 2027 12:18:16.245   01 Jun 2027 12:19:43.960            87.715                Novosib          2741.094
        44   01 Jun 2027 12:21:10.293   01 Jun 2027 12:21:27.014            16.721                Novosib           522.531
        45   01 Jun 2027 12:21:49.878   01 Jun 2027 12:22:28.937            39.059                Novosib          1220.594
        46   01 Jun 2027 12:22:42.008   01 Jun 2027 12:23:33.237            51.229                Norilsk          1600.906
        47   01 Jun 2027 12:24:07.950   01 Jun 2027 12:24:25.711            17.761              Murmansk1           555.031
        48   01 Jun 2027 12:26:31.452   01 Jun 2027 12:27:00.643            29.191                Norilsk           912.219
        49   01 Jun 2027 13:51:27.882   01 Jun 2027 13:54:07.243           159.361                  Delhi          4980.031
        50   01 Jun 2027 13:56:32.511   01 Jun 2027 13:57:41.261            68.750                 Moscow          2148.438
        51   01 Jun 2027 13:58:38.769   01 Jun 2027 14:00:24.069           105.300              Murmansk1          3290.625
        52   01 Jun 2027 14:01:44.282   01 Jun 2027 14:02:55.287            71.005                Norilsk          2218.906
        53   01 Jun 2027 14:06:25.323   01 Jun 2027 14:06:40.687            15.364                Norilsk           480.125
        54   01 Jun 2027 15:10:35.692   01 Jun 2027 15:11:45.252            69.560               CapeTown          2173.750
        55   01 Jun 2027 15:32:02.341   01 Jun 2027 15:33:19.481            77.140                 Moscow          2410.625
        56   01 Jun 2027 15:35:22.634   01 Jun 2027 15:36:50.980            88.346              Murmansk1          2760.812
        57   01 Jun 2027 15:49:55.381   01 Jun 2027 15:51:56.264           120.883                Anadyr1          3777.594
        58   01 Jun 2027 15:53:24.031   01 Jun 2027 15:53:25.597             1.566                Anadyr1            48.937
        59   01 Jun 2027 16:44:39.023   01 Jun 2027 16:47:03.639           144.616               CapeTown          4519.250
        60   01 Jun 2027 17:14:14.057   01 Jun 2027 17:15:31.025            76.968              Murmansk2          2405.250
        61   01 Jun 2027 17:17:26.996   01 Jun 2027 17:18:05.531            38.535              Murmansk1          1204.219
        62   01 Jun 2027 17:25:17.933   01 Jun 2027 17:27:31.459           133.526                Anadyr1          4172.688
        63   01 Jun 2027 17:29:18.527   01 Jun 2027 17:30:05.062            46.535               Magadan2          1454.219
        64   01 Jun 2027 17:31:17.989   01 Jun 2027 17:31:41.544            23.555               Magadan1           736.094
        65   01 Jun 2027 19:01:11.433   01 Jun 2027 19:04:59.036           227.603                Anadyr2          7112.594
        66   01 Jun 2027 19:05:21.501   01 Jun 2027 19:06:05.941            44.440                Anadyr1          1388.750
        67   01 Jun 2027 19:06:10.672   01 Jun 2027 19:07:18.265            67.593               Magadan2          2112.281
        68   01 Jun 2027 20:37:04.844   01 Jun 2027 20:40:48.356           223.512                Anadyr1          6984.750
        69   01 Jun 2027 20:40:58.301   01 Jun 2027 20:42:58.730           120.429                Norilsk          3763.406
        70   01 Jun 2027 20:42:58.835   01 Jun 2027 20:43:15.075            16.240               Magadan2           507.500
        71   01 Jun 2027 20:43:15.075   01 Jun 2027 20:44:11.475            56.400               Magadan1          1762.500
        72   01 Jun 2027 20:45:40.722   01 Jun 2027 20:46:21.391            40.669                Irkutsk          1270.906
        73   01 Jun 2027 20:46:55.468   01 Jun 2027 20:47:57.111            61.643                Irkutsk          1926.344
        74   01 Jun 2027 21:31:19.450   01 Jun 2027 21:32:03.448            43.998            RioGallegos          1374.937
        75   01 Jun 2027 21:36:17.402   01 Jun 2027 21:36:52.422            35.020            RioGallegos          1094.375
        76   01 Jun 2027 22:12:35.712   01 Jun 2027 22:13:27.498            51.786                Anadyr1          1618.313
        77   01 Jun 2027 22:13:44.132   01 Jun 2027 22:13:50.566             6.434                Anadyr1           201.063
        78   01 Jun 2027 22:14:40.061   01 Jun 2027 22:14:58.570            18.509                Anadyr1           578.406
        79   01 Jun 2027 22:15:09.781   01 Jun 2027 22:16:54.901           105.120                Norilsk          3285.000
        80   01 Jun 2027 22:18:59.701   01 Jun 2027 22:19:19.203            19.502                Irkutsk           609.437
        81   01 Jun 2027 22:20:08.632   01 Jun 2027 22:20:46.684            38.052                Irkutsk          1189.125
        82   01 Jun 2027 22:20:52.396   01 Jun 2027 22:22:31.013            98.617                Novosib          3081.781
        83   01 Jun 2027 22:39:27.928   01 Jun 2027 22:41:00.036            92.108                Sumatra          2878.375
        84   01 Jun 2027 23:47:08.008   01 Jun 2027 23:47:38.974            30.966                Anadyr1           967.688
        85   01 Jun 2027 23:48:08.599   01 Jun 2027 23:49:06.729            58.130                Anadyr1          1816.562
        86   01 Jun 2027 23:49:49.179   01 Jun 2027 23:50:04.690            15.511                Anadyr1           484.719
        87   01 Jun 2027 23:50:54.405   01 Jun 2027 23:51:14.131            19.726                Norilsk           616.438
        88   01 Jun 2027 23:51:32.785   01 Jun 2027 23:53:23.356           110.571               Magadan2          3455.344
        89   01 Jun 2027 23:54:48.336   01 Jun 2027 23:55:32.751            44.415                Irkutsk          1387.969
        90   01 Jun 2027 23:56:00.131   01 Jun 2027 23:57:14.260            74.129                Novosib          2316.531
        91   02 Jun 2027 00:02:22.220   02 Jun 2027 00:03:15.740            53.520                  Delhi          1672.500
        92   02 Jun 2027 00:04:48.792   02 Jun 2027 00:05:52.030            63.238                  Delhi          1976.188
        93   02 Jun 2027 00:52:12.188   02 Jun 2027 00:52:36.925            24.737            RioGallegos           773.031
        94   02 Jun 2027 01:20:33.515   02 Jun 2027 01:20:56.820            23.305                Anadyr2           728.281
        95   02 Jun 2027 01:21:42.861   02 Jun 2027 01:22:22.066            39.205                Anadyr2          1225.156
        96   02 Jun 2027 01:22:47.075   02 Jun 2027 01:23:06.879            19.804                Anadyr1           618.875
        97   02 Jun 2027 01:23:22.505   02 Jun 2027 01:23:46.303            23.798                Anadyr2           743.688
        98   02 Jun 2027 01:26:44.029   02 Jun 2027 01:28:48.316           124.287               Magadan2          3883.969
        99   02 Jun 2027 01:29:10.659   02 Jun 2027 01:30:36.624            85.965              Murmansk1          2686.406
       100   02 Jun 2027 01:30:36.624   02 Jun 2027 01:31:34.658            58.034              Murmansk2          1813.562
       101   02 Jun 2027 01:36:39.391   02 Jun 2027 01:36:57.872            18.481                 Moscow           577.531
       102   02 Jun 2027 01:40:05.515   02 Jun 2027 01:42:22.142           136.627                  Delhi          4269.594
       103   02 Jun 2027 02:54:04.688   02 Jun 2027 02:55:31.216            86.528                Anadyr2          2704.000
       104   02 Jun 2027 02:57:19.235   02 Jun 2027 02:57:21.313             2.078                Anadyr1            64.937
       105   02 Jun 2027 02:57:38.346   02 Jun 2027 02:58:13.478            35.132                Anadyr2          1097.875
       106   02 Jun 2027 02:58:47.262   02 Jun 2027 02:59:28.429            41.167               Magadan1          1286.469
       107   02 Jun 2027 03:12:57.765   02 Jun 2027 03:14:19.308            81.543              Murmansk2          2548.219
       108   02 Jun 2027 03:14:36.663   02 Jun 2027 03:15:56.897            80.234              Murmansk2          2507.313
       109   02 Jun 2027 03:16:00.152   02 Jun 2027 03:16:39.009            38.857                 Moscow          1214.281
       110   02 Jun 2027 03:17:22.856   02 Jun 2027 03:21:00.341           217.485                 Moscow          6796.406
       111   02 Jun 2027 03:32:22.635   02 Jun 2027 03:36:48.411           265.776               CapeTown          8305.500
       112   02 Jun 2027 04:28:52.608   02 Jun 2027 04:30:44.039           111.431                Anadyr2          3482.219
       113   02 Jun 2027 04:35:44.972   02 Jun 2027 04:38:49.268           184.296               Magadan1          5759.250
       114   02 Jun 2027 04:38:49.268   02 Jun 2027 04:39:11.655            22.387               Magadan2           699.594
       115   02 Jun 2027 04:40:07.761   02 Jun 2027 04:40:20.853            13.092                Anadyr2           409.125
       116   02 Jun 2027 04:40:48.081   02 Jun 2027 04:41:07.965            19.884                Anadyr2           621.375
       117   02 Jun 2027 04:48:29.359   02 Jun 2027 04:48:31.737             2.378              Murmansk1            74.313
       118   02 Jun 2027 04:50:34.957   02 Jun 2027 04:51:40.336            65.379              Murmansk2          2043.094
       119   02 Jun 2027 04:51:56.351   02 Jun 2027 04:52:29.586            33.235              Murmansk2          1038.594
       120   02 Jun 2027 06:10:45.351   02 Jun 2027 06:11:43.490            58.139               Magadan2          1816.844
       121   02 Jun 2027 06:11:48.304   02 Jun 2027 06:12:03.958            15.654               Magadan2           489.188
       122   02 Jun 2027 06:12:12.483   02 Jun 2027 06:13:36.972            84.489               Magadan1          2640.281
       123   02 Jun 2027 06:13:48.775   02 Jun 2027 06:14:38.025            49.250               Magadan1          1539.063
       124   02 Jun 2027 06:14:51.001   02 Jun 2027 06:15:27.460            36.459                Anadyr2          1139.344
       125   02 Jun 2027 06:16:04.962   02 Jun 2027 06:16:43.862            38.900                Anadyr1          1215.625
       126   02 Jun 2027 07:46:11.744   02 Jun 2027 07:48:07.754           116.010                Irkutsk          3625.312
       127   02 Jun 2027 07:48:12.388   02 Jun 2027 07:49:30.442            78.054                Anadyr1          2439.187
       128   02 Jun 2027 07:50:04.399   02 Jun 2027 07:51:12.843            68.444                Anadyr2          2138.875
       129   02 Jun 2027 07:51:12.843   02 Jun 2027 07:51:53.864            41.021                Anadyr1          1281.906
       130   02 Jun 2027 07:52:31.660   02 Jun 2027 07:52:53.225            21.565                Anadyr1           673.906
       131   02 Jun 2027 07:53:11.075   02 Jun 2027 07:53:28.760            17.685              Murmansk1           552.656
       132   02 Jun 2027 08:28:37.972   02 Jun 2027 08:29:14.783            36.811            RioGallegos          1150.344
       133   02 Jun 2027 09:22:43.176   02 Jun 2027 09:22:48.523             5.347                Irkutsk           167.094
       134   02 Jun 2027 09:23:04.152   02 Jun 2027 09:23:29.335            25.183                Norilsk           786.969
       135   02 Jun 2027 09:23:43.490   02 Jun 2027 09:25:09.091            85.601                Irkutsk          2675.031
       136   02 Jun 2027 09:25:13.262   02 Jun 2027 09:26:00.733            47.471                Irkutsk          1483.469
       137   02 Jun 2027 09:26:13.114   02 Jun 2027 09:26:57.553            44.439                Irkutsk          1388.719
       138   02 Jun 2027 09:27:09.334   02 Jun 2027 09:28:14.447            65.113                Irkutsk          2034.781
       139   02 Jun 2027 09:28:21.113   02 Jun 2027 09:29:32.627            71.514              Murmansk2          2234.812
       140   02 Jun 2027 10:03:53.470   02 Jun 2027 10:05:16.304            82.834            RioGallegos          2588.562
       141   02 Jun 2027 10:38:39.187   02 Jun 2027 10:39:09.459            30.272                Sumatra           946.000
       142   02 Jun 2027 10:41:32.028   02 Jun 2027 10:41:43.427            11.399                Sumatra           356.219
       143   02 Jun 2027 10:52:03.957   02 Jun 2027 10:53:08.182            64.225                  Delhi          2007.031
       144   02 Jun 2027 10:59:34.287   02 Jun 2027 11:00:17.686            43.399                Norilsk          1356.219
       145   02 Jun 2027 11:00:48.495   02 Jun 2027 11:01:08.920            20.425                Novosib           638.281
       146   02 Jun 2027 11:01:13.398   02 Jun 2027 11:02:05.140            51.742                Irkutsk          1616.937
       147   02 Jun 2027 11:02:12.488   02 Jun 2027 11:02:33.056            20.568                Novosib           642.750
       148   02 Jun 2027 11:02:35.608   02 Jun 2027 11:02:45.112             9.504                Irkutsk           297.000
       149   02 Jun 2027 11:02:48.004   02 Jun 2027 11:02:53.159             5.155                Novosib           161.094
       150   02 Jun 2027 11:02:55.557   02 Jun 2027 11:03:22.085            26.528                Norilsk           829.000
       151   02 Jun 2027 11:03:24.537   02 Jun 2027 11:03:54.659            30.122                Irkutsk           941.313
       152   02 Jun 2027 11:04:11.031   02 Jun 2027 11:04:35.861            24.830                Novosib           775.938
       153   02 Jun 2027 11:04:38.712   02 Jun 2027 11:05:08.775            30.063              Murmansk1           939.469
       154   02 Jun 2027 11:05:40.679   02 Jun 2027 11:05:56.801            16.122                 Moscow           503.813
       155   02 Jun 2027 11:43:36.429   02 Jun 2027 11:44:01.367            24.938            RioGallegos           779.313
       156   02 Jun 2027 11:44:37.517   02 Jun 2027 11:45:01.236            23.719            RioGallegos           741.219
       157   02 Jun 2027 11:47:04.602   02 Jun 2027 11:47:52.410            47.808            RioGallegos          1494.000
       158   02 Jun 2027 12:19:14.714   02 Jun 2027 12:19:43.558            28.844                Sumatra           901.375
       159   02 Jun 2027 12:25:59.821   02 Jun 2027 12:27:13.947            74.126                  Delhi          2316.438
       160   02 Jun 2027 12:30:36.184   02 Jun 2027 12:30:44.384             8.200                Novosib           256.250
       161   02 Jun 2027 12:31:17.837   02 Jun 2027 12:31:50.501            32.664                Novosib          1020.750
       162   02 Jun 2027 12:33:27.112   02 Jun 2027 12:34:48.860            81.748                Novosib          2554.625
       163   02 Jun 2027 12:35:14.081   02 Jun 2027 12:35:17.872             3.791                Norilsk           118.469
       164   02 Jun 2027 12:35:20.282   02 Jun 2027 12:36:41.836            81.554              Murmansk2          2548.563
       165   02 Jun 2027 14:07:15.810   02 Jun 2027 14:11:03.910           228.100                 Moscow          7128.125
       166   02 Jun 2027 14:11:21.072   02 Jun 2027 14:13:12.320           111.248              Murmansk2          3476.500
       167   02 Jun 2027 14:14:24.248   02 Jun 2027 14:14:49.363            25.115                Norilsk           784.844
       168   02 Jun 2027 14:15:42.005   02 Jun 2027 14:16:33.857            51.852                Norilsk          1620.375
       169   02 Jun 2027 14:18:27.780   02 Jun 2027 14:19:19.382            51.602                Norilsk          1612.563
       170   02 Jun 2027 15:22:02.531   02 Jun 2027 15:25:00.181           177.650               CapeTown          5551.563
       171   02 Jun 2027 15:44:49.595   02 Jun 2027 15:44:53.949             4.354                 Moscow           136.062
       172   02 Jun 2027 15:47:38.341   02 Jun 2027 15:48:59.453            81.112              Murmansk2          2534.750
       173   02 Jun 2027 15:50:19.889   02 Jun 2027 15:50:47.101            27.212              Murmansk1           850.375
       174   02 Jun 2027 16:01:48.203   02 Jun 2027 16:03:41.888           113.685                Anadyr1          3552.656
       175   02 Jun 2027 16:04:30.061   02 Jun 2027 16:04:48.267            18.206                Anadyr1           568.938
       176   02 Jun 2027 16:07:52.330   02 Jun 2027 16:07:52.502             0.172                Anadyr2             5.375
       177   02 Jun 2027 16:10:15.394   02 Jun 2027 16:10:17.753             2.359                Anadyr2            73.719
       178   02 Jun 2027 16:10:53.745   02 Jun 2027 16:11:00.503             6.758                Anadyr2           211.187
       179   02 Jun 2027 16:56:42.585   02 Jun 2027 16:58:47.492           124.907               CapeTown          3903.344
       180   02 Jun 2027 17:26:49.432   02 Jun 2027 17:27:47.259            57.827              Murmansk2          1807.094
       181   02 Jun 2027 17:28:56.062   02 Jun 2027 17:29:22.063            26.001              Murmansk2           812.531
       182   02 Jun 2027 17:30:07.451   02 Jun 2027 17:31:42.221            94.770              Murmansk2          2961.562
       183   02 Jun 2027 17:37:18.409   02 Jun 2027 17:37:42.124            23.715                Anadyr1           741.094
       184   02 Jun 2027 17:38:08.555   02 Jun 2027 17:38:37.158            28.603                Anadyr2           893.844
       185   02 Jun 2027 17:40:45.973   02 Jun 2027 17:41:00.323            14.350                Anadyr2           448.438
       186   02 Jun 2027 17:41:17.329   02 Jun 2027 17:42:00.390            43.061               Magadan2          1345.656
       187   02 Jun 2027 17:42:00.390   02 Jun 2027 17:43:03.322            62.932               Magadan1          1966.625
       188   02 Jun 2027 17:43:06.338   02 Jun 2027 17:43:11.814             5.476               Magadan1           171.125
       189   02 Jun 2027 17:43:17.826   02 Jun 2027 17:43:20.451             2.625               Magadan1            82.031
       190   02 Jun 2027 17:43:44.246   02 Jun 2027 17:44:09.441            25.195               Magadan2           787.344
       191   02 Jun 2027 19:13:13.011   02 Jun 2027 19:15:07.315           114.304                Anadyr1          3572.000
       192   02 Jun 2027 19:15:18.262   02 Jun 2027 19:17:13.814           115.552                Anadyr2          3611.000
       193   02 Jun 2027 19:17:31.674   02 Jun 2027 19:18:36.660            64.986               Magadan1          2030.812
       194   02 Jun 2027 19:18:45.234   02 Jun 2027 19:19:18.116            32.882               Magadan2          1027.563
       195   02 Jun 2027 19:21:26.967   02 Jun 2027 19:21:38.077            11.110               Magadan1           347.187
       196   02 Jun 2027 19:22:22.835   02 Jun 2027 19:23:16.172            53.337               Magadan2          1666.781
       197   02 Jun 2027 20:49:05.014   02 Jun 2027 20:51:14.213           129.199                Anadyr2          4037.469
       198   02 Jun 2027 20:51:19.933   02 Jun 2027 20:52:51.954            92.021                Anadyr1          2875.656
       199   02 Jun 2027 20:52:54.785   02 Jun 2027 20:54:37.679           102.894               Magadan1          3215.438
       200   02 Jun 2027 20:54:50.026   02 Jun 2027 20:54:56.224             6.198                Norilsk           193.687
       201   02 Jun 2027 20:55:39.505   02 Jun 2027 20:56:17.139            37.634               Magadan2          1176.062
       202   02 Jun 2027 20:56:51.835   02 Jun 2027 20:57:04.230            12.395                Irkutsk           387.344
       203   02 Jun 2027 20:57:28.376   02 Jun 2027 20:57:58.560            30.184                Norilsk           943.250
       204   02 Jun 2027 20:58:37.687   02 Jun 2027 20:59:38.775            61.088                Irkutsk          1909.000
       205   02 Jun 2027 21:00:53.032   02 Jun 2027 21:02:37.536           104.504                Irkutsk          3265.750
       206   02 Jun 2027 21:13:13.827   02 Jun 2027 21:14:11.909            58.082                Sumatra          1815.062
       207   02 Jun 2027 21:17:42.471   02 Jun 2027 21:17:50.827             8.356                Sumatra           261.125
       208   02 Jun 2027 22:24:30.757   02 Jun 2027 22:24:50.200            19.443                Anadyr2           607.594
       209   02 Jun 2027 22:25:14.441   02 Jun 2027 22:25:26.407            11.966                Anadyr2           373.937
       210   02 Jun 2027 22:26:56.945   02 Jun 2027 22:28:56.899           119.954                Norilsk          3748.563
       211   02 Jun 2027 22:29:25.131   02 Jun 2027 22:29:34.438             9.307               Magadan2           290.844
       212   02 Jun 2027 22:30:56.674   02 Jun 2027 22:32:10.275            73.601                Irkutsk          2300.031
       213   02 Jun 2027 22:32:12.774   02 Jun 2027 22:33:20.901            68.127                Novosib          2128.969
       214   02 Jun 2027 22:34:30.647   02 Jun 2027 22:34:51.065            20.418                Novosib           638.062
       215   02 Jun 2027 22:44:39.026   02 Jun 2027 22:45:11.502            32.476                Sumatra          1014.875
       216   02 Jun 2027 22:47:03.874   02 Jun 2027 22:47:30.673            26.799                Sumatra           837.469
       217   02 Jun 2027 22:49:11.464   02 Jun 2027 22:50:36.564            85.100                Sumatra          2659.375
       218   02 Jun 2027 23:58:53.392   03 Jun 2027 00:00:09.719            76.327                Anadyr2          2385.219
       219   03 Jun 2027 00:01:06.504   03 Jun 2027 00:01:46.002            39.498                Anadyr1          1234.312
       220   03 Jun 2027 00:02:56.527   03 Jun 2027 00:03:14.862            18.335                Norilsk           572.969
       221   03 Jun 2027 00:03:34.058   03 Jun 2027 00:05:42.571           128.513               Magadan1          4016.031
       222   03 Jun 2027 00:06:32.839   03 Jun 2027 00:07:14.848            42.009              Murmansk1          1312.781
       223   03 Jun 2027 00:07:24.141   03 Jun 2027 00:08:20.306            56.165              Murmansk2          1755.156
       224   03 Jun 2027 00:08:55.951   03 Jun 2027 00:09:32.475            36.524              Murmansk2          1141.375
       225   03 Jun 2027 00:14:13.673   03 Jun 2027 00:15:09.242            55.569                  Delhi          1736.531
       226   03 Jun 2027 00:17:05.325   03 Jun 2027 00:17:26.722            21.397                  Delhi           668.656
       227   03 Jun 2027 00:21:39.408   03 Jun 2027 00:22:29.112            49.704                  Delhi          1553.250
       228   03 Jun 2027 01:00:03.063   03 Jun 2027 01:00:54.098            51.035            RioGallegos          1594.844
       229   03 Jun 2027 01:32:14.656   03 Jun 2027 01:32:40.366            25.710                Anadyr1           803.437
       230   03 Jun 2027 01:33:00.855   03 Jun 2027 01:33:40.338            39.483                Anadyr1          1233.844
       231   03 Jun 2027 01:34:14.956   03 Jun 2027 01:34:22.041             7.085                Anadyr1           221.406
       232   03 Jun 2027 01:35:14.629   03 Jun 2027 01:35:14.738             0.109                Anadyr2             3.406
       233   03 Jun 2027 01:35:29.909   03 Jun 2027 01:35:39.756             9.847                Anadyr1           307.719
       234   03 Jun 2027 01:37:57.957   03 Jun 2027 01:38:24.372            26.415                Anadyr2           825.469
       235   03 Jun 2027 01:38:26.047   03 Jun 2027 01:40:03.595            97.548               Magadan1          3048.375
       236   03 Jun 2027 01:40:18.004   03 Jun 2027 01:40:48.494            30.490               Magadan1           952.813
       237   03 Jun 2027 01:40:57.900   03 Jun 2027 01:40:59.243             1.343                Norilsk            41.969
       238   03 Jun 2027 01:41:09.934   03 Jun 2027 01:41:33.781            23.847              Murmansk2           745.219
       239   03 Jun 2027 01:42:28.670   03 Jun 2027 01:43:28.895            60.225              Murmansk2          1882.031
       240   03 Jun 2027 01:44:17.771   03 Jun 2027 01:45:18.301            60.530                Novosib          1891.563
       241   03 Jun 2027 01:46:01.655   03 Jun 2027 01:46:22.097            20.442                 Moscow           638.813
       242   03 Jun 2027 01:48:03.066   03 Jun 2027 01:48:26.586            23.520                 Moscow           735.000
       243   03 Jun 2027 01:52:40.777   03 Jun 2027 01:53:24.958            44.181                  Delhi          1380.656
       244   03 Jun 2027 02:12:40.369   03 Jun 2027 02:13:15.591            35.222               CapeTown          1100.688
       245   03 Jun 2027 02:17:23.502   03 Jun 2027 02:18:03.389            39.887               CapeTown          1246.469
       246   03 Jun 2027 03:26:08.702   03 Jun 2027 03:29:18.529           189.827              Murmansk1          5932.094
       247   03 Jun 2027 03:29:18.529   03 Jun 2027 03:29:34.171            15.642              Murmansk2           488.812
       248   03 Jun 2027 03:32:34.490   03 Jun 2027 03:33:07.724            33.234                 Moscow          1038.563
       249   03 Jun 2027 03:44:14.519   03 Jun 2027 03:45:10.136            55.617               CapeTown          1738.031
       250   03 Jun 2027 03:47:21.290   03 Jun 2027 03:47:27.367             6.077               CapeTown           189.906
       251   03 Jun 2027 03:47:59.353   03 Jun 2027 03:48:32.469            33.116               CapeTown          1034.875
       252   03 Jun 2027 04:43:45.581   03 Jun 2027 04:43:59.711            14.130               Magadan1           441.562
       253   03 Jun 2027 04:47:36.694   03 Jun 2027 04:50:17.416           160.722               Magadan1          5022.563
       254   03 Jun 2027 04:50:26.613   03 Jun 2027 04:51:48.399            81.786                Anadyr1          2555.812
       255   03 Jun 2027 04:51:48.399   03 Jun 2027 04:52:06.837            18.438                Anadyr2           576.188
       256   03 Jun 2027 04:52:10.265   03 Jun 2027 04:52:43.166            32.901                Anadyr2          1028.156
       257   03 Jun 2027 06:21:43.829   03 Jun 2027 06:21:52.587             8.758               Magadan1           273.687
       258   03 Jun 2027 06:22:15.241   03 Jun 2027 06:23:07.055            51.814                Anadyr2          1619.187
       259   03 Jun 2027 06:23:09.910   03 Jun 2027 06:23:22.173            12.263                Anadyr1           383.219
       260   03 Jun 2027 06:23:31.448   03 Jun 2027 06:23:38.990             7.542               Magadan2           235.687
       261   03 Jun 2027 06:23:40.691   03 Jun 2027 06:23:51.558            10.867               Magadan2           339.594
       262   03 Jun 2027 06:24:19.919   03 Jun 2027 06:25:04.644            44.725               Magadan2          1397.656
       263   03 Jun 2027 06:25:32.610   03 Jun 2027 06:25:34.368             1.758               Magadan2            54.938
       264   03 Jun 2027 06:25:34.368   03 Jun 2027 06:25:39.820             5.452               Magadan1           170.375
       265   03 Jun 2027 06:25:40.902   03 Jun 2027 06:27:27.933           107.031               Magadan2          3344.719
       266   03 Jun 2027 07:08:17.329   03 Jun 2027 07:08:35.258            17.929            RioGallegos           560.281
       267   03 Jun 2027 07:56:02.640   03 Jun 2027 07:56:42.466            39.826               Magadan1          1244.563
       268   03 Jun 2027 07:57:46.559   03 Jun 2027 07:58:17.722            31.163                Irkutsk           973.844
       269   03 Jun 2027 07:58:35.735   03 Jun 2027 07:58:42.454             6.719               Magadan2           209.969
       270   03 Jun 2027 07:59:08.258   03 Jun 2027 08:00:12.564            64.306                Anadyr1          2009.562
       271   03 Jun 2027 08:00:24.405   03 Jun 2027 08:01:33.855            69.450               Magadan2          2170.312
       272   03 Jun 2027 08:01:49.174   03 Jun 2027 08:02:40.191            51.017               Magadan1          1594.281
       273   03 Jun 2027 08:02:44.184   03 Jun 2027 08:02:44.987             0.803                Anadyr1            25.094
       274   03 Jun 2027 08:02:47.917   03 Jun 2027 08:02:59.220            11.303               Magadan1           353.219
       275   03 Jun 2027 08:03:04.197   03 Jun 2027 08:03:43.961            39.764               Magadan1          1242.625
       276   03 Jun 2027 08:03:52.603   03 Jun 2027 08:04:36.928            44.325                Anadyr2          1385.156
       277   03 Jun 2027 08:04:59.791   03 Jun 2027 08:05:12.099            12.308                Norilsk           384.625
       278   03 Jun 2027 08:05:32.517   03 Jun 2027 08:06:01.026            28.509              Murmansk2           890.906
       279   03 Jun 2027 08:10:57.767   03 Jun 2027 08:11:26.355            28.588              Murmansk2           893.375
       280   03 Jun 2027 08:40:23.107   03 Jun 2027 08:41:09.601            46.494            RioGallegos          1452.937
       281   03 Jun 2027 09:18:20.574   03 Jun 2027 09:19:49.215            88.641                Sumatra          2770.031
       282   03 Jun 2027 09:33:54.563   03 Jun 2027 09:34:35.235            40.672               Magadan1          1271.000
       283   03 Jun 2027 09:35:01.168   03 Jun 2027 09:35:10.090             8.922                Irkutsk           278.813
       284   03 Jun 2027 09:35:10.677   03 Jun 2027 09:35:36.677            26.000                Novosib           812.500
       285   03 Jun 2027 09:35:39.065   03 Jun 2027 09:36:03.714            24.649                Irkutsk           770.281
       286   03 Jun 2027 09:36:31.743   03 Jun 2027 09:36:57.810            26.067                Norilsk           814.594
       287   03 Jun 2027 09:36:59.621   03 Jun 2027 09:37:19.202            19.581                Norilsk           611.906
       288   03 Jun 2027 09:37:31.265   03 Jun 2027 09:37:48.116            16.851                Novosib           526.594
       289   03 Jun 2027 09:37:49.633   03 Jun 2027 09:38:11.951            22.318               Magadan2           697.438
       290   03 Jun 2027 09:38:28.481   03 Jun 2027 09:38:41.993            13.512                Norilsk           422.250
       291   03 Jun 2027 09:38:44.408   03 Jun 2027 09:38:54.302             9.894              Murmansk2           309.187
       292   03 Jun 2027 09:38:54.302   03 Jun 2027 09:39:04.601            10.299              Murmansk1           321.844
       293   03 Jun 2027 09:39:06.305   03 Jun 2027 09:40:27.409            81.104                Irkutsk          2534.500
       294   03 Jun 2027 09:40:44.469   03 Jun 2027 09:41:08.693            24.224                Irkutsk           757.000
       295   03 Jun 2027 09:41:34.289   03 Jun 2027 09:41:59.075            24.786              Murmansk2           774.563
       296   03 Jun 2027 10:16:05.228   03 Jun 2027 10:17:20.770            75.542            RioGallegos          2360.687
       297   03 Jun 2027 10:50:40.271   03 Jun 2027 10:50:48.167             7.896                Sumatra           246.750
       298   03 Jun 2027 10:52:29.210   03 Jun 2027 10:53:19.969            50.759                Sumatra          1586.219
       299   03 Jun 2027 11:00:30.885   03 Jun 2027 11:00:54.448            23.563                  Delhi           736.344
       300   03 Jun 2027 11:10:35.423   03 Jun 2027 11:10:40.627             5.204                  Delhi           162.625
       301   03 Jun 2027 11:12:26.188   03 Jun 2027 11:13:11.960            45.772                Irkutsk          1430.375
       302   03 Jun 2027 11:13:20.726   03 Jun 2027 11:14:59.289            98.563                Irkutsk          3080.094
       303   03 Jun 2027 11:15:19.251   03 Jun 2027 11:16:34.617            75.366                Novosib          2355.188
       304   03 Jun 2027 11:16:48.455   03 Jun 2027 11:17:25.764            37.309                Novosib          1165.906
       305   03 Jun 2027 11:17:46.034   03 Jun 2027 11:17:48.746             2.712                 Moscow            84.750
       306   03 Jun 2027 11:20:09.328   03 Jun 2027 11:20:14.135             4.807              Murmansk2           150.219
       307   03 Jun 2027 11:21:58.263   03 Jun 2027 11:22:10.205            11.942              Murmansk1           373.187
       308   03 Jun 2027 11:56:52.666   03 Jun 2027 11:57:48.262            55.596            RioGallegos          1737.375
       309   03 Jun 2027 11:59:02.860   03 Jun 2027 11:59:34.384            31.524            RioGallegos           985.125
       310   03 Jun 2027 12:37:05.308   03 Jun 2027 12:37:54.899            49.591                  Delhi          1549.719
       311   03 Jun 2027 12:43:00.308   03 Jun 2027 12:44:09.812            69.504                Novosib          2172.000
       312   03 Jun 2027 12:44:37.538   03 Jun 2027 12:45:07.080            29.542                Novosib           923.187
       313   03 Jun 2027 12:45:18.165   03 Jun 2027 12:46:54.838            96.673                Novosib          3021.031
       314   03 Jun 2027 12:47:01.632   03 Jun 2027 12:47:15.882            14.250                Norilsk           445.313
       315   03 Jun 2027 12:47:35.121   03 Jun 2027 12:48:09.843            34.722              Murmansk2          1085.062
       316   03 Jun 2027 14:19:15.512   03 Jun 2027 14:22:34.463           198.951                 Moscow          6217.219
       317   03 Jun 2027 14:22:43.797   03 Jun 2027 14:25:37.573           173.776              Murmansk1          5430.500
       318   03 Jun 2027 14:27:08.107   03 Jun 2027 14:28:35.740            87.633                Norilsk          2738.531
       319   03 Jun 2027 15:33:38.809   03 Jun 2027 15:36:49.502           190.693               CapeTown          5959.156
       320   03 Jun 2027 15:56:53.352   03 Jun 2027 15:57:40.873            47.521                 Moscow          1485.031
       321   03 Jun 2027 15:59:56.102   03 Jun 2027 16:00:21.204            25.102              Murmansk2           784.437
       322   03 Jun 2027 16:02:02.018   03 Jun 2027 16:02:21.604            19.586              Murmansk2           612.063
       323   03 Jun 2027 16:03:50.052   03 Jun 2027 16:04:06.857            16.805              Murmansk2           525.156
       324   03 Jun 2027 16:13:43.030   03 Jun 2027 16:13:47.964             4.934                Anadyr2           154.187
       325   03 Jun 2027 16:14:01.775   03 Jun 2027 16:15:21.381            79.606                Anadyr2          2487.687
       326   03 Jun 2027 16:15:23.326   03 Jun 2027 16:15:48.704            25.378                Anadyr1           793.062
       327   03 Jun 2027 16:16:36.271   03 Jun 2027 16:17:04.579            28.308                Anadyr2           884.625
       328   03 Jun 2027 16:18:25.596   03 Jun 2027 16:19:19.030            53.434                Anadyr2          1669.812
       329   03 Jun 2027 17:08:48.955   03 Jun 2027 17:09:39.052            50.097               CapeTown          1565.531
       330   03 Jun 2027 17:39:28.262   03 Jun 2027 17:41:05.136            96.874              Murmansk2          3027.312
       331   03 Jun 2027 17:41:14.638   03 Jun 2027 17:43:41.251           146.613              Murmansk1          4581.656
       332   03 Jun 2027 17:49:19.198   03 Jun 2027 17:50:16.969            57.771                Anadyr2          1805.344
       333   03 Jun 2027 17:52:34.237   03 Jun 2027 17:53:53.475            79.238               Magadan2          2476.187
       334   03 Jun 2027 17:54:52.480   03 Jun 2027 17:55:17.565            25.085               Magadan2           783.906
       335   03 Jun 2027 17:56:03.932   03 Jun 2027 17:56:10.465             6.533               Magadan1           204.156
       336   03 Jun 2027 17:57:44.981   03 Jun 2027 17:58:57.194            72.213               Magadan2          2256.656
       337   03 Jun 2027 19:25:14.553   03 Jun 2027 19:27:07.455           112.902                Anadyr1          3528.188
       338   03 Jun 2027 19:27:19.867   03 Jun 2027 19:28:06.072            46.205                Anadyr2          1443.906
       339   03 Jun 2027 19:28:51.973   03 Jun 2027 19:29:54.287            62.314               Magadan2          1947.312
       340   03 Jun 2027 19:30:22.345   03 Jun 2027 19:31:15.011            52.666               Magadan2          1645.813
       341   03 Jun 2027 19:31:15.011   03 Jun 2027 19:31:28.590            13.579               Magadan1           424.344
       342   03 Jun 2027 19:32:36.216   03 Jun 2027 19:32:41.794             5.578               Magadan1           174.313
       343   03 Jun 2027 19:33:40.792   03 Jun 2027 19:34:31.298            50.506               Magadan2          1578.312
       344   03 Jun 2027 20:22:03.695   03 Jun 2027 20:24:09.521           125.826            RioGallegos          3932.062
       345   03 Jun 2027 21:01:04.796   03 Jun 2027 21:02:26.522            81.726                Anadyr1          2553.938
       346   03 Jun 2027 21:02:56.900   03 Jun 2027 21:03:15.314            18.414                Anadyr1           575.438
       347   03 Jun 2027 21:03:15.753   03 Jun 2027 21:05:52.707           156.954                Norilsk          4904.812
       348   03 Jun 2027 21:06:03.557   03 Jun 2027 21:06:22.188            18.631                Norilsk           582.219
       349   03 Jun 2027 21:06:51.470   03 Jun 2027 21:06:54.852             3.382                Norilsk           105.687
       350   03 Jun 2027 21:08:21.978   03 Jun 2027 21:09:53.062            91.084                Irkutsk          2846.375
       351   03 Jun 2027 21:11:11.643   03 Jun 2027 21:11:25.207            13.564                Irkutsk           423.875
       352   03 Jun 2027 21:23:41.684   03 Jun 2027 21:25:37.169           115.485                Sumatra          3608.906
       353   03 Jun 2027 21:28:35.812   03 Jun 2027 21:29:32.235            56.423                Sumatra          1763.219
       354   03 Jun 2027 22:36:24.773   03 Jun 2027 22:36:33.625             8.852                Anadyr2           276.625
       355   03 Jun 2027 22:37:00.147   03 Jun 2027 22:37:33.876            33.729                Anadyr2          1054.031
       356   03 Jun 2027 22:38:15.167   03 Jun 2027 22:38:54.456            39.289                Anadyr2          1227.781
       357   03 Jun 2027 22:38:58.485   03 Jun 2027 22:39:29.474            30.989                Norilsk           968.406
       358   03 Jun 2027 22:39:33.964   03 Jun 2027 22:39:47.920            13.956               Magadan2           436.125
       359   03 Jun 2027 22:40:05.791   03 Jun 2027 22:40:12.511             6.720               Magadan2           210.000
       360   03 Jun 2027 22:40:18.851   03 Jun 2027 22:40:31.853            13.002               Magadan1           406.313
       361   03 Jun 2027 22:40:32.189   03 Jun 2027 22:40:49.996            17.807                Norilsk           556.469
       362   03 Jun 2027 22:42:54.929   03 Jun 2027 22:44:08.738            73.809                Irkutsk          2306.531
       363   03 Jun 2027 22:44:27.506   03 Jun 2027 22:44:51.093            23.587                Novosib           737.094
       364   03 Jun 2027 22:46:57.105   03 Jun 2027 22:47:27.113            30.008                Novosib           937.750
       365   03 Jun 2027 22:53:05.700   03 Jun 2027 22:53:18.023            12.323                Novosib           385.094
       366   03 Jun 2027 22:54:43.276   03 Jun 2027 22:55:37.789            54.513                  Delhi          1703.531
       367   03 Jun 2027 22:56:06.277   03 Jun 2027 22:56:43.355            37.078                  Delhi          1158.687
       368   03 Jun 2027 23:01:33.908   03 Jun 2027 23:02:31.747            57.839                Sumatra          1807.469
       369   04 Jun 2027 00:10:37.655   04 Jun 2027 00:10:46.621             8.966                Anadyr2           280.188
       370   04 Jun 2027 00:11:36.899   04 Jun 2027 00:12:10.952            34.053                Anadyr1          1064.156
       371   04 Jun 2027 00:12:52.302   04 Jun 2027 00:12:59.773             7.471                Anadyr1           233.469
       372   04 Jun 2027 00:13:06.628   04 Jun 2027 00:13:29.247            22.619                Anadyr2           706.844
       373   04 Jun 2027 00:13:39.796   04 Jun 2027 00:14:01.525            21.729                Anadyr2           679.031
       374   04 Jun 2027 00:14:58.614   04 Jun 2027 00:16:00.690            62.076                Norilsk          1939.875
       375   04 Jun 2027 00:16:09.871   04 Jun 2027 00:16:47.077            37.206                Norilsk          1162.688
       376   04 Jun 2027 00:16:48.177   04 Jun 2027 00:17:20.044            31.867               Magadan1           995.844
       377   04 Jun 2027 00:18:05.350   04 Jun 2027 00:20:57.535           172.185              Murmansk2          5380.781
       378   04 Jun 2027 00:22:34.381   04 Jun 2027 00:22:43.788             9.407              Murmansk1           293.969
       379   04 Jun 2027 00:26:08.967   04 Jun 2027 00:26:33.844            24.877                  Delhi           777.406
       380   04 Jun 2027 00:28:55.026   04 Jun 2027 00:29:02.223             7.197                  Delhi           224.906
       381   04 Jun 2027 00:29:55.467   04 Jun 2027 00:30:08.957            13.490                  Delhi           421.562
       382   04 Jun 2027 00:31:42.128   04 Jun 2027 00:32:10.290            28.162                  Delhi           880.063
       383   04 Jun 2027 00:34:49.465   04 Jun 2027 00:34:51.995             2.530                  Delhi            79.062
       384   04 Jun 2027 00:36:18.147   04 Jun 2027 00:38:22.116           123.969                  Delhi          3874.031
       385   04 Jun 2027 01:43:56.101   04 Jun 2027 01:44:23.031            26.930                Anadyr1           841.563
       386   04 Jun 2027 01:45:11.551   04 Jun 2027 01:45:39.620            28.069                Anadyr1           877.156
       387   04 Jun 2027 01:46:04.930   04 Jun 2027 01:46:36.574            31.644                Anadyr2           988.875
       388   04 Jun 2027 01:49:00.112   04 Jun 2027 01:49:41.040            40.928                Anadyr2          1279.000
       389   04 Jun 2027 01:50:03.683   04 Jun 2027 01:50:44.423            40.740               Magadan2          1273.125
       390   04 Jun 2027 01:50:45.969   04 Jun 2027 01:51:00.999            15.030               Magadan1           469.687
       391   04 Jun 2027 01:51:29.041   04 Jun 2027 01:52:02.836            33.795               Magadan1          1056.094
       392   04 Jun 2027 01:53:09.854   04 Jun 2027 01:55:27.707           137.853              Murmansk1          4307.906
       393   04 Jun 2027 01:59:59.847   04 Jun 2027 02:00:33.155            33.308                 Moscow          1040.875
       394   04 Jun 2027 02:03:32.106   04 Jun 2027 02:03:34.594             2.488                  Delhi            77.750
       395   04 Jun 2027 02:03:47.039   04 Jun 2027 02:04:02.420            15.381                  Delhi           480.656
       396   04 Jun 2027 02:08:39.796   04 Jun 2027 02:08:59.161            19.365                  Delhi           605.156
       397   04 Jun 2027 02:10:01.221   04 Jun 2027 02:11:51.846           110.625                  Delhi          3457.031
       398   04 Jun 2027 03:38:38.979   04 Jun 2027 03:39:56.934            77.955              Murmansk2          2436.094
       399   04 Jun 2027 03:39:56.934   04 Jun 2027 03:40:44.557            47.623              Murmansk1          1488.219
       400   04 Jun 2027 03:56:11.404   04 Jun 2027 03:56:28.469            17.065               CapeTown           533.281
       401   04 Jun 2027 05:00:02.698   04 Jun 2027 05:05:44.131           341.433                Anadyr1         10669.781
       402   04 Jun 2027 06:35:38.992   04 Jun 2027 06:36:20.007            41.015                Anadyr1          1281.719
       403   04 Jun 2027 06:36:30.098   04 Jun 2027 06:37:18.488            48.390               Magadan2          1512.187
       404   04 Jun 2027 06:37:30.685   04 Jun 2027 06:37:42.180            11.495               Magadan1           359.219
       405   04 Jun 2027 06:37:42.180   04 Jun 2027 06:37:44.089             1.909               Magadan2            59.656
       406   04 Jun 2027 06:37:58.425   04 Jun 2027 06:39:20.980            82.555                Anadyr1          2579.844
       407   04 Jun 2027 06:46:54.291   04 Jun 2027 06:47:13.005            18.714                 Moscow           584.812
       408   04 Jun 2027 07:19:35.219   04 Jun 2027 07:20:44.513            69.294            RioGallegos          2165.438
       409   04 Jun 2027 08:09:53.035   04 Jun 2027 08:10:20.795            27.760               Magadan2           867.500
       410   04 Jun 2027 08:10:48.801   04 Jun 2027 08:11:00.797            11.996                Norilsk           374.875
       411   04 Jun 2027 08:11:05.123   04 Jun 2027 08:11:59.544            54.421               Magadan2          1700.656
       412   04 Jun 2027 08:12:12.235   04 Jun 2027 08:13:15.546            63.311                Anadyr1          1978.469
       413   04 Jun 2027 08:13:26.258   04 Jun 2027 08:13:35.590             9.332                Irkutsk           291.625
       414   04 Jun 2027 08:13:44.529   04 Jun 2027 08:14:14.789            30.260                Norilsk           945.625
       415   04 Jun 2027 08:14:34.781   04 Jun 2027 08:14:37.608             2.827               Magadan2            88.344
       416   04 Jun 2027 08:15:11.842   04 Jun 2027 08:15:12.001             0.159                Norilsk             4.969
       417   04 Jun 2027 08:15:13.095   04 Jun 2027 08:15:31.332            18.237                Anadyr1           569.906
       418   04 Jun 2027 08:15:40.256   04 Jun 2027 08:16:13.375            33.119                Novosib          1034.969
       419   04 Jun 2027 08:16:23.611   04 Jun 2027 08:16:31.062             7.451                Norilsk           232.844
       420   04 Jun 2027 08:16:49.318   04 Jun 2027 08:17:13.869            24.551                Norilsk           767.219
       421   04 Jun 2027 08:17:39.357   04 Jun 2027 08:17:40.737             1.380              Murmansk2            43.125
       422   04 Jun 2027 08:20:33.936   04 Jun 2027 08:20:53.865            19.929              Murmansk2           622.781
       423   04 Jun 2027 08:25:54.506   04 Jun 2027 08:26:32.201            37.695              Murmansk2          1177.969
       424   04 Jun 2027 08:52:45.321   04 Jun 2027 08:52:48.402             3.081            RioGallegos            96.281
       425   04 Jun 2027 08:53:10.826   04 Jun 2027 08:53:33.265            22.439            RioGallegos           701.219
       426   04 Jun 2027 09:03:31.629   04 Jun 2027 09:03:49.531            17.902            RioGallegos           559.438
       427   04 Jun 2027 09:29:10.781   04 Jun 2027 09:30:06.665            55.884                Sumatra          1746.375
       428   04 Jun 2027 09:47:20.517   04 Jun 2027 09:49:50.487           149.970               Magadan2          4686.562
       429   04 Jun 2027 09:50:32.886   04 Jun 2027 09:50:52.696            19.810              Murmansk1           619.062
       430   04 Jun 2027 09:50:57.534   04 Jun 2027 09:51:12.989            15.455                Norilsk           482.969
       431   04 Jun 2027 09:51:13.939   04 Jun 2027 09:52:05.479            51.540                Irkutsk          1610.625
       432   04 Jun 2027 09:52:14.403   04 Jun 2027 09:52:42.349            27.946              Murmansk1           873.312
       433   04 Jun 2027 09:52:43.652   04 Jun 2027 09:53:10.986            27.334                Irkutsk           854.187
       434   04 Jun 2027 09:53:11.989   04 Jun 2027 09:53:15.761             3.772                Novosib           117.875
       435   04 Jun 2027 09:53:37.412   04 Jun 2027 09:54:00.162            22.750              Murmansk1           710.937
       436   04 Jun 2027 10:29:24.366   04 Jun 2027 10:29:52.734            28.368            RioGallegos           886.500
       437   04 Jun 2027 10:31:10.509   04 Jun 2027 10:31:12.753             2.244            RioGallegos            70.125
       438   04 Jun 2027 11:02:47.058   04 Jun 2027 11:05:03.965           136.907                Sumatra          4278.344
       439   04 Jun 2027 11:23:20.556   04 Jun 2027 11:24:30.472            69.916                Norilsk          2184.875
       440   04 Jun 2027 11:24:36.956   04 Jun 2027 11:24:50.040            13.084                 Moscow           408.875
       441   04 Jun 2027 11:24:52.540   04 Jun 2027 11:24:55.171             2.631                Norilsk            82.219
       442   04 Jun 2027 11:25:08.506   04 Jun 2027 11:25:17.504             8.998                Irkutsk           281.187
       443   04 Jun 2027 11:25:17.843   04 Jun 2027 11:25:32.110            14.267              Murmansk2           445.844
       444   04 Jun 2027 11:25:35.512   04 Jun 2027 11:26:34.709            59.197              Murmansk1          1849.906
       445   04 Jun 2027 11:26:38.346   04 Jun 2027 11:27:10.488            32.142              Murmansk2          1004.437
       446   04 Jun 2027 11:27:21.871   04 Jun 2027 11:28:32.385            70.514                Novosib          2203.563
       447   04 Jun 2027 11:28:35.603   04 Jun 2027 11:28:58.286            22.683              Murmansk2           708.844
       448   04 Jun 2027 12:47:21.356   04 Jun 2027 12:48:07.090            45.734                  Delhi          1429.187
       449   04 Jun 2027 12:49:00.285   04 Jun 2027 12:49:41.266            40.981                  Delhi          1280.656
       450   04 Jun 2027 12:52:11.170   04 Jun 2027 12:52:18.055             6.885                  Delhi           215.156
       451   04 Jun 2027 12:53:42.010   04 Jun 2027 12:54:54.791            72.781                  Delhi          2274.406
       452   04 Jun 2027 12:55:29.143   04 Jun 2027 12:56:30.935            61.792                Novosib          1931.000
       453   04 Jun 2027 12:57:21.346   04 Jun 2027 12:58:59.453            98.107                Novosib          3065.844
       454   04 Jun 2027 12:59:06.844   04 Jun 2027 12:59:57.070            50.226              Murmansk2          1569.562
       455   04 Jun 2027 13:02:11.985   04 Jun 2027 13:02:34.859            22.874                Norilsk           714.813
       456   04 Jun 2027 13:05:49.832   04 Jun 2027 13:05:56.603             6.771              Murmansk1           211.594
       457   04 Jun 2027 14:31:18.118   04 Jun 2027 14:34:35.521           197.403                 Moscow          6168.844
       458   04 Jun 2027 14:34:48.685   04 Jun 2027 14:38:05.351           196.666              Murmansk2          6145.813
       459   04 Jun 2027 14:40:37.389   04 Jun 2027 14:40:51.018            13.629                Norilsk           425.906
       460   04 Jun 2027 14:42:04.296   04 Jun 2027 14:42:32.605            28.309                Norilsk           884.656
       461   04 Jun 2027 14:43:25.770   04 Jun 2027 14:44:21.647            55.877                Norilsk          1746.156
       462   04 Jun 2027 15:45:21.587   04 Jun 2027 15:46:49.238            87.651               CapeTown          2739.094
       463   04 Jun 2027 15:55:17.826   04 Jun 2027 15:55:22.815             4.989               CapeTown           155.906
       464   04 Jun 2027 15:55:38.830   04 Jun 2027 15:56:22.795            43.965               CapeTown          1373.906
       465   04 Jun 2027 16:09:26.420   04 Jun 2027 16:09:54.828            28.408                 Moscow           887.750
       466   04 Jun 2027 16:12:16.008   04 Jun 2027 16:13:02.615            46.607              Murmansk2          1456.469
       467   04 Jun 2027 16:14:03.396   04 Jun 2027 16:14:23.466            20.070              Murmansk1           627.188
       468   04 Jun 2027 16:15:47.607   04 Jun 2027 16:16:08.841            21.234              Murmansk2           663.563
       469   04 Jun 2027 16:25:39.337   04 Jun 2027 16:27:40.850           121.513                Anadyr1          3797.281
       470   04 Jun 2027 16:30:00.390   04 Jun 2027 16:30:14.301            13.911                Anadyr2           434.719
       471   04 Jun 2027 16:30:56.149   04 Jun 2027 16:31:20.141            23.992                Anadyr2           749.750
       472   04 Jun 2027 16:31:31.287   04 Jun 2027 16:31:37.860             6.573                Anadyr1           205.406
       473   04 Jun 2027 16:34:17.607   04 Jun 2027 16:34:34.740            17.133                Anadyr1           535.406
       474   04 Jun 2027 17:20:58.320   04 Jun 2027 17:21:58.750            60.430               CapeTown          1888.438
       475   04 Jun 2027 17:29:25.062   04 Jun 2027 17:29:38.194            13.132               CapeTown           410.375
       476   04 Jun 2027 17:30:24.548   04 Jun 2027 17:30:42.559            18.011               CapeTown           562.844
       477   04 Jun 2027 17:52:11.131   04 Jun 2027 17:55:36.197           205.066              Murmansk2          6408.313
       478   04 Jun 2027 17:55:36.197   04 Jun 2027 17:56:06.465            30.268              Murmansk1           945.875
       479   04 Jun 2027 18:01:20.236   04 Jun 2027 18:01:43.765            23.529                Anadyr2           735.281
       480   04 Jun 2027 18:02:39.532   04 Jun 2027 18:02:42.968             3.436                Anadyr1           107.375
       481   04 Jun 2027 18:04:16.743   04 Jun 2027 18:04:26.051             9.308                Anadyr2           290.875
       482   04 Jun 2027 18:04:39.938   04 Jun 2027 18:05:07.290            27.352                Anadyr2           854.750
