uniorb/output/strategy_2/Drop/Drop_KinoSat_111505.txt

KinoSat_111505
-------------------------
    Access    *     Start Time (UTCG)     *     Stop Time (UTCG)  *   Duration (s)        *       Station  *  Data (Mbytes)
         1   01 Jun 2027 03:21:27.459   01 Jun 2027 03:21:46.557            19.098              Murmansk1           596.812
         2   01 Jun 2027 03:22:14.639   01 Jun 2027 03:23:45.783            91.144              Murmansk1          2848.250
         3   01 Jun 2027 03:23:50.570   01 Jun 2027 03:24:07.881            17.311                Novosib           540.969
         4   01 Jun 2027 03:24:31.186   01 Jun 2027 03:25:08.315            37.129              Murmansk2          1160.281
         5   01 Jun 2027 03:25:08.315   01 Jun 2027 03:25:47.702            39.387              Murmansk1          1230.844
         6   01 Jun 2027 03:28:13.888   01 Jun 2027 03:29:25.193            71.305                 Moscow          2228.281
         7   01 Jun 2027 03:42:47.775   01 Jun 2027 03:45:36.524           168.749               CapeTown          5273.406
         8   01 Jun 2027 04:38:23.644   01 Jun 2027 04:39:47.935            84.291                Anadyr1          2634.094
         9   01 Jun 2027 04:43:37.438   01 Jun 2027 04:44:13.122            35.684               Magadan2          1115.125
        10   01 Jun 2027 04:59:10.582   01 Jun 2027 05:00:28.213            77.631              Murmansk2          2425.969
        11   01 Jun 2027 06:20:47.538   01 Jun 2027 06:22:36.700           109.162               Magadan1          3411.313
        12   01 Jun 2027 06:22:47.962   01 Jun 2027 06:25:43.462           175.500                Anadyr1          5484.375
        13   01 Jun 2027 07:58:51.927   01 Jun 2027 07:59:24.178            32.251               Magadan1          1007.844
        14   01 Jun 2027 07:59:41.347   01 Jun 2027 07:59:54.332            12.985                Norilsk           405.781
        15   01 Jun 2027 07:59:54.365   01 Jun 2027 08:01:10.490            76.125                Anadyr2          2378.906
        16   01 Jun 2027 08:01:10.490   01 Jun 2027 08:02:31.093            80.603                Anadyr1          2518.844
        17   01 Jun 2027 08:02:33.635   01 Jun 2027 08:02:35.732             2.097               Magadan1            65.531
        18   01 Jun 2027 09:33:06.085   01 Jun 2027 09:34:11.450            65.365                Irkutsk          2042.656
        19   01 Jun 2027 09:34:18.042   01 Jun 2027 09:35:31.114            73.072                Irkutsk          2283.500
        20   01 Jun 2027 09:35:43.491   01 Jun 2027 09:35:59.853            16.362                Irkutsk           511.313
        21   01 Jun 2027 09:36:46.386   01 Jun 2027 09:38:00.161            73.775               Magadan2          2305.469
        22   01 Jun 2027 09:38:13.055   01 Jun 2027 09:39:10.458            57.403                Novosib          1793.844
        23   01 Jun 2027 09:40:38.297   01 Jun 2027 09:41:15.286            36.989                Norilsk          1155.906
        24   01 Jun 2027 10:13:00.144   01 Jun 2027 10:15:33.634           153.490            RioGallegos          4796.562
        25   01 Jun 2027 10:48:37.330   01 Jun 2027 10:49:52.530            75.200                Sumatra          2350.000
        26   01 Jun 2027 11:09:37.812   01 Jun 2027 11:11:44.147           126.335                Novosib          3947.969
        27   01 Jun 2027 11:12:09.479   01 Jun 2027 11:12:32.316            22.837                Norilsk           713.656
        28   01 Jun 2027 11:12:39.477   01 Jun 2027 11:15:47.198           187.721              Murmansk2          5866.281
        29   01 Jun 2027 11:17:07.629   01 Jun 2027 11:17:17.112             9.483              Murmansk2           296.344
        30   01 Jun 2027 11:50:29.183   01 Jun 2027 11:51:26.766            57.583            RioGallegos          1799.469
        31   01 Jun 2027 11:52:57.032   01 Jun 2027 11:54:12.306            75.274            RioGallegos          2352.312
        32   01 Jun 2027 12:00:03.784   01 Jun 2027 12:00:30.467            26.683            RioGallegos           833.844
        33   01 Jun 2027 12:24:41.996   01 Jun 2027 12:28:11.366           209.370                Sumatra          6542.813
        34   01 Jun 2027 12:39:04.506   01 Jun 2027 12:39:42.253            37.747                Novosib          1179.594
        35   01 Jun 2027 12:40:08.438   01 Jun 2027 12:41:24.387            75.949                Irkutsk          2373.406
        36   01 Jun 2027 12:42:29.239   01 Jun 2027 12:44:39.691           130.452                Irkutsk          4076.625
        37   01 Jun 2027 14:09:50.029   01 Jun 2027 14:14:46.295           296.266                  Delhi          9258.313
        38   01 Jun 2027 14:18:19.476   01 Jun 2027 14:19:45.050            85.574                Novosib          2674.187
        39   01 Jun 2027 14:21:44.210   01 Jun 2027 14:21:58.437            14.227                Norilsk           444.594
        40   01 Jun 2027 14:22:06.654   01 Jun 2027 14:23:05.019            58.365                Novosib          1823.906
        41   01 Jun 2027 14:23:43.555   01 Jun 2027 14:24:30.294            46.739                Norilsk          1460.594
        42   01 Jun 2027 15:52:44.049   01 Jun 2027 15:54:30.128           106.079                 Moscow          3314.969
        43   01 Jun 2027 15:56:13.955   01 Jun 2027 15:57:57.647           103.692              Murmansk1          3240.375
        44   01 Jun 2027 15:58:59.710   01 Jun 2027 15:59:36.158            36.448              Murmansk1          1139.000
        45   01 Jun 2027 16:04:13.375   01 Jun 2027 16:05:20.754            67.379                Norilsk          2105.594
        46   01 Jun 2027 16:11:43.903   01 Jun 2027 16:12:55.289            71.386                Anadyr1          2230.813
        47   01 Jun 2027 17:06:01.335   01 Jun 2027 17:08:03.553           122.218               CapeTown          3819.312
        48   01 Jun 2027 17:32:34.022   01 Jun 2027 17:33:20.301            46.279                 Moscow          1446.219
        49   01 Jun 2027 17:34:23.918   01 Jun 2027 17:36:10.340           106.422              Murmansk1          3325.687
        50   01 Jun 2027 17:36:40.168   01 Jun 2027 17:37:08.038            27.870                 Moscow           870.938
        51   01 Jun 2027 17:38:50.499   01 Jun 2027 17:39:16.185            25.686              Murmansk1           802.687
        52   01 Jun 2027 17:39:37.702   01 Jun 2027 17:40:29.260            51.558              Murmansk2          1611.188
        53   01 Jun 2027 17:47:19.374   01 Jun 2027 17:47:25.323             5.949                Anadyr1           185.906
        54   01 Jun 2027 17:47:39.973   01 Jun 2027 17:48:14.244            34.271                Anadyr1          1070.969
        55   01 Jun 2027 17:48:22.945   01 Jun 2027 17:48:41.146            18.201                Anadyr1           568.781
        56   01 Jun 2027 18:42:46.288   01 Jun 2027 18:44:02.304            76.016               CapeTown          2375.500
        57   01 Jun 2027 18:45:25.755   01 Jun 2027 18:45:58.076            32.321               CapeTown          1010.031
        58   01 Jun 2027 18:46:57.519   01 Jun 2027 18:47:46.536            49.017               CapeTown          1531.781
        59   01 Jun 2027 19:15:38.422   01 Jun 2027 19:19:22.943           224.521              Murmansk1          7016.281
        60   01 Jun 2027 19:25:04.831   01 Jun 2027 19:26:11.969            67.138               Magadan1          2098.062
        61   01 Jun 2027 19:26:11.969   01 Jun 2027 19:26:27.138            15.169               Magadan2           474.031
        62   01 Jun 2027 19:26:36.842   01 Jun 2027 19:27:23.371            46.529               Magadan1          1454.031
        63   01 Jun 2027 19:28:28.468   01 Jun 2027 19:28:57.567            29.099               Magadan1           909.344
        64   01 Jun 2027 19:29:51.024   01 Jun 2027 19:30:17.511            26.487               Magadan1           827.719
        65   01 Jun 2027 20:58:23.574   01 Jun 2027 21:00:29.198           125.624                Anadyr2          3925.750
        66   01 Jun 2027 21:00:39.815   01 Jun 2027 21:03:55.303           195.488               Magadan2          6109.000
        67   01 Jun 2027 21:03:55.303   01 Jun 2027 21:05:34.196            98.893               Magadan1          3090.406
        68   01 Jun 2027 21:53:04.845   01 Jun 2027 21:56:08.283           183.438            RioGallegos          5732.437
        69   01 Jun 2027 22:34:04.226   01 Jun 2027 22:34:25.874            21.648                Anadyr1           676.500
        70   01 Jun 2027 22:35:27.858   01 Jun 2027 22:35:43.295            15.437                Anadyr1           482.406
        71   01 Jun 2027 22:35:57.048   01 Jun 2027 22:36:20.396            23.348                Anadyr1           729.625
        72   01 Jun 2027 22:36:40.629   01 Jun 2027 22:38:29.416           108.787                Norilsk          3399.594
        73   01 Jun 2027 22:38:32.132   01 Jun 2027 22:38:36.500             4.368               Magadan2           136.500
        74   01 Jun 2027 22:38:58.166   01 Jun 2027 22:39:30.001            31.835               Magadan2           994.844
        75   01 Jun 2027 22:39:45.113   01 Jun 2027 22:40:00.804            15.691               Magadan1           490.344
        76   01 Jun 2027 22:40:32.505   01 Jun 2027 22:41:47.392            74.887                Irkutsk          2340.219
        77   01 Jun 2027 22:43:46.676   01 Jun 2027 22:45:32.885           106.209                Novosib          3319.031
        78   01 Jun 2027 22:54:26.964   01 Jun 2027 22:56:01.467            94.503                Sumatra          2953.219
        79   01 Jun 2027 22:56:34.336   01 Jun 2027 22:57:41.777            67.441                Sumatra          2107.531
        80   02 Jun 2027 00:08:57.546   02 Jun 2027 00:09:46.013            48.467                Anadyr1          1514.594
        81   02 Jun 2027 00:11:13.840   02 Jun 2027 00:11:27.268            13.428                Anadyr1           419.625
        82   02 Jun 2027 00:11:36.557   02 Jun 2027 00:11:50.861            14.304                Anadyr1           447.000
        83   02 Jun 2027 00:12:09.366   02 Jun 2027 00:12:19.213             9.847                Norilsk           307.719
        84   02 Jun 2027 00:12:48.904   02 Jun 2027 00:15:30.920           162.016               Magadan1          5063.000
        85   02 Jun 2027 00:16:01.336   02 Jun 2027 00:17:07.448            66.112                Irkutsk          2066.000
        86   02 Jun 2027 00:18:14.567   02 Jun 2027 00:19:27.006            72.439                Novosib          2263.719
        87   02 Jun 2027 00:24:20.033   02 Jun 2027 00:27:15.929           175.896                  Delhi          5496.750
        88   02 Jun 2027 01:05:35.211   02 Jun 2027 01:05:57.340            22.129            RioGallegos           691.531
        89   02 Jun 2027 01:42:37.508   02 Jun 2027 01:44:08.620            91.112                Anadyr1          2847.250
        90   02 Jun 2027 01:44:57.060   02 Jun 2027 01:45:20.686            23.626                Anadyr1           738.313
        91   02 Jun 2027 01:48:30.865   02 Jun 2027 01:49:38.153            67.288               Magadan2          2102.750
        92   02 Jun 2027 01:50:04.722   02 Jun 2027 01:50:12.758             8.036                Norilsk           251.125
        93   02 Jun 2027 01:50:27.776   02 Jun 2027 01:51:45.327            77.551               Magadan2          2423.469
        94   02 Jun 2027 01:51:54.000   02 Jun 2027 01:52:03.992             9.992              Murmansk1           312.250
        95   02 Jun 2027 01:52:26.669   02 Jun 2027 01:54:03.565            96.896                Novosib          3028.000
        96   02 Jun 2027 01:57:26.466   02 Jun 2027 01:58:32.454            65.988                 Moscow          2062.125
        97   02 Jun 2027 01:59:25.101   02 Jun 2027 02:00:05.170            40.069                  Delhi          1252.156
        98   02 Jun 2027 02:43:49.761   02 Jun 2027 02:44:14.884            25.123            RioGallegos           785.094
        99   02 Jun 2027 03:17:24.732   02 Jun 2027 03:17:38.639            13.907                Anadyr2           434.594
       100   02 Jun 2027 03:34:12.800   02 Jun 2027 03:35:10.550            57.750              Murmansk1          1804.687
       101   02 Jun 2027 03:35:41.285   02 Jun 2027 03:35:52.526            11.241              Murmansk1           351.281
       102   02 Jun 2027 03:36:00.340   02 Jun 2027 03:37:32.487            92.147                Novosib          2879.594
       103   02 Jun 2027 03:37:34.027   02 Jun 2027 03:38:31.994            57.967                 Moscow          1811.469
       104   02 Jun 2027 03:39:06.799   02 Jun 2027 03:41:51.214           164.415                 Moscow          5137.969
       105   02 Jun 2027 03:54:21.270   02 Jun 2027 04:00:57.970           396.700               CapeTown         12396.875
       106   02 Jun 2027 04:50:18.382   02 Jun 2027 04:51:12.421            54.039                Anadyr2          1688.719
       107   02 Jun 2027 05:10:26.997   02 Jun 2027 05:10:27.443             0.446                Norilsk            13.938
       108   02 Jun 2027 05:10:39.056   02 Jun 2027 05:10:48.324             9.268              Murmansk1           289.625
       109   02 Jun 2027 05:10:48.324   02 Jun 2027 05:11:18.727            30.403              Murmansk2           950.094
       110   02 Jun 2027 05:11:58.963   02 Jun 2027 05:11:59.346             0.383                 Moscow            11.969
       111   02 Jun 2027 05:12:43.862   02 Jun 2027 05:13:19.017            35.155              Murmansk1          1098.594
       112   02 Jun 2027 05:13:54.562   02 Jun 2027 05:14:08.102            13.540              Murmansk1           423.125
       113   02 Jun 2027 05:15:06.798   02 Jun 2027 05:15:12.078             5.280              Murmansk2           165.000
       114   02 Jun 2027 06:32:44.999   02 Jun 2027 06:34:36.912           111.913               Magadan2          3497.281
       115   02 Jun 2027 06:34:51.662   02 Jun 2027 06:36:46.665           115.003               Magadan1          3593.844
       116   02 Jun 2027 08:09:51.089   02 Jun 2027 08:10:25.905            34.816               Magadan1          1088.000
       117   02 Jun 2027 08:11:24.134   02 Jun 2027 08:11:40.245            16.111                Norilsk           503.469
       118   02 Jun 2027 08:11:49.372   02 Jun 2027 08:14:32.567           163.195                Anadyr2          5099.844
       119   02 Jun 2027 08:51:55.361   02 Jun 2027 08:52:09.728            14.367            RioGallegos           448.969
       120   02 Jun 2027 09:43:37.437   02 Jun 2027 09:44:58.651            81.214               Magadan2          2537.938
       121   02 Jun 2027 09:45:25.558   02 Jun 2027 09:45:51.977            26.419               Magadan1           825.594
       122   02 Jun 2027 09:46:04.807   02 Jun 2027 09:49:51.318           226.511               Magadan2          7078.469
       123   02 Jun 2027 09:50:06.807   02 Jun 2027 09:51:03.551            56.744              Murmansk1          1773.250
       124   02 Jun 2027 10:25:00.356   02 Jun 2027 10:26:03.875            63.519            RioGallegos          1984.969
       125   02 Jun 2027 11:00:18.420   02 Jun 2027 11:02:12.320           113.900                Sumatra          3559.375
       126   02 Jun 2027 11:21:03.460   02 Jun 2027 11:21:09.413             5.953                Novosib           186.031
       127   02 Jun 2027 11:21:28.848   02 Jun 2027 11:21:35.809             6.961                Novosib           217.531
       128   02 Jun 2027 11:21:37.572   02 Jun 2027 11:22:01.449            23.877                Novosib           746.156
       129   02 Jun 2027 11:22:24.453   02 Jun 2027 11:23:17.896            53.443                Irkutsk          1670.094
       130   02 Jun 2027 11:23:22.300   02 Jun 2027 11:23:30.084             7.784              Murmansk1           243.250
       131   02 Jun 2027 11:23:34.361   02 Jun 2027 11:24:09.021            34.660              Murmansk1          1083.125
       132   02 Jun 2027 11:24:11.380   02 Jun 2027 11:24:58.281            46.901                Norilsk          1465.656
       133   02 Jun 2027 11:25:01.330   02 Jun 2027 11:25:44.913            43.583                Novosib          1361.969
       134   02 Jun 2027 11:25:47.192   02 Jun 2027 11:26:13.895            26.703                Norilsk           834.469
       135   02 Jun 2027 11:28:02.391   02 Jun 2027 11:29:06.631            64.240              Murmansk2          2007.500
       136   02 Jun 2027 12:03:03.826   02 Jun 2027 12:03:30.561            26.735            RioGallegos           835.469
       137   02 Jun 2027 12:37:18.366   02 Jun 2027 12:37:30.318            11.952                Sumatra           373.500
       138   02 Jun 2027 12:38:57.371   02 Jun 2027 12:40:15.551            78.180                Sumatra          2443.125
       139   02 Jun 2027 12:51:00.963   02 Jun 2027 12:52:12.942            71.979                  Delhi          2249.344
       140   02 Jun 2027 12:52:28.598   02 Jun 2027 12:54:06.469            97.871                Novosib          3058.469
       141   02 Jun 2027 12:55:55.612   02 Jun 2027 12:56:39.511            43.899                Norilsk          1371.844
       142   02 Jun 2027 13:01:05.048   02 Jun 2027 13:01:49.633            44.585              Murmansk2          1393.281
       143   02 Jun 2027 14:22:45.411   02 Jun 2027 14:25:03.684           138.273                  Delhi          4321.031
       144   02 Jun 2027 14:27:14.977   02 Jun 2027 14:27:20.555             5.578                  Delhi           174.312
       145   02 Jun 2027 14:29:41.175   02 Jun 2027 14:30:25.097            43.922                 Moscow          1372.563
       146   02 Jun 2027 14:31:16.593   02 Jun 2027 14:34:06.075           169.482                Novosib          5296.313
       147   02 Jun 2027 14:34:17.151   02 Jun 2027 14:34:45.020            27.869                Norilsk           870.906
       148   02 Jun 2027 14:35:45.310   02 Jun 2027 14:36:06.168            20.858                Norilsk           651.813
       149   02 Jun 2027 14:37:14.280   02 Jun 2027 14:37:40.080            25.800                Norilsk           806.250
       150   02 Jun 2027 14:38:18.546   02 Jun 2027 14:39:26.575            68.029                Norilsk          2125.906
       151   02 Jun 2027 15:45:03.906   02 Jun 2027 15:46:17.092            73.186               CapeTown          2287.062
       152   02 Jun 2027 16:04:58.443   02 Jun 2027 16:05:47.837            49.394                 Moscow          1543.563
       153   02 Jun 2027 16:08:25.299   02 Jun 2027 16:09:11.663            46.364              Murmansk2          1448.875
       154   02 Jun 2027 16:09:31.186   02 Jun 2027 16:10:57.703            86.517              Murmansk1          2703.656
       155   02 Jun 2027 16:23:28.146   02 Jun 2027 16:24:28.031            59.885                Anadyr1          1871.406
       156   02 Jun 2027 16:24:37.825   02 Jun 2027 16:25:55.178            77.353                Anadyr2          2417.281
       157   02 Jun 2027 17:17:58.585   02 Jun 2027 17:18:41.921            43.336               CapeTown          1354.250
       158   02 Jun 2027 17:19:41.104   02 Jun 2027 17:20:20.207            39.103               CapeTown          1221.969
       159   02 Jun 2027 17:45:44.772   02 Jun 2027 17:49:34.195           229.423                 Moscow          7169.469
       160   02 Jun 2027 17:59:30.143   02 Jun 2027 18:00:15.578            45.435                Anadyr2          1419.844
       161   02 Jun 2027 18:00:25.154   02 Jun 2027 18:00:44.343            19.189                Anadyr2           599.656
       162   02 Jun 2027 18:00:53.911   02 Jun 2027 18:01:00.429             6.518                Anadyr2           203.687
       163   02 Jun 2027 18:02:19.556   02 Jun 2027 18:02:29.394             9.838                Anadyr1           307.438
       164   02 Jun 2027 18:03:45.675   02 Jun 2027 18:05:52.070           126.395               Magadan1          3949.844
       165   02 Jun 2027 19:29:04.044   02 Jun 2027 19:31:00.099           116.055              Murmansk1          3626.719
       166   02 Jun 2027 19:34:29.532   02 Jun 2027 19:36:11.271           101.739                Anadyr1          3179.344
       167   02 Jun 2027 19:37:00.706   02 Jun 2027 19:39:26.075           145.369               Magadan2          4542.781
       168   02 Jun 2027 19:42:37.148   02 Jun 2027 19:43:00.676            23.528               Magadan2           735.250
       169   02 Jun 2027 21:10:24.541   02 Jun 2027 21:14:09.912           225.371                Anadyr2          7042.844
       170   02 Jun 2027 21:14:52.790   02 Jun 2027 21:16:21.007            88.217                Norilsk          2756.781
       171   02 Jun 2027 21:16:39.419   02 Jun 2027 21:16:45.678             6.259               Magadan1           195.594
       172   02 Jun 2027 21:16:45.678   02 Jun 2027 21:18:36.142           110.464               Magadan2          3452.000
       173   02 Jun 2027 21:22:19.695   02 Jun 2027 21:22:48.077            28.382               Magadan1           886.938
       174   02 Jun 2027 21:23:33.262   02 Jun 2027 21:24:33.109            59.847               Magadan1          1870.219
       175   02 Jun 2027 22:04:51.573   02 Jun 2027 22:07:04.571           132.998            RioGallegos          4156.187
       176   02 Jun 2027 22:13:43.087   02 Jun 2027 22:14:17.830            34.743            RioGallegos          1085.719
       177   02 Jun 2027 22:46:01.384   02 Jun 2027 22:46:27.574            26.190                Anadyr2           818.438
       178   02 Jun 2027 22:47:44.673   02 Jun 2027 22:47:57.637            12.964                Anadyr2           405.125
       179   02 Jun 2027 22:48:14.157   02 Jun 2027 22:48:23.430             9.273                Norilsk           289.781
       180   02 Jun 2027 22:48:44.686   02 Jun 2027 22:50:34.742           110.056               Magadan2          3439.250
       181   02 Jun 2027 22:51:54.750   02 Jun 2027 22:52:32.750            38.000               Magadan2          1187.500
       182   02 Jun 2027 22:52:46.025   02 Jun 2027 22:53:58.260            72.235                Irkutsk          2257.344
       183   02 Jun 2027 22:54:32.675   02 Jun 2027 22:54:48.193            15.518                Novosib           484.938
       184   02 Jun 2027 22:55:03.977   02 Jun 2027 22:55:25.357            21.380                Novosib           668.125
       185   02 Jun 2027 22:55:46.239   02 Jun 2027 22:57:10.100            83.861                Novosib          2620.656
       186   02 Jun 2027 23:06:11.557   02 Jun 2027 23:06:51.308            39.751                Sumatra          1242.219
       187   02 Jun 2027 23:14:07.230   02 Jun 2027 23:15:38.214            90.984                Sumatra          2843.250
       188   03 Jun 2027 00:20:45.871   03 Jun 2027 00:21:32.275            46.404                Anadyr2          1450.125
       189   03 Jun 2027 00:21:44.162   03 Jun 2027 00:22:13.838            29.676                Anadyr1           927.375
       190   03 Jun 2027 00:23:22.880   03 Jun 2027 00:23:35.577            12.697                Anadyr2           396.781
       191   03 Jun 2027 00:24:11.600   03 Jun 2027 00:24:18.149             6.549                Norilsk           204.656
       192   03 Jun 2027 00:24:51.361   03 Jun 2027 00:26:20.670            89.309               Magadan1          2790.906
       193   03 Jun 2027 00:27:47.613   03 Jun 2027 00:28:09.351            21.738               Magadan1           679.313
       194   03 Jun 2027 00:28:11.945   03 Jun 2027 00:30:33.958           142.013                Novosib          4437.906
       195   03 Jun 2027 00:33:00.772   03 Jun 2027 00:33:45.589            44.817                Novosib          1400.531
       196   03 Jun 2027 00:35:59.840   03 Jun 2027 00:37:07.903            68.063                  Delhi          2126.969
       197   03 Jun 2027 00:42:07.052   03 Jun 2027 00:42:26.828            19.776                  Delhi           618.000
       198   03 Jun 2027 00:46:43.319   03 Jun 2027 00:47:32.698            49.379                  Delhi          1543.094
       199   03 Jun 2027 01:19:03.335   03 Jun 2027 01:19:16.861            13.526            RioGallegos           422.688
       200   03 Jun 2027 01:21:04.432   03 Jun 2027 01:22:00.176            55.744            RioGallegos          1742.000
       201   03 Jun 2027 01:54:18.656   03 Jun 2027 01:55:15.016            56.360                Anadyr1          1761.250
       202   03 Jun 2027 01:55:28.192   03 Jun 2027 01:56:09.977            41.785                Anadyr2          1305.781
       203   03 Jun 2027 02:00:11.278   03 Jun 2027 02:01:41.785            90.507                Norilsk          2828.344
       204   03 Jun 2027 02:02:32.289   03 Jun 2027 02:04:05.073            92.784              Murmansk2          2899.500
       205   03 Jun 2027 02:04:06.347   03 Jun 2027 02:05:05.160            58.813              Murmansk1          1837.906
       206   03 Jun 2027 02:09:27.821   03 Jun 2027 02:09:35.175             7.354                 Moscow           229.812
       207   03 Jun 2027 02:10:15.983   03 Jun 2027 02:10:42.560            26.577                 Moscow           830.531
       208   03 Jun 2027 02:12:26.252   03 Jun 2027 02:13:22.671            56.419                  Delhi          1763.094
       209   03 Jun 2027 02:20:09.722   03 Jun 2027 02:21:23.381            73.659                  Delhi          2301.844
       210   03 Jun 2027 03:46:27.689   03 Jun 2027 03:47:54.290            86.601              Murmansk2          2706.281
       211   03 Jun 2027 03:48:16.442   03 Jun 2027 03:48:58.717            42.275              Murmansk2          1321.094
       212   03 Jun 2027 03:49:03.064   03 Jun 2027 03:49:47.976            44.912                 Moscow          1403.500
       213   03 Jun 2027 03:49:53.168   03 Jun 2027 03:50:16.545            23.377                 Moscow           730.531
       214   03 Jun 2027 03:51:11.283   03 Jun 2027 03:54:06.320           175.037                 Moscow          5469.906
       215   03 Jun 2027 04:06:00.940   03 Jun 2027 04:09:15.567           194.627               CapeTown          6082.094
       216   03 Jun 2027 04:10:09.551   03 Jun 2027 04:10:10.691             1.140               CapeTown            35.625
       217   03 Jun 2027 04:12:10.920   03 Jun 2027 04:15:23.138           192.218               CapeTown          6006.813
       218   03 Jun 2027 05:09:45.683   03 Jun 2027 05:10:55.708            70.025                Anadyr2          2188.281
       219   03 Jun 2027 05:21:22.109   03 Jun 2027 05:21:37.250            15.141                 Moscow           473.156
       220   03 Jun 2027 05:21:46.899   03 Jun 2027 05:22:07.331            20.432              Murmansk2           638.500
       221   03 Jun 2027 05:22:31.287   03 Jun 2027 05:22:46.329            15.042              Murmansk2           470.062
       222   03 Jun 2027 05:22:57.836   03 Jun 2027 05:23:39.867            42.031                 Moscow          1313.469
       223   03 Jun 2027 05:25:41.721   03 Jun 2027 05:25:49.663             7.942              Murmansk2           248.188
       224   03 Jun 2027 05:26:53.901   03 Jun 2027 05:27:14.711            20.810              Murmansk2           650.313
       225   03 Jun 2027 05:29:09.580   03 Jun 2027 05:29:14.557             4.977                 Moscow           155.531
       226   03 Jun 2027 05:29:34.508   03 Jun 2027 05:29:58.450            23.942                 Moscow           748.188
       227   03 Jun 2027 05:42:11.689   03 Jun 2027 05:42:47.959            36.270               CapeTown          1133.437
       228   03 Jun 2027 05:47:20.842   03 Jun 2027 05:47:32.328            11.486               CapeTown           358.937
       229   03 Jun 2027 06:43:30.864   03 Jun 2027 06:43:46.409            15.545               Magadan2           485.781
       230   03 Jun 2027 06:44:14.103   03 Jun 2027 06:45:07.154            53.051                Anadyr2          1657.844
       231   03 Jun 2027 06:45:18.617   03 Jun 2027 06:46:36.583            77.966               Magadan2          2436.437
       232   03 Jun 2027 06:46:54.642   03 Jun 2027 06:47:30.857            36.215               Magadan1          1131.719
       233   03 Jun 2027 06:47:30.857   03 Jun 2027 06:47:39.077             8.220               Magadan2           256.875
       234   03 Jun 2027 06:50:23.190   03 Jun 2027 06:50:31.740             8.550               Magadan1           267.188
       235   03 Jun 2027 06:51:41.856   03 Jun 2027 06:53:01.944            80.088              Murmansk2          2502.750
       236   03 Jun 2027 07:31:46.524   03 Jun 2027 07:32:17.851            31.327            RioGallegos           978.969
       237   03 Jun 2027 08:19:08.838   03 Jun 2027 08:19:32.996            24.158                Irkutsk           754.938
       238   03 Jun 2027 08:20:17.621   03 Jun 2027 08:21:22.973            65.352                Anadyr1          2042.250
       239   03 Jun 2027 08:21:38.768   03 Jun 2027 08:21:41.208             2.440               Magadan2            76.250
       240   03 Jun 2027 08:22:40.325   03 Jun 2027 08:23:58.025            77.700                Anadyr1          2428.125
       241   03 Jun 2027 08:24:10.046   03 Jun 2027 08:24:16.317             6.271               Magadan2           195.969
       242   03 Jun 2027 08:24:27.013   03 Jun 2027 08:24:56.006            28.993               Magadan1           906.031
       243   03 Jun 2027 08:25:11.377   03 Jun 2027 08:26:26.296            74.919                Anadyr1          2341.219
       244   03 Jun 2027 09:04:03.777   03 Jun 2027 09:04:19.283            15.506            RioGallegos           484.562
       245   03 Jun 2027 09:54:51.119   03 Jun 2027 09:56:59.217           128.098               Magadan2          4003.063
       246   03 Jun 2027 09:57:58.015   03 Jun 2027 09:58:55.376            57.361               Magadan2          1792.531
       247   03 Jun 2027 09:59:25.656   03 Jun 2027 10:01:39.335           133.679               Magadan2          4177.469
       248   03 Jun 2027 10:01:52.281   03 Jun 2027 10:02:18.082            25.801                Irkutsk           806.281
       249   03 Jun 2027 10:02:25.747   03 Jun 2027 10:03:06.738            40.991              Murmansk2          1280.969
       250   03 Jun 2027 10:07:18.422   03 Jun 2027 10:07:24.016             5.594              Murmansk1           174.813
       251   03 Jun 2027 10:37:03.944   03 Jun 2027 10:37:56.520            52.576            RioGallegos          1643.000
       252   03 Jun 2027 11:12:06.274   03 Jun 2027 11:12:46.330            40.056                Sumatra          1251.750
       253   03 Jun 2027 11:14:40.791   03 Jun 2027 11:14:58.595            17.804                Sumatra           556.375
       254   03 Jun 2027 11:19:03.985   03 Jun 2027 11:19:49.971            45.986                Sumatra          1437.063
       255   03 Jun 2027 11:32:03.226   03 Jun 2027 11:32:14.487            11.261                Irkutsk           351.906
       256   03 Jun 2027 11:32:20.063   03 Jun 2027 11:32:29.527             9.464                Norilsk           295.750
       257   03 Jun 2027 11:32:38.915   03 Jun 2027 11:34:36.200           117.285                Irkutsk          3665.156
       258   03 Jun 2027 11:34:46.756   03 Jun 2027 11:35:29.403            42.647                Norilsk          1332.719
       259   03 Jun 2027 11:35:39.431   03 Jun 2027 11:36:04.208            24.777                Novosib           774.281
       260   03 Jun 2027 11:36:07.646   03 Jun 2027 11:36:40.327            32.681              Murmansk1          1021.281
       261   03 Jun 2027 11:36:44.315   03 Jun 2027 11:37:48.595            64.280                Novosib          2008.750
       262   03 Jun 2027 11:37:59.358   03 Jun 2027 11:38:02.275             2.917              Murmansk2            91.156
       263   03 Jun 2027 11:38:10.981   03 Jun 2027 11:38:14.045             3.064                Irkutsk            95.750
       264   03 Jun 2027 11:38:17.765   03 Jun 2027 11:38:40.853            23.088                Novosib           721.500
       265   03 Jun 2027 11:38:43.422   03 Jun 2027 11:39:13.391            29.969              Murmansk2           936.531
       266   03 Jun 2027 12:15:46.067   03 Jun 2027 12:16:20.599            34.532            RioGallegos          1079.125
       267   03 Jun 2027 12:17:57.851   03 Jun 2027 12:20:16.466           138.615            RioGallegos          4331.719
       268   03 Jun 2027 13:03:31.315   03 Jun 2027 13:04:31.475            60.160                Novosib          1880.000
       269   03 Jun 2027 13:06:04.736   03 Jun 2027 13:08:38.914           154.178                Irkutsk          4818.063
       270   03 Jun 2027 13:09:18.153   03 Jun 2027 13:09:44.785            26.632                Norilsk           832.250
       271   03 Jun 2027 13:17:33.966   03 Jun 2027 13:18:33.281            59.315                Norilsk          1853.594
       272   03 Jun 2027 14:36:10.263   03 Jun 2027 14:39:18.309           188.046                  Delhi          5876.438
       273   03 Jun 2027 14:43:49.655   03 Jun 2027 14:44:16.818            27.163                 Moscow           848.844
       274   03 Jun 2027 14:44:32.636   03 Jun 2027 14:46:04.535            91.899                Novosib          2871.844
       275   03 Jun 2027 14:46:52.965   03 Jun 2027 14:47:37.550            44.585                Norilsk          1393.281
       276   03 Jun 2027 14:49:42.426   03 Jun 2027 14:50:57.643            75.217                Norilsk          2350.531
       277   03 Jun 2027 15:56:07.347   03 Jun 2027 15:58:33.365           146.018               CapeTown          4563.063
       278   03 Jun 2027 16:20:38.548   03 Jun 2027 16:22:54.498           135.950              Murmansk1          4248.438
       279   03 Jun 2027 16:29:09.077   03 Jun 2027 16:29:30.522            21.445              Murmansk2           670.156
       280   03 Jun 2027 16:35:17.311   03 Jun 2027 16:36:27.028            69.717                Anadyr2          2178.656
       281   03 Jun 2027 16:37:10.224   03 Jun 2027 16:37:52.308            42.084                Anadyr1          1315.125
       282   03 Jun 2027 16:38:18.417   03 Jun 2027 16:38:29.868            11.451                Anadyr2           357.844
       283   03 Jun 2027 16:39:49.004   03 Jun 2027 16:39:57.359             8.355                Anadyr1           261.094
       284   03 Jun 2027 16:41:27.226   03 Jun 2027 16:41:42.426            15.200                Anadyr2           475.000
       285   03 Jun 2027 17:29:58.722   03 Jun 2027 17:32:26.233           147.511               CapeTown          4609.719
       286   03 Jun 2027 17:59:24.188   03 Jun 2027 18:02:46.433           202.245              Murmansk1          6320.156
       287   03 Jun 2027 18:11:40.018   03 Jun 2027 18:11:46.600             6.582                Anadyr2           205.688
       288   03 Jun 2027 18:11:59.405   03 Jun 2027 18:12:06.342             6.937                Anadyr2           216.781
       289   03 Jun 2027 18:13:18.324   03 Jun 2027 18:13:25.382             7.058                Anadyr1           220.563
       290   03 Jun 2027 18:13:36.563   03 Jun 2027 18:13:46.158             9.595                Anadyr1           299.844
       291   03 Jun 2027 18:14:14.036   03 Jun 2027 18:14:25.175            11.139                Anadyr2           348.094
       292   03 Jun 2027 18:14:45.335   03 Jun 2027 18:15:13.024            27.689                Anadyr1           865.281
       293   03 Jun 2027 18:15:37.564   03 Jun 2027 18:17:34.559           116.995               Magadan2          3656.094
       294   03 Jun 2027 19:46:31.225   03 Jun 2027 19:51:06.434           275.209                Anadyr1          8600.281
       295   03 Jun 2027 19:51:19.940   03 Jun 2027 19:53:40.634           140.694               Magadan1          4396.688
       296   03 Jun 2027 21:22:25.236   03 Jun 2027 21:26:06.225           220.989                Anadyr1          6905.906
       297   03 Jun 2027 21:26:52.406   03 Jun 2027 21:28:21.047            88.641               Magadan2          2770.031
       298   03 Jun 2027 21:28:21.047   03 Jun 2027 21:29:44.990            83.943               Magadan1          2623.219
       299   03 Jun 2027 21:29:57.803   03 Jun 2027 21:30:33.790            35.987               Magadan1          1124.594
       300   03 Jun 2027 21:31:21.318   03 Jun 2027 21:31:53.313            31.995                Irkutsk           999.844
       301   03 Jun 2027 21:32:02.760   03 Jun 2027 21:33:18.023            75.263                Irkutsk          2351.969
       302   03 Jun 2027 22:16:41.685   03 Jun 2027 22:17:54.969            73.284            RioGallegos          2290.125
       303   03 Jun 2027 22:18:28.557   03 Jun 2027 22:18:56.288            27.731            RioGallegos           866.594
       304   03 Jun 2027 22:26:10.040   03 Jun 2027 22:26:51.990            41.950            RioGallegos          1310.938
       305   03 Jun 2027 22:57:57.727   03 Jun 2027 22:58:29.123            31.396                Anadyr2           981.125
       306   03 Jun 2027 22:59:46.027   03 Jun 2027 23:00:19.203            33.176                Anadyr2          1036.750
       307   03 Jun 2027 23:00:30.139   03 Jun 2027 23:00:55.077            24.938                Norilsk           779.312
       308   03 Jun 2027 23:01:03.020   03 Jun 2027 23:01:20.055            17.035                Norilsk           532.344
       309   03 Jun 2027 23:01:29.058   03 Jun 2027 23:01:56.518            27.460               Magadan1           858.125
       310   03 Jun 2027 23:02:25.568   03 Jun 2027 23:02:36.275            10.707               Magadan2           334.594
       311   03 Jun 2027 23:03:46.093   03 Jun 2027 23:04:15.558            29.465               Magadan2           920.781
       312   03 Jun 2027 23:04:20.818   03 Jun 2027 23:06:09.078           108.260                Irkutsk          3383.125
       313   03 Jun 2027 23:06:17.294   03 Jun 2027 23:07:12.264            54.970                Novosib          1717.812
       314   03 Jun 2027 23:18:02.492   03 Jun 2027 23:18:39.804            37.312                Sumatra          1166.000
       315   03 Jun 2027 23:22:54.443   03 Jun 2027 23:24:12.146            77.703                Sumatra          2428.219
       316   03 Jun 2027 23:30:29.338   03 Jun 2027 23:30:36.471             7.133                Sumatra           222.906
       317   04 Jun 2027 00:00:11.559   04 Jun 2027 00:00:32.559            21.000            RioGallegos           656.250
       318   04 Jun 2027 00:32:32.892   04 Jun 2027 00:34:48.902           136.010                Anadyr2          4250.313
       319   04 Jun 2027 00:36:13.853   04 Jun 2027 00:36:17.974             4.121                Norilsk           128.781
       320   04 Jun 2027 00:36:53.462   04 Jun 2027 00:37:44.163            50.701               Magadan2          1584.406
       321   04 Jun 2027 00:38:50.192   04 Jun 2027 00:38:55.421             5.229               Magadan1           163.406
       322   04 Jun 2027 00:39:09.918   04 Jun 2027 00:39:17.351             7.433                Norilsk           232.281
       323   04 Jun 2027 00:39:25.482   04 Jun 2027 00:39:44.786            19.304               Magadan2           603.250
       324   04 Jun 2027 00:39:44.786   04 Jun 2027 00:40:11.712            26.926               Magadan1           841.437
       325   04 Jun 2027 00:41:15.788   04 Jun 2027 00:43:24.836           129.048                Novosib          4032.750
       326   04 Jun 2027 00:45:24.312   04 Jun 2027 00:45:42.494            18.182                Novosib           568.188
       327   04 Jun 2027 00:47:45.507   04 Jun 2027 00:48:53.577            68.070                  Delhi          2127.188
       328   04 Jun 2027 00:51:10.101   04 Jun 2027 00:51:32.890            22.789                  Delhi           712.156
       329   04 Jun 2027 00:53:43.563   04 Jun 2027 00:54:02.860            19.297                  Delhi           603.031
       330   04 Jun 2027 00:59:00.942   04 Jun 2027 00:59:06.357             5.415                  Delhi           169.219
       331   04 Jun 2027 01:01:10.609   04 Jun 2027 01:01:26.323            15.714                Sumatra           491.063
       332   04 Jun 2027 01:01:49.317   04 Jun 2027 01:02:53.509            64.192                Sumatra          2006.000
       333   04 Jun 2027 01:32:43.098   04 Jun 2027 01:32:54.403            11.305            RioGallegos           353.281
       334   04 Jun 2027 01:35:16.889   04 Jun 2027 01:35:21.772             4.883            RioGallegos           152.594
       335   04 Jun 2027 01:36:48.561   04 Jun 2027 01:37:31.315            42.754            RioGallegos          1336.063
       336   04 Jun 2027 02:05:59.681   04 Jun 2027 02:06:19.785            20.104                Anadyr1           628.250
       337   04 Jun 2027 02:06:42.953   04 Jun 2027 02:07:15.312            32.359                Anadyr1          1011.219
       338   04 Jun 2027 02:08:21.780   04 Jun 2027 02:08:44.218            22.438                Anadyr1           701.188
       339   04 Jun 2027 02:11:40.067   04 Jun 2027 02:12:09.292            29.225                Anadyr1           913.281
       340   04 Jun 2027 02:12:10.639   04 Jun 2027 02:12:47.422            36.783               Magadan2          1149.469
       341   04 Jun 2027 02:13:03.087   04 Jun 2027 02:13:06.503             3.416               Magadan2           106.750
       342   04 Jun 2027 02:13:06.582   04 Jun 2027 02:13:36.669            30.087                Norilsk           940.219
       343   04 Jun 2027 02:14:30.604   04 Jun 2027 02:15:59.024            88.420              Murmansk1          2763.125
       344   04 Jun 2027 02:16:02.249   04 Jun 2027 02:16:33.290            31.041                Novosib           970.031
       345   04 Jun 2027 02:17:42.999   04 Jun 2027 02:18:06.421            23.422                Novosib           731.938
       346   04 Jun 2027 02:22:17.001   04 Jun 2027 02:24:43.995           146.994                 Moscow          4593.563
       347   04 Jun 2027 03:58:19.924   04 Jun 2027 03:58:28.841             8.917              Murmansk1           278.656
       348   04 Jun 2027 03:58:42.244   04 Jun 2027 03:59:04.005            21.761                Norilsk           680.031
       349   04 Jun 2027 03:59:10.838   04 Jun 2027 03:59:16.354             5.516                Norilsk           172.375
       350   04 Jun 2027 03:59:16.589   04 Jun 2027 04:00:35.278            78.689              Murmansk2          2459.031
       351   04 Jun 2027 04:01:40.479   04 Jun 2027 04:02:38.418            57.939              Murmansk2          1810.594
       352   04 Jun 2027 04:03:12.766   04 Jun 2027 04:05:32.758           139.992                 Moscow          4374.750
       353   04 Jun 2027 04:17:46.190   04 Jun 2027 04:19:43.828           117.638               CapeTown          3676.188
       354   04 Jun 2027 04:20:32.850   04 Jun 2027 04:21:28.170            55.320               CapeTown          1728.750
       355   04 Jun 2027 04:21:40.882   04 Jun 2027 04:24:04.315           143.433               CapeTown          4482.281
       356   04 Jun 2027 04:26:34.582   04 Jun 2027 04:27:12.556            37.974               CapeTown          1186.688
       357   04 Jun 2027 05:19:34.086   04 Jun 2027 05:19:38.480             4.394               Magadan1           137.312
       358   04 Jun 2027 05:20:12.307   04 Jun 2027 05:20:49.776            37.469               Magadan1          1170.906
       359   04 Jun 2027 05:21:16.941   04 Jun 2027 05:22:45.075            88.134                Anadyr2          2754.188
       360   04 Jun 2027 05:22:45.075   04 Jun 2027 05:23:00.955            15.880                Anadyr1           496.250
       361   04 Jun 2027 05:32:54.111   04 Jun 2027 05:33:16.123            22.012                Norilsk           687.875
       362   04 Jun 2027 05:38:02.160   04 Jun 2027 05:38:41.140            38.980              Murmansk1          1218.125
       363   04 Jun 2027 05:38:41.140   04 Jun 2027 05:39:15.815            34.675              Murmansk2          1083.594
       364   04 Jun 2027 06:55:19.954   04 Jun 2027 06:55:33.500            13.546                Anadyr2           423.313
       365   04 Jun 2027 06:56:01.275   04 Jun 2027 06:56:02.235             0.960               Magadan2            30.000
       366   04 Jun 2027 06:56:09.039   04 Jun 2027 06:56:14.948             5.909               Magadan1           184.656
       367   04 Jun 2027 06:56:25.495   04 Jun 2027 06:57:06.725            41.230                Anadyr2          1288.437
       368   04 Jun 2027 06:57:22.228   04 Jun 2027 06:58:35.611            73.383               Magadan1          2293.219
       369   04 Jun 2027 06:58:35.611   04 Jun 2027 06:58:57.499            21.888               Magadan2           684.000
       370   04 Jun 2027 06:59:11.997   04 Jun 2027 06:59:16.078             4.081               Magadan1           127.531
       371   04 Jun 2027 06:59:18.514   04 Jun 2027 06:59:57.839            39.325                Anadyr1          1228.906
       372   04 Jun 2027 06:59:57.839   04 Jun 2027 07:00:03.288             5.449                Anadyr2           170.281
       373   04 Jun 2027 07:02:20.032   04 Jun 2027 07:02:28.343             8.311              Murmansk2           259.719
       374   04 Jun 2027 07:02:28.343   04 Jun 2027 07:02:40.062            11.719              Murmansk1           366.219
       375   04 Jun 2027 07:06:07.838   04 Jun 2027 07:06:10.415             2.577                 Moscow            80.531
       376   04 Jun 2027 07:06:33.966   04 Jun 2027 07:06:58.788            24.822                 Moscow           775.687
       377   04 Jun 2027 07:42:42.922   04 Jun 2027 07:43:08.495            25.573            RioGallegos           799.156
       378   04 Jun 2027 08:30:09.067   04 Jun 2027 08:30:25.710            16.643               Magadan1           520.094
       379   04 Jun 2027 08:30:36.133   04 Jun 2027 08:31:10.882            34.749               Magadan1          1085.906
       380   04 Jun 2027 08:31:49.069   04 Jun 2027 08:32:39.011            49.942               Magadan1          1560.687
       381   04 Jun 2027 08:33:05.163   04 Jun 2027 08:33:21.775            16.612               Magadan1           519.125
       382   04 Jun 2027 08:33:21.775   04 Jun 2027 08:33:39.511            17.736               Magadan2           554.250
       383   04 Jun 2027 08:33:42.183   04 Jun 2027 08:33:44.669             2.486                Norilsk            77.687
       384   04 Jun 2027 08:34:00.175   04 Jun 2027 08:34:15.270            15.095                Norilsk           471.719
       385   04 Jun 2027 08:34:21.930   04 Jun 2027 08:34:24.453             2.523                Norilsk            78.844
       386   04 Jun 2027 08:34:25.063   04 Jun 2027 08:35:15.193            50.130                Anadyr1          1566.562
       387   04 Jun 2027 08:35:17.738   04 Jun 2027 08:35:19.670             1.932               Magadan2            60.375
       388   04 Jun 2027 08:35:26.402   04 Jun 2027 08:36:08.930            42.528                Anadyr1          1329.000
       389   04 Jun 2027 08:36:08.930   04 Jun 2027 08:37:11.115            62.185                Anadyr2          1943.281
       390   04 Jun 2027 08:38:13.674   04 Jun 2027 08:38:16.487             2.813                Norilsk            87.906
       391   04 Jun 2027 08:38:38.303   04 Jun 2027 08:38:48.835            10.532              Murmansk2           329.125
       392   04 Jun 2027 08:41:17.934   04 Jun 2027 08:41:35.587            17.653              Murmansk1           551.656
       393   04 Jun 2027 09:14:03.254   04 Jun 2027 09:14:30.482            27.228            RioGallegos           850.875
       394   04 Jun 2027 09:15:32.792   04 Jun 2027 09:16:01.226            28.434            RioGallegos           888.562
       395   04 Jun 2027 09:18:24.820   04 Jun 2027 09:18:41.837            17.017            RioGallegos           531.781
       396   04 Jun 2027 09:23:13.061   04 Jun 2027 09:23:24.801            11.740            RioGallegos           366.875
       397   04 Jun 2027 10:08:21.204   04 Jun 2027 10:09:21.300            60.096                Norilsk          1878.000
       398   04 Jun 2027 10:10:10.801   04 Jun 2027 10:10:15.196             4.395                Irkutsk           137.344
       399   04 Jun 2027 10:10:35.719   04 Jun 2027 10:11:33.367            57.648               Magadan2          1801.500
       400   04 Jun 2027 10:11:33.367   04 Jun 2027 10:12:43.077            69.710               Magadan1          2178.438
       401   04 Jun 2027 10:12:57.435   04 Jun 2027 10:13:11.303            13.868              Murmansk2           433.375
       402   04 Jun 2027 10:13:17.127   04 Jun 2027 10:14:00.258            43.131              Murmansk2          1347.844
       403   04 Jun 2027 10:14:06.785   04 Jun 2027 10:15:04.237            57.452              Murmansk2          1795.375
       404   04 Jun 2027 10:49:11.021   04 Jun 2027 10:49:54.125            43.104            RioGallegos          1347.000
       405   04 Jun 2027 10:54:25.303   04 Jun 2027 10:54:54.973            29.670            RioGallegos           927.187
       406   04 Jun 2027 11:24:00.161   04 Jun 2027 11:24:31.623            31.462                Sumatra           983.187
       407   04 Jun 2027 11:25:20.318   04 Jun 2027 11:27:06.710           106.392                Sumatra          3324.750
       408   04 Jun 2027 11:44:43.992   04 Jun 2027 11:46:35.665           111.673                Irkutsk          3489.781
       409   04 Jun 2027 11:46:41.083   04 Jun 2027 11:47:20.562            39.479                Novosib          1233.719
       410   04 Jun 2027 11:47:25.623   04 Jun 2027 11:48:40.251            74.628                Irkutsk          2332.125
       411   04 Jun 2027 11:49:09.145   04 Jun 2027 11:49:31.920            22.775                Norilsk           711.719
       412   04 Jun 2027 11:49:37.943   04 Jun 2027 11:49:48.053            10.110                Norilsk           315.937
       413   04 Jun 2027 11:49:48.691   04 Jun 2027 11:49:57.609             8.918                Novosib           278.688
       414   04 Jun 2027 11:50:00.952   04 Jun 2027 11:50:11.761            10.809              Murmansk2           337.781
       415   04 Jun 2027 11:50:20.550   04 Jun 2027 11:50:37.834            17.284                Norilsk           540.125
       416   04 Jun 2027 11:50:52.369   04 Jun 2027 11:50:56.317             3.948                Novosib           123.375
       417   04 Jun 2027 11:51:07.034   04 Jun 2027 11:51:22.588            15.554                Norilsk           486.062
       418   04 Jun 2027 11:52:52.942   04 Jun 2027 11:53:05.837            12.895              Murmansk2           402.969
       419   04 Jun 2027 12:28:38.571   04 Jun 2027 12:29:59.844            81.273            RioGallegos          2539.781
       420   04 Jun 2027 12:35:58.607   04 Jun 2027 12:36:09.969            11.362            RioGallegos           355.062
       421   04 Jun 2027 13:03:43.965   04 Jun 2027 13:07:03.832           199.867                Sumatra          6245.844
       422   04 Jun 2027 13:15:50.200   04 Jun 2027 13:16:33.805            43.605                Novosib          1362.656
       423   04 Jun 2027 13:18:04.043   04 Jun 2027 13:20:20.911           136.868                Novosib          4277.125
       424   04 Jun 2027 13:32:30.244   04 Jun 2027 13:32:38.696             8.452              Murmansk1           264.125
       425   04 Jun 2027 13:32:53.251   04 Jun 2027 13:32:57.686             4.435              Murmansk2           138.594
       426   04 Jun 2027 14:52:36.736   04 Jun 2027 14:56:19.564           222.828                 Moscow          6963.375
       427   04 Jun 2027 14:57:17.215   04 Jun 2027 14:59:14.829           117.614              Murmansk2          3675.438
       428   04 Jun 2027 14:59:31.959   04 Jun 2027 15:00:39.874            67.915                Norilsk          2122.344
       429   04 Jun 2027 15:03:30.318   04 Jun 2027 15:04:26.765            56.447                Norilsk          1763.969
       430   04 Jun 2027 16:07:30.687   04 Jun 2027 16:08:34.016            63.329               CapeTown          1979.031
       431   04 Jun 2027 16:11:20.205   04 Jun 2027 16:11:40.718            20.513               CapeTown           641.031
       432   04 Jun 2027 16:12:59.103   04 Jun 2027 16:13:41.908            42.805               CapeTown          1337.656
       433   04 Jun 2027 16:29:38.586   04 Jun 2027 16:29:41.471             2.885                 Moscow            90.156
       434   04 Jun 2027 16:30:05.780   04 Jun 2027 16:30:45.436            39.656                 Moscow          1239.250
       435   04 Jun 2027 16:32:53.751   04 Jun 2027 16:33:13.860            20.109              Murmansk2           628.406
       436   04 Jun 2027 16:33:35.159   04 Jun 2027 16:34:16.653            41.494              Murmansk1          1296.688
       437   04 Jun 2027 16:35:20.522   04 Jun 2027 16:35:57.358            36.836              Murmansk1          1151.125
       438   04 Jun 2027 16:40:41.008   04 Jun 2027 16:41:11.115            30.107              Murmansk2           940.844
       439   04 Jun 2027 16:47:09.609   04 Jun 2027 16:48:26.606            76.997                Anadyr1          2406.156
       440   04 Jun 2027 16:49:11.461   04 Jun 2027 16:50:14.507            63.046                Anadyr1          1970.187
       441   04 Jun 2027 16:52:38.676   04 Jun 2027 16:53:27.973            49.297                Anadyr2          1540.531
       442   04 Jun 2027 17:42:01.633   04 Jun 2027 17:42:17.122            15.489               CapeTown           484.031
       443   04 Jun 2027 17:45:29.659   04 Jun 2027 17:46:00.141            30.482               CapeTown           952.562
       444   04 Jun 2027 17:51:40.273   04 Jun 2027 17:52:15.741            35.468               CapeTown          1108.375
       445   04 Jun 2027 18:11:58.704   04 Jun 2027 18:14:42.372           163.668              Murmansk1          5114.625
       446   04 Jun 2027 18:14:42.372   04 Jun 2027 18:15:00.269            17.897              Murmansk2           559.281
       447   04 Jun 2027 18:15:18.256   04 Jun 2027 18:16:06.034            47.778              Murmansk1          1493.063
       448   04 Jun 2027 18:17:04.061   04 Jun 2027 18:17:13.723             9.662              Murmansk2           301.937
       449   04 Jun 2027 18:19:09.663   04 Jun 2027 18:20:41.786            92.123              Murmansk1          2878.844
       450   04 Jun 2027 18:26:17.788   04 Jun 2027 18:27:32.060            74.272               Magadan1          2321.000
       451   04 Jun 2027 19:25:22.768   04 Jun 2027 19:25:26.537             3.769               CapeTown           117.781
       452   04 Jun 2027 19:58:32.918   04 Jun 2027 20:03:07.888           274.970                Anadyr1          8592.813
       453   04 Jun 2027 20:03:20.440   04 Jun 2027 20:04:35.353            74.913               Magadan2          2341.031
       454   04 Jun 2027 20:06:57.239   04 Jun 2027 20:07:36.576            39.337               Magadan1          1229.281
       455   04 Jun 2027 20:09:24.740   04 Jun 2027 20:09:30.734             5.994               Magadan1           187.313
       456   04 Jun 2027 20:10:08.585   04 Jun 2027 20:11:10.954            62.369               Magadan1          1949.031
       457   04 Jun 2027 21:34:25.615   04 Jun 2027 21:36:33.956           128.341                Anadyr2          4010.656
       458   04 Jun 2027 21:36:41.499   04 Jun 2027 21:40:13.308           211.809                Norilsk          6619.031
       459   04 Jun 2027 21:40:26.289   04 Jun 2027 21:40:52.731            26.442               Magadan2           826.313
       460   04 Jun 2027 21:41:20.992   04 Jun 2027 21:41:53.420            32.428                Norilsk          1013.375
       461   04 Jun 2027 21:42:22.231   04 Jun 2027 21:42:50.925            28.694                Irkutsk           896.687
       462   04 Jun 2027 21:43:20.016   04 Jun 2027 21:44:04.595            44.579                Irkutsk          1393.094
       463   04 Jun 2027 21:59:19.363   04 Jun 2027 22:00:51.350            91.987                Sumatra          2874.594
       464   04 Jun 2027 22:02:11.698   04 Jun 2027 22:02:27.427            15.729                Sumatra           491.531
       465   04 Jun 2027 22:34:21.995   04 Jun 2027 22:34:39.700            17.705            RioGallegos           553.281
       466   04 Jun 2027 22:36:50.462   04 Jun 2027 22:36:56.884             6.422            RioGallegos           200.687
       467   04 Jun 2027 22:37:53.380   04 Jun 2027 22:38:03.682            10.302            RioGallegos           321.937
       468   04 Jun 2027 23:09:53.152   04 Jun 2027 23:12:44.234           171.082                Anadyr1          5346.312
       469   04 Jun 2027 23:12:49.920   04 Jun 2027 23:13:46.026            56.106                Norilsk          1753.312
       470   04 Jun 2027 23:14:00.339   04 Jun 2027 23:14:06.327             5.988               Magadan2           187.125
       471   04 Jun 2027 23:14:14.524   04 Jun 2027 23:14:39.239            24.715               Magadan2           772.344
       472   04 Jun 2027 23:16:05.884   04 Jun 2027 23:16:08.301             2.417               Magadan2            75.531
       473   04 Jun 2027 23:16:17.520   04 Jun 2027 23:17:22.352            64.832                Irkutsk          2026.000
       474   04 Jun 2027 23:17:25.406   04 Jun 2027 23:17:33.257             7.851                Novosib           245.344
       475   04 Jun 2027 23:19:29.357   04 Jun 2027 23:19:48.486            19.129                Novosib           597.781
       476   04 Jun 2027 23:20:29.917   04 Jun 2027 23:20:52.810            22.893                Novosib           715.406
       477   04 Jun 2027 23:27:29.758   04 Jun 2027 23:27:30.609             0.851                Irkutsk            26.594
       478   04 Jun 2027 23:29:59.252   04 Jun 2027 23:30:47.782            48.530                Sumatra          1516.563
       479   04 Jun 2027 23:32:45.370   04 Jun 2027 23:32:57.520            12.150                Sumatra           379.687
       480   04 Jun 2027 23:33:54.550   04 Jun 2027 23:34:23.183            28.633                Sumatra           894.781
       481   04 Jun 2027 23:39:09.053   04 Jun 2027 23:39:19.283            10.230                Sumatra           319.688
       482   05 Jun 2027 00:04:23.544   05 Jun 2027 00:05:03.660            40.116            RioGallegos          1253.625
