uniorb/output/strategy_2/Drop/Drop_KinoSat_111303.txt

KinoSat_111303
-------------------------
    Access    *     Start Time (UTCG)     *     Stop Time (UTCG)  *   Duration (s)        *       Station  *  Data (Mbytes)
         1   01 Jun 2027 03:50:44.730   01 Jun 2027 03:51:38.001            53.271              Murmansk1          1664.719
         2   01 Jun 2027 03:51:38.001   01 Jun 2027 03:53:25.628           107.627              Murmansk2          3363.344
         3   01 Jun 2027 03:54:44.719   01 Jun 2027 03:55:56.187            71.468                 Moscow          2233.375
         4   01 Jun 2027 05:11:34.294   01 Jun 2027 05:11:52.678            18.384               Magadan1           574.500
         5   01 Jun 2027 05:11:52.678   01 Jun 2027 05:13:31.014            98.336               Magadan2          3073.000
         6   01 Jun 2027 05:13:31.014   01 Jun 2027 05:13:43.477            12.463               Magadan1           389.469
         7   01 Jun 2027 05:13:51.262   01 Jun 2027 05:15:34.321           103.059                Anadyr1          3220.594
         8   01 Jun 2027 05:17:38.990   01 Jun 2027 05:17:44.524             5.534                Anadyr2           172.937
         9   01 Jun 2027 06:49:50.178   01 Jun 2027 06:51:05.913            75.735                Anadyr2          2366.719
        10   01 Jun 2027 06:52:53.941   01 Jun 2027 06:53:14.196            20.255               Magadan2           632.969
        11   01 Jun 2027 08:23:52.741   01 Jun 2027 08:28:57.827           305.086               Magadan2          9533.937
        12   01 Jun 2027 09:59:14.475   01 Jun 2027 10:00:22.682            68.207                Irkutsk          2131.469
        13   01 Jun 2027 10:01:17.577   01 Jun 2027 10:02:56.612            99.035                Irkutsk          3094.844
        14   01 Jun 2027 10:03:26.665   01 Jun 2027 10:05:04.447            97.782                Irkutsk          3055.688
        15   01 Jun 2027 10:40:32.522   01 Jun 2027 10:40:40.111             7.589            RioGallegos           237.156
        16   01 Jun 2027 10:43:10.156   01 Jun 2027 10:44:00.015            49.859            RioGallegos          1558.094
        17   01 Jun 2027 11:14:51.614   01 Jun 2027 11:15:23.518            31.904                Sumatra           997.000
        18   01 Jun 2027 11:16:46.278   01 Jun 2027 11:17:24.635            38.357                Sumatra          1198.656
        19   01 Jun 2027 11:18:57.179   01 Jun 2027 11:19:38.125            40.946                Sumatra          1279.563
        20   01 Jun 2027 11:36:26.673   01 Jun 2027 11:38:09.975           103.302                Irkutsk          3228.188
        21   01 Jun 2027 11:38:32.080   01 Jun 2027 11:40:40.534           128.454                Novosib          4014.187
        22   01 Jun 2027 12:59:36.786   01 Jun 2027 13:01:49.103           132.317                  Delhi          4134.906
        23   01 Jun 2027 13:04:04.528   01 Jun 2027 13:04:11.306             6.778                  Delhi           211.813
        24   01 Jun 2027 13:07:54.580   01 Jun 2027 13:09:15.182            80.602                Novosib          2518.813
        25   01 Jun 2027 13:10:49.025   01 Jun 2027 13:12:56.129           127.104                Novosib          3972.000
        26   01 Jun 2027 13:13:06.633   01 Jun 2027 13:13:31.143            24.510              Murmansk2           765.938
        27   01 Jun 2027 13:13:47.686   01 Jun 2027 13:14:28.406            40.720                Norilsk          1272.500
        28   01 Jun 2027 13:15:05.835   01 Jun 2027 13:16:07.712            61.877                Norilsk          1933.656
        29   01 Jun 2027 14:43:15.570   01 Jun 2027 14:46:28.194           192.624                 Moscow          6019.500
        30   01 Jun 2027 14:46:47.076   01 Jun 2027 14:49:59.253           192.177              Murmansk2          6005.531
        31   01 Jun 2027 14:52:43.262   01 Jun 2027 14:53:52.065            68.803                Norilsk          2150.094
        32   01 Jun 2027 14:55:55.621   01 Jun 2027 14:56:13.455            17.834                Norilsk           557.312
        33   01 Jun 2027 15:03:28.584   01 Jun 2027 15:03:36.200             7.616                Anadyr1           238.000
        34   01 Jun 2027 15:04:09.538   01 Jun 2027 15:04:26.058            16.520                Anadyr2           516.250
        35   01 Jun 2027 15:05:05.210   01 Jun 2027 15:06:05.449            60.239                Anadyr2          1882.469
        36   01 Jun 2027 15:57:01.529   01 Jun 2027 15:58:49.683           108.154               CapeTown          3379.812
        37   01 Jun 2027 16:21:56.808   01 Jun 2027 16:22:07.477            10.669                 Moscow           333.406
        38   01 Jun 2027 16:24:29.617   01 Jun 2027 16:25:27.143            57.526              Murmansk2          1797.687
        39   01 Jun 2027 16:27:36.275   01 Jun 2027 16:28:02.416            26.141              Murmansk2           816.906
        40   01 Jun 2027 16:28:02.416   01 Jun 2027 16:28:38.963            36.547              Murmansk1          1142.094
        41   01 Jun 2027 16:37:28.829   01 Jun 2027 16:39:15.125           106.296                Anadyr1          3321.750
        42   01 Jun 2027 16:42:17.724   01 Jun 2027 16:42:57.780            40.056                Anadyr2          1251.750
        43   01 Jun 2027 16:46:11.156   01 Jun 2027 16:46:32.502            21.346                Anadyr1           667.062
        44   01 Jun 2027 17:33:02.752   01 Jun 2027 17:34:36.468            93.716               CapeTown          2928.625
        45   01 Jun 2027 17:37:05.281   01 Jun 2027 17:37:33.298            28.017               CapeTown           875.531
        46   01 Jun 2027 17:43:21.109   01 Jun 2027 17:43:44.668            23.559               CapeTown           736.219
        47   01 Jun 2027 18:04:49.829   01 Jun 2027 18:09:13.948           264.119              Murmansk2          8253.719
        48   01 Jun 2027 18:10:42.815   01 Jun 2027 18:10:54.142            11.327              Murmansk1           353.969
        49   01 Jun 2027 18:13:13.449   01 Jun 2027 18:13:36.814            23.365                Anadyr2           730.156
        50   01 Jun 2027 18:17:25.888   01 Jun 2027 18:19:14.058           108.170               Magadan2          3380.313
        51   01 Jun 2027 18:19:14.058   01 Jun 2027 18:19:17.472             3.414               Magadan1           106.688
        52   01 Jun 2027 18:23:09.573   01 Jun 2027 18:23:18.502             8.929               Magadan1           279.031
        53   01 Jun 2027 18:23:47.054   01 Jun 2027 18:24:06.667            19.613               Magadan1           612.906
        54   01 Jun 2027 18:24:28.674   01 Jun 2027 18:24:43.394            14.720               Magadan1           460.000
        55   01 Jun 2027 19:49:09.354   01 Jun 2027 19:51:14.901           125.547                Anadyr1          3923.344
        56   01 Jun 2027 19:51:25.945   01 Jun 2027 19:52:55.735            89.790                Anadyr2          2805.937
        57   01 Jun 2027 19:53:07.012   01 Jun 2027 19:53:19.503            12.491                Anadyr1           390.344
        58   01 Jun 2027 19:53:44.323   01 Jun 2027 19:55:12.647            88.324               Magadan2          2760.125
        59   01 Jun 2027 19:55:17.365   01 Jun 2027 19:56:43.506            86.141                Anadyr1          2691.906
        60   01 Jun 2027 19:56:50.884   01 Jun 2027 19:58:14.929            84.045               Magadan1          2626.406
        61   01 Jun 2027 20:00:34.525   01 Jun 2027 20:01:00.366            25.841               Magadan2           807.531
        62   01 Jun 2027 20:02:12.709   01 Jun 2027 20:02:16.928             4.219               Magadan1           131.844
        63   01 Jun 2027 20:02:27.361   01 Jun 2027 20:03:00.483            33.122               Magadan1          1035.063
        64   01 Jun 2027 20:44:27.778   01 Jun 2027 20:45:00.759            32.981            RioGallegos          1030.656
        65   01 Jun 2027 20:45:29.841   01 Jun 2027 20:47:17.296           107.455            RioGallegos          3357.969
        66   01 Jun 2027 20:49:51.879   01 Jun 2027 20:50:26.558            34.679            RioGallegos          1083.719
        67   01 Jun 2027 20:50:52.312   01 Jun 2027 20:51:19.144            26.832            RioGallegos           838.500
        68   01 Jun 2027 21:24:54.997   01 Jun 2027 21:25:27.822            32.825                Anadyr2          1025.781
        69   01 Jun 2027 21:27:03.075   01 Jun 2027 21:29:42.773           159.698                Norilsk          4990.563
        70   01 Jun 2027 21:29:48.660   01 Jun 2027 21:30:13.852            25.192                Norilsk           787.250
        71   01 Jun 2027 21:30:46.531   01 Jun 2027 21:30:46.596             0.065                Norilsk             2.031
        72   01 Jun 2027 21:31:38.316   01 Jun 2027 21:34:22.798           164.482                Irkutsk          5140.063
        73   01 Jun 2027 21:40:27.969   01 Jun 2027 21:40:55.965            27.996                Irkutsk           874.875
        74   01 Jun 2027 21:45:58.495   01 Jun 2027 21:46:32.692            34.197                Sumatra          1068.656
        75   01 Jun 2027 21:47:36.519   01 Jun 2027 21:48:47.220            70.701                Sumatra          2209.406
        76   01 Jun 2027 21:52:44.332   01 Jun 2027 21:52:59.508            15.176                Sumatra           474.250
        77   01 Jun 2027 21:54:32.142   01 Jun 2027 21:55:09.278            37.136                Sumatra          1160.500
        78   01 Jun 2027 21:56:28.661   01 Jun 2027 21:56:34.163             5.502                Sumatra           171.938
        79   01 Jun 2027 22:30:31.707   01 Jun 2027 22:30:50.680            18.973            RioGallegos           592.906
        80   01 Jun 2027 22:31:13.114   01 Jun 2027 22:31:39.616            26.502            RioGallegos           828.187
        81   01 Jun 2027 23:00:01.595   01 Jun 2027 23:00:13.269            11.674                Anadyr1           364.812
        82   01 Jun 2027 23:00:28.212   01 Jun 2027 23:01:10.305            42.093                Anadyr1          1315.406
        83   01 Jun 2027 23:02:28.997   01 Jun 2027 23:02:39.130            10.133                Anadyr1           316.656
        84   01 Jun 2027 23:02:54.078   01 Jun 2027 23:04:55.122           121.044                Norilsk          3782.625
        85   01 Jun 2027 23:04:55.484   01 Jun 2027 23:05:21.423            25.939               Magadan2           810.594
        86   01 Jun 2027 23:06:46.636   01 Jun 2027 23:07:18.415            31.779                Irkutsk           993.094
        87   01 Jun 2027 23:07:31.201   01 Jun 2027 23:08:16.627            45.426                Novosib          1419.563
        88   01 Jun 2027 23:10:36.000   01 Jun 2027 23:10:54.316            18.316                Novosib           572.375
        89   01 Jun 2027 23:11:58.099   01 Jun 2027 23:12:22.978            24.879                Novosib           777.469
        90   01 Jun 2027 23:12:58.435   01 Jun 2027 23:13:20.797            22.362                Novosib           698.813
        91   01 Jun 2027 23:13:46.375   01 Jun 2027 23:14:05.222            18.847                Novosib           588.969
        92   01 Jun 2027 23:15:31.863   01 Jun 2027 23:16:35.335            63.472                Irkutsk          1983.500
        93   01 Jun 2027 23:16:53.995   01 Jun 2027 23:18:37.189           103.194                  Delhi          3224.812
        94   01 Jun 2027 23:23:32.677   01 Jun 2027 23:24:42.271            69.594                  Delhi          2174.812
        95   02 Jun 2027 00:04:58.008   02 Jun 2027 00:06:00.886            62.878            RioGallegos          1964.938
        96   02 Jun 2027 00:35:08.298   02 Jun 2027 00:35:24.234            15.936                Anadyr1           498.000
        97   02 Jun 2027 00:35:39.435   02 Jun 2027 00:36:06.273            26.838                Anadyr1           838.687
        98   02 Jun 2027 00:36:47.469   02 Jun 2027 00:36:48.385             0.916                Anadyr1            28.625
        99   02 Jun 2027 00:37:00.370   02 Jun 2027 00:37:10.637            10.267                Anadyr1           320.844
       100   02 Jun 2027 00:38:26.030   02 Jun 2027 00:38:54.281            28.251                Anadyr1           882.844
       101   02 Jun 2027 00:38:54.529   02 Jun 2027 00:39:10.554            16.025                Norilsk           500.781
       102   02 Jun 2027 00:39:24.463   02 Jun 2027 00:39:39.422            14.959               Magadan2           467.469
       103   02 Jun 2027 00:39:46.709   02 Jun 2027 00:40:16.015            29.306                Norilsk           915.813
       104   02 Jun 2027 00:40:36.863   02 Jun 2027 00:40:57.200            20.337               Magadan1           635.531
       105   02 Jun 2027 00:41:30.111   02 Jun 2027 00:43:23.259           113.148               Magadan1          3535.875
       106   02 Jun 2027 00:43:38.040   02 Jun 2027 00:43:58.793            20.753              Murmansk2           648.531
       107   02 Jun 2027 00:44:24.015   02 Jun 2027 00:44:53.118            29.103              Murmansk2           909.469
       108   02 Jun 2027 00:45:44.908   02 Jun 2027 00:46:03.581            18.673              Murmansk1           583.531
       109   02 Jun 2027 00:47:20.523   02 Jun 2027 00:48:14.614            54.091              Murmansk1          1690.344
       110   02 Jun 2027 00:52:42.037   02 Jun 2027 00:53:13.122            31.085                Irkutsk           971.406
       111   02 Jun 2027 00:55:02.581   02 Jun 2027 00:55:34.676            32.095                Novosib          1002.969
       112   02 Jun 2027 00:56:55.864   02 Jun 2027 00:58:38.566           102.702                  Delhi          3209.437
       113   02 Jun 2027 01:37:19.899   02 Jun 2027 01:37:44.007            24.108            RioGallegos           753.375
       114   02 Jun 2027 02:07:13.010   02 Jun 2027 02:08:28.420            75.410                Anadyr2          2356.563
       115   02 Jun 2027 02:10:02.932   02 Jun 2027 02:10:18.417            15.485                Anadyr2           483.906
       116   02 Jun 2027 02:10:35.473   02 Jun 2027 02:10:49.597            14.124                Anadyr1           441.375
       117   02 Jun 2027 02:11:58.947   02 Jun 2027 02:12:10.732            11.785                Anadyr2           368.281
       118   02 Jun 2027 02:12:55.375   02 Jun 2027 02:13:23.827            28.452                Anadyr2           889.125
       119   02 Jun 2027 02:13:33.371   02 Jun 2027 02:14:04.652            31.281               Magadan1           977.531
       120   02 Jun 2027 02:14:47.722   02 Jun 2027 02:15:14.203            26.481                Norilsk           827.531
       121   02 Jun 2027 02:16:15.362   02 Jun 2027 02:16:42.107            26.745               Magadan1           835.781
       122   02 Jun 2027 02:17:03.068   02 Jun 2027 02:17:41.984            38.916              Murmansk2          1216.125
       123   02 Jun 2027 02:18:25.059   02 Jun 2027 02:18:51.124            26.065              Murmansk2           814.531
       124   02 Jun 2027 02:19:53.720   02 Jun 2027 02:20:12.414            18.694                Novosib           584.188
       125   02 Jun 2027 02:20:42.389   02 Jun 2027 02:20:52.595            10.206              Murmansk1           318.938
       126   02 Jun 2027 02:21:32.958   02 Jun 2027 02:21:41.749             8.791                Novosib           274.719
       127   02 Jun 2027 02:22:46.062   02 Jun 2027 02:22:54.138             8.076              Murmansk2           252.375
       128   02 Jun 2027 02:23:23.743   02 Jun 2027 02:23:52.385            28.642                Irkutsk           895.063
       129   02 Jun 2027 02:25:57.244   02 Jun 2027 02:26:19.096            21.852              Murmansk2           682.875
       130   02 Jun 2027 02:27:17.878   02 Jun 2027 02:27:27.395             9.517              Murmansk2           297.406
       131   02 Jun 2027 02:28:31.660   02 Jun 2027 02:28:53.883            22.223                Novosib           694.469
       132   02 Jun 2027 02:29:36.798   02 Jun 2027 02:29:50.814            14.016                 Moscow           438.000
       133   02 Jun 2027 02:31:05.507   02 Jun 2027 02:31:49.399            43.892                 Moscow          1371.625
       134   02 Jun 2027 02:51:26.147   02 Jun 2027 02:51:53.884            27.737               CapeTown           866.781
       135   02 Jun 2027 02:54:59.578   02 Jun 2027 02:55:06.766             7.188               CapeTown           224.625
       136   02 Jun 2027 02:55:38.739   02 Jun 2027 02:55:45.300             6.561               CapeTown           205.031
       137   02 Jun 2027 03:51:52.441   02 Jun 2027 03:52:49.389            56.948               Magadan2          1779.625
       138   02 Jun 2027 04:03:05.397   02 Jun 2027 04:03:09.851             4.454                 Moscow           139.187
       139   02 Jun 2027 04:03:25.840   02 Jun 2027 04:04:39.937            74.097              Murmansk2          2315.531
       140   02 Jun 2027 04:04:39.937   02 Jun 2027 04:05:37.133            57.196              Murmansk1          1787.375
       141   02 Jun 2027 05:23:30.558   02 Jun 2027 05:26:39.730           189.172                Anadyr1          5911.625
       142   02 Jun 2027 05:26:53.033   02 Jun 2027 05:27:08.154            15.121               Magadan2           472.531
       143   02 Jun 2027 07:01:21.704   02 Jun 2027 07:02:32.003            70.299                Irkutsk          2196.844
       144   02 Jun 2027 08:36:20.858   02 Jun 2027 08:36:35.229            14.371                Novosib           449.094
       145   02 Jun 2027 08:36:57.641   02 Jun 2027 08:37:22.630            24.989                Norilsk           780.906
       146   02 Jun 2027 08:37:28.755   02 Jun 2027 08:38:13.136            44.381                Irkutsk          1386.906
       147   02 Jun 2027 08:38:22.262   02 Jun 2027 08:40:15.259           112.997               Magadan1          3531.156
       148   02 Jun 2027 08:40:15.259   02 Jun 2027 08:40:37.733            22.474               Magadan2           702.313
       149   02 Jun 2027 08:40:46.998   02 Jun 2027 08:41:34.109            47.111              Murmansk1          1472.219
       150   02 Jun 2027 08:41:56.736   02 Jun 2027 08:41:56.792             0.056                Novosib             1.750
       151   02 Jun 2027 08:42:04.456   02 Jun 2027 08:42:58.219            53.763              Murmansk2          1680.094
       152   02 Jun 2027 09:15:49.849   02 Jun 2027 09:16:57.644            67.795            RioGallegos          2118.594
       153   02 Jun 2027 09:51:42.940   02 Jun 2027 09:52:49.796            66.856                Sumatra          2089.250
       154   02 Jun 2027 10:11:00.932   02 Jun 2027 10:11:25.347            24.415                Norilsk           762.969
       155   02 Jun 2027 10:11:48.729   02 Jun 2027 10:12:27.253            38.524                Norilsk          1203.875
       156   02 Jun 2027 10:12:40.502   02 Jun 2027 10:12:42.172             1.670                Irkutsk            52.188
       157   02 Jun 2027 10:12:45.739   02 Jun 2027 10:13:20.229            34.490                Irkutsk          1077.813
       158   02 Jun 2027 10:13:23.692   02 Jun 2027 10:14:12.084            48.392                Novosib          1512.250
       159   02 Jun 2027 10:14:19.539   02 Jun 2027 10:14:39.823            20.284              Murmansk1           633.875
       160   02 Jun 2027 10:14:59.343   02 Jun 2027 10:15:10.829            11.486                Norilsk           358.937
       161   02 Jun 2027 10:15:17.744   02 Jun 2027 10:16:03.487            45.743                Irkutsk          1429.469
       162   02 Jun 2027 10:16:12.489   02 Jun 2027 10:16:56.651            44.162                Irkutsk          1380.063
       163   02 Jun 2027 10:52:57.268   02 Jun 2027 10:53:47.657            50.389            RioGallegos          1574.656
       164   02 Jun 2027 10:55:15.633   02 Jun 2027 10:55:39.209            23.576            RioGallegos           736.750
       165   02 Jun 2027 11:00:52.866   02 Jun 2027 11:01:54.493            61.627            RioGallegos          1925.844
       166   02 Jun 2027 11:35:13.716   02 Jun 2027 11:36:03.755            50.039                  Delhi          1563.719
       167   02 Jun 2027 11:48:19.150   02 Jun 2027 11:49:35.929            76.779                 Moscow          2399.344
       168   02 Jun 2027 11:49:43.262   02 Jun 2027 11:50:02.425            19.163                 Moscow           598.844
       169   02 Jun 2027 11:50:07.234   02 Jun 2027 11:51:18.114            70.880                Irkutsk          2215.000
       170   02 Jun 2027 11:51:25.567   02 Jun 2027 11:52:31.344            65.777              Murmansk2          2055.531
       171   02 Jun 2027 11:52:52.345   02 Jun 2027 11:53:22.741            30.396                Novosib           949.875
       172   02 Jun 2027 13:12:09.333   02 Jun 2027 13:17:14.996           305.663                  Delhi          9551.969
       173   02 Jun 2027 13:20:35.286   02 Jun 2027 13:20:41.489             6.203                Novosib           193.844
       174   02 Jun 2027 13:22:45.615   02 Jun 2027 13:25:03.866           138.251                Novosib          4320.344
       175   02 Jun 2027 13:32:45.593   02 Jun 2027 13:33:58.477            72.884                Norilsk          2277.625
       176   02 Jun 2027 14:55:24.236   02 Jun 2027 14:57:19.023           114.787                 Moscow          3587.094
       177   02 Jun 2027 14:58:55.312   02 Jun 2027 15:02:01.165           185.853              Murmansk2          5807.906
       178   02 Jun 2027 15:05:52.107   02 Jun 2027 15:08:13.010           140.903                Norilsk          4403.219
       179   02 Jun 2027 15:16:01.359   02 Jun 2027 15:16:21.422            20.063                Anadyr1           626.969
       180   02 Jun 2027 15:16:26.161   02 Jun 2027 15:16:38.903            12.742                Anadyr1           398.187
       181   02 Jun 2027 15:17:04.631   02 Jun 2027 15:18:00.195            55.564                Anadyr1          1736.375
       182   02 Jun 2027 16:17:11.149   02 Jun 2027 16:18:23.311            72.162               CapeTown          2255.062
       183   02 Jun 2027 16:36:54.046   02 Jun 2027 16:36:57.925             3.879              Murmansk2           121.219
       184   02 Jun 2027 16:37:43.118   02 Jun 2027 16:38:18.714            35.596              Murmansk1          1112.375
       185   02 Jun 2027 16:39:02.995   02 Jun 2027 16:39:30.602            27.607              Murmansk1           862.719
       186   02 Jun 2027 16:41:47.146   02 Jun 2027 16:42:07.945            20.799              Murmansk2           649.969
       187   02 Jun 2027 16:43:48.532   02 Jun 2027 16:44:02.361            13.829              Murmansk1           432.156
       188   02 Jun 2027 16:45:23.216   02 Jun 2027 16:45:54.808            31.592              Murmansk1           987.250
       189   02 Jun 2027 16:49:27.160   02 Jun 2027 16:50:54.305            87.145                Anadyr1          2723.281
       190   02 Jun 2027 16:51:12.582   02 Jun 2027 16:51:50.291            37.709                Anadyr2          1178.406
       191   02 Jun 2027 16:54:57.734   02 Jun 2027 16:55:22.315            24.581                Anadyr2           768.156
       192   02 Jun 2027 16:59:52.881   02 Jun 2027 17:00:17.058            24.177                Anadyr2           755.531
       193   02 Jun 2027 17:00:43.848   02 Jun 2027 17:00:47.490             3.642                Anadyr1           113.812
       194   02 Jun 2027 17:46:08.199   02 Jun 2027 17:46:35.698            27.499               CapeTown           859.344
       195   02 Jun 2027 17:51:53.004   02 Jun 2027 17:51:59.534             6.530               CapeTown           204.063
       196   02 Jun 2027 17:55:01.613   02 Jun 2027 17:55:31.869            30.256               CapeTown           945.500
       197   02 Jun 2027 18:17:44.474   02 Jun 2027 18:21:07.139           202.665              Murmansk1          6333.281
       198   02 Jun 2027 18:21:07.139   02 Jun 2027 18:22:14.617            67.478              Murmansk2          2108.688
       199   02 Jun 2027 18:26:33.485   02 Jun 2027 18:26:51.773            18.288                Anadyr2           571.500
       200   02 Jun 2027 18:27:56.977   02 Jun 2027 18:29:12.578            75.601               Magadan2          2362.531
       201   02 Jun 2027 18:29:20.841   02 Jun 2027 18:30:44.523            83.682               Magadan2          2615.062
       202   02 Jun 2027 20:01:10.553   02 Jun 2027 20:03:16.587           126.034                Anadyr2          3938.562
       203   02 Jun 2027 20:03:25.689   02 Jun 2027 20:05:21.128           115.439                Anadyr1          3607.469
       204   02 Jun 2027 20:05:25.672   02 Jun 2027 20:07:24.089           118.417               Magadan1          3700.531
       205   02 Jun 2027 20:10:48.078   02 Jun 2027 20:10:52.243             4.165               Magadan2           130.156
       206   02 Jun 2027 20:11:16.174   02 Jun 2027 20:11:34.716            18.542               Magadan2           579.437
       207   02 Jun 2027 20:13:37.734   02 Jun 2027 20:13:44.112             6.378               Magadan2           199.312
       208   02 Jun 2027 20:14:00.262   02 Jun 2027 20:14:02.294             2.032               Magadan1            63.500
       209   02 Jun 2027 20:14:11.854   02 Jun 2027 20:14:43.957            32.103               Magadan1          1003.219
       210   02 Jun 2027 20:56:05.133   02 Jun 2027 20:58:34.674           149.541            RioGallegos          4673.156
       211   02 Jun 2027 21:00:52.953   02 Jun 2027 21:02:14.089            81.136            RioGallegos          2535.500
       212   02 Jun 2027 21:36:53.236   02 Jun 2027 21:37:29.578            36.342                Anadyr2          1135.688
       213   02 Jun 2027 21:39:02.305   02 Jun 2027 21:39:28.115            25.810                Norilsk           806.563
       214   02 Jun 2027 21:40:01.271   02 Jun 2027 21:41:28.015            86.744               Magadan1          2710.750
       215   02 Jun 2027 21:42:26.754   02 Jun 2027 21:42:47.418            20.664                Norilsk           645.750
       216   02 Jun 2027 21:43:26.915   02 Jun 2027 21:44:22.009            55.094                Irkutsk          1721.687
       217   02 Jun 2027 21:45:55.557   02 Jun 2027 21:46:50.720            55.163                Irkutsk          1723.844
       218   02 Jun 2027 21:53:45.387   02 Jun 2027 21:54:05.593            20.206                Irkutsk           631.437
       219   02 Jun 2027 21:57:29.740   02 Jun 2027 21:58:57.514            87.774                Sumatra          2742.937
       220   02 Jun 2027 22:08:05.311   02 Jun 2027 22:08:48.075            42.764                Sumatra          1336.375
       221   02 Jun 2027 23:11:52.064   02 Jun 2027 23:13:14.665            82.601                Anadyr2          2581.281
       222   02 Jun 2027 23:15:19.792   02 Jun 2027 23:16:07.607            47.815                Norilsk          1494.219
       223   02 Jun 2027 23:16:28.620   02 Jun 2027 23:16:56.949            28.329                Norilsk           885.281
       224   02 Jun 2027 23:17:29.572   02 Jun 2027 23:17:31.387             1.815               Magadan2            56.719
       225   02 Jun 2027 23:17:31.387   02 Jun 2027 23:18:03.426            32.039               Magadan1          1001.219
       226   02 Jun 2027 23:18:28.847   02 Jun 2027 23:18:35.194             6.347                Norilsk           198.344
       227   02 Jun 2027 23:18:43.768   02 Jun 2027 23:18:45.138             1.370                Norilsk            42.812
       228   02 Jun 2027 23:18:47.872   02 Jun 2027 23:19:12.196            24.324                Irkutsk           760.125
       229   02 Jun 2027 23:19:18.705   02 Jun 2027 23:20:31.014            72.309                Novosib          2259.656
       230   02 Jun 2027 23:20:45.331   02 Jun 2027 23:21:58.592            73.261                Novosib          2289.406
       231   02 Jun 2027 23:27:26.599   02 Jun 2027 23:28:03.714            37.115                  Delhi          1159.844
       232   02 Jun 2027 23:28:27.994   02 Jun 2027 23:30:21.143           113.149                  Delhi          3535.906
       233   03 Jun 2027 00:45:37.612   03 Jun 2027 00:47:19.917           102.305                Anadyr2          3197.031
       234   03 Jun 2027 00:48:07.604   03 Jun 2027 00:48:32.985            25.381                Anadyr2           793.156
       235   03 Jun 2027 00:50:56.345   03 Jun 2027 00:51:28.775            32.430                Norilsk          1013.437
       236   03 Jun 2027 00:52:00.596   03 Jun 2027 00:52:59.969            59.373                Norilsk          1855.406
       237   03 Jun 2027 00:53:16.183   03 Jun 2027 00:53:50.229            34.046               Magadan1          1063.938
       238   03 Jun 2027 00:53:50.800   03 Jun 2027 00:55:06.246            75.446              Murmansk1          2357.687
       239   03 Jun 2027 00:55:28.702   03 Jun 2027 00:55:56.829            28.127                Novosib           878.969
       240   03 Jun 2027 00:56:02.456   03 Jun 2027 00:57:03.660            61.204              Murmansk2          1912.625
       241   03 Jun 2027 00:59:52.551   03 Jun 2027 00:59:54.545             1.994                 Moscow            62.313
       242   03 Jun 2027 01:00:13.564   03 Jun 2027 01:00:59.041            45.477                 Moscow          1421.156
       243   03 Jun 2027 01:10:23.516   03 Jun 2027 01:10:40.397            16.881                  Delhi           527.531
       244   03 Jun 2027 01:11:05.144   03 Jun 2027 01:11:40.429            35.285                  Delhi          1102.656
       245   03 Jun 2027 01:45:05.182   03 Jun 2027 01:45:42.587            37.405            RioGallegos          1168.906
       246   03 Jun 2027 01:46:11.493   03 Jun 2027 01:47:13.392            61.899            RioGallegos          1934.344
       247   03 Jun 2027 02:18:56.348   03 Jun 2027 02:19:21.238            24.890                Anadyr1           777.812
       248   03 Jun 2027 02:19:31.950   03 Jun 2027 02:20:27.339            55.389                Anadyr2          1730.906
       249   03 Jun 2027 02:24:30.708   03 Jun 2027 02:25:45.028            74.320               Magadan2          2322.500
       250   03 Jun 2027 02:26:32.301   03 Jun 2027 02:26:57.243            24.942               Magadan2           779.437
       251   03 Jun 2027 02:28:32.189   03 Jun 2027 02:28:59.316            27.127                Norilsk           847.719
       252   03 Jun 2027 02:29:04.200   03 Jun 2027 02:29:32.479            28.279              Murmansk2           883.719
       253   03 Jun 2027 02:29:41.045   03 Jun 2027 02:29:55.540            14.495              Murmansk1           452.969
       254   03 Jun 2027 02:30:51.158   03 Jun 2027 02:31:02.771            11.613              Murmansk1           362.906
       255   03 Jun 2027 02:31:11.114   03 Jun 2027 02:31:55.673            44.559                Novosib          1392.469
       256   03 Jun 2027 02:33:44.327   03 Jun 2027 02:33:46.867             2.540                Novosib            79.375
       257   03 Jun 2027 02:34:17.351   03 Jun 2027 02:34:50.096            32.745                Novosib          1023.281
       258   03 Jun 2027 02:40:14.447   03 Jun 2027 02:41:23.826            69.379                Novosib          2168.094
       259   03 Jun 2027 03:01:19.110   03 Jun 2027 03:02:36.751            77.641               CapeTown          2426.281
       260   03 Jun 2027 04:14:38.041   03 Jun 2027 04:14:54.668            16.627              Murmansk1           519.594
       261   03 Jun 2027 04:15:13.326   03 Jun 2027 04:16:41.920            88.594              Murmansk2          2768.562
       262   03 Jun 2027 04:16:52.648   03 Jun 2027 04:17:04.095            11.447              Murmansk2           357.719
       263   03 Jun 2027 05:36:11.643   03 Jun 2027 05:37:46.129            94.486               Magadan2          2952.687
       264   03 Jun 2027 05:37:47.479   03 Jun 2027 05:38:56.562            69.083               Magadan1          2158.844
       265   03 Jun 2027 05:38:56.562   03 Jun 2027 05:39:25.122            28.560               Magadan2           892.500
       266   03 Jun 2027 05:39:37.168   03 Jun 2027 05:41:25.704           108.536               Magadan1          3391.750
       267   03 Jun 2027 07:11:55.454   03 Jun 2027 07:12:28.414            32.960               Magadan1          1030.000
       268   03 Jun 2027 07:12:37.108   03 Jun 2027 07:13:28.053            50.945                Anadyr2          1592.031
       269   03 Jun 2027 07:13:38.154   03 Jun 2027 07:15:16.332            98.178               Magadan2          3068.063
       270   03 Jun 2027 07:53:49.961   03 Jun 2027 07:53:54.036             4.075            RioGallegos           127.344
       271   03 Jun 2027 07:55:30.152   03 Jun 2027 07:55:52.306            22.154            RioGallegos           692.312
       272   03 Jun 2027 08:46:36.691   03 Jun 2027 08:47:52.857            76.166               Magadan1          2380.188
       273   03 Jun 2027 08:47:55.405   03 Jun 2027 08:48:10.705            15.300               Magadan2           478.125
       274   03 Jun 2027 08:48:48.116   03 Jun 2027 08:49:27.221            39.105               Magadan2          1222.031
       275   03 Jun 2027 08:49:45.809   03 Jun 2027 08:50:20.789            34.980                Norilsk          1093.125
       276   03 Jun 2027 08:50:23.928   03 Jun 2027 08:51:38.139            74.211               Magadan2          2319.094
       277   03 Jun 2027 08:51:47.551   03 Jun 2027 08:52:12.336            24.785                Norilsk           774.531
       278   03 Jun 2027 08:52:21.000   03 Jun 2027 08:52:22.705             1.705                Norilsk            53.281
       279   03 Jun 2027 08:52:22.773   03 Jun 2027 08:53:00.443            37.670              Murmansk1          1177.187
       280   03 Jun 2027 08:53:17.898   03 Jun 2027 08:53:35.409            17.511              Murmansk2           547.219
       281   03 Jun 2027 09:27:47.761   03 Jun 2027 09:29:00.590            72.829            RioGallegos          2275.906
       282   03 Jun 2027 10:03:18.624   03 Jun 2027 10:03:51.652            33.028                Sumatra          1032.125
       283   03 Jun 2027 10:08:15.349   03 Jun 2027 10:09:36.611            81.262                Sumatra          2539.437
       284   03 Jun 2027 10:23:21.585   03 Jun 2027 10:23:40.192            18.607                Norilsk           581.469
       285   03 Jun 2027 10:23:52.563   03 Jun 2027 10:24:33.704            41.141                Irkutsk          1285.656
       286   03 Jun 2027 10:24:50.554   03 Jun 2027 10:24:56.380             5.826                Novosib           182.063
       287   03 Jun 2027 10:24:56.830   03 Jun 2027 10:25:23.636            26.806                Novosib           837.687
       288   03 Jun 2027 10:25:30.502   03 Jun 2027 10:26:44.003            73.501                Novosib          2296.906
       289   03 Jun 2027 10:26:53.116   03 Jun 2027 10:27:44.877            51.761                Novosib          1617.531
       290   03 Jun 2027 10:27:58.619   03 Jun 2027 10:29:04.717            66.098                Irkutsk          2065.563
       291   03 Jun 2027 11:05:27.498   03 Jun 2027 11:06:09.921            42.423            RioGallegos          1325.719
       292   03 Jun 2027 11:39:39.805   03 Jun 2027 11:40:12.027            32.222                Sumatra          1006.937
       293   03 Jun 2027 11:40:42.289   03 Jun 2027 11:40:44.106             1.817                Sumatra            56.781
       294   03 Jun 2027 11:42:37.501   03 Jun 2027 11:43:20.930            43.429                Sumatra          1357.156
       295   03 Jun 2027 12:01:32.379   03 Jun 2027 12:01:41.618             9.239                Irkutsk           288.719
       296   03 Jun 2027 12:04:35.435   03 Jun 2027 12:04:53.290            17.855                Novosib           557.969
       297   03 Jun 2027 12:06:17.679   03 Jun 2027 12:06:46.852            29.173              Murmansk1           911.656
       298   03 Jun 2027 12:08:51.558   03 Jun 2027 12:09:04.679            13.121              Murmansk1           410.031
       299   03 Jun 2027 12:09:21.878   03 Jun 2027 12:09:34.011            12.133              Murmansk1           379.156
       300   03 Jun 2027 12:10:39.781   03 Jun 2027 12:11:05.562            25.781              Murmansk1           805.656
       301   03 Jun 2027 13:24:53.416   03 Jun 2027 13:25:29.500            36.084                  Delhi          1127.625
       302   03 Jun 2027 13:25:58.986   03 Jun 2027 13:27:07.467            68.481                  Delhi          2140.031
       303   03 Jun 2027 13:27:57.762   03 Jun 2027 13:28:40.689            42.927                  Delhi          1341.469
       304   03 Jun 2027 13:32:29.328   03 Jun 2027 13:33:24.093            54.765                 Moscow          1711.406
       305   03 Jun 2027 13:34:16.067   03 Jun 2027 13:37:03.586           167.519                Novosib          5234.969
       306   03 Jun 2027 13:40:35.986   03 Jun 2027 13:41:47.808            71.822                Norilsk          2244.438
       307   03 Jun 2027 14:49:02.644   03 Jun 2027 14:50:44.397           101.753               CapeTown          3179.781
       308   03 Jun 2027 14:51:39.296   03 Jun 2027 14:52:27.325            48.029               CapeTown          1500.906
       309   03 Jun 2027 15:07:36.184   03 Jun 2027 15:08:06.329            30.145                 Moscow           942.031
       310   03 Jun 2027 15:11:05.333   03 Jun 2027 15:12:06.116            60.783              Murmansk2          1899.469
       311   03 Jun 2027 15:14:03.073   03 Jun 2027 15:14:17.638            14.565              Murmansk2           455.156
       312   03 Jun 2027 15:14:49.330   03 Jun 2027 15:15:20.941            31.611              Murmansk2           987.844
       313   03 Jun 2027 15:18:08.427   03 Jun 2027 15:18:11.828             3.401              Murmansk1           106.281
       314   03 Jun 2027 15:19:32.802   03 Jun 2027 15:19:52.609            19.807              Murmansk1           618.969
       315   03 Jun 2027 15:20:57.811   03 Jun 2027 15:21:41.587            43.776              Murmansk2          1368.000
       316   03 Jun 2027 15:26:27.355   03 Jun 2027 15:28:03.999            96.644                Anadyr1          3020.125
       317   03 Jun 2027 15:29:07.835   03 Jun 2027 15:29:44.302            36.467                Anadyr1          1139.594
       318   03 Jun 2027 16:27:06.011   03 Jun 2027 16:27:43.253            37.242               CapeTown          1163.812
       319   03 Jun 2027 16:28:41.551   03 Jun 2027 16:29:21.792            40.241               CapeTown          1257.531
       320   03 Jun 2027 16:47:42.620   03 Jun 2027 16:48:06.282            23.662                 Moscow           739.438
       321   03 Jun 2027 16:48:37.585   03 Jun 2027 16:49:16.155            38.570                 Moscow          1205.312
       322   03 Jun 2027 16:49:20.946   03 Jun 2027 16:49:57.776            36.830              Murmansk2          1150.937
       323   03 Jun 2027 16:54:09.180   03 Jun 2027 16:54:20.669            11.489              Murmansk2           359.031
       324   03 Jun 2027 16:56:47.613   03 Jun 2027 16:57:19.133            31.520              Murmansk2           985.000
       325   03 Jun 2027 16:58:22.514   03 Jun 2027 16:59:18.613            56.099              Murmansk1          1753.094
       326   03 Jun 2027 17:01:26.209   03 Jun 2027 17:02:08.618            42.409                Anadyr1          1325.281
       327   03 Jun 2027 17:03:40.798   03 Jun 2027 17:03:45.441             4.643                Anadyr1           145.094
       328   03 Jun 2027 17:04:57.554   03 Jun 2027 17:05:56.584            59.030                Anadyr2          1844.688
       329   03 Jun 2027 17:12:23.955   03 Jun 2027 17:12:31.936             7.981                Anadyr2           249.406
       330   03 Jun 2027 17:12:53.750   03 Jun 2027 17:13:08.504            14.754                Anadyr1           461.062
       331   03 Jun 2027 18:00:53.660   03 Jun 2027 18:01:04.205            10.545               CapeTown           329.531
       332   03 Jun 2027 18:02:58.400   03 Jun 2027 18:03:36.753            38.353               CapeTown          1198.531
       333   03 Jun 2027 18:30:51.193   03 Jun 2027 18:34:17.426           206.233              Murmansk1          6444.781
       334   03 Jun 2027 18:37:16.316   03 Jun 2027 18:37:36.798            20.482                Anadyr2           640.063
       335   03 Jun 2027 18:37:46.312   03 Jun 2027 18:38:01.221            14.909                Anadyr1           465.906
       336   03 Jun 2027 18:38:29.919   03 Jun 2027 18:39:22.548            52.629                Anadyr1          1644.656
       337   03 Jun 2027 18:39:51.699   03 Jun 2027 18:40:27.798            36.099               Magadan2          1128.094
       338   03 Jun 2027 18:40:50.374   03 Jun 2027 18:40:52.850             2.476               Magadan1            77.375
       339   03 Jun 2027 18:40:57.240   03 Jun 2027 18:41:08.575            11.335               Magadan1           354.219
       340   03 Jun 2027 18:43:05.932   03 Jun 2027 18:43:08.420             2.488               Magadan1            77.750
       341   03 Jun 2027 18:43:26.332   03 Jun 2027 18:44:12.287            45.955               Magadan1          1436.094
       342   03 Jun 2027 18:48:47.480   03 Jun 2027 18:48:57.126             9.646               Magadan2           301.438
       343   03 Jun 2027 20:13:11.564   03 Jun 2027 20:16:56.675           225.111                Anadyr1          7034.719
       344   03 Jun 2027 20:17:05.160   03 Jun 2027 20:19:56.365           171.205               Magadan1          5350.156
       345   03 Jun 2027 20:23:42.833   03 Jun 2027 20:24:04.151            21.318               Magadan1           666.188
       346   03 Jun 2027 20:27:30.341   03 Jun 2027 20:28:04.518            34.177               Magadan1          1068.031
       347   03 Jun 2027 21:07:48.675   03 Jun 2027 21:10:25.856           157.181            RioGallegos          4911.906
       348   03 Jun 2027 21:11:43.418   03 Jun 2027 21:11:57.917            14.499            RioGallegos           453.094
       349   03 Jun 2027 21:48:50.804   03 Jun 2027 21:49:31.229            40.425                Anadyr1          1263.281
       350   03 Jun 2027 21:51:02.259   03 Jun 2027 21:51:18.510            16.251                Norilsk           507.844
       351   03 Jun 2027 21:51:30.195   03 Jun 2027 21:53:35.505           125.310               Magadan2          3915.937
       352   03 Jun 2027 21:53:35.505   03 Jun 2027 21:53:46.408            10.903               Magadan1           340.719
       353   03 Jun 2027 21:53:53.620   03 Jun 2027 21:54:28.725            35.105               Magadan1          1097.031
       354   03 Jun 2027 21:55:18.390   03 Jun 2027 21:56:03.211            44.821                Irkutsk          1400.656
       355   03 Jun 2027 21:57:58.501   03 Jun 2027 21:58:39.287            40.786                Novosib          1274.563
       356   03 Jun 2027 22:00:01.668   03 Jun 2027 22:00:27.051            25.383                Novosib           793.219
       357   03 Jun 2027 22:01:06.290   03 Jun 2027 22:01:15.199             8.909                Novosib           278.406
       358   03 Jun 2027 22:09:09.384   03 Jun 2027 22:09:50.175            40.791                Sumatra          1274.719
       359   03 Jun 2027 22:10:52.217   03 Jun 2027 22:11:18.504            26.287                Sumatra           821.469
       360   03 Jun 2027 22:12:31.205   03 Jun 2027 22:13:38.305            67.100                Sumatra          2096.875
       361   03 Jun 2027 23:23:41.225   03 Jun 2027 23:24:14.137            32.912                Anadyr1          1028.500
       362   03 Jun 2027 23:25:15.845   03 Jun 2027 23:25:21.082             5.237                Anadyr1           163.656
       363   03 Jun 2027 23:25:59.953   03 Jun 2027 23:26:32.579            32.626                Anadyr1          1019.563
       364   03 Jun 2027 23:26:58.176   03 Jun 2027 23:27:23.255            25.079                Norilsk           783.719
       365   03 Jun 2027 23:27:36.808   03 Jun 2027 23:28:09.168            32.360               Magadan1          1011.250
       366   03 Jun 2027 23:28:09.168   03 Jun 2027 23:28:51.756            42.588               Magadan2          1330.875
       367   03 Jun 2027 23:29:31.565   03 Jun 2027 23:29:57.550            25.985               Magadan2           812.031
       368   03 Jun 2027 23:30:19.689   03 Jun 2027 23:30:31.110            11.421               Magadan1           356.906
       369   03 Jun 2027 23:30:41.246   03 Jun 2027 23:30:47.224             5.978                Norilsk           186.813
       370   03 Jun 2027 23:30:49.933   03 Jun 2027 23:31:24.206            34.273                Irkutsk          1071.031
       371   03 Jun 2027 23:31:45.076   03 Jun 2027 23:32:01.658            16.582                Irkutsk           518.187
       372   03 Jun 2027 23:32:03.601   03 Jun 2027 23:33:09.339            65.738                Novosib          2054.312
       373   03 Jun 2027 23:33:53.153   03 Jun 2027 23:34:40.286            47.133                Novosib          1472.906
       374   03 Jun 2027 23:39:01.185   03 Jun 2027 23:39:54.350            53.165                  Delhi          1661.406
       375   03 Jun 2027 23:40:01.834   03 Jun 2027 23:41:03.801            61.967                  Delhi          1936.469
       376   03 Jun 2027 23:48:12.356   03 Jun 2027 23:48:20.534             8.178                  Delhi           255.562
       377   03 Jun 2027 23:49:45.171   03 Jun 2027 23:50:02.428            17.257                  Delhi           539.281
       378   04 Jun 2027 00:26:18.557   04 Jun 2027 00:26:48.238            29.681            RioGallegos           927.531
       379   04 Jun 2027 00:57:18.958   04 Jun 2027 00:57:34.440            15.482                Anadyr1           483.812
       380   04 Jun 2027 00:58:00.369   04 Jun 2027 00:58:30.957            30.588                Anadyr1           955.875
       381   04 Jun 2027 00:59:13.977   04 Jun 2027 01:00:18.668            64.691                Anadyr1          2021.594
       382   04 Jun 2027 01:02:53.032   04 Jun 2027 01:03:04.072            11.040                Anadyr2           345.000
       383   04 Jun 2027 01:03:06.839   04 Jun 2027 01:03:14.715             7.876                Norilsk           246.125
       384   04 Jun 2027 01:03:49.127   04 Jun 2027 01:05:39.276           110.149               Magadan1          3442.156
       385   04 Jun 2027 01:05:39.885   04 Jun 2027 01:06:56.654            76.769              Murmansk2          2399.031
       386   04 Jun 2027 01:07:15.015   04 Jun 2027 01:07:55.984            40.969                Novosib          1280.281
       387   04 Jun 2027 01:09:57.483   04 Jun 2027 01:10:18.599            21.116                Novosib           659.875
       388   04 Jun 2027 01:11:13.526   04 Jun 2027 01:11:55.282            41.756                 Moscow          1304.875
       389   04 Jun 2027 01:19:19.839   04 Jun 2027 01:19:46.554            26.715                  Delhi           834.844
       390   04 Jun 2027 01:23:49.378   04 Jun 2027 01:24:00.227            10.849                  Delhi           339.031
       391   04 Jun 2027 01:24:26.894   04 Jun 2027 01:24:52.584            25.690                  Delhi           802.812
       392   04 Jun 2027 02:30:40.605   04 Jun 2027 02:33:48.756           188.151                Anadyr1          5879.719
       393   04 Jun 2027 02:35:58.911   04 Jun 2027 02:37:05.393            66.482               Magadan1          2077.563
       394   04 Jun 2027 02:38:47.313   04 Jun 2027 02:39:15.809            28.496                Norilsk           890.500
       395   04 Jun 2027 02:41:05.579   04 Jun 2027 02:42:07.195            61.616              Murmansk1          1925.500
       396   04 Jun 2027 02:43:04.893   04 Jun 2027 02:44:00.423            55.530                Novosib          1735.313
       397   04 Jun 2027 02:44:47.128   04 Jun 2027 02:44:55.003             7.875                Novosib           246.094
       398   04 Jun 2027 02:45:17.431   04 Jun 2027 02:45:56.350            38.919                Novosib          1216.219
       399   04 Jun 2027 02:50:20.606   04 Jun 2027 02:50:28.432             7.826                Novosib           244.562
       400   04 Jun 2027 02:55:53.329   04 Jun 2027 02:56:27.428            34.099                 Moscow          1065.594
       401   04 Jun 2027 03:12:10.445   04 Jun 2027 03:13:14.798            64.353               CapeTown          2011.031
       402   04 Jun 2027 04:26:39.799   04 Jun 2027 04:26:59.019            19.220              Murmansk1           600.625
       403   04 Jun 2027 04:26:59.019   04 Jun 2027 04:27:00.558             1.539              Murmansk2            48.094
       404   04 Jun 2027 04:27:06.175   04 Jun 2027 04:27:18.913            12.738                 Moscow           398.062
       405   04 Jun 2027 04:27:41.358   04 Jun 2027 04:27:56.564            15.206              Murmansk1           475.187
       406   04 Jun 2027 04:27:56.564   04 Jun 2027 04:28:34.132            37.568              Murmansk2          1174.000
       407   04 Jun 2027 04:28:43.943   04 Jun 2027 04:28:51.858             7.915              Murmansk2           247.344
       408   04 Jun 2027 04:45:35.332   04 Jun 2027 04:46:14.830            39.498               CapeTown          1234.313
       409   04 Jun 2027 05:47:57.512   04 Jun 2027 05:49:36.747            99.235                Anadyr1          3101.094
       410   04 Jun 2027 05:49:39.966   04 Jun 2027 05:51:15.143            95.177               Magadan1          2974.281
       411   04 Jun 2027 05:52:15.034   04 Jun 2027 05:53:28.295            73.261               Magadan1          2289.406
       412   04 Jun 2027 07:23:58.366   04 Jun 2027 07:24:09.377            11.011               Magadan2           344.094
       413   04 Jun 2027 07:24:19.501   04 Jun 2027 07:25:05.533            46.032                Anadyr2          1438.500
       414   04 Jun 2027 07:25:05.533   04 Jun 2027 07:25:30.118            24.585                Anadyr1           768.281
       415   04 Jun 2027 07:25:33.526   04 Jun 2027 07:25:40.868             7.342               Magadan2           229.437
       416   04 Jun 2027 07:25:40.868   04 Jun 2027 07:26:23.665            42.797               Magadan1          1337.406
       417   04 Jun 2027 07:26:59.490   04 Jun 2027 07:28:02.942            63.452                Anadyr1          1982.875
       418   04 Jun 2027 07:35:03.120   04 Jun 2027 07:35:34.615            31.495              Murmansk2           984.219
       419   04 Jun 2027 08:05:25.062   04 Jun 2027 08:05:50.846            25.784            RioGallegos           805.750
       420   04 Jun 2027 08:53:39.306   04 Jun 2027 08:54:14.472            35.166                Irkutsk          1098.938
       421   04 Jun 2027 08:58:20.266   04 Jun 2027 08:59:56.102            95.836               Magadan2          2994.875
       422   04 Jun 2027 09:00:05.685   04 Jun 2027 09:00:23.621            17.936                Novosib           560.500
       423   04 Jun 2027 09:00:31.146   04 Jun 2027 09:01:03.358            32.212               Magadan2          1006.625
       424   04 Jun 2027 09:01:05.902   04 Jun 2027 09:01:53.619            47.717               Magadan1          1491.156
       425   04 Jun 2027 09:02:14.596   04 Jun 2027 09:02:28.093            13.497                Irkutsk           421.781
       426   04 Jun 2027 09:02:28.131   04 Jun 2027 09:03:37.412            69.281               Magadan2          2165.031
       427   04 Jun 2027 09:03:42.727   04 Jun 2027 09:05:05.273            82.546                Irkutsk          2579.563
       428   04 Jun 2027 09:05:10.843   04 Jun 2027 09:05:36.844            26.001              Murmansk2           812.531
       429   04 Jun 2027 09:39:48.960   04 Jun 2027 09:40:32.674            43.714            RioGallegos          1366.062
       430   04 Jun 2027 09:40:57.241   04 Jun 2027 09:41:10.938            13.697            RioGallegos           428.031
       431   04 Jun 2027 09:48:06.777   04 Jun 2027 09:48:17.305            10.528            RioGallegos           329.000
       432   04 Jun 2027 10:15:01.867   04 Jun 2027 10:17:32.227           150.360                Sumatra          4698.750
       433   04 Jun 2027 10:34:43.058   04 Jun 2027 10:34:56.082            13.024                Novosib           407.000
       434   04 Jun 2027 10:35:07.720   04 Jun 2027 10:35:33.649            25.929                Irkutsk           810.281
       435   04 Jun 2027 10:35:43.746   04 Jun 2027 10:36:30.549            46.803                Norilsk          1462.594
       436   04 Jun 2027 10:36:38.220   04 Jun 2027 10:37:04.690            26.470                Irkutsk           827.188
       437   04 Jun 2027 10:37:23.068   04 Jun 2027 10:37:35.523            12.455                Irkutsk           389.219
       438   04 Jun 2027 10:37:40.306   04 Jun 2027 10:37:52.754            12.448                Novosib           389.000
       439   04 Jun 2027 10:37:54.080   04 Jun 2027 10:38:18.340            24.260              Murmansk2           758.125
       440   04 Jun 2027 10:38:30.637   04 Jun 2027 10:38:36.220             5.583                Norilsk           174.469
       441   04 Jun 2027 10:38:38.079   04 Jun 2027 10:39:26.385            48.306                Irkutsk          1509.562
       442   04 Jun 2027 10:39:35.933   04 Jun 2027 10:40:23.996            48.063              Murmansk1          1501.969
       443   04 Jun 2027 10:40:33.915   04 Jun 2027 10:40:44.628            10.713                Norilsk           334.781
       444   04 Jun 2027 10:41:09.728   04 Jun 2027 10:41:10.795             1.067                Norilsk            33.344
       445   04 Jun 2027 10:41:31.096   04 Jun 2027 10:41:37.910             6.814              Murmansk2           212.938
       446   04 Jun 2027 10:41:58.557   04 Jun 2027 10:42:00.519             1.962              Murmansk2            61.312
       447   04 Jun 2027 10:42:26.107   04 Jun 2027 10:42:32.120             6.013              Murmansk1           187.906
       448   04 Jun 2027 10:46:11.183   04 Jun 2027 10:46:18.749             7.566              Murmansk2           236.438
       449   04 Jun 2027 10:47:44.844   04 Jun 2027 10:48:17.816            32.972              Murmansk1          1030.375
       450   04 Jun 2027 11:18:04.260   04 Jun 2027 11:18:26.142            21.882            RioGallegos           683.813
       451   04 Jun 2027 11:20:56.945   04 Jun 2027 11:22:11.563            74.618            RioGallegos          2331.813
       452   04 Jun 2027 11:55:45.966   04 Jun 2027 11:57:15.429            89.463                Sumatra          2795.719
       453   04 Jun 2027 12:10:48.330   04 Jun 2027 12:11:31.219            42.889                Norilsk          1340.281
       454   04 Jun 2027 12:13:31.339   04 Jun 2027 12:14:19.295            47.956              Murmansk2          1498.625
       455   04 Jun 2027 12:19:59.220   04 Jun 2027 12:20:08.998             9.778                Norilsk           305.563
       456   04 Jun 2027 12:20:38.632   04 Jun 2027 12:20:52.035            13.403              Murmansk1           418.844
       457   04 Jun 2027 12:22:24.533   04 Jun 2027 12:22:35.749            11.216              Murmansk1           350.500
       458   04 Jun 2027 12:23:50.659   04 Jun 2027 12:23:53.109             2.450              Murmansk1            76.563
       459   04 Jun 2027 13:37:55.460   04 Jun 2027 13:39:42.231           106.771                  Delhi          3336.594
       460   04 Jun 2027 13:42:14.360   04 Jun 2027 13:42:19.826             5.466                  Delhi           170.813
       461   04 Jun 2027 13:43:32.641   04 Jun 2027 13:44:13.632            40.991                 Moscow          1280.969
       462   04 Jun 2027 13:44:36.259   04 Jun 2027 13:45:34.879            58.620                 Moscow          1831.875
       463   04 Jun 2027 13:46:26.294   04 Jun 2027 13:47:46.026            79.732                Novosib          2491.625
       464   04 Jun 2027 13:47:59.139   04 Jun 2027 13:48:36.445            37.306              Murmansk2          1165.812
       465   04 Jun 2027 13:49:02.410   04 Jun 2027 13:50:45.848           103.438                Novosib          3232.438
       466   04 Jun 2027 13:56:24.969   04 Jun 2027 13:57:45.389            80.420                Norilsk          2513.125
       467   04 Jun 2027 14:59:31.619   04 Jun 2027 15:01:43.662           132.043               CapeTown          4126.344
       468   04 Jun 2027 15:23:17.191   04 Jun 2027 15:24:07.365            50.174              Murmansk2          1567.937
       469   04 Jun 2027 15:26:04.949   04 Jun 2027 15:26:14.157             9.208              Murmansk2           287.750
       470   04 Jun 2027 15:27:37.466   04 Jun 2027 15:27:59.822            22.356              Murmansk1           698.625
       471   04 Jun 2027 15:29:56.750   04 Jun 2027 15:30:13.403            16.653              Murmansk2           520.406
       472   04 Jun 2027 15:32:11.145   04 Jun 2027 15:32:14.426             3.281              Murmansk1           102.531
       473   04 Jun 2027 15:33:42.641   04 Jun 2027 15:33:59.628            16.987              Murmansk2           530.844
       474   04 Jun 2027 15:38:13.141   04 Jun 2027 15:40:15.671           122.530                Anadyr2          3829.063
       475   04 Jun 2027 15:40:27.039   04 Jun 2027 15:40:38.956            11.917                Anadyr2           372.406
       476   04 Jun 2027 15:41:03.715   04 Jun 2027 15:42:02.441            58.726                Anadyr2          1835.188
       477   04 Jun 2027 16:41:08.923   04 Jun 2027 16:41:38.506            29.583               CapeTown           924.469
       478   04 Jun 2027 17:01:02.008   04 Jun 2027 17:01:19.175            17.167                 Moscow           536.469
       479   04 Jun 2027 17:01:50.477   04 Jun 2027 17:02:20.378            29.901              Murmansk2           934.406
       480   04 Jun 2027 17:02:21.365   04 Jun 2027 17:03:08.943            47.578              Murmansk1          1486.813
       481   04 Jun 2027 17:04:07.384   04 Jun 2027 17:04:10.275             2.891              Murmansk1            90.344
       482   04 Jun 2027 17:04:36.628   04 Jun 2027 17:04:37.226             0.598                 Moscow            18.687
