uniorb/output/strategy_2/Drop/Drop_KinoSat_110406.txt

KinoSat_110406
-------------------------
    Access    *     Start Time (UTCG)     *     Stop Time (UTCG)  *   Duration (s)        *       Station  *  Data (Mbytes)
         1   01 Jun 2027 03:41:13.471   01 Jun 2027 03:42:16.178            62.707               Magadan1          7276.500
         2   01 Jun 2027 03:42:18.414   01 Jun 2027 03:42:48.276            29.862               Magadan1          1118.000
         3   01 Jun 2027 03:43:17.507   01 Jun 2027 03:45:35.443           137.936               Magadan2         14615.500
         4   01 Jun 2027 03:45:36.041   01 Jun 2027 03:46:06.013            29.972                Anadyr2           299.000
         5   01 Jun 2027 03:46:06.668   01 Jun 2027 03:46:54.921            48.253                Novosib           327.500
         6   01 Jun 2027 03:47:02.080   01 Jun 2027 03:47:40.051            37.971               Magadan2          3579.500
         7   01 Jun 2027 03:47:44.407   01 Jun 2027 03:48:11.890            27.483                Anadyr2          2178.000
         8   01 Jun 2027 03:48:19.209   01 Jun 2027 03:48:52.760            33.551              Murmansk1          3659.500
         9   01 Jun 2027 03:48:57.009   01 Jun 2027 03:49:27.846            30.837               Magadan1          2124.500
        10   01 Jun 2027 03:49:35.721   01 Jun 2027 03:50:02.813            27.092              Murmansk2           988.500
        11   01 Jun 2027 05:18:52.484   01 Jun 2027 05:19:46.241            53.757                Norilsk          6719.625
        12   01 Jun 2027 05:20:15.897   01 Jun 2027 05:23:14.194           178.297                Irkutsk         19484.875
        13   01 Jun 2027 05:23:18.417   01 Jun 2027 05:23:29.884            11.467                Norilsk          1433.375
        14   01 Jun 2027 05:23:33.957   01 Jun 2027 05:24:47.053            73.096                Novosib          2714.625
        15   01 Jun 2027 05:24:51.436   01 Jun 2027 05:25:22.234            30.798              Murmansk2          2191.500
        16   01 Jun 2027 06:55:33.150   01 Jun 2027 06:56:55.564            82.414                Novosib          3546.500
        17   01 Jun 2027 06:57:01.579   01 Jun 2027 06:57:42.069            40.490              Murmansk1          3007.500
        18   01 Jun 2027 06:57:46.877   01 Jun 2027 06:58:09.054            22.177                Norilsk          2404.000
        19   01 Jun 2027 06:58:09.929   01 Jun 2027 06:58:16.106             6.177              Murmansk1           437.500
        20   01 Jun 2027 06:58:17.544   01 Jun 2027 06:58:24.838             7.294                 Moscow           719.000
        21   01 Jun 2027 06:58:25.354   01 Jun 2027 06:58:32.446             7.092              Murmansk2           258.000
        22   01 Jun 2027 06:58:38.138   01 Jun 2027 06:59:13.249            35.111                Norilsk          2846.000
        23   01 Jun 2027 06:59:29.179   01 Jun 2027 07:00:19.030            49.851                Norilsk          6231.375
        24   01 Jun 2027 07:00:28.398   01 Jun 2027 07:01:30.317            61.919                Norilsk          6417.625
        25   01 Jun 2027 08:32:16.988   01 Jun 2027 08:32:33.879            16.891                 Moscow           238.000
        26   01 Jun 2027 08:32:43.264   01 Jun 2027 08:33:38.910            55.646                 Moscow          4692.500
        27   01 Jun 2027 08:33:40.190   01 Jun 2027 08:33:59.727            19.537                Norilsk           640.000
        28   01 Jun 2027 08:34:03.808   01 Jun 2027 08:34:31.637            27.829              Murmansk2          2040.500
        29   01 Jun 2027 08:34:31.806   01 Jun 2027 08:34:58.334            26.528                Norilsk            84.500
        30   01 Jun 2027 08:35:11.306   01 Jun 2027 08:36:12.703            61.397              Murmansk1          6486.000
        31   01 Jun 2027 08:36:32.135   01 Jun 2027 08:37:53.824            81.689                Norilsk          9716.000
        32   01 Jun 2027 10:10:09.799   01 Jun 2027 10:11:25.931            76.132                 Moscow          8137.000
        33   01 Jun 2027 10:11:46.725   01 Jun 2027 10:11:57.783            11.058                 Moscow          1382.250
        34   01 Jun 2027 10:12:00.824   01 Jun 2027 10:12:48.051            47.227              Murmansk2          3732.750
        35   02 Jun 2027 03:53:50.552   02 Jun 2027 03:54:02.469            11.917               Magadan2          1046.500
        36   02 Jun 2027 03:54:28.917   02 Jun 2027 03:56:17.036           108.119                Norilsk         13224.000
        37   02 Jun 2027 03:56:18.073   02 Jun 2027 03:56:47.380            29.307                Norilsk           518.500
        38   02 Jun 2027 03:56:49.259   02 Jun 2027 03:57:06.853            17.594               Magadan1           939.500
        39   02 Jun 2027 03:57:07.690   02 Jun 2027 03:57:26.286            18.596               Magadan1           418.500
        40   02 Jun 2027 03:57:28.658   02 Jun 2027 03:57:44.023            15.365                Novosib          1186.000
        41   02 Jun 2027 03:57:49.420   02 Jun 2027 03:58:16.906            27.486                Anadyr2          2698.500
        42   02 Jun 2027 03:58:17.475   02 Jun 2027 03:58:30.685            13.210                Norilsk           284.500
        43   02 Jun 2027 03:58:35.717   02 Jun 2027 03:58:56.720            21.003                Norilsk          2516.000
        44   02 Jun 2027 03:59:00.393   02 Jun 2027 03:59:59.701            59.308                Novosib          1836.500
        45   02 Jun 2027 04:00:11.734   02 Jun 2027 04:00:43.337            31.603                Norilsk          3950.375
        46   02 Jun 2027 04:00:54.429   02 Jun 2027 04:01:57.323            62.894              Murmansk2          7612.125
        47   02 Jun 2027 05:30:44.924   02 Jun 2027 05:31:39.566            54.642                Norilsk          4352.000
        48   02 Jun 2027 05:31:56.891   02 Jun 2027 05:33:24.504            87.613                Norilsk          8662.500
        49   02 Jun 2027 05:33:29.711   02 Jun 2027 05:33:52.982            23.271                Irkutsk          2603.500
        50   02 Jun 2027 05:33:56.910   02 Jun 2027 05:34:14.367            17.457                Novosib          1964.000
        51   02 Jun 2027 05:34:15.246   02 Jun 2027 05:34:47.225            31.979                Norilsk           439.500
        52   02 Jun 2027 05:34:49.885   02 Jun 2027 05:35:35.980            46.095              Murmansk2          1330.000
        53   02 Jun 2027 05:35:36.438   02 Jun 2027 05:36:03.343            26.905                Novosib           229.000
        54   02 Jun 2027 05:36:19.776   02 Jun 2027 05:37:30.655            70.879              Murmansk1          8216.500
        55   02 Jun 2027 07:08:33.913   02 Jun 2027 07:09:06.938            33.025                Novosib          4128.125
        56   02 Jun 2027 07:09:26.263   02 Jun 2027 07:11:27.749           121.486                Norilsk         13888.875
        57   02 Jun 2027 07:11:28.887   02 Jun 2027 07:11:51.039            22.152                Novosib           569.000
        58   02 Jun 2027 07:11:54.601   02 Jun 2027 07:12:10.943            16.342              Murmansk1          1781.000
        59   02 Jun 2027 07:12:15.115   02 Jun 2027 07:12:38.483            23.368                Irkutsk          2086.000
        60   02 Jun 2027 07:12:52.237   02 Jun 2027 07:13:12.944            20.707              Murmansk1          2588.375
        61   02 Jun 2027 07:13:12.944   02 Jun 2027 07:14:00.246            47.302              Murmansk2           663.125
        62   02 Jun 2027 08:44:23.041   02 Jun 2027 08:45:39.632            76.591                Novosib          2003.500
        63   02 Jun 2027 08:45:46.869   02 Jun 2027 08:47:18.857            91.988                Novosib          3618.500
        64   02 Jun 2027 08:47:20.738   02 Jun 2027 08:48:24.254            63.516              Murmansk2           940.500
        65   02 Jun 2027 08:48:25.321   02 Jun 2027 08:48:29.667             4.346                Norilsk           533.500
        66   02 Jun 2027 08:48:34.024   02 Jun 2027 08:49:26.259            52.235                Novosib          2178.500
        67   03 Jun 2027 04:06:51.582   03 Jun 2027 04:06:59.314             7.732               Magadan2           910.000
        68   03 Jun 2027 04:07:08.788   03 Jun 2027 04:08:07.519            58.731                Novosib          4737.000
        69   03 Jun 2027 04:08:11.170   03 Jun 2027 04:08:27.224            16.054               Magadan1          1825.500
        70   03 Jun 2027 04:08:31.003   03 Jun 2027 04:08:58.473            27.470               Magadan2          1889.500
        71   03 Jun 2027 04:09:05.568   03 Jun 2027 04:10:02.069            56.501               Magadan1          3547.500
        72   03 Jun 2027 04:10:08.186   03 Jun 2027 04:10:34.854            26.668                Norilsk          3058.500
        73   03 Jun 2027 04:10:45.512   03 Jun 2027 04:11:46.789            61.277                Norilsk          5329.000
        74   03 Jun 2027 04:11:50.882   03 Jun 2027 04:12:09.864            18.982                Norilsk          2046.500
        75   03 Jun 2027 04:12:11.836   03 Jun 2027 04:12:56.258            44.422              Murmansk1           986.000
        76   03 Jun 2027 04:12:58.691   03 Jun 2027 04:13:10.611            11.920               Magadan2          1216.500
        77   03 Jun 2027 04:13:10.777   03 Jun 2027 04:13:50.698            39.921              Murmansk2            83.000
        78   03 Jun 2027 05:43:31.033   03 Jun 2027 05:43:56.800            25.767                Novosib          3220.875
        79   03 Jun 2027 05:43:59.271   03 Jun 2027 05:45:02.357            63.086                Irkutsk          7448.125
        80   03 Jun 2027 05:45:10.800   03 Jun 2027 05:46:01.580            50.780                Novosib          4221.500
        81   03 Jun 2027 05:46:07.776   03 Jun 2027 05:47:22.322            74.546                Irkutsk          3098.000
        82   03 Jun 2027 05:47:28.314   03 Jun 2027 05:48:12.603            44.289              Murmansk1          2996.000
        83   03 Jun 2027 05:48:17.465   03 Jun 2027 05:48:38.284            20.819                Irkutsk          2431.000
        84   03 Jun 2027 05:48:44.936   03 Jun 2027 05:49:19.282            34.346              Murmansk2          3326.000
        85   03 Jun 2027 05:49:24.277   03 Jun 2027 05:50:15.562            51.285                Novosib          2497.500
        86   03 Jun 2027 07:20:29.169   03 Jun 2027 07:21:03.470            34.301              Murmansk1           664.000
        87   03 Jun 2027 07:21:09.940   03 Jun 2027 07:22:09.487            59.547                 Moscow          3235.000
        88   03 Jun 2027 07:22:18.315   03 Jun 2027 07:23:01.499            43.184              Murmansk1          4414.000
        89   03 Jun 2027 07:23:05.542   03 Jun 2027 07:23:33.188            27.646                Irkutsk          2021.500
        90   03 Jun 2027 07:23:45.395   03 Jun 2027 07:23:50.449             5.054                Norilsk           631.750
        91   03 Jun 2027 07:23:57.951   03 Jun 2027 07:25:50.581           112.630              Murmansk1          9222.750
        92   03 Jun 2027 08:56:50.571   03 Jun 2027 08:57:32.029            41.458                Novosib          4215.000
        93   03 Jun 2027 08:57:51.878   03 Jun 2027 08:59:15.695            83.817              Murmansk1          9924.500
        94   03 Jun 2027 08:59:18.881   03 Jun 2027 08:59:43.083            24.202                Novosib          1593.000
        95   03 Jun 2027 08:59:54.754   03 Jun 2027 09:00:12.171            17.417                 Moscow          2177.125
        96   03 Jun 2027 09:00:14.571   03 Jun 2027 09:01:04.710            50.139                Novosib          4858.375
        97   03 Jun 2027 09:01:09.459   03 Jun 2027 09:01:39.923            30.464                Norilsk          2374.500
        98   04 Jun 2027 04:18:53.028   04 Jun 2027 04:20:10.698            77.670                Norilsk          9708.750
        99   04 Jun 2027 04:20:17.929   04 Jun 2027 04:21:02.206            44.277                Irkutsk          4640.250
       100   04 Jun 2027 04:21:02.474   04 Jun 2027 04:21:12.659            10.185               Magadan1           134.000
       101   04 Jun 2027 04:21:23.885   04 Jun 2027 04:22:13.141            49.256                Irkutsk          5613.000
       102   04 Jun 2027 04:22:26.501   04 Jun 2027 04:23:41.817            75.316                Norilsk          6680.000
       103   04 Jun 2027 04:23:44.011   04 Jun 2027 04:24:06.767            22.756                Norilsk          1097.000
       104   04 Jun 2027 04:24:12.665   04 Jun 2027 04:24:28.050            15.385                Irkutsk          1923.125
       105   04 Jun 2027 04:24:41.740   04 Jun 2027 04:26:07.885            86.145              Murmansk2          7870.875
       106   04 Jun 2027 05:54:53.847   04 Jun 2027 05:55:50.519            56.672                Novosib          4842.000
       107   04 Jun 2027 05:56:02.145   04 Jun 2027 05:56:57.397            55.252                Norilsk          5813.000
       108   04 Jun 2027 05:57:03.146   04 Jun 2027 05:57:58.072            54.926                Novosib          2874.500
       109   04 Jun 2027 05:58:09.956   04 Jun 2027 05:59:04.841            54.885              Murmansk1          5942.000
       110   04 Jun 2027 05:59:12.425   04 Jun 2027 05:59:16.525             4.100                Irkutsk           512.500
       111   04 Jun 2027 05:59:17.525   04 Jun 2027 05:59:44.336            26.811                Norilsk          3351.375
       112   04 Jun 2027 05:59:50.476   04 Jun 2027 06:00:08.662            18.186                Novosib          2273.250
       113   04 Jun 2027 06:00:20.400   04 Jun 2027 06:01:31.864            71.464                Irkutsk          7093.875
       114   04 Jun 2027 07:32:56.775   04 Jun 2027 07:33:05.747             8.972                Novosib           197.000
       115   04 Jun 2027 07:33:14.593   04 Jun 2027 07:34:07.471            52.878              Murmansk1          4423.000
       116   04 Jun 2027 07:34:09.517   04 Jun 2027 07:34:24.266            14.749                 Moscow          1023.000
       117   04 Jun 2027 07:34:24.773   04 Jun 2027 07:35:17.432            52.659                 Moscow           253.500
       118   04 Jun 2027 07:35:17.672   04 Jun 2027 07:35:31.928            14.256                 Moscow           120.000
       119   04 Jun 2027 07:35:34.615   04 Jun 2027 07:35:52.875            18.260              Murmansk2          1343.500
       120   04 Jun 2027 07:35:59.554   04 Jun 2027 07:36:29.696            30.142              Murmansk2          3339.500
       121   04 Jun 2027 07:36:45.733   04 Jun 2027 07:38:01.141            75.408              Murmansk1          8018.500
       122   04 Jun 2027 09:08:32.029   04 Jun 2027 09:09:44.276            72.247              Murmansk2          3570.000
       123   04 Jun 2027 09:09:45.037   04 Jun 2027 09:09:58.913            13.876                 Moscow           380.500
       124   04 Jun 2027 09:10:09.311   04 Jun 2027 09:10:56.435            47.124                 Moscow          5199.000
       125   04 Jun 2027 09:11:07.330   04 Jun 2027 09:12:07.872            60.542              Murmansk1          5447.500
       126   04 Jun 2027 09:12:19.330   04 Jun 2027 09:13:13.473            54.143                Norilsk          5729.000
       127   04 Jun 2027 09:13:14.043   04 Jun 2027 09:13:32.132            18.089                Norilsk           285.000
       128   04 Jun 2027 09:13:34.246   04 Jun 2027 09:13:49.093            14.847              Murmansk2          1057.000
       129   04 Jun 2027 09:13:57.446   04 Jun 2027 09:14:20.216            22.770                Norilsk          1817.500
       130   05 Jun 2027 04:30:19.771   05 Jun 2027 04:31:21.613            61.842                Irkutsk          7358.000
       131   05 Jun 2027 04:31:24.578   05 Jun 2027 04:31:41.241            16.663               Magadan1          1482.500
       132   05 Jun 2027 04:31:46.155   05 Jun 2027 04:32:14.562            28.407               Magadan1          2457.000
       133   05 Jun 2027 04:32:16.509   05 Jun 2027 04:32:26.977            10.468               Magadan1           973.500
       134   05 Jun 2027 04:32:34.320   05 Jun 2027 04:33:49.235            74.915                Novosib          3671.500
       135   05 Jun 2027 04:33:49.777   05 Jun 2027 04:34:02.234            12.457                Novosib           271.000
       136   05 Jun 2027 04:34:10.449   05 Jun 2027 04:35:05.549            55.100               Magadan2          4107.500
       137   05 Jun 2027 04:35:12.195   05 Jun 2027 04:36:02.419            50.224               Magadan1          3323.000
       138   05 Jun 2027 04:36:12.671   05 Jun 2027 04:37:00.230            47.559              Murmansk2          5126.000
       139   05 Jun 2027 04:37:18.091   05 Jun 2027 04:38:41.455            83.364              Murmansk1          8930.500
       140   05 Jun 2027 06:07:14.430   05 Jun 2027 06:07:50.675            36.245                Norilsk          4175.000
       141   05 Jun 2027 06:08:11.043   05 Jun 2027 06:09:53.163           102.120                Novosib         10184.000
       142   05 Jun 2027 06:09:57.041   05 Jun 2027 06:10:20.707            23.666              Murmansk1          1939.000
       143   05 Jun 2027 06:10:29.488   05 Jun 2027 06:11:19.001            49.513                Novosib          4390.500
       144   05 Jun 2027 06:11:20.900   05 Jun 2027 06:12:01.190            40.290                Novosib           949.500
       145   05 Jun 2027 06:12:01.269   05 Jun 2027 06:12:10.573             9.304                Norilsk            39.500
       146   05 Jun 2027 06:12:15.916   05 Jun 2027 06:12:44.789            28.873                Norilsk          2671.500
       147   05 Jun 2027 06:12:48.283   05 Jun 2027 06:13:10.235            21.952                 Moscow          1747.000
       148   05 Jun 2027 06:13:21.865   05 Jun 2027 06:14:20.259            58.394                 Moscow          1753.500
       149   05 Jun 2027 07:45:15.266   05 Jun 2027 07:45:35.000            19.734                Norilsk          2466.750
       150   05 Jun 2027 07:45:38.454   05 Jun 2027 07:46:28.590            50.136                 Moscow          3700.750
       151   05 Jun 2027 07:46:30.480   05 Jun 2027 07:46:47.150            16.670              Murmansk1           945.000
       152   05 Jun 2027 07:46:48.029   05 Jun 2027 07:46:56.236             8.207                Irkutsk           439.500
       153   05 Jun 2027 07:47:12.073   05 Jun 2027 07:48:28.700            76.627                Novosib          7918.500
       154   05 Jun 2027 07:48:31.017   05 Jun 2027 07:49:24.740            53.723                Novosib          1158.500
       155   05 Jun 2027 09:18:48.708   05 Jun 2027 09:21:30.521           161.813                 Moscow         14277.000
       156   05 Jun 2027 09:21:35.612   05 Jun 2027 09:22:06.896            31.284                 Moscow          2545.500
       157   05 Jun 2027 09:22:09.225   05 Jun 2027 09:22:22.098            12.873              Murmansk1          1164.500
       158   05 Jun 2027 09:22:24.861   05 Jun 2027 09:22:47.186            22.325              Murmansk2          1381.500
       159   05 Jun 2027 09:22:59.721   05 Jun 2027 09:23:57.863            58.142              Murmansk1          6267.500
       160   05 Jun 2027 09:23:58.724   05 Jun 2027 09:24:08.443             9.719                Norilsk           430.500
       161   05 Jun 2027 09:24:23.312   05 Jun 2027 09:24:41.343            18.031                Novosib          2253.875
       162   05 Jun 2027 09:25:00.031   05 Jun 2027 09:28:05.392           185.361                Norilsk         14524.625
       163   06 Jun 2027 03:05:08.048   06 Jun 2027 03:05:37.594            29.546               Magadan1          3272.500
       164   06 Jun 2027 03:05:47.686   06 Jun 2027 03:06:45.615            57.929               Magadan2          5046.000
       165   06 Jun 2027 03:07:05.619   06 Jun 2027 03:07:41.916            36.297                Anadyr1          1257.000
       166   06 Jun 2027 03:07:55.201   06 Jun 2027 03:08:59.822            64.621                Anadyr2          6642.500
       167   06 Jun 2027 03:09:00.831   06 Jun 2027 03:09:18.661            17.830                Norilsk           504.500
       168   06 Jun 2027 03:09:23.990   06 Jun 2027 03:09:46.283            22.293               Magadan1          2664.500
       169   06 Jun 2027 03:09:47.787   06 Jun 2027 03:10:04.195            16.408                Anadyr1           752.000
       170   06 Jun 2027 03:10:16.202   06 Jun 2027 03:11:11.673            55.471               Magadan2          6003.500
       171   06 Jun 2027 03:11:15.410   06 Jun 2027 03:11:48.589            33.179               Magadan1          1868.500
       172   06 Jun 2027 03:11:53.453   06 Jun 2027 03:12:54.914            61.461                Anadyr1          2432.000
       173   06 Jun 2027 03:13:00.793   06 Jun 2027 03:13:24.253            23.460                Novosib          1732.000
       174   06 Jun 2027 04:42:31.343   06 Jun 2027 04:43:48.437            77.094                Norilsk          8627.500
       175   06 Jun 2027 04:43:59.241   06 Jun 2027 04:44:52.452            53.211               Magadan1          5402.000
       176   06 Jun 2027 04:44:57.222   06 Jun 2027 04:45:22.761            25.539                Norilsk          2385.000
       177   06 Jun 2027 04:45:28.956   06 Jun 2027 04:46:10.161            41.205               Magadan1          3097.500
       178   06 Jun 2027 04:46:14.085   06 Jun 2027 04:46:41.805            27.720                Norilsk          1962.000
       179   06 Jun 2027 04:46:47.215   06 Jun 2027 04:47:17.798            30.583                Novosib          2705.000
       180   06 Jun 2027 04:47:25.107   06 Jun 2027 04:47:57.171            32.064                Norilsk          3654.500
       181   06 Jun 2027 04:47:58.195   06 Jun 2027 04:49:03.470            65.275                Novosib           512.000
       182   06 Jun 2027 04:49:12.499   06 Jun 2027 04:49:39.417            26.918                Irkutsk          3364.750
       183   06 Jun 2027 04:50:17.990   06 Jun 2027 04:50:34.742            16.752              Murmansk1          1369.750
       184   06 Jun 2027 06:19:39.263   06 Jun 2027 06:21:40.083           120.820                Norilsk         14104.000
       185   06 Jun 2027 06:21:44.133   06 Jun 2027 06:22:06.588            22.455              Murmansk2          2025.000
       186   06 Jun 2027 06:22:13.918   06 Jun 2027 06:22:47.361            33.443                Irkutsk          3665.000
       187   06 Jun 2027 06:22:49.961   06 Jun 2027 06:23:09.295            19.334              Murmansk1          1300.000
       188   06 Jun 2027 06:23:13.922   06 Jun 2027 06:23:42.902            28.980                 Moscow          2313.500
       189   06 Jun 2027 06:23:45.678   06 Jun 2027 06:24:22.772            37.094              Murmansk2          1388.000
       190   06 Jun 2027 06:24:32.387   06 Jun 2027 06:25:03.628            31.241                 Moscow          3905.125
       191   06 Jun 2027 06:25:10.245   06 Jun 2027 06:25:26.207            15.962                Irkutsk          1995.250
       192   06 Jun 2027 06:25:44.136   06 Jun 2027 06:26:18.520            34.384              Murmansk2          2215.625
       193   06 Jun 2027 07:57:06.358   06 Jun 2027 07:57:47.745            41.387              Murmansk2          1039.000
       194   06 Jun 2027 07:57:48.802   06 Jun 2027 07:57:53.478             4.676                Irkutsk           528.500
       195   06 Jun 2027 07:58:04.975   06 Jun 2027 07:58:33.121            28.146                Irkutsk          3518.250
       196   06 Jun 2027 07:58:33.413   06 Jun 2027 07:59:02.203            28.790                 Moscow          2376.250
       197   06 Jun 2027 07:59:05.718   06 Jun 2027 07:59:18.960            13.242              Murmansk1          1655.250
       198   06 Jun 2027 07:59:18.960   06 Jun 2027 07:59:43.848            24.888              Murmansk2           102.250
       199   06 Jun 2027 07:59:44.719   06 Jun 2027 08:00:03.854            19.135              Murmansk2           435.500
       200   06 Jun 2027 08:00:05.230   06 Jun 2027 08:00:12.008             6.778              Murmansk2           688.000
       201   06 Jun 2027 08:00:14.827   06 Jun 2027 08:00:34.140            19.313                Novosib          1409.500
       202   06 Jun 2027 08:00:43.718   06 Jun 2027 08:01:25.972            42.254              Murmansk1          4789.000
       203   06 Jun 2027 09:30:46.463   06 Jun 2027 09:31:33.062            46.599                 Moscow          3925.500
       204   06 Jun 2027 09:31:39.389   06 Jun 2027 09:32:17.333            37.944              Murmansk2          3163.500
       205   06 Jun 2027 09:32:29.687   06 Jun 2027 09:33:20.271            50.584                 Moscow          6177.000
       206   06 Jun 2027 09:33:26.230   06 Jun 2027 09:33:56.496            30.266              Murmansk1          2979.500
       207   06 Jun 2027 09:34:10.834   06 Jun 2027 09:35:18.538            67.704              Murmansk1          7169.000
       208   06 Jun 2027 09:35:44.740   06 Jun 2027 09:38:03.175           138.435                 Moscow         13101.000
       209   06 Jun 2027 09:38:29.509   06 Jun 2027 09:39:15.848            46.339              Murmansk1          3753.000
       210   07 Jun 2027 03:16:36.166   07 Jun 2027 03:17:01.338            25.172               Magadan1          2554.500
       211   07 Jun 2027 03:17:04.512   07 Jun 2027 03:17:34.457            29.945                Irkutsk          1587.000
       212   07 Jun 2027 03:17:48.471   07 Jun 2027 03:19:09.167            80.696               Magadan1          7007.000
       213   07 Jun 2027 03:19:12.811   07 Jun 2027 03:19:53.420            40.609                Norilsk          1822.000
       214   07 Jun 2027 03:19:58.162   07 Jun 2027 03:20:41.362            43.200                Anadyr1          2371.000
       215   07 Jun 2027 03:20:52.297   07 Jun 2027 03:22:03.888            71.591                Irkutsk          5467.500
       216   07 Jun 2027 03:22:05.423   07 Jun 2027 03:22:11.623             6.200               Magadan1           767.500
       217   07 Jun 2027 03:22:11.975   07 Jun 2027 03:22:15.600             3.625                Novosib           176.000
       218   07 Jun 2027 03:22:16.815   07 Jun 2027 03:23:02.731            45.916                Novosib           607.500
       219   07 Jun 2027 03:23:12.084   07 Jun 2027 03:24:16.369            64.285                Norilsk          4676.500
       220   07 Jun 2027 03:24:27.304   07 Jun 2027 03:24:39.497            12.193                Norilsk          1524.125
       221   07 Jun 2027 03:24:42.133   07 Jun 2027 03:24:53.484            11.351               Magadan1          1324.875
       222   07 Jun 2027 03:24:59.516   07 Jun 2027 03:25:33.122            33.606               Magadan2          3016.000
       223   07 Jun 2027 03:25:37.185   07 Jun 2027 03:25:52.467            15.282                Novosib          1910.250
       224   07 Jun 2027 03:25:53.564   07 Jun 2027 03:26:15.940            22.376              Murmansk1           121.250
       225   07 Jun 2027 04:54:20.048   07 Jun 2027 04:54:42.024            21.976                Norilsk          2057.000
       226   07 Jun 2027 04:54:50.560   07 Jun 2027 04:55:41.704            51.144                Norilsk          4268.000
       227   07 Jun 2027 04:55:44.427   07 Jun 2027 04:55:48.151             3.724                Novosib           465.500
       228   07 Jun 2027 04:55:49.655   07 Jun 2027 04:56:15.091            25.436               Magadan2          1648.000
       229   07 Jun 2027 04:56:44.806   07 Jun 2027 04:59:18.172           153.366               Magadan1         14857.500
       230   07 Jun 2027 04:59:25.214   07 Jun 2027 05:00:07.907            42.693              Murmansk2          3521.000
       231   07 Jun 2027 05:00:08.089   07 Jun 2027 05:00:26.406            18.317              Murmansk1            91.000
       232   07 Jun 2027 05:00:46.973   07 Jun 2027 05:01:42.643            55.670                Irkutsk          6958.750
       233   07 Jun 2027 05:02:07.080   07 Jun 2027 05:02:57.854            50.774                Novosib          3324.750
       234   07 Jun 2027 06:31:06.319   07 Jun 2027 06:31:19.698            13.379                Novosib          1318.000
       235   07 Jun 2027 06:31:28.017   07 Jun 2027 06:32:25.586            57.569                Norilsk          4159.500
       236   07 Jun 2027 06:32:54.095   07 Jun 2027 06:34:44.282           110.187                Norilsk         13773.375
       237   07 Jun 2027 06:34:47.173   07 Jun 2027 06:35:11.646            24.473                 Moscow          1926.625
       238   07 Jun 2027 06:35:16.207   07 Jun 2027 06:36:16.173            59.966              Murmansk2          2280.500
       239   07 Jun 2027 06:36:17.577   07 Jun 2027 06:36:35.761            18.184              Murmansk1           702.000
       240   07 Jun 2027 06:36:36.681   07 Jun 2027 06:37:32.958            56.277                Novosib           460.000
       241   07 Jun 2027 06:37:36.189   07 Jun 2027 06:37:42.958             6.769                Norilsk           846.125
       242   07 Jun 2027 06:37:43.897   07 Jun 2027 06:38:06.245            22.348              Murmansk1          1238.875
       243   07 Jun 2027 08:09:17.327   07 Jun 2027 08:10:31.184            73.857                Novosib          4952.000
       244   07 Jun 2027 08:10:32.704   07 Jun 2027 08:10:43.447            10.743                Norilsk           760.000
       245   07 Jun 2027 08:10:43.492   07 Jun 2027 08:11:29.670            46.178                Novosib            22.500
       246   07 Jun 2027 08:11:34.583   07 Jun 2027 08:12:06.449            31.866              Murmansk2          2456.500
       247   07 Jun 2027 08:12:10.143   07 Jun 2027 08:12:41.983            31.840              Murmansk1          1847.000
       248   07 Jun 2027 08:12:54.120   07 Jun 2027 08:13:39.221            45.101                Norilsk          5637.625
       249   07 Jun 2027 08:13:57.074   07 Jun 2027 08:14:03.006             5.932                Novosib           430.875
       250   07 Jun 2027 09:43:08.920   07 Jun 2027 09:44:17.745            68.825                 Moscow          5527.500
       251   07 Jun 2027 09:44:19.532   07 Jun 2027 09:44:41.407            21.875                 Moscow           893.500
       252   07 Jun 2027 09:44:47.959   07 Jun 2027 09:45:09.427            21.468                 Moscow          2683.500
       253   07 Jun 2027 09:45:15.975   07 Jun 2027 09:46:00.154            44.179              Murmansk2          3866.500
       254   07 Jun 2027 09:46:07.350   07 Jun 2027 09:46:37.879            30.529              Murmansk2          3598.000
       255   07 Jun 2027 09:46:42.864   07 Jun 2027 09:47:18.829            35.965              Murmansk2          2492.500
       256   07 Jun 2027 09:47:20.017   07 Jun 2027 09:48:12.078            52.061                Norilsk           594.000
       257   07 Jun 2027 09:48:12.487   07 Jun 2027 09:48:21.834             9.347              Murmansk2           204.500
       258   07 Jun 2027 09:48:24.500   07 Jun 2027 09:48:43.883            19.383                Norilsk          1333.000
       259   07 Jun 2027 09:48:46.883   07 Jun 2027 09:49:25.626            38.743                 Moscow          1500.000
       260   07 Jun 2027 09:49:34.020   07 Jun 2027 09:50:25.448            51.428                 Moscow          4197.000
       261   08 Jun 2027 03:29:21.016   08 Jun 2027 03:29:48.130            27.114               Magadan2          2661.000
       262   08 Jun 2027 03:30:03.529   08 Jun 2027 03:31:32.367            88.838               Magadan1          7699.500
       263   08 Jun 2027 03:31:33.391   08 Jun 2027 03:31:46.043            12.652                Norilsk           512.000
       264   08 Jun 2027 03:31:59.587   08 Jun 2027 03:33:08.091            68.504                Anadyr1          6772.000
       265   08 Jun 2027 03:33:14.407   08 Jun 2027 03:33:59.973            45.566               Magadan2          3158.000
       266   08 Jun 2027 03:34:08.110   08 Jun 2027 03:34:17.680             9.570                Novosib          1196.250
       267   08 Jun 2027 03:34:20.203   08 Jun 2027 03:35:16.337            56.134               Magadan1          4133.750
       268   08 Jun 2027 03:35:16.817   08 Jun 2027 03:35:20.401             3.584               Magadan1           240.000
       269   08 Jun 2027 03:35:34.792   08 Jun 2027 03:36:13.778            38.986                Norilsk          4873.250
       270   08 Jun 2027 03:36:14.652   08 Jun 2027 03:36:41.696            27.044                Irkutsk          2759.250
       271   08 Jun 2027 03:36:46.851   08 Jun 2027 03:37:03.581            16.730                Anadyr1           633.500
       272   08 Jun 2027 03:37:08.297   08 Jun 2027 03:37:43.808            35.511              Murmansk2          2358.000
       273   08 Jun 2027 03:37:43.951   08 Jun 2027 03:38:10.720            26.769                Novosib            71.500
       274   08 Jun 2027 05:06:20.294   08 Jun 2027 05:07:09.326            49.032                Novosib           727.000
       275   08 Jun 2027 05:07:15.411   08 Jun 2027 05:08:09.364            53.953                Norilsk          3042.500
       276   08 Jun 2027 05:08:18.052   08 Jun 2027 05:09:23.999            65.947               Magadan1          4344.000
       277   08 Jun 2027 05:09:25.935   08 Jun 2027 05:10:29.421            63.486                Irkutsk           968.000
       278   08 Jun 2027 05:10:55.711   08 Jun 2027 05:12:46.920           111.209                Novosib         13145.000
       279   08 Jun 2027 05:12:58.567   08 Jun 2027 05:13:45.305            46.738                Norilsk          5823.500
       280   08 Jun 2027 06:43:17.033   08 Jun 2027 06:43:48.989            31.956                Norilsk          1890.500
       281   08 Jun 2027 06:43:53.975   08 Jun 2027 06:44:21.279            27.304                Norilsk          2493.000
       282   08 Jun 2027 06:44:30.896   08 Jun 2027 06:45:03.696            32.800                Irkutsk          4100.000
       283   08 Jun 2027 06:45:04.203   08 Jun 2027 06:45:41.991            37.788                Norilsk           962.000
       284   08 Jun 2027 06:45:48.977   08 Jun 2027 06:46:30.181            41.204                 Moscow          3493.000
       285   08 Jun 2027 06:46:34.864   08 Jun 2027 06:46:53.013            18.149                Norilsk          2268.625
       286   08 Jun 2027 06:46:54.388   08 Jun 2027 06:47:01.751             7.363                 Moscow           760.375
       287   08 Jun 2027 06:47:03.584   08 Jun 2027 06:47:23.209            19.625                Irkutsk           916.500
       288   08 Jun 2027 06:47:30.832   08 Jun 2027 06:48:41.908            71.076                 Moscow          3811.500
       289   08 Jun 2027 06:48:59.827   08 Jun 2027 06:49:51.611            51.784                Novosib          6473.000
       290   08 Jun 2027 06:49:53.652   08 Jun 2027 06:50:28.368            34.716              Murmansk2          2486.500
       291   08 Jun 2027 08:20:20.682   08 Jun 2027 08:20:45.433            24.751                 Moscow           538.000
       292   08 Jun 2027 08:20:46.940   08 Jun 2027 08:20:57.000            10.060                 Moscow           753.500
       293   08 Jun 2027 08:21:00.918   08 Jun 2027 08:22:01.075            60.157                Novosib          1959.000
       294   08 Jun 2027 08:22:11.891   08 Jun 2027 08:22:25.559            13.668              Murmansk1          1708.500
       295   08 Jun 2027 08:22:25.559   08 Jun 2027 08:23:07.276            41.717              Murmansk2          3699.500
       296   08 Jun 2027 08:23:14.158   08 Jun 2027 08:24:38.830            84.672                Novosib          3441.000
       297   08 Jun 2027 08:24:39.706   08 Jun 2027 08:25:13.094            33.388              Murmansk1           438.000
       298   08 Jun 2027 09:55:32.257   08 Jun 2027 09:56:18.536            46.279                 Moscow          5579.500
       299   08 Jun 2027 09:57:02.894   08 Jun 2027 09:57:16.357            13.463                 Moscow          1058.500
       300   08 Jun 2027 09:57:31.015   08 Jun 2027 09:58:39.416            68.401              Murmansk1          7329.000
       301   08 Jun 2027 09:58:41.387   08 Jun 2027 09:59:19.392            38.005              Murmansk1           985.500
       302   08 Jun 2027 09:59:51.190   08 Jun 2027 10:00:04.489            13.299                 Moscow          1662.375
       303   08 Jun 2027 10:00:05.494   08 Jun 2027 10:02:16.080           130.586              Murmansk1         14739.125
       304   09 Jun 2027 03:41:29.607   09 Jun 2027 03:42:38.017            68.410               Magadan1          7981.000
       305   09 Jun 2027 03:43:02.982   09 Jun 2027 03:44:43.136           100.154               Magadan1         12482.500
       306   09 Jun 2027 03:44:43.658   09 Jun 2027 03:44:53.767            10.109                Irkutsk           261.000
       307   09 Jun 2027 03:44:57.163   09 Jun 2027 03:45:13.844            16.681                Anadyr2          1698.000
       308   09 Jun 2027 03:45:19.217   09 Jun 2027 03:45:52.276            33.059               Magadan2          2686.500
       309   09 Jun 2027 03:45:57.887   09 Jun 2027 03:46:17.803            19.916                Novosib          2489.500
       310   09 Jun 2027 03:46:21.485   09 Jun 2027 03:47:55.453            93.968                Anadyr1          2157.000
       311   09 Jun 2027 03:47:59.424   09 Jun 2027 03:48:27.885            28.461                Anadyr1          1985.500
       312   09 Jun 2027 03:48:33.768   09 Jun 2027 03:49:09.767            35.999              Murmansk2          2941.500
       313   09 Jun 2027 03:49:11.641   09 Jun 2027 03:49:27.372            15.731               Magadan1           937.000
       314   09 Jun 2027 03:49:43.472   09 Jun 2027 03:50:13.587            30.115                Norilsk          3764.375
       315   09 Jun 2027 03:50:17.718   09 Jun 2027 03:51:06.677            48.959              Murmansk1          4285.625
       316   09 Jun 2027 05:18:45.825   09 Jun 2027 05:19:07.025            21.200                Norilsk           632.000
       317   09 Jun 2027 05:19:07.292   09 Jun 2027 05:19:18.312            11.020                Novosib           133.500
       318   09 Jun 2027 05:19:24.246   09 Jun 2027 05:19:51.823            27.577                Novosib          2967.000
       319   09 Jun 2027 05:20:03.579   09 Jun 2027 05:20:52.226            48.647                Norilsk          5878.000
       320   09 Jun 2027 05:20:56.726   09 Jun 2027 05:21:11.641            14.915                Norilsk          1864.375
       321   09 Jun 2027 05:21:12.561   09 Jun 2027 05:21:47.373            34.812                Norilsk           845.625
       322   09 Jun 2027 05:21:47.614   09 Jun 2027 05:22:18.944            31.330                Novosib           120.500
       323   09 Jun 2027 05:22:18.987   09 Jun 2027 05:22:26.089             7.102                Norilsk            21.500
       324   09 Jun 2027 05:22:28.557   09 Jun 2027 05:23:29.458            60.901                Irkutsk          1234.000
       325   09 Jun 2027 05:23:35.371   09 Jun 2027 05:23:44.774             9.403                Norilsk          1175.375
       326   09 Jun 2027 05:23:48.796   09 Jun 2027 05:25:01.484            72.688                Novosib          3792.125
       327   09 Jun 2027 05:25:08.453   09 Jun 2027 05:25:41.388            32.935              Murmansk2          3484.500
       328   09 Jun 2027 06:55:48.039   09 Jun 2027 06:56:49.187            61.148                Norilsk          3688.500
       329   09 Jun 2027 06:56:53.060   09 Jun 2027 06:57:34.681            41.621                 Moscow          1936.500
       330   09 Jun 2027 06:57:39.586   09 Jun 2027 06:58:11.751            32.165                Novosib          2452.500
       331   09 Jun 2027 06:58:25.169   09 Jun 2027 07:00:10.905           105.736              Murmansk1          6709.000
       332   09 Jun 2027 07:00:15.226   09 Jun 2027 07:00:56.351            41.125                Novosib          2160.500
       333   09 Jun 2027 07:01:00.054   09 Jun 2027 07:01:05.136             5.082                Irkutsk           635.250
       334   09 Jun 2027 07:01:13.715   09 Jun 2027 07:02:08.133            54.418                Norilsk          5505.750
       335   09 Jun 2027 08:32:36.720   09 Jun 2027 08:32:59.446            22.726                Norilsk          2825.500
       336   09 Jun 2027 08:33:00.874   09 Jun 2027 08:33:15.508            14.634              Murmansk1           714.000
       337   09 Jun 2027 08:33:23.597   09 Jun 2027 08:34:06.360            42.763              Murmansk2          4044.500
       338   09 Jun 2027 08:34:09.693   09 Jun 2027 08:34:25.490            15.797                Novosib          1666.500
       339   09 Jun 2027 08:34:29.984   09 Jun 2027 08:35:13.787            43.803                Norilsk          2247.000
       340   09 Jun 2027 08:35:23.333   09 Jun 2027 08:36:10.885            47.552                 Moscow          4773.000
       341   09 Jun 2027 08:36:18.017   09 Jun 2027 08:36:48.572            30.555                Norilsk          3566.000
       342   09 Jun 2027 08:36:55.322   09 Jun 2027 08:37:38.618            43.296                Norilsk          3375.000
       343   09 Jun 2027 10:10:24.318   09 Jun 2027 10:11:40.608            76.290                 Moscow          8064.000
       344   09 Jun 2027 10:12:13.008   09 Jun 2027 10:13:03.730            50.722              Murmansk2          5280.500
       345   10 Jun 2027 03:54:05.270   10 Jun 2027 03:54:11.316             6.046               Magadan1           755.750
       346   10 Jun 2027 03:54:19.127   10 Jun 2027 03:54:53.662            34.535               Magadan2          4088.250
       347   10 Jun 2027 03:55:03.438   10 Jun 2027 03:55:46.383            42.945               Magadan1          4888.000
       348   10 Jun 2027 03:55:53.359   10 Jun 2027 03:56:32.566            39.207                Norilsk          3488.000
       349   10 Jun 2027 03:56:33.158   10 Jun 2027 03:56:36.661             3.503                Norilsk           296.000
       350   10 Jun 2027 03:56:37.563   10 Jun 2027 03:57:02.217            24.654                Norilsk           451.000
       351   10 Jun 2027 03:57:05.405   10 Jun 2027 03:57:22.289            16.884               Magadan1          1594.000
       352   10 Jun 2027 03:57:22.692   10 Jun 2027 03:57:26.217             3.525               Magadan2           201.500
       353   10 Jun 2027 03:57:33.664   10 Jun 2027 03:58:25.295            51.631                Novosib          3723.500
       354   10 Jun 2027 03:58:26.908   10 Jun 2027 03:58:46.418            19.510                Norilsk           806.500
       355   10 Jun 2027 03:58:50.981   10 Jun 2027 03:59:11.817            20.836                Norilsk          2281.500
       356   10 Jun 2027 03:59:14.664   10 Jun 2027 04:00:17.375            62.711                Novosib          1423.500
       357   10 Jun 2027 04:00:26.579   10 Jun 2027 04:01:11.444            44.865              Murmansk2          4602.000
       358   10 Jun 2027 04:01:16.667   10 Jun 2027 04:01:26.976            10.309               Magadan2          1288.625
       359   10 Jun 2027 04:01:26.976   10 Jun 2027 04:01:37.534            10.558               Magadan1          1319.750
       360   10 Jun 2027 04:01:37.577   10 Jun 2027 04:02:07.794            30.217              Murmansk1            24.625
       361   10 Jun 2027 05:30:59.475   10 Jun 2027 05:31:25.479            26.004                Norilsk          3250.500
       362   10 Jun 2027 05:31:28.620   10 Jun 2027 05:32:36.297            67.677                Irkutsk          2340.499
       363   10 Jun 2027 05:32:44.136   10 Jun 2027 05:33:25.491            41.355                Irkutsk          3919.500
       364   10 Jun 2027 05:33:35.721   10 Jun 2027 05:34:18.863            43.142                Novosib          5115.000
       365   10 Jun 2027 05:34:21.920   10 Jun 2027 05:34:42.760            20.840                Novosib          1528.500
       366   10 Jun 2027 05:34:49.810   10 Jun 2027 05:35:18.378            28.568              Murmansk1          3525.000
       367   10 Jun 2027 05:35:26.464   10 Jun 2027 05:36:18.341            51.877                Norilsk          4043.000
       368   10 Jun 2027 05:36:21.914   10 Jun 2027 05:36:46.078            24.164                Novosib          1786.500
       369   10 Jun 2027 05:36:50.157   10 Jun 2027 05:37:47.618            57.461                Irkutsk          2039.500
       370   10 Jun 2027 07:08:46.561   10 Jun 2027 07:09:07.975            21.414                Norilsk          2676.750
       371   10 Jun 2027 07:09:16.014   10 Jun 2027 07:10:53.262            97.248                Norilsk          8400.250
       372   10 Jun 2027 07:10:56.808   10 Jun 2027 07:11:27.506            30.698                Novosib          1773.000
       373   10 Jun 2027 07:11:34.984   10 Jun 2027 07:12:13.252            38.268                 Moscow          3739.000
       374   10 Jun 2027 07:12:15.282   10 Jun 2027 07:12:30.908            15.626                Irkutsk          1015.000
       375   10 Jun 2027 07:12:32.803   10 Jun 2027 07:13:02.882            30.079                Norilsk           947.500
       376   10 Jun 2027 08:44:37.962   10 Jun 2027 08:45:54.439            76.477                Novosib          2199.500
       377   10 Jun 2027 08:46:01.486   10 Jun 2027 08:47:33.578            92.092                Novosib          3523.500
       378   10 Jun 2027 08:47:35.369   10 Jun 2027 08:48:39.494            64.125              Murmansk1           895.500
       379   10 Jun 2027 08:48:40.207   10 Jun 2027 08:48:46.131             5.924                Norilsk           356.500
       380   10 Jun 2027 08:48:48.784   10 Jun 2027 08:49:02.488            13.704                Novosib          1326.500
       381   10 Jun 2027 08:49:03.480   10 Jun 2027 08:49:47.552            44.072              Murmansk1           496.000
       382   11 Jun 2027 04:07:06.361   11 Jun 2027 04:07:12.543             6.182               Magadan2           772.750
       383   11 Jun 2027 04:07:13.937   11 Jun 2027 04:07:36.804            22.867               Magadan1           895.750
       384   11 Jun 2027 04:07:40.619   11 Jun 2027 04:07:57.728            17.109               Magadan2          1907.500
       385   11 Jun 2027 04:08:21.134   11 Jun 2027 04:10:04.022           102.888                Norilsk         11703.000
       386   11 Jun 2027 04:10:17.576   11 Jun 2027 04:11:23.115            65.539               Magadan1          6777.000
       387   11 Jun 2027 04:11:24.358   11 Jun 2027 04:12:13.322            48.964                Novosib           621.500
       388   11 Jun 2027 04:12:13.983   11 Jun 2027 04:12:30.638            16.655               Magadan1           330.500
       389   11 Jun 2027 04:13:01.486   11 Jun 2027 04:14:24.259            82.773                Norilsk         10346.625
       390   11 Jun 2027 04:14:33.531   11 Jun 2027 04:14:53.334            19.803                Norilsk          2475.375
       391   11 Jun 2027 04:14:54.107   11 Jun 2027 04:15:15.265            21.158              Murmansk2          2602.000
       392   11 Jun 2027 05:43:46.380   11 Jun 2027 05:45:29.394           103.014                Novosib          9677.000
       393   11 Jun 2027 05:45:32.741   11 Jun 2027 05:45:53.769            21.028                Norilsk          1673.500
       394   11 Jun 2027 05:46:08.867   11 Jun 2027 05:46:58.671            49.804                Norilsk          6225.500
       395   11 Jun 2027 05:47:01.824   11 Jun 2027 05:47:43.706            41.882              Murmansk1          2900.000
       396   11 Jun 2027 05:47:45.035   11 Jun 2027 05:47:50.438             5.403                Norilsk           664.500
       397   11 Jun 2027 05:47:52.728   11 Jun 2027 05:48:27.346            34.618              Murmansk1          1145.000
       398   11 Jun 2027 05:48:30.633   11 Jun 2027 05:49:08.603            37.970                Norilsk          1643.500
       399   11 Jun 2027 05:49:12.223   11 Jun 2027 05:49:33.792            21.569              Murmansk1          1810.000
       400   11 Jun 2027 05:49:42.835   11 Jun 2027 05:50:29.465            46.630                Novosib          3078.500
       401   11 Jun 2027 07:20:43.673   11 Jun 2027 07:21:20.676            37.003              Murmansk2           807.500
       402   11 Jun 2027 07:21:24.327   11 Jun 2027 07:22:27.389            63.062                 Moscow          1825.500
       403   11 Jun 2027 07:22:33.095   11 Jun 2027 07:23:04.524            31.429              Murmansk1          2853.000
       404   11 Jun 2027 07:23:19.338   11 Jun 2027 07:24:22.574            63.236              Murmansk1          7407.000
       405   11 Jun 2027 07:24:31.146   11 Jun 2027 07:25:35.563            64.417                Novosib          4286.000
       406   11 Jun 2027 08:57:05.551   11 Jun 2027 08:57:46.893            41.342                Novosib          4276.500
       407   11 Jun 2027 08:57:53.541   11 Jun 2027 08:58:28.958            35.417                Norilsk          3324.000
       408   11 Jun 2027 08:58:36.316   11 Jun 2027 08:58:47.609            11.293              Murmansk1          1411.625
       409   11 Jun 2027 08:58:47.609   11 Jun 2027 08:59:07.030            19.421              Murmansk2          2267.375
       410   11 Jun 2027 08:59:30.875   11 Jun 2027 09:01:38.374           127.499              Murmansk1         11922.500
       411   11 Jun 2027 09:01:41.295   11 Jun 2027 09:01:57.721            16.426                Novosib          1059.000
       412   12 Jun 2027 04:19:08.991   12 Jun 2027 04:20:18.723            69.732                Norilsk          8716.500
       413   12 Jun 2027 04:20:23.402   12 Jun 2027 04:21:10.795            47.393               Magadan2          5019.000
       414   12 Jun 2027 04:21:16.962   12 Jun 2027 04:21:45.918            28.956                Irkutsk          3083.500
       415   12 Jun 2027 04:21:48.090   12 Jun 2027 04:22:11.571            23.481                Novosib          1086.000
       416   12 Jun 2027 04:22:19.257   12 Jun 2027 04:22:50.289            31.032                Norilsk          3843.000
       417   12 Jun 2027 04:22:58.404   12 Jun 2027 04:23:44.847            46.443               Magadan1          4057.500
       418   12 Jun 2027 04:23:46.130   12 Jun 2027 04:24:00.003            13.873               Magadan2           641.500
       419   12 Jun 2027 04:24:02.214   12 Jun 2027 04:24:30.711            28.497               Magadan1          1105.500
       420   12 Jun 2027 04:24:32.666   12 Jun 2027 04:25:10.708            38.042                Novosib           977.500
       421   12 Jun 2027 04:25:13.358   12 Jun 2027 04:25:37.720            24.362              Murmansk1          1325.000
       422   12 Jun 2027 04:25:39.320   12 Jun 2027 04:25:55.752            16.432                Norilsk           800.000
       423   12 Jun 2027 05:55:08.541   12 Jun 2027 05:56:05.948            57.407                Novosib          4860.500
       424   12 Jun 2027 05:56:18.472   12 Jun 2027 05:57:03.457            44.985                Norilsk          5623.125
       425   12 Jun 2027 05:57:12.054   12 Jun 2027 05:57:53.799            41.745                Norilsk          4937.375
       426   12 Jun 2027 05:57:58.503   12 Jun 2027 05:58:18.204            19.701                Irkutsk          2352.000
       427   12 Jun 2027 05:58:24.433   12 Jun 2027 05:58:59.550            35.117              Murmansk1          3114.500
       428   12 Jun 2027 05:59:05.390   12 Jun 2027 05:59:35.034            29.644              Murmansk1          2920.000
       429   12 Jun 2027 05:59:42.334   12 Jun 2027 06:00:05.019            22.685                Novosib          2835.625
       430   12 Jun 2027 06:00:09.867   12 Jun 2027 06:00:22.814            12.947                Norilsk          1618.375
       431   12 Jun 2027 06:00:31.677   12 Jun 2027 06:01:03.946            32.269                Norilsk          4033.625
       432   12 Jun 2027 06:01:13.932   12 Jun 2027 06:02:12.271            58.339              Murmansk1          7010.875
       433   12 Jun 2027 07:33:21.174   12 Jun 2027 07:34:22.263            61.089              Murmansk1          4720.000
       434   12 Jun 2027 07:34:38.282   12 Jun 2027 07:35:32.437            54.155                 Moscow          6769.375
       435   12 Jun 2027 07:35:35.712   12 Jun 2027 07:36:29.018            53.306                Novosib          2877.625
       436   12 Jun 2027 07:36:31.264   12 Jun 2027 07:36:42.454            11.190                Norilsk          1123.000
       437   12 Jun 2027 07:36:45.364   12 Jun 2027 07:37:02.463            17.099              Murmansk1          1455.000
       438   12 Jun 2027 07:37:02.555   12 Jun 2027 07:37:56.339            53.784              Murmansk2            46.000
       439   12 Jun 2027 09:08:46.562   12 Jun 2027 09:10:01.432            74.870              Murmansk2          3577.000
       440   12 Jun 2027 09:10:05.615   12 Jun 2027 09:10:30.306            24.691                Novosib          2091.500
       441   12 Jun 2027 09:10:38.020   12 Jun 2027 09:11:22.532            44.512              Murmansk1          3857.000
       442   12 Jun 2027 09:11:27.790   12 Jun 2027 09:12:22.035            54.245                Norilsk          2629.000
       443   12 Jun 2027 09:12:34.269   12 Jun 2027 09:13:28.983            54.714                Norilsk          6117.000
       444   12 Jun 2027 09:13:29.187   12 Jun 2027 09:13:33.200             4.013                Novosib           102.000
       445   12 Jun 2027 09:13:45.393   12 Jun 2027 09:13:47.845             2.452                 Moscow           306.500
       446   12 Jun 2027 09:13:49.368   12 Jun 2027 09:14:36.435            47.067                Norilsk          5883.375
       447   12 Jun 2027 09:14:48.398   12 Jun 2027 09:14:55.295             6.897              Murmansk1           668.125
       448   13 Jun 2027 03:00:09.699   13 Jun 2027 03:01:02.769            53.070                Anadyr1          1696.000
       449   13 Jun 2027 04:30:35.206   13 Jun 2027 04:32:40.532           125.326                Irkutsk          7848.500
       450   13 Jun 2027 04:32:41.807   13 Jun 2027 04:33:12.752            30.945               Magadan2           637.500
       451   13 Jun 2027 04:33:31.401   13 Jun 2027 04:34:55.573            84.172               Magadan1          9324.500
       452   13 Jun 2027 04:35:05.025   13 Jun 2027 04:37:12.638           127.613                Irkutsk          4726.000
       453   13 Jun 2027 04:37:15.912   13 Jun 2027 04:37:58.412            42.500                Novosib          1637.000
       454   13 Jun 2027 06:07:31.467   13 Jun 2027 06:08:07.000            35.533                Norilsk          4441.625
       455   13 Jun 2027 06:08:29.665   13 Jun 2027 06:10:08.039            98.374                Novosib         12220.375
       456   13 Jun 2027 06:10:11.518   13 Jun 2027 06:10:37.091            25.573              Murmansk2          1739.500
       457   13 Jun 2027 06:10:44.159   13 Jun 2027 06:11:33.265            49.106                Novosib          3534.000
       458   13 Jun 2027 06:11:36.456   13 Jun 2027 06:12:15.753            39.297                Novosib          1595.500
       459   13 Jun 2027 06:12:15.887   13 Jun 2027 06:12:27.635            11.748                Norilsk            67.000
       460   13 Jun 2027 06:12:34.824   13 Jun 2027 06:13:11.785            36.961                 Moscow          3594.500
       461   13 Jun 2027 06:13:12.843   13 Jun 2027 06:14:06.719            53.876              Murmansk2           529.000
       462   13 Jun 2027 07:45:30.299   13 Jun 2027 07:45:49.663            19.364                Norilsk          2420.500
       463   13 Jun 2027 07:45:52.913   13 Jun 2027 07:46:46.914            54.001                 Moscow          3907.000
       464   13 Jun 2027 07:46:47.565   13 Jun 2027 07:47:26.587            39.022                Novosib           325.500
       465   13 Jun 2027 07:47:28.046   13 Jun 2027 07:47:42.021            13.975                Irkutsk           729.500
       466   13 Jun 2027 07:47:43.003   13 Jun 2027 07:47:50.548             7.545                 Moscow           491.000
       467   13 Jun 2027 07:47:51.721   13 Jun 2027 07:48:05.054            13.333                 Moscow           586.500
       468   13 Jun 2027 07:48:08.780   13 Jun 2027 07:48:30.014            21.234              Murmansk2          1863.000
       469   13 Jun 2027 07:48:31.052   13 Jun 2027 07:48:51.009            19.957                Norilsk           519.000
       470   13 Jun 2027 07:49:01.744   13 Jun 2027 07:49:48.141            46.397              Murmansk2          5367.500
       471   13 Jun 2027 09:19:03.508   13 Jun 2027 09:21:44.978           161.470                 Moscow         14576.500
       472   13 Jun 2027 09:21:50.242   13 Jun 2027 09:22:22.495            32.253                 Moscow          2632.000
       473   13 Jun 2027 09:22:25.466   13 Jun 2027 09:22:37.791            12.325              Murmansk2          1485.500
       474   13 Jun 2027 09:22:39.718   13 Jun 2027 09:22:49.770            10.052              Murmansk2           963.500
       475   13 Jun 2027 09:22:50.491   13 Jun 2027 09:23:25.404            34.913                 Moscow           360.500
       476   13 Jun 2027 09:23:31.160   13 Jun 2027 09:23:58.648            27.488                Novosib          2878.000
       477   13 Jun 2027 09:23:59.200   13 Jun 2027 09:24:18.173            18.973                 Moscow           276.000
       478   13 Jun 2027 09:24:18.766   13 Jun 2027 09:24:37.968            19.202                Novosib           296.500
       479   13 Jun 2027 09:24:40.895   13 Jun 2027 09:24:53.581            12.686              Murmansk1          1463.500
       480   13 Jun 2027 09:25:15.208   13 Jun 2027 09:26:43.023            87.815                Norilsk         10813.500
