uniorb/output/strategy_2/Drop/Drop_KinoSat_110403.txt

KinoSat_110403
-------------------------
    Access    *     Start Time (UTCG)     *     Stop Time (UTCG)  *   Duration (s)        *       Station  *  Data (Mbytes)
         1   01 Jun 2027 04:11:37.005   01 Jun 2027 04:11:49.704            12.699               Magadan2           883.500
         2   01 Jun 2027 04:11:50.063   01 Jun 2027 04:11:53.549             3.486                Novosib           179.500
         3   01 Jun 2027 04:12:03.810   01 Jun 2027 04:12:46.222            42.412               Magadan1          5130.500
         4   01 Jun 2027 04:12:52.572   01 Jun 2027 04:12:56.020             3.448                Norilsk           431.000
         5   01 Jun 2027 04:13:03.882   01 Jun 2027 04:13:37.812            33.930                Norilsk          4241.250
         6   01 Jun 2027 04:13:39.152   01 Jun 2027 04:14:05.286            26.134                Irkutsk          3103.750
         7   01 Jun 2027 04:14:10.493   01 Jun 2027 04:14:53.444            42.951               Magadan1          2603.500
         8   01 Jun 2027 04:14:53.757   01 Jun 2027 04:15:56.668            62.911                Irkutsk           156.500
         9   01 Jun 2027 04:16:12.013   01 Jun 2027 04:17:48.430            96.417               Magadan2          7672.500
        10   01 Jun 2027 04:17:49.612   01 Jun 2027 04:18:31.298            41.686              Murmansk1           591.000
        11   01 Jun 2027 05:48:11.564   01 Jun 2027 05:48:52.112            40.548                Norilsk          5068.500
        12   01 Jun 2027 05:49:08.193   01 Jun 2027 05:51:00.498           112.305                Irkutsk         11217.500
        13   01 Jun 2027 05:51:01.306   01 Jun 2027 05:51:07.191             5.885              Murmansk2           404.000
        14   01 Jun 2027 05:51:08.024   01 Jun 2027 05:51:29.643            21.619              Murmansk2           416.500
        15   01 Jun 2027 05:51:39.027   01 Jun 2027 05:52:25.979            46.952                Norilsk          4692.000
        16   01 Jun 2027 05:52:28.463   01 Jun 2027 05:52:55.055            26.592                Novosib          1242.000
        17   01 Jun 2027 05:52:56.430   01 Jun 2027 05:53:35.044            38.614                Norilsk           687.500
        18   01 Jun 2027 05:53:38.835   01 Jun 2027 05:53:58.534            19.699              Murmansk1          1895.500
        19   01 Jun 2027 07:25:27.932   01 Jun 2027 07:25:53.568            25.636                Norilsk          3172.000
        20   01 Jun 2027 07:26:00.473   01 Jun 2027 07:26:32.562            32.089                Novosib          3452.500
        21   01 Jun 2027 07:26:35.565   01 Jun 2027 07:27:50.739            75.174                Irkutsk          1501.500
        22   01 Jun 2027 07:28:02.235   01 Jun 2027 07:28:49.391            47.156                Novosib          5748.000
        23   01 Jun 2027 07:28:59.808   01 Jun 2027 07:29:48.284            48.476                Norilsk          5208.500
        24   01 Jun 2027 07:29:54.026   01 Jun 2027 07:30:01.164             7.138                 Moscow           892.250
        25   01 Jun 2027 07:30:08.311   01 Jun 2027 07:30:38.966            30.655                Novosib          1978.750
        26   01 Jun 2027 09:01:37.733   01 Jun 2027 09:02:31.792            54.059              Murmansk2          6247.000
        27   01 Jun 2027 09:02:38.686   01 Jun 2027 09:03:11.506            32.820                 Moscow          3447.000
        28   01 Jun 2027 09:03:12.329   01 Jun 2027 09:03:16.931             4.602              Murmansk1           411.500
        29   01 Jun 2027 09:03:19.728   01 Jun 2027 09:03:56.480            36.752                Norilsk          1398.500
        30   01 Jun 2027 09:04:02.265   01 Jun 2027 09:04:30.259            27.994                Novosib          2892.500
        31   01 Jun 2027 09:04:40.260   01 Jun 2027 09:05:04.940            24.680                 Moscow          3085.000
        32   01 Jun 2027 09:05:10.130   01 Jun 2027 09:06:01.202            51.072                Norilsk          4510.500
        33   01 Jun 2027 09:06:02.167   01 Jun 2027 09:06:18.383            16.216                Norilsk           482.500
        34   02 Jun 2027 04:23:32.029   02 Jun 2027 04:24:52.335            80.306                Norilsk         10038.250
        35   02 Jun 2027 04:25:02.295   02 Jun 2027 04:25:44.554            42.259               Magadan2          5282.375
        36   02 Jun 2027 04:25:44.554   02 Jun 2027 04:26:53.951            69.397               Magadan1          3415.375
        37   02 Jun 2027 04:26:59.277   02 Jun 2027 04:27:35.800            36.523                Irkutsk          2663.000
        38   02 Jun 2027 04:27:41.696   02 Jun 2027 04:28:31.096            49.400                Irkutsk          2948.000
        39   02 Jun 2027 04:28:35.221   02 Jun 2027 04:29:00.083            24.862               Magadan2          2062.500
        40   02 Jun 2027 04:29:25.467   02 Jun 2027 04:31:23.656           118.189              Murmansk2         12692.000
        41   02 Jun 2027 05:59:37.204   02 Jun 2027 06:00:42.813            65.609                Novosib          1199.000
        42   02 Jun 2027 06:01:02.274   02 Jun 2027 06:02:39.826            97.552                Novosib          9730.500
        43   02 Jun 2027 06:02:48.450   02 Jun 2027 06:03:27.565            39.115              Murmansk1          4312.000
        44   02 Jun 2027 06:03:28.737   02 Jun 2027 06:03:34.137             5.400                Norilsk           586.000
        45   02 Jun 2027 06:03:35.948   02 Jun 2027 06:03:48.501            12.553                Novosib           905.500
        46   02 Jun 2027 06:03:52.951   02 Jun 2027 06:05:00.651            67.700                Irkutsk          2225.000
        47   02 Jun 2027 06:05:06.827   02 Jun 2027 06:05:40.497            33.670              Murmansk1          3088.000
        48   02 Jun 2027 06:05:47.975   02 Jun 2027 06:06:37.393            49.418              Murmansk1          3739.000
        49   02 Jun 2027 07:37:53.590   02 Jun 2027 07:38:10.254            16.664              Murmansk1           447.000
        50   02 Jun 2027 07:38:15.605   02 Jun 2027 07:39:43.787            88.182                Irkutsk          2675.500
        51   02 Jun 2027 07:39:46.364   02 Jun 2027 07:40:34.657            48.293              Murmansk2          1288.500
        52   02 Jun 2027 07:40:35.319   02 Jun 2027 07:40:59.375            24.056                Norilsk           331.000
        53   02 Jun 2027 07:41:02.603   02 Jun 2027 07:41:25.884            23.281              Murmansk1          1614.000
        54   02 Jun 2027 07:41:28.430   02 Jun 2027 07:42:21.849            53.419              Murmansk1          1273.000
        55   02 Jun 2027 09:13:22.556   02 Jun 2027 09:14:09.470            46.914                Novosib          2153.500
        56   02 Jun 2027 09:14:21.601   02 Jun 2027 09:16:01.172            99.571                Novosib          6065.500
        57   02 Jun 2027 09:16:02.324   02 Jun 2027 09:16:38.354            36.030              Murmansk2           576.000
        58   02 Jun 2027 09:16:39.837   02 Jun 2027 09:17:25.517            45.680                Novosib           741.500
        59   02 Jun 2027 09:17:43.251   02 Jun 2027 09:17:50.355             7.104              Murmansk2           729.500
        60   02 Jun 2027 09:17:53.886   02 Jun 2027 09:18:08.405            14.519                Norilsk          1765.500
        61   02 Jun 2027 09:18:12.029   02 Jun 2027 09:18:41.341            29.312                Norilsk          1812.000
        62   03 Jun 2027 03:00:00.180   03 Jun 2027 03:00:39.283            39.103                Anadyr2            90.000
        63   03 Jun 2027 03:00:40.884   03 Jun 2027 03:01:06.312            25.428               Magadan1           800.500
        64   03 Jun 2027 03:01:14.419   03 Jun 2027 03:03:39.924           145.505                Irkutsk          4053.500
        65   03 Jun 2027 03:03:41.787   03 Jun 2027 03:03:47.974             6.187                Irkutsk           773.375
        66   03 Jun 2027 03:03:58.853   03 Jun 2027 03:04:51.623            52.770               Magadan1          5597.625
        67   03 Jun 2027 04:35:08.663   03 Jun 2027 04:35:35.748            27.085                Norilsk          3385.625
        68   03 Jun 2027 04:35:42.691   03 Jun 2027 04:36:36.340            53.649                Norilsk          6706.125
        69   03 Jun 2027 04:36:41.286   03 Jun 2027 04:37:39.733            58.447               Magadan1          5969.250
        70   03 Jun 2027 04:37:50.193   03 Jun 2027 04:38:36.059            45.866                Norilsk          5230.000
        71   03 Jun 2027 04:38:37.100   03 Jun 2027 04:38:47.828            10.728                Novosib           520.500
        72   03 Jun 2027 04:38:53.987   03 Jun 2027 04:39:19.073            25.086               Magadan1          3079.500
        73   03 Jun 2027 04:39:29.774   03 Jun 2027 04:42:01.228           151.454                Irkutsk          5350.500
        74   03 Jun 2027 04:42:09.656   03 Jun 2027 04:42:20.713            11.057                Irkutsk          1382.125
        75   03 Jun 2027 04:42:58.691   03 Jun 2027 04:43:26.138            27.447              Murmansk1          2915.875
        76   03 Jun 2027 06:12:01.392   03 Jun 2027 06:12:53.778            52.386                Irkutsk          3415.500
        77   03 Jun 2027 06:12:55.570   03 Jun 2027 06:13:49.476            53.906                Irkutsk           896.000
        78   03 Jun 2027 06:14:14.294   03 Jun 2027 06:16:12.595           118.301                Novosib         12409.000
        79   03 Jun 2027 06:16:16.192   03 Jun 2027 06:16:42.368            26.176                Norilsk          1798.500
        80   03 Jun 2027 06:16:42.583   03 Jun 2027 06:16:51.482             8.899                Novosib           107.500
        81   03 Jun 2027 06:16:51.678   03 Jun 2027 06:17:08.456            16.778                Norilsk            98.000
        82   03 Jun 2027 06:17:09.991   03 Jun 2027 06:17:17.694             7.703              Murmansk1           767.500
        83   03 Jun 2027 06:17:38.081   03 Jun 2027 06:19:00.055            81.974              Murmansk1         10193.500
        84   03 Jun 2027 07:49:56.379   03 Jun 2027 07:51:19.512            83.133                Norilsk          3175.000
        85   03 Jun 2027 07:51:24.087   03 Jun 2027 07:51:53.946            29.859                Irkutsk          2287.500
        86   03 Jun 2027 07:52:03.030   03 Jun 2027 07:52:55.639            52.609                Norilsk          4542.000
        87   03 Jun 2027 07:52:56.025   03 Jun 2027 07:53:13.578            17.553              Murmansk1           193.000
        88   03 Jun 2027 07:53:14.402   03 Jun 2027 07:53:22.345             7.943                Novosib           412.000
        89   03 Jun 2027 07:53:23.262   03 Jun 2027 07:53:57.697            34.435                Novosib           458.500
        90   03 Jun 2027 09:23:31.496   03 Jun 2027 09:26:04.852           153.356                 Moscow         18000.000
        91   03 Jun 2027 09:26:08.449   03 Jun 2027 09:26:30.127            21.678                Novosib          1798.500
        92   03 Jun 2027 09:26:47.275   03 Jun 2027 09:28:02.116            74.841              Murmansk2          8574.000
        93   03 Jun 2027 09:28:09.463   03 Jun 2027 09:28:48.629            39.166                 Moscow          3673.500
        94   03 Jun 2027 09:28:52.564   03 Jun 2027 09:29:25.690            33.126                Norilsk          1967.500
        95   03 Jun 2027 09:29:59.566   03 Jun 2027 09:30:17.933            18.367              Murmansk1           961.500
        96   03 Jun 2027 09:30:35.227   03 Jun 2027 09:32:01.621            86.394                 Moscow          8647.000
        97   04 Jun 2027 03:09:38.688   04 Jun 2027 03:09:44.037             5.349               Magadan1           668.625
        98   04 Jun 2027 03:10:00.573   04 Jun 2027 03:11:18.958            78.385                Irkutsk          8811.875
        99   04 Jun 2027 03:11:20.799   04 Jun 2027 03:11:36.314            15.515                Anadyr1           920.500
       100   04 Jun 2027 03:11:54.052   04 Jun 2027 03:12:47.451            53.399                Irkutsk          6352.500
       101   04 Jun 2027 03:12:55.798   04 Jun 2027 03:13:56.085            60.287                Anadyr2          4173.500
       102   04 Jun 2027 03:13:56.484   04 Jun 2027 03:14:07.814            11.330               Magadan1           199.500
       103   04 Jun 2027 03:14:08.972   04 Jun 2027 03:14:27.458            18.486                Anadyr2           579.000
       104   04 Jun 2027 03:14:31.525   04 Jun 2027 03:14:54.973            23.448                Anadyr2          2033.500
       105   04 Jun 2027 03:15:00.640   04 Jun 2027 03:15:58.504            57.864               Magadan2          2833.500
       106   04 Jun 2027 03:16:00.065   04 Jun 2027 03:16:14.473            14.408               Magadan2           780.500
       107   04 Jun 2027 03:16:14.699   04 Jun 2027 03:16:42.064            27.365                Irkutsk           113.000
       108   04 Jun 2027 03:16:50.318   04 Jun 2027 03:17:33.519            43.201                Novosib          4127.000
       109   04 Jun 2027 03:17:34.939   04 Jun 2027 03:17:39.689             4.750                Anadyr2            50.500
       110   04 Jun 2027 03:17:41.430   04 Jun 2027 03:18:00.137            18.707                Anadyr1           870.500
       111   04 Jun 2027 04:47:10.075   04 Jun 2027 04:47:31.787            21.712                Norilsk          2071.500
       112   04 Jun 2027 04:47:37.199   04 Jun 2027 04:48:11.353            34.154                Irkutsk          2706.000
       113   04 Jun 2027 04:48:11.375   04 Jun 2027 04:48:17.029             5.654               Magadan2            11.000
       114   04 Jun 2027 04:48:32.071   04 Jun 2027 04:49:33.293            61.222               Magadan1          7521.000
       115   04 Jun 2027 04:49:40.042   04 Jun 2027 04:50:24.537            44.495                Norilsk          3374.500
       116   04 Jun 2027 04:50:25.844   04 Jun 2027 04:50:42.005            16.161                Norilsk           653.500
       117   04 Jun 2027 04:50:46.714   04 Jun 2027 04:51:03.501            16.787                Novosib          2098.375
       118   04 Jun 2027 04:51:06.180   04 Jun 2027 04:51:29.100            22.920                Norilsk          1595.625
       119   04 Jun 2027 04:51:48.001   04 Jun 2027 04:53:33.803           105.802                Novosib          9450.500
       120   04 Jun 2027 04:53:45.591   04 Jun 2027 04:54:24.395            38.804                Irkutsk          4850.500
       121   04 Jun 2027 04:54:43.974   04 Jun 2027 04:54:58.150            14.176                Norilsk          1115.000
       122   04 Jun 2027 06:24:07.580   04 Jun 2027 06:25:49.459           101.879                Irkutsk          8485.500
       123   04 Jun 2027 06:26:21.249   04 Jun 2027 06:28:29.268           128.019                Novosib         15895.000
       124   04 Jun 2027 06:28:38.904   04 Jun 2027 06:29:08.236            29.332                Novosib          3666.500
       125   04 Jun 2027 06:29:16.886   04 Jun 2027 06:29:57.649            40.763                 Moscow          4895.000
       126   04 Jun 2027 06:30:24.418   04 Jun 2027 06:32:10.150           105.732              Murmansk1         11238.000
       127   04 Jun 2027 08:01:51.166   04 Jun 2027 08:02:11.226            20.060                Norilsk           920.000
       128   04 Jun 2027 08:02:12.759   04 Jun 2027 08:02:27.522            14.763                Novosib           766.500
       129   04 Jun 2027 08:02:27.688   04 Jun 2027 08:03:12.399            44.711              Murmansk1            83.000
       130   04 Jun 2027 08:03:12.813   04 Jun 2027 08:03:29.832            17.019              Murmansk2           207.000
       131   04 Jun 2027 08:03:48.793   04 Jun 2027 08:05:26.062            97.269              Murmansk2          9480.500
       132   04 Jun 2027 08:05:38.304   04 Jun 2027 08:06:01.860            23.556                Norilsk          2944.500
       133   04 Jun 2027 08:06:05.815   04 Jun 2027 08:07:24.055            78.240                 Moscow          3176.500
       134   04 Jun 2027 09:35:51.479   04 Jun 2027 09:37:50.716           119.237                 Moscow         12312.500
       135   04 Jun 2027 09:37:58.285   04 Jun 2027 09:39:18.056            79.771                 Moscow          3784.500
       136   04 Jun 2027 09:39:20.602   04 Jun 2027 09:39:33.758            13.156              Murmansk2          1273.000
       137   04 Jun 2027 09:39:37.260   04 Jun 2027 09:40:05.932            28.672                 Moscow          1751.000
       138   04 Jun 2027 09:40:28.229   04 Jun 2027 09:42:08.749           100.520                 Moscow         11148.500
       139   04 Jun 2027 09:42:10.531   04 Jun 2027 09:42:55.024            44.493                 Moscow           891.000
       140   05 Jun 2027 03:21:07.226   05 Jun 2027 03:21:32.596            25.370               Magadan1          1014.000
       141   05 Jun 2027 03:21:36.025   05 Jun 2027 03:22:09.355            33.330               Magadan2          1714.500
       142   05 Jun 2027 03:22:18.115   05 Jun 2027 03:23:32.262            74.147                Irkutsk          4380.000
       143   05 Jun 2027 03:23:33.535   05 Jun 2027 03:24:42.169            68.634                Anadyr1           636.500
       144   05 Jun 2027 03:24:55.470   05 Jun 2027 03:25:55.979            60.509                Anadyr1          6650.500
       145   05 Jun 2027 03:25:56.699   05 Jun 2027 03:26:30.581            33.882                Irkutsk           360.000
       146   05 Jun 2027 03:26:30.784   05 Jun 2027 03:26:32.804             2.020                Anadyr1           101.500
       147   05 Jun 2027 03:26:37.715   05 Jun 2027 03:27:05.755            28.040                Anadyr1          2455.500
       148   05 Jun 2027 03:27:10.494   05 Jun 2027 03:28:37.163            86.669                Anadyr1          2369.500
       149   05 Jun 2027 03:28:41.262   05 Jun 2027 03:29:22.854            41.592                Anadyr2          2049.500
       150   05 Jun 2027 03:29:31.916   05 Jun 2027 03:29:55.580            23.664                Anadyr1          1317.000
       151   05 Jun 2027 03:30:14.266   05 Jun 2027 03:30:31.279            17.013               Magadan2          2126.625
       152   05 Jun 2027 03:30:31.620   05 Jun 2027 03:31:30.507            58.887              Murmansk1          7216.375
       153   05 Jun 2027 04:59:01.056   05 Jun 2027 04:59:10.938             9.882               Magadan2           662.000
       154   05 Jun 2027 04:59:20.868   05 Jun 2027 05:00:02.419            41.551                Irkutsk          4965.000
       155   05 Jun 2027 05:00:04.442   05 Jun 2027 05:00:22.734            18.292                Norilsk          1011.500
       156   05 Jun 2027 05:00:29.485   05 Jun 2027 05:00:59.456            29.971               Magadan2          3375.500
       157   05 Jun 2027 05:01:24.739   05 Jun 2027 05:04:02.450           157.711               Magadan2         12641.500
       158   05 Jun 2027 05:04:04.402   05 Jun 2027 05:04:49.664            45.262              Murmansk1           976.000
       159   05 Jun 2027 05:04:55.547   05 Jun 2027 05:05:46.683            51.136              Murmansk2          2941.500
       160   05 Jun 2027 05:05:48.097   05 Jun 2027 05:05:53.765             5.668              Murmansk2           707.000
       161   05 Jun 2027 05:05:54.123   05 Jun 2027 05:07:00.507            66.384              Murmansk2           179.000
       162   05 Jun 2027 06:35:47.282   05 Jun 2027 06:36:01.157            13.875                Novosib          1685.500
       163   05 Jun 2027 06:36:06.677   05 Jun 2027 06:36:36.854            30.177                Norilsk          2760.000
       164   05 Jun 2027 06:36:41.590   05 Jun 2027 06:37:06.754            25.164                Norilsk          2368.000
       165   05 Jun 2027 06:37:35.404   05 Jun 2027 06:39:57.350           141.946                Novosib         14325.000
       166   05 Jun 2027 06:39:58.234   05 Jun 2027 06:40:59.366            61.132              Murmansk1           442.000
       167   05 Jun 2027 06:41:18.271   05 Jun 2027 06:42:44.724            86.453              Murmansk2          9452.500
       168   05 Jun 2027 08:13:45.937   05 Jun 2027 08:14:58.060            72.123              Murmansk1          4249.000
       169   05 Jun 2027 08:15:10.164   05 Jun 2027 08:16:00.966            50.802                Novosib          6052.000
       170   05 Jun 2027 08:16:06.161   05 Jun 2027 08:17:17.857            71.696                Novosib          2597.500
       171   05 Jun 2027 08:17:24.126   05 Jun 2027 08:18:00.365            36.239              Murmansk1          3134.500
       172   05 Jun 2027 09:49:40.812   05 Jun 2027 09:50:21.747            40.935              Murmansk2          2740.000
       173   05 Jun 2027 09:50:39.335   05 Jun 2027 09:52:02.626            83.291              Murmansk1          8794.000
       174   05 Jun 2027 09:52:10.634   05 Jun 2027 09:52:27.418            16.784                 Moscow          2098.000
       175   05 Jun 2027 09:52:29.109   05 Jun 2027 09:52:56.065            26.956              Murmansk2          2751.500
       176   05 Jun 2027 09:52:56.270   05 Jun 2027 09:53:07.543            11.273                Norilsk           102.500
       177   05 Jun 2027 09:53:15.927   05 Jun 2027 09:53:59.570            43.643              Murmansk2          4192.000
       178   06 Jun 2027 03:34:11.383   06 Jun 2027 03:35:13.666            62.283               Magadan2          6588.000
       179   06 Jun 2027 03:35:25.952   06 Jun 2027 03:36:16.900            50.948               Magadan2          6143.000
       180   06 Jun 2027 03:36:17.017   06 Jun 2027 03:37:03.812            46.795               Magadan2            58.500
       181   06 Jun 2027 03:37:05.211   06 Jun 2027 03:37:41.524            36.313                Novosib           699.500
       182   06 Jun 2027 03:37:43.453   06 Jun 2027 03:38:03.981            20.528                Irkutsk           964.500
       183   06 Jun 2027 03:38:07.715   06 Jun 2027 03:38:39.461            31.746               Magadan2          1867.000
       184   06 Jun 2027 03:38:40.917   06 Jun 2027 03:39:11.326            30.409                Irkutsk           728.000
       185   06 Jun 2027 03:39:12.978   06 Jun 2027 03:39:18.421             5.443                Norilsk           680.375
       186   06 Jun 2027 03:39:20.472   06 Jun 2027 03:39:52.073            31.601                Novosib          1171.125
       187   06 Jun 2027 03:40:00.510   06 Jun 2027 03:40:41.790            41.280               Magadan2          4218.500
       188   06 Jun 2027 03:40:42.354   06 Jun 2027 03:41:06.921            24.567                Anadyr1           282.000
       189   06 Jun 2027 03:41:14.702   06 Jun 2027 03:41:23.278             8.576                Irkutsk          1072.000
       190   06 Jun 2027 03:41:23.432   06 Jun 2027 03:41:37.913            14.481                Anadyr1          1810.125
       191   06 Jun 2027 03:41:38.722   06 Jun 2027 03:42:00.053            21.331                Novosib          1489.875
       192   06 Jun 2027 03:42:11.229   06 Jun 2027 03:42:28.351            17.122               Magadan1          2140.250
       193   06 Jun 2027 03:42:32.120   06 Jun 2027 03:43:03.980            31.860              Murmansk2          3709.750
       194   06 Jun 2027 05:11:30.386   06 Jun 2027 05:12:49.957            79.571                Norilsk          9946.375
       195   06 Jun 2027 05:13:03.407   06 Jun 2027 05:14:08.314            64.907               Magadan2          7773.125
       196   06 Jun 2027 05:14:16.927   06 Jun 2027 05:14:52.687            35.760               Magadan1          4306.500
       197   06 Jun 2027 05:15:00.499   06 Jun 2027 05:16:01.810            61.311                Novosib          3906.000
       198   06 Jun 2027 05:16:05.111   06 Jun 2027 05:16:23.261            18.150                Norilsk          1650.500
       199   06 Jun 2027 05:16:32.222   06 Jun 2027 05:17:55.663            83.441                Novosib          4480.500
       200   06 Jun 2027 05:17:59.208   06 Jun 2027 05:18:29.469            30.261                Irkutsk          1772.500
       201   06 Jun 2027 06:48:24.098   06 Jun 2027 06:49:34.737            70.639                Irkutsk           739.500
       202   06 Jun 2027 06:49:39.862   06 Jun 2027 06:49:48.551             8.689                Norilsk          1086.125
       203   06 Jun 2027 06:49:57.520   06 Jun 2027 06:50:45.866            48.346              Murmansk2          5960.875
       204   06 Jun 2027 06:50:46.103   06 Jun 2027 06:51:46.900            60.797                Irkutsk           118.500
       205   06 Jun 2027 06:51:47.307   06 Jun 2027 06:51:54.687             7.380              Murmansk2           203.500
       206   06 Jun 2027 06:51:56.014   06 Jun 2027 06:52:02.069             6.055                Norilsk           663.500
       207   06 Jun 2027 06:52:03.067   06 Jun 2027 06:52:39.992            36.925                Novosib           499.000
       208   06 Jun 2027 06:52:41.847   06 Jun 2027 06:52:55.597            13.750                Irkutsk           927.500
       209   06 Jun 2027 06:53:11.417   06 Jun 2027 06:53:50.669            39.252                Irkutsk          4141.000
       210   06 Jun 2027 06:53:56.016   06 Jun 2027 06:54:21.049            25.033                Novosib          2673.500
       211   06 Jun 2027 08:25:03.686   06 Jun 2027 08:25:08.507             4.821                Norilsk           193.000
       212   06 Jun 2027 08:25:15.045   06 Jun 2027 08:25:36.898            21.853                 Moscow          2731.625
       213   06 Jun 2027 08:25:44.085   06 Jun 2027 08:26:24.961            40.876                Norilsk          4130.875
       214   06 Jun 2027 08:26:47.837   06 Jun 2027 08:29:26.069           158.232                Novosib         11438.000
       215   06 Jun 2027 08:29:28.548   06 Jun 2027 08:30:08.931            40.383                Novosib          1239.500
       216   06 Jun 2027 10:00:27.267   06 Jun 2027 10:01:13.430            46.163                 Moscow          5651.000
       217   06 Jun 2027 10:02:05.636   06 Jun 2027 10:03:20.919            75.283                 Moscow          2041.000
       218   06 Jun 2027 10:03:22.843   06 Jun 2027 10:04:03.287            40.444              Murmansk2           962.000
       219   06 Jun 2027 10:04:21.009   06 Jun 2027 10:05:22.720            61.711              Murmansk2          7713.875
       220   06 Jun 2027 10:05:22.720   06 Jun 2027 10:05:51.500            28.780              Murmansk1          1147.125
       221   07 Jun 2027 03:46:26.709   07 Jun 2027 03:46:58.113            31.404                Irkutsk           820.500
       222   07 Jun 2027 03:47:05.380   07 Jun 2027 03:47:46.458            41.078               Magadan1          3633.500
       223   07 Jun 2027 03:48:04.321   07 Jun 2027 03:49:29.279            84.958                Irkutsk          8931.500
       224   07 Jun 2027 03:49:34.136   07 Jun 2027 03:50:01.202            27.066                Anadyr2          2428.500
       225   07 Jun 2027 03:50:04.236   07 Jun 2027 03:50:33.034            28.798               Magadan1          1517.000
       226   07 Jun 2027 03:50:35.674   07 Jun 2027 03:51:05.368            29.694                Anadyr1          1320.000
       227   07 Jun 2027 03:51:06.019   07 Jun 2027 03:51:14.815             8.796               Magadan1           325.500
       228   07 Jun 2027 03:51:16.140   07 Jun 2027 03:52:38.989            82.849                Anadyr2           662.500
       229   07 Jun 2027 03:52:43.252   07 Jun 2027 03:53:02.108            18.856                Anadyr2          2131.500
       230   07 Jun 2027 03:53:07.355   07 Jun 2027 03:53:19.017            11.662               Magadan1          1457.750
       231   07 Jun 2027 03:53:19.017   07 Jun 2027 03:53:43.192            24.175               Magadan2          1165.750
       232   07 Jun 2027 03:53:53.313   07 Jun 2027 03:54:44.328            51.015              Murmansk1          5060.500
       233   07 Jun 2027 05:23:34.392   07 Jun 2027 05:23:37.156             2.764                Novosib           345.500
       234   07 Jun 2027 05:23:47.538   07 Jun 2027 05:24:11.784            24.246                Norilsk          3030.750
       235   07 Jun 2027 05:24:24.198   07 Jun 2027 05:25:30.940            66.742                Norilsk          8342.750
       236   07 Jun 2027 05:25:35.008   07 Jun 2027 05:25:55.770            20.762                Irkutsk          2473.500
       237   07 Jun 2027 05:26:23.087   07 Jun 2027 05:28:23.699           120.612                Irkutsk         13658.500
       238   07 Jun 2027 05:28:23.702   07 Jun 2027 05:28:46.568            22.866                Norilsk             1.500
       239   07 Jun 2027 05:28:48.415   07 Jun 2027 05:29:15.556            27.141              Murmansk2           923.500
       240   07 Jun 2027 05:29:19.964   07 Jun 2027 05:29:52.430            32.466                Irkutsk          2204.000
       241   07 Jun 2027 05:29:58.579   07 Jun 2027 05:30:30.186            31.607              Murmansk1          3074.500
       242   07 Jun 2027 07:00:30.897   07 Jun 2027 07:00:50.849            19.952                  Delhi            64.000
       243   07 Jun 2027 07:01:21.249   07 Jun 2027 07:03:34.044           132.795                 Moscow         15200.000
       244   07 Jun 2027 07:03:35.150   07 Jun 2027 07:03:47.497            12.347              Murmansk2           553.000
       245   07 Jun 2027 07:03:48.851   07 Jun 2027 07:03:55.898             7.047                 Moscow           677.000
       246   07 Jun 2027 07:03:55.956   07 Jun 2027 07:05:07.781            71.825                Irkutsk            29.000
       247   07 Jun 2027 07:05:08.982   07 Jun 2027 07:05:15.375             6.393                Irkutsk           600.500
       248   07 Jun 2027 07:05:17.037   07 Jun 2027 07:05:52.370            35.333                Norilsk           831.000
       249   07 Jun 2027 08:37:25.531   07 Jun 2027 08:38:43.827            78.296                Novosib          3753.500
       250   07 Jun 2027 08:38:47.167   07 Jun 2027 08:39:01.987            14.820              Murmansk1          1670.000
       251   07 Jun 2027 08:39:02.065   07 Jun 2027 08:39:07.386             5.321                Novosib            39.000
       252   07 Jun 2027 08:39:12.870   07 Jun 2027 08:39:54.696            41.826                Norilsk          2742.000
       253   07 Jun 2027 08:40:05.142   07 Jun 2027 08:41:15.749            70.607              Murmansk2          5223.000
       254   07 Jun 2027 08:41:30.597   07 Jun 2027 08:42:52.670            82.073                Norilsk          7424.000
       255   07 Jun 2027 10:15:32.629   07 Jun 2027 10:16:22.971            50.342                 Moscow          2082.000
       256   07 Jun 2027 10:16:50.963   07 Jun 2027 10:17:16.252            25.289              Murmansk1          3035.500
       257   08 Jun 2027 03:59:42.649   08 Jun 2027 04:00:06.239            23.590                Novosib          2385.000
       258   08 Jun 2027 04:00:08.260   08 Jun 2027 04:00:32.148            23.888                Norilsk          1010.500
       259   08 Jun 2027 04:00:50.851   08 Jun 2027 04:01:41.730            50.879               Magadan1          6359.875
       260   08 Jun 2027 04:01:41.730   08 Jun 2027 04:02:05.159            23.429               Magadan2          2928.625
       261   08 Jun 2027 04:02:05.159   08 Jun 2027 04:02:07.089             1.930               Magadan1            63.000
       262   08 Jun 2027 04:02:08.028   08 Jun 2027 04:02:20.147            12.119                Novosib           469.500
       263   08 Jun 2027 04:02:21.284   08 Jun 2027 04:02:45.156            23.872                Novosib           568.500
       264   08 Jun 2027 04:02:51.052   08 Jun 2027 04:03:17.339            26.287                Norilsk          2948.000
       265   08 Jun 2027 04:03:25.418   08 Jun 2027 04:03:50.774            25.356                Norilsk          3169.500
       266   08 Jun 2027 04:04:03.259   08 Jun 2027 04:04:58.823            55.564                Novosib          6945.500
       267   08 Jun 2027 04:05:06.403   08 Jun 2027 04:06:01.147            54.744               Magadan1          3957.000
       268   08 Jun 2027 04:06:10.035   08 Jun 2027 04:06:18.770             8.735               Magadan1          1091.875
       269   08 Jun 2027 04:06:26.119   08 Jun 2027 04:07:23.352            57.233                Novosib          7026.625
       270   08 Jun 2027 05:36:07.273   08 Jun 2027 05:36:36.687            29.414                Norilsk          3676.750
       271   08 Jun 2027 05:36:49.853   08 Jun 2027 05:37:57.733            67.880                Novosib          7345.250
       272   08 Jun 2027 05:38:07.347   08 Jun 2027 05:38:45.967            38.620                Novosib          4807.000
       273   08 Jun 2027 05:38:55.233   08 Jun 2027 05:39:44.032            48.799                Norilsk          4633.000
       274   08 Jun 2027 05:39:44.092   08 Jun 2027 05:40:27.851            43.759                Irkutsk            30.000
       275   08 Jun 2027 05:40:31.824   08 Jun 2027 05:41:18.441            46.617              Murmansk2          1986.500
       276   08 Jun 2027 05:41:21.856   08 Jun 2027 05:41:48.776            26.920              Murmansk1          1707.500
       277   08 Jun 2027 05:41:54.034   08 Jun 2027 05:42:24.198            30.164              Murmansk1          2629.000
       278   08 Jun 2027 07:13:33.953   08 Jun 2027 07:14:03.073            29.120              Murmansk2           757.500
       279   08 Jun 2027 07:14:21.275   08 Jun 2027 07:16:01.292           100.017                Irkutsk          9101.000
       280   08 Jun 2027 07:16:02.889   08 Jun 2027 07:16:47.503            44.614                Irkutsk           798.500
       281   08 Jun 2027 07:16:52.943   08 Jun 2027 07:17:16.845            23.902                Novosib          2720.000
       282   08 Jun 2027 07:17:18.110   08 Jun 2027 07:17:30.683            12.573                Irkutsk           632.500
       283   08 Jun 2027 07:17:32.010   08 Jun 2027 07:17:45.935            13.925              Murmansk1           663.500
       284   08 Jun 2027 07:17:46.923   08 Jun 2027 07:18:06.328            19.405              Murmansk2           494.000
       285   08 Jun 2027 08:49:41.915   08 Jun 2027 08:49:53.395            11.480                Norilsk          1435.000
       286   08 Jun 2027 08:49:58.169   08 Jun 2027 08:50:56.052            57.883              Murmansk1          4007.000
       287   08 Jun 2027 08:51:01.972   08 Jun 2027 08:52:17.252            75.280                Novosib          2960.000
       288   08 Jun 2027 08:52:18.480   08 Jun 2027 08:53:14.814            56.334              Murmansk2           614.000
       289   08 Jun 2027 08:53:24.279   08 Jun 2027 08:54:24.368            60.089                Novosib          4732.500
       290   09 Jun 2027 04:11:51.796   09 Jun 2027 04:12:04.587            12.791               Magadan2           977.000
       291   09 Jun 2027 04:12:04.927   09 Jun 2027 04:12:11.410             6.483                Novosib           170.000
       292   09 Jun 2027 04:12:20.566   09 Jun 2027 04:13:01.103            40.537               Magadan1          4578.000
       293   09 Jun 2027 04:13:12.100   09 Jun 2027 04:13:21.818             9.718                Norilsk          1214.750
       294   09 Jun 2027 04:13:22.759   09 Jun 2027 04:14:02.660            39.901               Magadan1          4754.250
       295   09 Jun 2027 04:14:05.525   09 Jun 2027 04:14:26.551            21.026                Novosib          1432.500
       296   09 Jun 2027 04:14:27.685   09 Jun 2027 04:15:08.171            40.486               Magadan2           567.000
       297   09 Jun 2027 04:15:08.648   09 Jun 2027 04:16:11.102            62.454                Irkutsk           238.500
       298   09 Jun 2027 04:16:27.067   09 Jun 2027 04:18:03.978            96.911               Magadan2          7982.500
       299   09 Jun 2027 04:18:04.100   09 Jun 2027 04:18:46.141            42.041              Murmansk2            61.000
       300   09 Jun 2027 05:48:28.709   09 Jun 2027 05:49:54.789            86.080                Norilsk         10118.000
       301   09 Jun 2027 05:50:01.516   09 Jun 2027 05:50:38.283            36.767                Irkutsk          3363.500
       302   09 Jun 2027 05:50:42.334   09 Jun 2027 05:51:15.845            33.511                Irkutsk          2025.500
       303   09 Jun 2027 05:51:21.640   09 Jun 2027 05:51:55.848            34.208                Norilsk          2897.500
       304   09 Jun 2027 05:51:56.422   09 Jun 2027 05:52:00.528             4.106                Norilsk           287.000
       305   09 Jun 2027 05:52:04.039   09 Jun 2027 05:52:23.737            19.698              Murmansk1          1755.500
       306   09 Jun 2027 05:52:33.649   09 Jun 2027 05:53:24.012            50.363              Murmansk2          4956.000
       307   09 Jun 2027 05:53:28.548   09 Jun 2027 05:53:55.829            27.281              Murmansk1          2268.000
       308   09 Jun 2027 05:54:13.043   09 Jun 2027 05:55:03.279            50.236              Murmansk1          5683.500
       309   09 Jun 2027 07:25:44.022   09 Jun 2027 07:26:14.750            30.728                Novosib          3794.500
       310   09 Jun 2027 07:26:19.891   09 Jun 2027 07:27:12.254            52.363              Murmansk1          2570.500
       311   09 Jun 2027 07:27:21.707   09 Jun 2027 07:28:02.653            40.946              Murmansk2          4726.500
       312   09 Jun 2027 07:28:05.836   09 Jun 2027 07:28:21.347            15.511                Irkutsk          1591.500
       313   09 Jun 2027 07:28:26.255   09 Jun 2027 07:28:57.370            31.115                Norilsk          2454.000
       314   09 Jun 2027 07:28:59.073   09 Jun 2027 07:29:12.333            13.260                Irkutsk           851.500
       315   09 Jun 2027 07:29:15.000   09 Jun 2027 07:29:31.389            16.389                Norilsk          1333.500
       316   09 Jun 2027 07:29:35.680   09 Jun 2027 07:29:53.533            17.853              Murmansk2          2145.500
       317   09 Jun 2027 07:30:09.229   09 Jun 2027 07:31:24.734            75.505                 Moscow          7733.000
       318   09 Jun 2027 09:01:52.640   09 Jun 2027 09:02:49.009            56.369              Murmansk1          6368.500
       319   09 Jun 2027 09:02:53.093   09 Jun 2027 09:03:26.608            33.515                 Moscow          2042.000
       320   09 Jun 2027 09:03:28.602   09 Jun 2027 09:03:40.109            11.507              Murmansk2           997.000
       321   09 Jun 2027 09:03:44.914   09 Jun 2027 09:04:13.537            28.623                Norilsk          2402.500
       322   09 Jun 2027 09:04:16.967   09 Jun 2027 09:04:47.129            30.162                Novosib          1715.000
       323   09 Jun 2027 09:05:04.533   09 Jun 2027 09:06:16.838            72.305                Norilsk          8702.000
       324   09 Jun 2027 09:06:17.062   09 Jun 2027 09:06:34.303            17.241                Norilsk           112.000
       325   10 Jun 2027 04:23:34.357   10 Jun 2027 04:24:09.190            34.833                Norilsk          4354.125
       326   10 Jun 2027 04:24:09.430   10 Jun 2027 04:24:56.395            46.965               Magadan2          3515.875
       327   10 Jun 2027 04:24:58.978   10 Jun 2027 04:25:21.387            22.409                Norilsk          1291.500
       328   10 Jun 2027 04:25:25.112   10 Jun 2027 04:25:42.612            17.500               Magadan1          1862.500
       329   10 Jun 2027 04:25:48.482   10 Jun 2027 04:26:36.378            47.896                Norilsk          2935.000
       330   10 Jun 2027 04:26:40.518   10 Jun 2027 04:26:57.376            16.858                Novosib          2070.000
       331   10 Jun 2027 04:26:59.400   10 Jun 2027 04:27:14.225            14.825                Irkutsk          1012.000
       332   10 Jun 2027 04:27:24.269   10 Jun 2027 04:28:39.763            75.494                Norilsk          5022.000
       333   10 Jun 2027 04:28:41.568   10 Jun 2027 04:28:50.077             8.509               Magadan1           902.500
       334   10 Jun 2027 04:28:50.228   10 Jun 2027 04:30:25.462            95.234                Irkutsk            75.500
       335   10 Jun 2027 04:30:38.051   10 Jun 2027 04:31:39.718            61.667              Murmansk2          4770.000
       336   10 Jun 2027 05:59:51.914   10 Jun 2027 06:00:58.274            66.360                Novosib          1299.000
       337   10 Jun 2027 06:01:17.472   10 Jun 2027 06:02:44.406            86.934                Irkutsk          9599.000
       338   10 Jun 2027 06:02:54.721   10 Jun 2027 06:03:10.566            15.845                Novosib          1980.625
       339   10 Jun 2027 06:03:18.396   10 Jun 2027 06:04:27.384            68.988              Murmansk1          7091.875
       340   10 Jun 2027 06:04:35.699   10 Jun 2027 06:04:53.318            17.619                Novosib          2202.375
       341   10 Jun 2027 06:05:03.529   10 Jun 2027 06:06:05.774            62.245                Novosib          7060.625
       342   10 Jun 2027 06:06:17.932   10 Jun 2027 06:06:29.365            11.433                Irkutsk          1429.125
       343   10 Jun 2027 06:06:35.136   10 Jun 2027 06:06:40.952             5.816                Norilsk           727.000
       344   10 Jun 2027 06:06:41.779   10 Jun 2027 06:07:22.946            41.167                Novosib          1622.375
       345   10 Jun 2027 07:38:09.539   10 Jun 2027 07:38:25.478            15.939              Murmansk1          1036.000
       346   10 Jun 2027 07:38:32.194   10 Jun 2027 07:38:40.550             8.356                Norilsk          1044.500
       347   10 Jun 2027 07:38:41.368   10 Jun 2027 07:39:31.099            49.731                Novosib          2722.500
       348   10 Jun 2027 07:39:38.306   10 Jun 2027 07:40:28.058            49.752                Norilsk          3603.500
       349   10 Jun 2027 07:40:28.534   10 Jun 2027 07:41:14.575            46.041                Norilsk           238.000
       350   10 Jun 2027 07:41:17.223   10 Jun 2027 07:41:40.942            23.719              Murmansk1          1324.000
       351   10 Jun 2027 07:41:45.245   10 Jun 2027 07:42:36.556            51.311              Murmansk1          2151.500
       352   10 Jun 2027 09:13:34.472   10 Jun 2027 09:13:47.814            13.342              Murmansk2           889.000
       353   10 Jun 2027 09:14:24.418   10 Jun 2027 09:16:56.627           152.209                Novosib         18302.000
       354   10 Jun 2027 09:17:05.289   10 Jun 2027 09:17:38.697            33.408              Murmansk1          4176.000
       355   10 Jun 2027 09:17:38.697   10 Jun 2027 09:17:58.586            19.889              Murmansk2           155.000
       356   10 Jun 2027 09:18:07.129   10 Jun 2027 09:18:43.693            36.564              Murmansk2          4271.500
       357   10 Jun 2027 09:18:50.999   10 Jun 2027 09:20:23.785            92.786                 Moscow          3653.000
       358   11 Jun 2027 03:00:16.050   11 Jun 2027 03:00:54.526            38.476                Anadyr1          2363.500
       359   11 Jun 2027 03:00:56.014   11 Jun 2027 03:01:20.786            24.772               Magadan2           744.000
       360   11 Jun 2027 03:01:29.810   11 Jun 2027 03:03:56.361           146.551                Irkutsk          4512.000
       361   11 Jun 2027 03:03:58.977   11 Jun 2027 03:04:44.627            45.650                Irkutsk          1308.000
       362   11 Jun 2027 03:04:45.844   11 Jun 2027 03:05:20.923            35.079                Irkutsk           608.500
       363   11 Jun 2027 04:35:27.667   11 Jun 2027 04:37:08.403           100.736                Irkutsk         12255.000
       364   11 Jun 2027 04:37:12.983   11 Jun 2027 04:37:57.166            44.183                Novosib          2290.000
       365   11 Jun 2027 04:38:15.812   11 Jun 2027 04:39:34.118            78.306               Magadan2          9323.000
       366   11 Jun 2027 04:39:35.137   11 Jun 2027 04:40:28.066            52.929                Norilsk           509.500
       367   11 Jun 2027 04:40:30.997   11 Jun 2027 04:41:08.678            37.681               Magadan2          1465.500
       368   11 Jun 2027 04:41:11.098   11 Jun 2027 04:41:29.082            17.984              Murmansk1          1210.000
       369   11 Jun 2027 04:41:41.193   11 Jun 2027 04:43:15.196            94.003              Murmansk2          6055.500
       370   11 Jun 2027 06:12:10.501   11 Jun 2027 06:12:16.526             6.025                Norilsk           656.000
       371   11 Jun 2027 06:12:45.531   11 Jun 2027 06:15:07.068           141.537                Norilsk         14502.500
       372   11 Jun 2027 06:15:11.725   11 Jun 2027 06:15:58.764            47.039                Novosib          2328.500
       373   11 Jun 2027 06:16:01.251   11 Jun 2027 06:16:31.846            30.595                Norilsk          1243.500
       374   11 Jun 2027 06:16:40.164   11 Jun 2027 06:17:24.843            44.679              Murmansk2          4159.000
       375   11 Jun 2027 06:17:30.133   11 Jun 2027 06:17:59.804            29.671                 Moscow          2645.000
       376   11 Jun 2027 06:18:37.726   11 Jun 2027 06:19:32.451            54.725                 Moscow          6586.000
       377   11 Jun 2027 07:50:11.422   11 Jun 2027 07:51:35.390            83.968                Norilsk          3348.500
       378   11 Jun 2027 07:51:38.935   11 Jun 2027 07:52:07.968            29.033                Irkutsk          1772.500
       379   11 Jun 2027 07:52:17.806   11 Jun 2027 07:53:12.371            54.565                Norilsk          4919.000
       380   11 Jun 2027 07:53:14.505   11 Jun 2027 07:53:44.654            30.149                Norilsk          1067.000
       381   11 Jun 2027 07:53:55.384   11 Jun 2027 07:54:36.539            41.155                Norilsk          5144.375
       382   11 Jun 2027 07:54:46.033   11 Jun 2027 07:55:13.730            27.697                Novosib           220.625
       383   11 Jun 2027 09:23:46.289   11 Jun 2027 09:26:19.369           153.080                 Moscow         17903.500
       384   11 Jun 2027 09:26:23.458   11 Jun 2027 09:26:44.486            21.028                Novosib          2044.500
       385   11 Jun 2027 09:27:03.511   11 Jun 2027 09:28:58.603           115.092              Murmansk2          9512.500
       386   11 Jun 2027 09:28:59.435   11 Jun 2027 09:29:23.205            23.770              Murmansk1           416.000
       387   11 Jun 2027 09:29:24.574   11 Jun 2027 09:29:40.674            16.100                Norilsk           684.500
       388   11 Jun 2027 09:30:15.609   11 Jun 2027 09:30:33.491            17.882              Murmansk2          1644.000
       389   11 Jun 2027 09:30:50.354   11 Jun 2027 09:32:42.265           111.911                 Moscow          8431.500
       390   12 Jun 2027 03:09:53.657   12 Jun 2027 03:10:22.808            29.151               Magadan1          1618.500
       391   12 Jun 2027 03:10:23.873   12 Jun 2027 03:10:48.655            24.782               Magadan1           532.500
       392   12 Jun 2027 03:11:01.177   12 Jun 2027 03:11:51.704            50.527                Anadyr1          6261.000
       393   12 Jun 2027 03:11:57.136   12 Jun 2027 03:12:24.867            27.731                Anadyr2           649.500
       394   12 Jun 2027 03:12:26.588   12 Jun 2027 03:12:36.285             9.697               Magadan2           860.500
       395   12 Jun 2027 03:12:49.186   12 Jun 2027 03:14:12.313            83.127               Magadan1          6450.500
       396   12 Jun 2027 03:14:12.526   12 Jun 2027 03:14:29.284            16.758                Norilsk           106.500
       397   12 Jun 2027 03:14:36.355   12 Jun 2027 03:15:15.391            39.036               Magadan1          3535.500
       398   12 Jun 2027 03:15:20.050   12 Jun 2027 03:16:14.714            54.664               Magadan1          2329.500
       399   12 Jun 2027 03:16:14.866   12 Jun 2027 03:16:16.499             1.633               Magadan2            76.000
       400   12 Jun 2027 03:16:20.155   12 Jun 2027 03:16:51.847            31.692                Norilsk          1828.000
       401   12 Jun 2027 03:16:52.980   12 Jun 2027 03:17:52.066            59.086                Anadyr2           566.500
       402   12 Jun 2027 03:17:55.380   12 Jun 2027 03:18:15.115            19.735                Anadyr1          1657.000
       403   12 Jun 2027 04:47:25.987   12 Jun 2027 04:47:47.093            21.106                Norilsk          2638.250
       404   12 Jun 2027 04:47:51.599   12 Jun 2027 04:48:24.995            33.396                Irkutsk          2394.750
       405   12 Jun 2027 04:48:28.164   12 Jun 2027 04:48:47.030            18.866               Magadan2          1584.500
       406   12 Jun 2027 04:48:55.177   12 Jun 2027 04:49:28.624            33.447               Magadan1          4073.500
       407   12 Jun 2027 04:49:40.929   12 Jun 2027 04:51:21.702           100.773                Irkutsk          6152.500
       408   12 Jun 2027 04:51:23.218   12 Jun 2027 04:51:30.826             7.608               Magadan1           758.000
       409   12 Jun 2027 04:51:32.551   12 Jun 2027 04:52:02.214            29.663                Novosib           862.500
       410   12 Jun 2027 04:52:15.881   12 Jun 2027 04:53:24.573            68.692               Magadan2          6833.500
       411   12 Jun 2027 04:53:30.606   12 Jun 2027 04:54:03.050            32.444              Murmansk1          3016.500
       412   12 Jun 2027 04:54:19.159   12 Jun 2027 04:55:27.739            68.580              Murmansk1          8054.500
       413   12 Jun 2027 06:24:22.791   12 Jun 2027 06:26:04.068           101.277                Irkutsk          8799.500
       414   12 Jun 2027 06:26:37.131   12 Jun 2027 06:29:16.916           159.785              Murmansk2         16531.500
       415   12 Jun 2027 06:29:18.966   12 Jun 2027 06:29:35.895            16.929              Murmansk2          1025.000
       416   12 Jun 2027 06:29:43.430   12 Jun 2027 06:30:40.302            56.872              Murmansk2          3767.500
       417   12 Jun 2027 08:02:06.241   12 Jun 2027 08:02:27.736            21.495                Norilsk          1135.500
       418   12 Jun 2027 08:02:28.035   12 Jun 2027 08:02:43.733            15.698                Novosib           149.500
       419   12 Jun 2027 08:02:43.750   12 Jun 2027 08:03:18.482            34.732              Murmansk1             8.500
       420   12 Jun 2027 08:03:27.660   12 Jun 2027 08:04:06.559            38.899              Murmansk2          4589.000
       421   12 Jun 2027 08:04:17.448   12 Jun 2027 08:05:06.609            49.161                 Moscow          5444.500
       422   12 Jun 2027 08:05:06.867   12 Jun 2027 08:05:16.755             9.888              Murmansk2           129.000
       423   12 Jun 2027 08:05:27.419   12 Jun 2027 08:06:54.686            87.267                Novosib          5332.000
       424   12 Jun 2027 09:35:43.595   12 Jun 2027 09:36:06.143            22.548                 Moscow          1055.500
       425   12 Jun 2027 09:36:13.877   12 Jun 2027 09:37:13.104            59.227              Murmansk2          3867.000
       426   12 Jun 2027 09:37:34.209   12 Jun 2027 09:39:30.898           116.689                 Moscow         10552.500
       427   12 Jun 2027 09:39:35.259   12 Jun 2027 09:40:16.878            41.619              Murmansk1          2180.500
       428   12 Jun 2027 09:40:25.085   12 Jun 2027 09:41:06.760            41.675                 Moscow          4103.500
       429   12 Jun 2027 09:41:09.621   12 Jun 2027 09:41:24.170            14.549                Norilsk          1430.500
       430   12 Jun 2027 09:41:34.246   12 Jun 2027 09:42:23.977            49.731              Murmansk2          5038.000
       431   12 Jun 2027 09:42:25.834   12 Jun 2027 09:43:10.217            44.383                 Moscow           928.500
       432   13 Jun 2027 03:21:22.321   13 Jun 2027 03:21:48.259            25.938               Magadan1          1346.500
       433   13 Jun 2027 03:21:50.544   13 Jun 2027 03:22:00.145             9.601               Magadan2          1142.500
       434   13 Jun 2027 03:22:25.472   13 Jun 2027 03:24:02.729            97.257               Magadan2         12157.125
       435   13 Jun 2027 03:24:06.648   13 Jun 2027 03:24:31.608            24.960                Irkutsk          2465.875
       436   13 Jun 2027 03:24:34.235   13 Jun 2027 03:24:45.364            11.129               Magadan1          1313.500
       437   13 Jun 2027 03:24:54.824   13 Jun 2027 03:24:57.340             2.516                Irkutsk           314.500
       438   13 Jun 2027 03:24:57.406   13 Jun 2027 03:25:42.434            45.028                Anadyr1          4448.500
       439   13 Jun 2027 03:25:51.376   13 Jun 2027 03:26:44.497            53.121                Irkutsk          4471.000
       440   13 Jun 2027 03:26:45.849   13 Jun 2027 03:26:53.934             8.085                Anadyr2           676.000
       441   13 Jun 2027 03:26:54.662   13 Jun 2027 03:27:22.532            27.870                Norilsk           364.000
       442   13 Jun 2027 03:27:27.529   13 Jun 2027 03:28:53.493            85.964                Anadyr1          2498.500
       443   13 Jun 2027 03:28:56.281   13 Jun 2027 03:29:38.599            42.318                Anadyr1          1394.000
       444   13 Jun 2027 03:29:45.860   13 Jun 2027 03:29:57.405            11.545                Anadyr2           956.000
       445   13 Jun 2027 03:30:07.426   13 Jun 2027 03:30:54.344            46.918              Murmansk2          5010.500
       446   13 Jun 2027 04:59:14.613   13 Jun 2027 04:59:36.597            21.984                Norilsk            98.000
       447   13 Jun 2027 04:59:49.678   13 Jun 2027 05:00:18.964            29.286                Norilsk          3660.750
       448   13 Jun 2027 05:00:21.478   13 Jun 2027 05:01:14.515            53.037               Magadan2          4136.750
       449   13 Jun 2027 05:01:39.229   13 Jun 2027 05:04:18.913           159.684               Magadan2         12357.000
       450   13 Jun 2027 05:04:20.631   13 Jun 2027 05:04:30.017             9.386               Magadan2           859.000
       451   13 Jun 2027 05:04:33.888   13 Jun 2027 05:05:03.855            29.967               Magadan2          1935.500
       452   13 Jun 2027 05:05:04.371   13 Jun 2027 05:06:13.230            68.859                Novosib           258.000
       453   13 Jun 2027 05:06:13.558   13 Jun 2027 05:07:14.997            61.439              Murmansk2           164.000
       454   13 Jun 2027 06:36:01.377   13 Jun 2027 06:36:17.136            15.759                Novosib          1268.000
       455   13 Jun 2027 06:36:23.040   13 Jun 2027 06:36:52.737            29.697                Norilsk          2952.000
       456   13 Jun 2027 06:36:56.300   13 Jun 2027 06:37:24.047            27.747                Norilsk          1781.500
       457   13 Jun 2027 06:37:48.025   13 Jun 2027 06:39:36.634           108.609                Novosib         11989.000
       458   13 Jun 2027 06:39:38.933   13 Jun 2027 06:39:42.957             4.024              Murmansk1           503.000
       459   13 Jun 2027 06:39:42.957   13 Jun 2027 06:40:12.825            29.868              Murmansk2           646.500
       460   13 Jun 2027 06:40:12.861   13 Jun 2027 06:40:14.551             1.690              Murmansk1            18.000
       461   13 Jun 2027 06:40:17.777   13 Jun 2027 06:40:46.936            29.159                Norilsk          1613.000
       462   13 Jun 2027 06:40:47.792   13 Jun 2027 06:41:12.263            24.471                 Moscow           428.000
       463   13 Jun 2027 06:41:13.400   13 Jun 2027 06:41:34.981            21.581              Murmansk2           568.500
       464   13 Jun 2027 06:41:35.347   13 Jun 2027 06:42:01.301            25.954              Murmansk2           183.000
       465   13 Jun 2027 06:42:15.651   13 Jun 2027 06:43:28.456            72.805              Murmansk1          7175.000
       466   13 Jun 2027 08:14:00.809   13 Jun 2027 08:14:37.735            36.926                Norilsk          4406.000
       467   13 Jun 2027 08:14:54.596   13 Jun 2027 08:16:12.997            78.401                Novosib          8430.500
       468   13 Jun 2027 08:16:20.479   13 Jun 2027 08:17:32.584            72.105                Novosib          3741.000
       469   13 Jun 2027 08:17:39.439   13 Jun 2027 08:18:26.511            47.072                Novosib          3427.500
       470   13 Jun 2027 09:50:04.659   13 Jun 2027 09:51:52.310           107.651                 Moscow          7328.000
       471   13 Jun 2027 09:52:17.278   13 Jun 2027 09:54:15.192           117.914              Murmansk2         12484.000
