uniorb/output/strategy_2/Drop/Drop_KinoSat_111905.txt

KinoSat_111905
-------------------------
    Access    *     Start Time (UTCG)     *     Stop Time (UTCG)  *   Duration (s)        *       Station  *  Data (Mbytes)
         1   01 Jun 2027 03:00:55.137   01 Jun 2027 03:01:31.758            36.621               Magadan1          1144.406
         2   01 Jun 2027 03:01:41.989   01 Jun 2027 03:02:41.562            59.573               Magadan1          1861.656
         3   01 Jun 2027 03:03:50.189   01 Jun 2027 03:04:28.110            37.921              Murmansk2          1185.031
         4   01 Jun 2027 03:04:52.381   01 Jun 2027 03:05:47.471            55.090                Irkutsk          1721.562
         5   01 Jun 2027 03:06:06.057   01 Jun 2027 03:06:07.258             1.201                Norilsk            37.531
         6   01 Jun 2027 03:06:28.006   01 Jun 2027 03:06:28.484             0.478                Norilsk            14.937
         7   01 Jun 2027 03:06:29.407   01 Jun 2027 03:08:41.859           132.452                Irkutsk          4139.125
         8   01 Jun 2027 03:08:44.819   01 Jun 2027 03:08:51.439             6.620                Novosib           206.875
         9   01 Jun 2027 03:09:27.098   01 Jun 2027 03:09:45.256            18.158                Norilsk           567.437
        10   01 Jun 2027 03:11:04.337   01 Jun 2027 03:11:59.575            55.238                  Delhi          1726.188
        11   01 Jun 2027 03:50:06.595   01 Jun 2027 03:55:17.847           311.252            RioGallegos          9726.625
        12   01 Jun 2027 04:41:29.322   01 Jun 2027 04:41:43.666            14.344                Norilsk           448.250
        13   01 Jun 2027 04:41:51.288   01 Jun 2027 04:42:12.639            21.351                Irkutsk           667.219
        14   01 Jun 2027 04:42:18.909   01 Jun 2027 04:44:23.145           124.236              Murmansk2          3882.375
        15   01 Jun 2027 04:44:23.145   01 Jun 2027 04:46:01.032            97.887              Murmansk1          3058.969
        16   01 Jun 2027 04:46:14.206   01 Jun 2027 04:52:34.001           379.795                  Delhi         11868.594
        17   01 Jun 2027 06:15:57.229   01 Jun 2027 06:16:23.576            26.347                Novosib           823.344
        18   01 Jun 2027 06:19:00.836   01 Jun 2027 06:19:40.870            40.034                Novosib          1251.063
        19   01 Jun 2027 06:20:48.874   01 Jun 2027 06:21:03.843            14.969              Murmansk1           467.781
        20   01 Jun 2027 06:21:03.843   01 Jun 2027 06:21:15.295            11.452              Murmansk2           357.875
        21   01 Jun 2027 06:21:51.031   01 Jun 2027 06:22:25.451            34.420              Murmansk1          1075.625
        22   01 Jun 2027 06:23:11.992   01 Jun 2027 06:23:45.819            33.827              Murmansk2          1057.094
        23   01 Jun 2027 06:25:17.280   01 Jun 2027 06:25:39.225            21.945                 Moscow           685.781
        24   01 Jun 2027 06:25:50.110   01 Jun 2027 06:26:34.297            44.187                 Moscow          1380.844
        25   01 Jun 2027 06:38:05.492   01 Jun 2027 06:42:21.451           255.959               CapeTown          7998.719
        26   01 Jun 2027 07:41:37.861   01 Jun 2027 07:41:59.187            21.326               Magadan2           666.438
        27   01 Jun 2027 07:41:59.187   01 Jun 2027 07:42:21.908            22.721               Magadan1           710.031
        28   01 Jun 2027 07:42:33.051   01 Jun 2027 07:47:08.315           275.264               Magadan1          8602.000
        29   01 Jun 2027 08:18:54.491   01 Jun 2027 08:22:06.143           191.652               CapeTown          5989.125
        30   01 Jun 2027 09:19:41.536   01 Jun 2027 09:23:30.517           228.981                Anadyr2          7155.656
        31   01 Jun 2027 09:29:47.312   01 Jun 2027 09:30:54.557            67.245                 Moscow          2101.406
        32   01 Jun 2027 10:52:52.746   01 Jun 2027 10:53:11.101            18.355                Irkutsk           573.594
        33   01 Jun 2027 10:53:35.064   01 Jun 2027 10:54:13.925            38.861                Norilsk          1214.406
        34   01 Jun 2027 10:54:18.086   01 Jun 2027 10:57:35.877           197.791                Anadyr2          6180.969
        35   01 Jun 2027 10:57:42.434   01 Jun 2027 10:58:45.968            63.534                Irkutsk          1985.438
        36   01 Jun 2027 10:58:56.372   01 Jun 2027 10:58:58.765             2.393               Magadan1            74.781
        37   01 Jun 2027 10:59:02.979   01 Jun 2027 11:00:00.922            57.943                Norilsk          1810.719
        38   01 Jun 2027 11:00:10.903   01 Jun 2027 11:01:00.274            49.371              Murmansk2          1542.844
        39   01 Jun 2027 11:33:54.933   01 Jun 2027 11:35:26.371            91.438            RioGallegos          2857.437
        40   01 Jun 2027 11:37:35.762   01 Jun 2027 11:38:43.938            68.176            RioGallegos          2130.500
        41   01 Jun 2027 12:10:13.717   01 Jun 2027 12:10:31.646            17.929                Sumatra           560.281
        42   01 Jun 2027 12:11:51.891   01 Jun 2027 12:12:56.091            64.200                Sumatra          2006.250
        43   01 Jun 2027 12:13:46.164   01 Jun 2027 12:14:46.592            60.428                Sumatra          1888.375
        44   01 Jun 2027 12:22:11.100   01 Jun 2027 12:25:06.488           175.388                Irkutsk          5480.875
        45   01 Jun 2027 12:27:06.316   01 Jun 2027 12:28:12.721            66.405                Norilsk          2075.156
        46   01 Jun 2027 13:10:33.731   01 Jun 2027 13:15:33.909           300.178            RioGallegos          9380.562
        47   01 Jun 2027 13:44:53.065   01 Jun 2027 13:45:33.074            40.009                Sumatra          1250.281
        48   01 Jun 2027 13:53:22.460   01 Jun 2027 13:54:43.058            80.598                Sumatra          2518.688
        49   01 Jun 2027 13:59:40.610   01 Jun 2027 14:00:51.719            71.109                Novosib          2222.156
        50   01 Jun 2027 14:02:57.445   01 Jun 2027 14:03:03.272             5.827                Novosib           182.094
        51   01 Jun 2027 14:03:29.536   01 Jun 2027 14:04:31.794            62.258                Norilsk          1945.563
        52   01 Jun 2027 14:04:46.074   01 Jun 2027 14:05:26.495            40.421                Irkutsk          1263.156
        53   01 Jun 2027 14:09:36.224   01 Jun 2027 14:09:55.964            19.740                Irkutsk           616.875
        54   01 Jun 2027 15:29:38.748   01 Jun 2027 15:32:04.399           145.651                  Delhi          4551.594
        55   01 Jun 2027 15:34:11.060   01 Jun 2027 15:34:43.128            32.068                  Delhi          1002.125
        56   01 Jun 2027 15:35:01.885   01 Jun 2027 15:35:12.055            10.170                  Delhi           317.812
        57   01 Jun 2027 15:37:28.316   01 Jun 2027 15:39:38.701           130.385                  Delhi          4074.531
        58   01 Jun 2027 15:41:00.135   01 Jun 2027 15:41:25.466            25.331                Novosib           791.594
        59   01 Jun 2027 15:41:43.979   01 Jun 2027 15:42:50.568            66.589                Norilsk          2080.906
        60   01 Jun 2027 15:43:30.943   01 Jun 2027 15:43:42.579            11.636                Novosib           363.625
        61   01 Jun 2027 15:46:13.456   01 Jun 2027 15:46:41.621            28.165                Norilsk           880.156
        62   01 Jun 2027 15:47:14.050   01 Jun 2027 15:47:20.383             6.333                Norilsk           197.906
        63   01 Jun 2027 17:13:16.057   01 Jun 2027 17:14:19.721            63.664                 Moscow          1989.500
        64   01 Jun 2027 17:16:28.582   01 Jun 2027 17:16:58.466            29.884                 Moscow           933.875
        65   01 Jun 2027 17:17:26.996   01 Jun 2027 17:18:05.531            38.535              Murmansk2          1204.219
        66   01 Jun 2027 17:18:05.531   01 Jun 2027 17:19:42.481            96.950              Murmansk1          3029.688
        67   01 Jun 2027 17:22:42.729   01 Jun 2027 17:25:37.226           174.497                Norilsk          5453.031
        68   01 Jun 2027 17:25:37.914   01 Jun 2027 17:26:51.974            74.060                Norilsk          2314.375
        69   01 Jun 2027 18:51:58.776   01 Jun 2027 18:56:35.649           276.873                 Moscow          8652.281
        70   01 Jun 2027 20:04:58.845   01 Jun 2027 20:06:36.492            97.647               CapeTown          3051.469
        71   01 Jun 2027 20:07:30.588   01 Jun 2027 20:07:45.434            14.846               CapeTown           463.937
        72   01 Jun 2027 20:34:50.365   01 Jun 2027 20:39:11.688           261.323              Murmansk1          8166.344
        73   01 Jun 2027 20:39:45.330   01 Jun 2027 20:40:57.275            71.945              Murmansk2          2248.281
        74   01 Jun 2027 22:19:10.058   01 Jun 2027 22:20:53.506           103.448                Anadyr1          3232.750
        75   01 Jun 2027 22:21:23.126   01 Jun 2027 22:22:06.256            43.130                Anadyr2          1347.813
        76   01 Jun 2027 22:22:13.927   01 Jun 2027 22:24:37.134           143.207               Magadan1          4475.219
        77   01 Jun 2027 23:14:23.790   01 Jun 2027 23:16:26.580           122.790            RioGallegos          3837.188
        78   01 Jun 2027 23:54:56.277   01 Jun 2027 23:56:30.882            94.605                Anadyr2          2956.406
        79   01 Jun 2027 23:57:00.996   01 Jun 2027 23:58:47.297           106.301                Norilsk          3321.906
        80   01 Jun 2027 23:58:59.637   02 Jun 2027 00:00:46.802           107.165               Magadan2          3348.906
        81   02 Jun 2027 00:01:36.076   02 Jun 2027 00:02:42.743            66.667                Irkutsk          2083.344
        82   02 Jun 2027 00:15:55.881   02 Jun 2027 00:18:48.837           172.956                Sumatra          5404.875
        83   02 Jun 2027 00:48:54.378   02 Jun 2027 00:50:08.884            74.506            RioGallegos          2328.313
        84   02 Jun 2027 01:31:15.232   02 Jun 2027 01:31:44.332            29.100                Anadyr1           909.375
        85   02 Jun 2027 01:31:56.495   02 Jun 2027 01:32:09.071            12.576                Anadyr2           393.000
        86   02 Jun 2027 01:32:28.592   02 Jun 2027 01:32:50.490            21.898                Anadyr1           684.313
        87   02 Jun 2027 01:32:53.536   02 Jun 2027 01:34:48.030           114.494                Norilsk          3577.938
        88   02 Jun 2027 01:35:17.857   02 Jun 2027 01:35:58.635            40.778               Magadan2          1274.313
        89   02 Jun 2027 01:36:46.776   02 Jun 2027 01:39:39.532           172.756                Irkutsk          5398.625
        90   02 Jun 2027 01:48:29.867   02 Jun 2027 01:48:37.489             7.622                  Delhi           238.188
        91   02 Jun 2027 01:51:02.459   02 Jun 2027 01:52:26.291            83.832                Sumatra          2619.750
        92   02 Jun 2027 01:53:16.030   02 Jun 2027 01:55:53.575           157.545                Sumatra          4923.281
        93   02 Jun 2027 03:13:31.562   02 Jun 2027 03:13:47.557            15.995               Magadan1           499.844
        94   02 Jun 2027 03:15:56.897   02 Jun 2027 03:16:18.467            21.570              Murmansk1           674.063
        95   02 Jun 2027 03:16:21.448   02 Jun 2027 03:16:34.520            13.072                Norilsk           408.500
        96   02 Jun 2027 03:16:35.951   02 Jun 2027 03:17:30.304            54.353              Murmansk1          1698.531
        97   02 Jun 2027 03:17:47.834   02 Jun 2027 03:20:11.603           143.769                Norilsk          4492.781
        98   02 Jun 2027 03:20:27.384   02 Jun 2027 03:21:04.245            36.861                Novosib          1151.906
        99   02 Jun 2027 03:21:35.773   02 Jun 2027 03:22:32.776            57.003                Novosib          1781.344
       100   02 Jun 2027 03:22:44.342   02 Jun 2027 03:23:43.653            59.311                  Delhi          1853.469
       101   02 Jun 2027 04:02:33.251   02 Jun 2027 04:07:34.422           301.171            RioGallegos          9411.594
       102   02 Jun 2027 04:52:29.625   02 Jun 2027 04:52:57.945            28.320                Novosib           885.000
       103   02 Jun 2027 04:53:55.596   02 Jun 2027 04:55:55.949           120.353              Murmansk2          3761.031
       104   02 Jun 2027 04:55:55.949   02 Jun 2027 04:56:18.324            22.375              Murmansk1           699.219
       105   02 Jun 2027 04:56:42.465   02 Jun 2027 04:58:00.824            78.359                Novosib          2448.719
       106   02 Jun 2027 04:58:10.190   02 Jun 2027 04:58:23.751            13.561              Murmansk2           423.781
       107   02 Jun 2027 04:58:33.513   02 Jun 2027 04:59:12.025            38.512                Novosib          1203.500
       108   02 Jun 2027 04:59:42.915   02 Jun 2027 05:02:42.768           179.853                  Delhi          5620.406
       109   02 Jun 2027 06:28:25.456   02 Jun 2027 06:28:29.128             3.672                Novosib           114.750
       110   02 Jun 2027 06:30:35.425   02 Jun 2027 06:30:52.432            17.007                Novosib           531.469
       111   02 Jun 2027 06:32:36.322   02 Jun 2027 06:34:51.353           135.031              Murmansk1          4219.719
       112   02 Jun 2027 06:35:04.553   02 Jun 2027 06:35:12.850             8.297              Murmansk2           259.281
       113   02 Jun 2027 06:52:51.034   02 Jun 2027 06:53:15.572            24.538               CapeTown           766.812
       114   02 Jun 2027 06:59:41.575   02 Jun 2027 06:59:57.107            15.532               CapeTown           485.375
       115   02 Jun 2027 07:54:01.440   02 Jun 2027 07:57:46.854           225.414                Anadyr2          7044.188
       116   02 Jun 2027 07:59:00.046   02 Jun 2027 07:59:46.488            46.442                Anadyr2          1451.313
       117   02 Jun 2027 08:02:29.781   02 Jun 2027 08:03:08.394            38.613                 Moscow          1206.656
       118   02 Jun 2027 08:04:18.649   02 Jun 2027 08:04:20.936             2.287                 Moscow            71.469
       119   02 Jun 2027 09:25:55.901   02 Jun 2027 09:26:40.416            44.515                Anadyr1          1391.094
       120   02 Jun 2027 09:29:34.531   02 Jun 2027 09:29:58.319            23.788                Anadyr2           743.375
       121   02 Jun 2027 09:30:11.901   02 Jun 2027 09:31:41.324            89.423                Anadyr2          2794.469
       122   02 Jun 2027 09:32:08.098   02 Jun 2027 09:34:14.762           126.664               Magadan1          3958.250
       123   02 Jun 2027 09:34:14.762   02 Jun 2027 09:35:23.629            68.867               Magadan2          2152.094
       124   02 Jun 2027 11:04:37.031   02 Jun 2027 11:05:01.344            24.313                Norilsk           759.781
       125   02 Jun 2027 11:05:08.930   02 Jun 2027 11:05:32.386            23.456                Norilsk           733.000
       126   02 Jun 2027 11:05:34.078   02 Jun 2027 11:10:17.014           282.936               Magadan2          8841.750
       127   02 Jun 2027 11:10:45.219   02 Jun 2027 11:11:01.640            16.421              Murmansk2           513.156
       128   02 Jun 2027 11:11:07.389   02 Jun 2027 11:11:17.348             9.959                Novosib           311.219
       129   02 Jun 2027 11:12:11.663   02 Jun 2027 11:12:13.087             1.424              Murmansk2            44.500
       130   02 Jun 2027 11:12:13.087   02 Jun 2027 11:12:31.274            18.187              Murmansk1           568.344
       131   02 Jun 2027 11:45:49.957   02 Jun 2027 11:47:04.602            74.645            RioGallegos          2332.656
       132   02 Jun 2027 12:21:40.752   02 Jun 2027 12:22:27.272            46.520                Sumatra          1453.750
       133   02 Jun 2027 12:34:13.181   02 Jun 2027 12:36:53.120           159.939                Irkutsk          4998.094
       134   02 Jun 2027 12:37:30.705   02 Jun 2027 12:37:34.043             3.338                Irkutsk           104.312
       135   02 Jun 2027 12:39:06.338   02 Jun 2027 12:40:02.445            56.107                Norilsk          1753.344
       136   02 Jun 2027 12:42:03.939   02 Jun 2027 12:42:16.311            12.372                Norilsk           386.625
       137   02 Jun 2027 12:42:27.604   02 Jun 2027 12:42:59.544            31.940                Norilsk           998.125
       138   02 Jun 2027 13:22:59.073   02 Jun 2027 13:23:53.557            54.484            RioGallegos          1702.625
       139   02 Jun 2027 13:27:54.971   02 Jun 2027 13:28:15.091            20.120            RioGallegos           628.750
       140   02 Jun 2027 13:30:28.417   02 Jun 2027 13:32:57.255           148.838            RioGallegos          4651.188
       141   02 Jun 2027 13:57:13.819   02 Jun 2027 13:59:06.310           112.491                Sumatra          3515.344
       142   02 Jun 2027 14:01:30.974   02 Jun 2027 14:02:25.213            54.239                Sumatra          1694.969
       143   02 Jun 2027 14:12:30.001   02 Jun 2027 14:15:40.388           190.387                Irkutsk          5949.594
       144   02 Jun 2027 15:42:12.336   02 Jun 2027 15:47:02.184           289.848                  Delhi          9057.750
       145   02 Jun 2027 15:50:37.698   02 Jun 2027 15:52:33.524           115.826                Novosib          3619.562
       146   02 Jun 2027 15:52:58.954   02 Jun 2027 15:59:25.914           386.960                Novosib         12092.500
       147   02 Jun 2027 17:35:50.612   02 Jun 2027 17:37:39.102           108.490                Norilsk          3390.313
       148   02 Jun 2027 19:04:46.741   02 Jun 2027 19:09:10.512           263.771                 Moscow          8242.844
       149   02 Jun 2027 19:14:25.006   02 Jun 2027 19:15:27.123            62.117              Murmansk2          1941.156
       150   02 Jun 2027 20:15:22.262   02 Jun 2027 20:16:28.208            65.946               CapeTown          2060.812
       151   02 Jun 2027 20:18:05.449   02 Jun 2027 20:18:44.895            39.446               CapeTown          1232.688
       152   02 Jun 2027 20:19:07.337   02 Jun 2027 20:20:21.406            74.069               CapeTown          2314.656
       153   02 Jun 2027 20:47:45.112   02 Jun 2027 20:51:55.759           250.647              Murmansk2          7832.719
       154   02 Jun 2027 20:52:06.327   02 Jun 2027 20:52:44.629            38.302              Murmansk1          1196.937
       155   02 Jun 2027 22:31:11.562   02 Jun 2027 22:35:51.968           280.406                Anadyr2          8762.688
       156   02 Jun 2027 22:35:55.225   02 Jun 2027 22:35:55.502             0.277                Norilsk             8.656
       157   02 Jun 2027 22:36:44.050   02 Jun 2027 22:38:50.930           126.880               Magadan2          3965.000
       158   02 Jun 2027 22:44:00.821   02 Jun 2027 22:44:12.909            12.088               Magadan2           377.750
       159   02 Jun 2027 22:44:44.277   02 Jun 2027 22:45:54.353            70.076               Magadan1          2189.875
       160   02 Jun 2027 23:26:02.253   02 Jun 2027 23:27:57.335           115.082            RioGallegos          3596.313
       161   02 Jun 2027 23:29:00.897   02 Jun 2027 23:29:18.061            17.164            RioGallegos           536.375
       162   02 Jun 2027 23:35:18.470   02 Jun 2027 23:35:22.482             4.012            RioGallegos           125.375
       163   03 Jun 2027 00:06:54.775   03 Jun 2027 00:08:02.860            68.085                Anadyr2          2127.656
       164   03 Jun 2027 00:08:23.298   03 Jun 2027 00:09:11.730            48.432                Anadyr1          1513.500
       165   03 Jun 2027 00:09:28.666   03 Jun 2027 00:11:29.965           121.299               Magadan2          3790.594
       166   03 Jun 2027 00:11:32.026   03 Jun 2027 00:12:32.592            60.566                Norilsk          1892.687
       167   03 Jun 2027 00:13:25.323   03 Jun 2027 00:14:25.668            60.345                Irkutsk          1885.781
       168   03 Jun 2027 00:15:30.215   03 Jun 2027 00:15:42.068            11.853                Irkutsk           370.406
       169   03 Jun 2027 00:19:17.372   03 Jun 2027 00:19:29.861            12.489                Irkutsk           390.281
       170   03 Jun 2027 00:21:59.139   03 Jun 2027 00:22:11.185            12.046                Irkutsk           376.437
       171   03 Jun 2027 00:23:38.597   03 Jun 2027 00:24:17.909            39.312                Irkutsk          1228.500
       172   03 Jun 2027 00:27:27.955   03 Jun 2027 00:28:49.373            81.418                Sumatra          2544.313
       173   03 Jun 2027 00:33:31.961   03 Jun 2027 00:33:38.010             6.049                Sumatra           189.031
       174   03 Jun 2027 00:33:43.800   03 Jun 2027 00:34:07.844            24.044                Sumatra           751.375
       175   03 Jun 2027 00:35:48.817   03 Jun 2027 00:36:46.090            57.273                Sumatra          1789.781
       176   03 Jun 2027 01:06:38.548   03 Jun 2027 01:06:50.910            12.362            RioGallegos           386.312
       177   03 Jun 2027 01:08:37.656   03 Jun 2027 01:09:11.844            34.188            RioGallegos          1068.375
       178   03 Jun 2027 01:41:53.599   03 Jun 2027 01:43:14.144            80.545                Anadyr1          2517.031
       179   03 Jun 2027 01:43:56.740   03 Jun 2027 01:44:11.207            14.467                Anadyr2           452.094
       180   03 Jun 2027 01:44:55.889   03 Jun 2027 01:46:25.901            90.012                Norilsk          2812.875
       181   03 Jun 2027 01:46:35.020   03 Jun 2027 01:46:45.648            10.628                Norilsk           332.125
       182   03 Jun 2027 01:47:19.591   03 Jun 2027 01:47:28.532             8.941               Magadan1           279.406
       183   03 Jun 2027 01:48:21.400   03 Jun 2027 01:48:43.535            22.135                Norilsk           691.719
       184   03 Jun 2027 01:48:48.425   03 Jun 2027 01:51:00.341           131.916                Irkutsk          4122.375
       185   03 Jun 2027 01:52:29.702   03 Jun 2027 01:52:42.630            12.928                Irkutsk           404.000
       186   03 Jun 2027 01:55:37.477   03 Jun 2027 01:56:20.793            43.316                Novosib          1353.625
       187   03 Jun 2027 01:57:57.096   03 Jun 2027 01:58:12.639            15.543                  Delhi           485.719
       188   03 Jun 2027 02:02:35.905   03 Jun 2027 02:03:49.454            73.549                  Delhi          2298.406
       189   03 Jun 2027 02:07:03.892   03 Jun 2027 02:08:31.954            88.062                Sumatra          2751.938
       190   03 Jun 2027 02:38:41.350   03 Jun 2027 02:38:57.883            16.533            RioGallegos           516.656
       191   03 Jun 2027 02:44:10.264   03 Jun 2027 02:45:10.515            60.251            RioGallegos          1882.844
       192   03 Jun 2027 03:28:01.941   03 Jun 2027 03:28:36.934            34.993              Murmansk2          1093.531
       193   03 Jun 2027 03:29:18.529   03 Jun 2027 03:31:10.244           111.715              Murmansk1          3491.094
       194   03 Jun 2027 03:31:22.886   03 Jun 2027 03:32:34.490            71.604                 Moscow          2237.625
       195   03 Jun 2027 03:32:35.078   03 Jun 2027 03:33:40.835            65.757                Norilsk          2054.906
       196   03 Jun 2027 03:33:59.579   03 Jun 2027 03:34:19.553            19.974                Novosib           624.187
       197   03 Jun 2027 03:36:16.219   03 Jun 2027 03:36:18.563             2.344                Novosib            73.250
       198   03 Jun 2027 03:40:55.929   03 Jun 2027 03:41:46.313            50.384                  Delhi          1574.500
       199   03 Jun 2027 04:15:16.351   03 Jun 2027 04:16:14.484            58.133            RioGallegos          1816.656
       200   03 Jun 2027 04:17:09.162   03 Jun 2027 04:18:21.025            71.863            RioGallegos          2245.719
       201   03 Jun 2027 04:48:56.373   03 Jun 2027 04:49:38.245            41.872                Anadyr1          1308.500
       202   03 Jun 2027 05:04:41.548   03 Jun 2027 05:05:26.459            44.911              Murmansk1          1403.469
       203   03 Jun 2027 05:05:54.775   03 Jun 2027 05:07:04.751            69.976              Murmansk1          2186.750
       204   03 Jun 2027 05:07:04.751   03 Jun 2027 05:08:01.114            56.363              Murmansk2          1761.344
       205   03 Jun 2027 05:08:01.114   03 Jun 2027 05:08:05.460             4.346              Murmansk1           135.812
       206   03 Jun 2027 05:08:24.916   03 Jun 2027 05:08:25.688             0.772                Novosib            24.125
       207   03 Jun 2027 05:08:28.154   03 Jun 2027 05:08:39.902            11.748                Norilsk           367.125
       208   03 Jun 2027 05:08:40.138   03 Jun 2027 05:10:10.260            90.122              Murmansk2          2816.312
       209   03 Jun 2027 05:10:36.960   03 Jun 2027 05:10:40.277             3.317                Novosib           103.656
       210   03 Jun 2027 05:27:25.146   03 Jun 2027 05:28:05.034            39.888               CapeTown          1246.500
       211   03 Jun 2027 05:28:46.064   03 Jun 2027 05:30:09.237            83.173               CapeTown          2599.156
       212   03 Jun 2027 06:41:47.827   03 Jun 2027 06:42:19.866            32.039                Norilsk          1001.219
       213   03 Jun 2027 06:42:42.887   03 Jun 2027 06:43:33.141            50.254              Murmansk1          1570.437
       214   03 Jun 2027 06:43:50.118   03 Jun 2027 06:44:07.498            17.380              Murmansk1           543.125
       215   03 Jun 2027 06:44:15.865   03 Jun 2027 06:44:38.468            22.603              Murmansk1           706.344
       216   03 Jun 2027 06:44:40.365   03 Jun 2027 06:45:41.345            60.980              Murmansk2          1905.625
       217   03 Jun 2027 06:47:08.454   03 Jun 2027 06:47:13.929             5.475                 Moscow           171.094
       218   03 Jun 2027 07:02:26.089   03 Jun 2027 07:03:43.892            77.803               CapeTown          2431.344
       219   03 Jun 2027 07:05:10.525   03 Jun 2027 07:07:13.802           123.277               CapeTown          3852.406
       220   03 Jun 2027 08:05:02.861   03 Jun 2027 08:06:02.288            59.427                Anadyr1          1857.094
       221   03 Jun 2027 08:06:15.221   03 Jun 2027 08:07:26.619            71.398               Magadan2          2231.188
       222   03 Jun 2027 08:07:26.690   03 Jun 2027 08:07:38.049            11.359                Anadyr1           354.969
       223   03 Jun 2027 08:07:48.213   03 Jun 2027 08:08:28.331            40.118               Magadan1          1253.687
       224   03 Jun 2027 08:08:51.246   03 Jun 2027 08:09:46.638            55.392                Anadyr2          1731.000
       225   03 Jun 2027 08:21:41.084   03 Jun 2027 08:22:06.375            25.291                 Moscow           790.344
       226   03 Jun 2027 09:37:32.293   03 Jun 2027 09:37:53.483            21.190                Anadyr1           662.188
       227   03 Jun 2027 09:39:28.669   03 Jun 2027 09:42:23.243           174.574                Anadyr1          5455.437
       228   03 Jun 2027 09:42:48.140   03 Jun 2027 09:43:14.084            25.944               Magadan2           810.750
       229   03 Jun 2027 09:43:30.307   03 Jun 2027 09:44:32.825            62.518               Magadan1          1953.688
       230   03 Jun 2027 09:44:36.998   03 Jun 2027 09:44:37.391             0.393                Norilsk            12.281
       231   03 Jun 2027 09:44:44.428   03 Jun 2027 09:47:24.965           160.537                Anadyr2          5016.781
       232   03 Jun 2027 11:12:49.903   03 Jun 2027 11:13:08.337            18.434               Magadan1           576.062
       233   03 Jun 2027 11:13:08.337   03 Jun 2027 11:14:10.016            61.679               Magadan2          1927.469
       234   03 Jun 2027 11:16:37.982   03 Jun 2027 11:16:59.590            21.608                Norilsk           675.250
       235   03 Jun 2027 11:17:22.151   03 Jun 2027 11:18:01.193            39.042                Irkutsk          1220.062
       236   03 Jun 2027 11:18:07.862   03 Jun 2027 11:18:24.700            16.838                Novosib           526.187
       237   03 Jun 2027 11:18:27.701   03 Jun 2027 11:18:38.747            11.046                Norilsk           345.187
       238   03 Jun 2027 11:18:50.103   03 Jun 2027 11:19:08.160            18.057                Irkutsk           564.281
       239   03 Jun 2027 11:19:10.126   03 Jun 2027 11:22:46.470           216.344               Magadan2          6760.750
       240   03 Jun 2027 11:23:06.314   03 Jun 2027 11:23:11.319             5.005              Murmansk2           156.406
       241   03 Jun 2027 11:24:09.722   03 Jun 2027 11:24:42.534            32.812              Murmansk2          1025.375
       242   03 Jun 2027 11:57:48.262   03 Jun 2027 11:59:02.860            74.598            RioGallegos          2331.187
       243   03 Jun 2027 11:59:34.384   03 Jun 2027 12:00:42.299            67.915            RioGallegos          2122.344
       244   03 Jun 2027 12:33:54.067   03 Jun 2027 12:34:58.648            64.581                Sumatra          2018.156
       245   03 Jun 2027 12:46:18.600   03 Jun 2027 12:47:19.111            60.511                Irkutsk          1890.969
       246   03 Jun 2027 12:49:31.410   03 Jun 2027 12:50:34.415            63.005                Irkutsk          1968.906
       247   03 Jun 2027 12:51:07.736   03 Jun 2027 12:52:14.967            67.231                Norilsk          2100.969
       248   03 Jun 2027 13:35:29.985   03 Jun 2027 13:37:15.338           105.353            RioGallegos          3292.281
       249   03 Jun 2027 13:39:36.504   03 Jun 2027 13:40:22.257            45.753            RioGallegos          1429.781
       250   03 Jun 2027 14:09:43.542   03 Jun 2027 14:12:30.683           167.141                Sumatra          5223.156
       251   03 Jun 2027 14:25:14.732   03 Jun 2027 14:29:44.174           269.442                Irkutsk          8420.062
       252   03 Jun 2027 15:54:57.832   03 Jun 2027 15:59:28.794           270.962                  Delhi          8467.563
       253   03 Jun 2027 16:03:27.752   03 Jun 2027 16:07:48.256           260.504                Novosib          8140.750
       254   03 Jun 2027 16:10:37.832   03 Jun 2027 16:11:04.684            26.852                Novosib           839.125
       255   03 Jun 2027 17:40:27.905   03 Jun 2027 17:41:25.781            57.876                 Moscow          1808.625
       256   03 Jun 2027 17:44:16.034   03 Jun 2027 17:45:27.256            71.222              Murmansk2          2225.687
       257   03 Jun 2027 17:56:23.242   03 Jun 2027 17:56:55.080            31.838                Anadyr1           994.937
       258   03 Jun 2027 18:50:48.170   03 Jun 2027 18:53:01.671           133.501               CapeTown          4171.906
       259   03 Jun 2027 18:58:25.261   03 Jun 2027 18:58:39.261            14.000               CapeTown           437.500
       260   03 Jun 2027 19:17:46.326   03 Jun 2027 19:21:52.047           245.721                 Moscow          7678.781
       261   03 Jun 2027 19:23:46.096   03 Jun 2027 19:23:53.074             6.978              Murmansk2           218.062
       262   03 Jun 2027 19:24:20.064   03 Jun 2027 19:24:29.046             8.982              Murmansk1           280.688
       263   03 Jun 2027 19:40:16.383   03 Jun 2027 19:40:34.585            18.202                Anadyr2           568.812
       264   03 Jun 2027 19:41:45.997   03 Jun 2027 19:42:03.708            17.711                Anadyr2           553.469
       265   03 Jun 2027 19:42:06.803   03 Jun 2027 19:42:40.041            33.238                Anadyr2          1038.687
       266   03 Jun 2027 20:27:45.270   03 Jun 2027 20:31:19.267           213.997               CapeTown          6687.406
       267   03 Jun 2027 21:00:51.512   03 Jun 2027 21:04:22.415           210.903              Murmansk1          6590.719
       268   03 Jun 2027 21:10:31.491   03 Jun 2027 21:11:12.174            40.683               Magadan1          1271.344
       269   03 Jun 2027 21:16:31.377   03 Jun 2027 21:17:42.629            71.252               Magadan2          2226.625
       270   03 Jun 2027 22:43:12.871   03 Jun 2027 22:48:26.355           313.484                Anadyr2          9796.375
       271   03 Jun 2027 22:48:28.866   03 Jun 2027 22:49:48.034            79.168               Magadan1          2474.000
       272   03 Jun 2027 22:49:57.380   03 Jun 2027 22:50:43.115            45.735               Magadan1          1429.219
       273   03 Jun 2027 22:57:22.449   03 Jun 2027 22:57:47.619            25.170               Magadan2           786.562
       274   03 Jun 2027 23:37:46.642   03 Jun 2027 23:39:54.253           127.611            RioGallegos          3987.844
       275   03 Jun 2027 23:40:34.988   03 Jun 2027 23:41:10.638            35.650            RioGallegos          1114.063
       276   03 Jun 2027 23:42:27.586   03 Jun 2027 23:42:33.276             5.690            RioGallegos           177.812
       277   03 Jun 2027 23:43:16.300   03 Jun 2027 23:44:01.142            44.842            RioGallegos          1401.312
       278   04 Jun 2027 00:18:52.587   04 Jun 2027 00:19:53.990            61.403                Anadyr1          1918.844
       279   04 Jun 2027 00:21:01.173   04 Jun 2027 00:22:37.980            96.807                Norilsk          3025.219
       280   04 Jun 2027 00:23:04.006   04 Jun 2027 00:24:07.411            63.405               Magadan2          1981.406
       281   04 Jun 2027 00:24:30.034   04 Jun 2027 00:25:26.965            56.931               Magadan1          1779.094
       282   04 Jun 2027 00:25:39.448   04 Jun 2027 00:25:52.311            12.863               Magadan2           401.969
       283   04 Jun 2027 00:26:06.450   04 Jun 2027 00:26:41.813            35.363                Irkutsk          1105.094
       284   04 Jun 2027 00:27:45.872   04 Jun 2027 00:28:30.580            44.708                Novosib          1397.125
       285   04 Jun 2027 00:35:47.480   04 Jun 2027 00:36:19.632            32.152                Irkutsk          1004.750
       286   04 Jun 2027 00:39:08.380   04 Jun 2027 00:41:09.878           121.498                Sumatra          3796.813
       287   04 Jun 2027 01:13:17.025   04 Jun 2027 01:13:22.882             5.857            RioGallegos           183.031
       288   04 Jun 2027 01:14:21.748   04 Jun 2027 01:15:00.011            38.263            RioGallegos          1195.719
       289   04 Jun 2027 01:18:37.402   04 Jun 2027 01:18:59.919            22.517            RioGallegos           703.656
       290   04 Jun 2027 01:22:24.794   04 Jun 2027 01:22:28.800             4.006            RioGallegos           125.188
       291   04 Jun 2027 01:22:30.426   04 Jun 2027 01:22:42.617            12.191            RioGallegos           380.969
       292   04 Jun 2027 01:53:42.841   04 Jun 2027 01:55:14.917            92.076                Anadyr1          2877.375
       293   04 Jun 2027 01:56:37.755   04 Jun 2027 01:56:41.505             3.750                Anadyr2           117.188
       294   04 Jun 2027 01:56:58.305   04 Jun 2027 01:58:34.786            96.481                Norilsk          3015.031
       295   04 Jun 2027 01:59:07.787   04 Jun 2027 01:59:17.593             9.806               Magadan1           306.438
       296   04 Jun 2027 02:00:04.842   04 Jun 2027 02:00:07.353             2.511               Magadan2            78.469
       297   04 Jun 2027 02:00:16.664   04 Jun 2027 02:00:29.722            13.058                Norilsk           408.062
       298   04 Jun 2027 02:00:50.916   04 Jun 2027 02:04:05.039           194.123                Irkutsk          6066.344
       299   04 Jun 2027 02:14:55.508   04 Jun 2027 02:15:32.028            36.520                  Delhi          1141.250
       300   04 Jun 2027 02:16:02.786   04 Jun 2027 02:20:50.692           287.906                Sumatra          8997.062
       301   04 Jun 2027 03:40:06.881   04 Jun 2027 03:40:21.817            14.936                Norilsk           466.750
       302   04 Jun 2027 03:41:11.078   04 Jun 2027 03:41:53.933            42.855              Murmansk2          1339.219
       303   04 Jun 2027 03:42:06.455   04 Jun 2027 03:42:09.711             3.256                Irkutsk           101.750
       304   04 Jun 2027 03:42:22.121   04 Jun 2027 03:43:59.599            97.478                 Moscow          3046.187
       305   04 Jun 2027 03:44:52.491   04 Jun 2027 03:45:37.822            45.331                Norilsk          1416.594
       306   04 Jun 2027 03:45:43.420   04 Jun 2027 03:46:36.535            53.115                Novosib          1659.844
       307   04 Jun 2027 03:47:37.171   04 Jun 2027 03:47:49.147            11.976                Novosib           374.250
       308   04 Jun 2027 03:52:53.943   04 Jun 2027 03:53:59.059            65.116                  Delhi          2034.875
       309   04 Jun 2027 05:09:37.999   04 Jun 2027 05:11:33.776           115.777                Anadyr1          3618.031
       310   04 Jun 2027 05:17:43.752   04 Jun 2027 05:17:52.574             8.822              Murmansk2           275.688
       311   04 Jun 2027 05:18:20.382   04 Jun 2027 05:18:46.884            26.502              Murmansk1           828.187
       312   04 Jun 2027 05:18:55.150   04 Jun 2027 05:19:52.541            57.391              Murmansk1          1793.469
       313   04 Jun 2027 05:19:52.541   04 Jun 2027 05:20:41.192            48.651              Murmansk2          1520.344
       314   04 Jun 2027 05:20:41.434   04 Jun 2027 05:21:02.888            21.454                Norilsk           670.438
       315   04 Jun 2027 05:21:20.381   04 Jun 2027 05:22:00.018            39.637                 Moscow          1238.656
       316   04 Jun 2027 05:22:33.845   04 Jun 2027 05:22:48.402            14.557              Murmansk1           454.906
       317   04 Jun 2027 05:22:48.402   04 Jun 2027 05:23:02.492            14.090              Murmansk2           440.312
       318   04 Jun 2027 05:23:48.663   04 Jun 2027 05:24:02.653            13.990                 Moscow           437.187
       319   04 Jun 2027 05:25:19.552   04 Jun 2027 05:25:47.134            27.582                 Moscow           861.937
       320   04 Jun 2027 05:26:07.174   04 Jun 2027 05:26:09.040             1.866                 Moscow            58.312
       321   04 Jun 2027 05:39:01.157   04 Jun 2027 05:40:15.134            73.977               CapeTown          2311.781
       322   04 Jun 2027 05:41:02.723   04 Jun 2027 05:42:13.581            70.858               CapeTown          2214.312
       323   04 Jun 2027 06:42:40.817   04 Jun 2027 06:43:15.690            34.873                Anadyr2          1089.781
       324   04 Jun 2027 06:43:15.694   04 Jun 2027 06:43:21.532             5.838               Magadan2           182.437
       325   04 Jun 2027 06:43:57.943   04 Jun 2027 06:44:37.306            39.363                Anadyr2          1230.094
       326   04 Jun 2027 06:53:24.061   04 Jun 2027 06:53:26.915             2.854                 Moscow            89.188
       327   04 Jun 2027 06:53:43.034   04 Jun 2027 06:54:16.564            33.530                Norilsk          1047.813
       328   04 Jun 2027 06:54:17.404   04 Jun 2027 06:55:26.057            68.653              Murmansk2          2145.406
       329   04 Jun 2027 06:55:54.470   04 Jun 2027 06:55:58.130             3.660              Murmansk1           114.375
       330   04 Jun 2027 06:55:58.130   04 Jun 2027 06:56:37.055            38.925              Murmansk2          1216.406
       331   04 Jun 2027 06:56:40.530   04 Jun 2027 06:57:35.538            55.008              Murmansk2          1719.000
       332   04 Jun 2027 06:57:35.538   04 Jun 2027 06:57:53.482            17.944              Murmansk1           560.750
       333   04 Jun 2027 06:58:11.752   04 Jun 2027 06:58:28.394            16.642                 Moscow           520.063
       334   04 Jun 2027 06:59:52.571   04 Jun 2027 07:00:08.558            15.987                 Moscow           499.594
       335   04 Jun 2027 07:14:45.299   04 Jun 2027 07:15:40.007            54.708               CapeTown          1709.625
       336   04 Jun 2027 07:17:01.991   04 Jun 2027 07:19:53.598           171.607               CapeTown          5362.719
       337   04 Jun 2027 08:17:39.208   04 Jun 2027 08:17:46.104             6.896               Magadan1           215.500
       338   04 Jun 2027 08:17:46.104   04 Jun 2027 08:18:15.460            29.356               Magadan2           917.375
       339   04 Jun 2027 08:19:21.540   04 Jun 2027 08:20:16.099            54.559                Anadyr2          1704.969
       340   04 Jun 2027 08:29:44.739   04 Jun 2027 08:29:58.906            14.167              Murmansk2           442.719
       341   04 Jun 2027 08:34:47.788   04 Jun 2027 08:35:09.618            21.830                 Moscow           682.188
       342   04 Jun 2027 09:07:10.112   04 Jun 2027 09:07:46.928            36.816            RioGallegos          1150.500
       343   04 Jun 2027 09:49:50.487   04 Jun 2027 09:50:29.774            39.287               Magadan1          1227.719
       344   04 Jun 2027 09:51:15.924   04 Jun 2027 09:55:38.277           262.353                Anadyr2          8198.531
       345   04 Jun 2027 09:55:38.845   04 Jun 2027 09:59:09.116           210.271                Anadyr2          6570.969
       346   04 Jun 2027 11:28:24.201   04 Jun 2027 11:30:58.091           153.890               Magadan2          4809.063
       347   04 Jun 2027 11:30:58.091   04 Jun 2027 11:31:18.173            20.082               Magadan1           627.562
       348   04 Jun 2027 11:31:47.245   04 Jun 2027 11:32:38.016            50.771                Irkutsk          1586.594
       349   04 Jun 2027 11:32:48.712   04 Jun 2027 11:33:17.716            29.004                Irkutsk           906.375
       350   04 Jun 2027 11:33:42.928   04 Jun 2027 11:34:36.819            53.891               Magadan2          1684.094
       351   04 Jun 2027 11:34:39.008   04 Jun 2027 11:35:05.810            26.802                Irkutsk           837.563
       352   04 Jun 2027 11:35:13.030   04 Jun 2027 11:36:06.956            53.926              Murmansk1          1685.187
       353   04 Jun 2027 12:09:49.898   04 Jun 2027 12:10:59.722            69.824            RioGallegos          2182.000
       354   04 Jun 2027 12:45:01.250   04 Jun 2027 12:45:48.109            46.859                Sumatra          1464.344
       355   04 Jun 2027 12:51:02.815   04 Jun 2027 12:51:45.034            42.219                Sumatra          1319.344
       356   04 Jun 2027 12:58:27.513   04 Jun 2027 13:01:31.123           183.610                Irkutsk          5737.812
       357   04 Jun 2027 13:02:29.647   04 Jun 2027 13:02:47.750            18.103                Irkutsk           565.719
       358   04 Jun 2027 13:03:10.577   04 Jun 2027 13:04:15.513            64.936                Norilsk          2029.250
       359   04 Jun 2027 13:48:07.542   04 Jun 2027 13:51:10.482           182.940            RioGallegos          5716.875
       360   04 Jun 2027 14:22:25.912   04 Jun 2027 14:27:03.067           277.155                Sumatra          8661.094
       361   04 Jun 2027 14:38:10.444   04 Jun 2027 14:39:07.581            57.137                Irkutsk          1785.531
       362   04 Jun 2027 14:40:36.284   04 Jun 2027 14:42:22.631           106.347                Irkutsk          3323.344
       363   04 Jun 2027 16:08:02.178   04 Jun 2027 16:14:54.409           412.231                  Delhi         12882.219
       364   04 Jun 2027 16:16:30.659   04 Jun 2027 16:20:31.429           240.770                Novosib          7524.063
       365   04 Jun 2027 16:21:52.261   04 Jun 2027 16:22:35.147            42.886                Novosib          1340.188
       366   04 Jun 2027 18:12:17.587   04 Jun 2027 18:12:48.491            30.904                Anadyr1           965.750
       367   04 Jun 2027 19:02:46.825   04 Jun 2027 19:05:28.537           161.712               CapeTown          5053.500
       368   04 Jun 2027 19:31:07.398   04 Jun 2027 19:34:42.278           214.880                 Moscow          6715.000
       369   04 Jun 2027 19:35:10.157   04 Jun 2027 19:37:06.492           116.335              Murmansk1          3635.469
       370   04 Jun 2027 20:40:16.129   04 Jun 2027 20:43:33.307           197.178               CapeTown          6161.813
       371   04 Jun 2027 20:45:10.399   04 Jun 2027 20:47:22.049           131.650               CapeTown          4114.063
       372   04 Jun 2027 21:21:47.388   04 Jun 2027 21:22:16.941            29.553               Magadan1           923.531
       373   04 Jun 2027 21:23:37.964   04 Jun 2027 21:24:01.511            23.547               Magadan2           735.844
       374   04 Jun 2027 21:24:27.496   04 Jun 2027 21:24:48.713            21.217               Magadan1           663.031
       375   04 Jun 2027 21:24:48.713   04 Jun 2027 21:25:04.342            15.629               Magadan2           488.406
       376   04 Jun 2027 21:29:53.458   04 Jun 2027 21:30:26.671            33.213               Magadan1          1037.906
       377   04 Jun 2027 22:55:13.944   04 Jun 2027 22:59:02.152           228.208                Anadyr2          7131.500
       378   04 Jun 2027 22:59:02.201   04 Jun 2027 23:00:22.517            80.316                Anadyr1          2509.875
       379   04 Jun 2027 23:00:27.634   04 Jun 2027 23:02:12.510           104.876               Magadan1          3277.375
       380   04 Jun 2027 23:02:38.071   04 Jun 2027 23:03:08.934            30.863               Magadan2           964.469
       381   04 Jun 2027 23:06:31.669   04 Jun 2027 23:06:41.553             9.884               Magadan2           308.875
       382   04 Jun 2027 23:07:00.919   04 Jun 2027 23:07:40.054            39.135               Magadan1          1222.969
       383   04 Jun 2027 23:08:50.363   04 Jun 2027 23:09:29.568            39.205               Magadan1          1225.156
       384   04 Jun 2027 23:49:35.102   04 Jun 2027 23:51:28.031           112.929            RioGallegos          3529.031
       385   04 Jun 2027 23:51:47.954   04 Jun 2027 23:52:40.516            52.562            RioGallegos          1642.563
       386   04 Jun 2027 23:55:02.462   04 Jun 2027 23:55:06.249             3.787            RioGallegos           118.344
       387   04 Jun 2027 23:55:26.746   04 Jun 2027 23:55:28.043             1.297            RioGallegos            40.531
       388   04 Jun 2027 23:55:36.397   04 Jun 2027 23:55:41.266             4.869            RioGallegos           152.156
       389   04 Jun 2027 23:58:52.687   04 Jun 2027 23:59:02.375             9.688            RioGallegos           302.750
       390   05 Jun 2027 00:30:49.631   05 Jun 2027 00:31:24.101            34.470                Anadyr2          1077.188
       391   05 Jun 2027 00:31:41.430   05 Jun 2027 00:32:00.774            19.344                Anadyr1           604.500
       392   05 Jun 2027 00:32:16.894   05 Jun 2027 00:32:44.139            27.245                Anadyr2           851.406
       393   05 Jun 2027 00:33:02.121   05 Jun 2027 00:34:53.687           111.566                Norilsk          3486.437
       394   05 Jun 2027 00:35:24.391   05 Jun 2027 00:37:07.263           102.872               Magadan2          3214.750
       395   05 Jun 2027 00:37:11.628   05 Jun 2027 00:38:14.595            62.967                Irkutsk          1967.719
       396   05 Jun 2027 00:38:53.107   05 Jun 2027 00:39:46.537            53.430                Novosib          1669.688
       397   05 Jun 2027 00:50:55.729   05 Jun 2027 00:53:39.282           163.553                Sumatra          5111.031
       398   05 Jun 2027 01:28:21.634   05 Jun 2027 01:28:44.400            22.766            RioGallegos           711.438
       399   05 Jun 2027 01:33:03.568   05 Jun 2027 01:33:47.222            43.654            RioGallegos          1364.187
       400   05 Jun 2027 02:05:30.746   05 Jun 2027 02:06:11.081            40.335                Anadyr1          1260.469
       401   05 Jun 2027 02:06:25.931   05 Jun 2027 02:06:32.079             6.148                Anadyr1           192.125
       402   05 Jun 2027 02:07:11.241   05 Jun 2027 02:07:47.857            36.616                Anadyr2          1144.250
       403   05 Jun 2027 02:09:00.764   05 Jun 2027 02:10:17.965            77.201                Norilsk          2412.531
       404   05 Jun 2027 02:11:24.018   05 Jun 2027 02:11:26.743             2.725               Magadan1            85.156
       405   05 Jun 2027 02:12:20.410   05 Jun 2027 02:12:53.877            33.467                Norilsk          1045.844
       406   05 Jun 2027 02:12:54.209   05 Jun 2027 02:15:12.995           138.786                Irkutsk          4337.063
       407   05 Jun 2027 02:20:31.851   05 Jun 2027 02:20:54.621            22.770                Irkutsk           711.563
       408   05 Jun 2027 02:22:25.554   05 Jun 2027 02:22:31.595             6.041                Irkutsk           188.781
       409   05 Jun 2027 02:26:22.305   05 Jun 2027 02:26:50.195            27.890                  Delhi           871.562
       410   05 Jun 2027 02:28:54.261   05 Jun 2027 02:34:31.845           337.584                Sumatra         10549.500
       411   05 Jun 2027 03:52:26.979   05 Jun 2027 03:57:25.127           298.148                Irkutsk          9317.125
       412   05 Jun 2027 03:59:58.301   05 Jun 2027 04:00:00.835             2.534                Novosib            79.188
       413   05 Jun 2027 04:00:27.109   05 Jun 2027 04:00:39.401            12.292                Novosib           384.125
       414   05 Jun 2027 05:31:23.243   05 Jun 2027 05:32:02.249            39.006                 Moscow          1218.937
       415   05 Jun 2027 05:32:06.659   05 Jun 2027 05:32:32.425            25.766              Murmansk1           805.187
       416   05 Jun 2027 05:32:32.425   05 Jun 2027 05:33:19.565            47.140              Murmansk2          1473.125
       417   05 Jun 2027 05:33:28.859   05 Jun 2027 05:35:14.796           105.937              Murmansk2          3310.531
       418   05 Jun 2027 05:35:14.796   05 Jun 2027 05:35:18.703             3.907              Murmansk1           122.094
       419   05 Jun 2027 05:35:53.472   05 Jun 2027 05:36:42.906            49.434                 Moscow          1544.812
       420   05 Jun 2027 05:37:18.386   05 Jun 2027 05:37:19.802             1.416                 Moscow            44.250
       421   05 Jun 2027 05:37:50.183   05 Jun 2027 05:37:52.877             2.694                 Moscow            84.188
       422   05 Jun 2027 05:38:16.638   05 Jun 2027 05:38:50.937            34.299                 Moscow          1071.844
       423   05 Jun 2027 05:50:43.139   05 Jun 2027 05:52:31.010           107.871               CapeTown          3370.969
       424   05 Jun 2027 06:54:10.426   05 Jun 2027 06:54:23.896            13.470               Magadan2           420.937
       425   05 Jun 2027 06:54:26.633   05 Jun 2027 06:55:51.909            85.276                Anadyr2          2664.875
       426   05 Jun 2027 07:05:01.828   05 Jun 2027 07:05:16.390            14.562                 Moscow           455.062
       427   05 Jun 2027 07:05:56.453   05 Jun 2027 07:06:17.008            20.555              Murmansk1           642.344
       428   05 Jun 2027 07:06:45.353   05 Jun 2027 07:07:17.962            32.609              Murmansk1          1019.031
       429   05 Jun 2027 07:07:42.101   05 Jun 2027 07:08:04.420            22.319              Murmansk1           697.469
       430   05 Jun 2027 07:08:13.952   05 Jun 2027 07:08:34.323            20.371              Murmansk1           636.594
       431   05 Jun 2027 07:14:01.604   05 Jun 2027 07:14:14.246            12.642                 Moscow           395.062
       432   05 Jun 2027 07:27:11.581   05 Jun 2027 07:29:34.796           143.215               CapeTown          4475.469
       433   05 Jun 2027 08:28:04.927   05 Jun 2027 08:28:53.897            48.970                Anadyr2          1530.313
       434   05 Jun 2027 08:29:05.700   05 Jun 2027 08:29:48.439            42.739               Magadan2          1335.594
       435   05 Jun 2027 08:30:02.818   05 Jun 2027 08:31:56.200           113.382                Anadyr1          3543.187
       436   05 Jun 2027 08:32:07.224   05 Jun 2027 08:32:17.630            10.406                Norilsk           325.187
       437   05 Jun 2027 08:32:25.352   05 Jun 2027 08:32:32.722             7.370               Magadan1           230.313
       438   05 Jun 2027 08:32:48.831   05 Jun 2027 08:33:44.267            55.436                Anadyr2          1732.375
       439   05 Jun 2027 08:35:04.103   05 Jun 2027 08:35:31.487            27.384               Magadan2           855.750
       440   05 Jun 2027 08:42:10.839   05 Jun 2027 08:42:41.756            30.917                 Moscow           966.156
       441   05 Jun 2027 10:01:50.832   05 Jun 2027 10:03:04.293            73.461               Magadan2          2295.656
       442   05 Jun 2027 10:03:06.840   05 Jun 2027 10:05:07.244           120.404                Anadyr2          3762.625
       443   05 Jun 2027 10:05:07.244   05 Jun 2027 10:07:23.039           135.795                Anadyr1          4243.594
       444   05 Jun 2027 10:07:36.229   05 Jun 2027 10:11:13.318           217.089                Anadyr2          6784.031
       445   05 Jun 2027 11:39:59.635   05 Jun 2027 11:42:41.167           161.532               Magadan1          5047.875
       446   05 Jun 2027 11:42:59.940   05 Jun 2027 11:44:31.974            92.034               Magadan1          2876.062
       447   05 Jun 2027 11:44:45.853   05 Jun 2027 11:45:12.588            26.735                Novosib           835.469
       448   05 Jun 2027 11:45:14.706   05 Jun 2027 11:45:50.630            35.924              Murmansk2          1122.625
       449   05 Jun 2027 11:45:57.011   05 Jun 2027 11:46:05.447             8.436              Murmansk1           263.625
       450   05 Jun 2027 11:46:08.708   05 Jun 2027 11:46:27.508            18.800                Norilsk           587.500
       451   05 Jun 2027 11:46:30.798   05 Jun 2027 11:46:41.296            10.498              Murmansk1           328.062
       452   05 Jun 2027 11:46:41.296   05 Jun 2027 11:46:58.209            16.913              Murmansk2           528.531
       453   05 Jun 2027 11:47:09.643   05 Jun 2027 11:47:51.797            42.154              Murmansk1          1317.313
       454   05 Jun 2027 11:50:17.218   05 Jun 2027 11:50:27.606            10.388              Murmansk1           324.625
       455   05 Jun 2027 12:21:54.978   05 Jun 2027 12:22:31.336            36.358            RioGallegos          1136.187
       456   05 Jun 2027 12:22:54.950   05 Jun 2027 12:25:08.182           133.232            RioGallegos          4163.500
       457   05 Jun 2027 13:00:40.147   05 Jun 2027 13:01:52.876            72.729                Sumatra          2272.781
       458   05 Jun 2027 13:10:40.092   05 Jun 2027 13:13:29.722           169.630                Irkutsk          5300.938
       459   05 Jun 2027 13:16:39.962   05 Jun 2027 13:17:26.219            46.257                Norilsk          1445.531
       460   05 Jun 2027 13:27:57.274   05 Jun 2027 13:28:01.160             3.886                Norilsk           121.438
       461   05 Jun 2027 14:00:53.543   05 Jun 2027 14:05:15.584           262.041            RioGallegos          8188.781
       462   05 Jun 2027 14:35:30.389   05 Jun 2027 14:39:35.336           244.947                Sumatra          7654.594
       463   05 Jun 2027 14:51:24.689   05 Jun 2027 14:55:09.558           224.869                Irkutsk          7027.156
       464   05 Jun 2027 16:21:53.426   05 Jun 2027 16:25:18.165           204.739                  Delhi          6398.094
       465   05 Jun 2027 16:29:59.931   05 Jun 2027 16:33:41.620           221.689                Novosib          6927.781
       466   05 Jun 2027 16:37:24.963   05 Jun 2027 16:38:08.943            43.980                Norilsk          1374.375
       467   05 Jun 2027 18:07:36.218   05 Jun 2027 18:08:28.828            52.610              Murmansk1          1644.062
       468   05 Jun 2027 18:09:24.126   05 Jun 2027 18:09:39.087            14.961              Murmansk2           467.531
       469   05 Jun 2027 18:13:50.618   05 Jun 2027 18:14:42.800            52.182              Murmansk1          1630.687
       470   05 Jun 2027 18:24:16.133   05 Jun 2027 18:24:36.202            20.069                Anadyr1           627.156
       471   05 Jun 2027 19:14:48.328   05 Jun 2027 19:17:38.948           170.620               CapeTown          5331.875
       472   05 Jun 2027 19:44:25.404   05 Jun 2027 19:49:47.664           322.260              Murmansk2         10070.625
       473   05 Jun 2027 19:51:08.934   05 Jun 2027 19:51:58.534            49.600              Murmansk1          1550.000
       474   05 Jun 2027 20:53:00.597   05 Jun 2027 20:59:08.125           367.528               CapeTown         11485.250
       475   05 Jun 2027 21:34:27.617   05 Jun 2027 21:34:52.709            25.092               Magadan2           784.125
       476   05 Jun 2027 21:36:21.798   05 Jun 2027 21:36:29.100             7.302               Magadan1           228.188
       477   05 Jun 2027 21:36:32.386   05 Jun 2027 21:37:42.849            70.463               Magadan1          2201.969
       478   05 Jun 2027 23:07:14.727   05 Jun 2027 23:12:15.195           300.468                Anadyr1          9389.625
       479   05 Jun 2027 23:12:24.475   05 Jun 2027 23:12:38.118            13.643                Norilsk           426.344
       480   05 Jun 2027 23:12:43.793   05 Jun 2027 23:13:29.341            45.548               Magadan2          1423.375
       481   05 Jun 2027 23:13:42.883   05 Jun 2027 23:13:47.922             5.039               Magadan2           157.469
       482   05 Jun 2027 23:13:48.110   05 Jun 2027 23:14:12.522            24.412                Norilsk           762.875
