uniorb/output/strategy_2/Drop/Drop_KinoSat_110410.txt

KinoSat_110410
-------------------------
    Access    *     Start Time (UTCG)     *     Stop Time (UTCG)  *   Duration (s)        *       Station  *  Data (Mbytes)
         1   01 Jun 2027 03:02:47.840   01 Jun 2027 03:03:27.938            40.098                Anadyr2          2865.000
         2   01 Jun 2027 03:03:28.455   01 Jun 2027 03:03:34.709             6.254               Magadan2           258.500
         3   01 Jun 2027 03:03:48.677   01 Jun 2027 03:04:39.513            50.836                Irkutsk          6354.500
         4   01 Jun 2027 03:04:44.483   01 Jun 2027 03:05:12.593            28.110               Magadan2          3114.500
         5   01 Jun 2027 03:05:15.437   01 Jun 2027 03:05:39.257            23.820                Anadyr1          1422.000
         6   01 Jun 2027 03:05:47.471   01 Jun 2027 03:06:29.407            41.936                Irkutsk          4107.000
         7   01 Jun 2027 03:06:38.440   01 Jun 2027 03:07:17.143            38.703               Magadan2          4516.500
         8   01 Jun 2027 03:07:19.043   01 Jun 2027 03:07:34.505            15.462                Anadyr1           950.000
         9   01 Jun 2027 03:07:42.902   01 Jun 2027 03:08:35.747            52.845               Magadan1          4198.500
        10   01 Jun 2027 03:08:41.671   01 Jun 2027 03:08:56.296            14.625               Magadan1          1828.125
        11   01 Jun 2027 03:08:56.296   01 Jun 2027 03:09:22.146            25.850               Magadan2          1133.875
        12   01 Jun 2027 03:09:22.741   01 Jun 2027 03:10:21.471            58.730                Anadyr2           297.500
        13   01 Jun 2027 04:39:44.796   01 Jun 2027 04:40:27.388            42.592                Novosib          1870.000
        14   01 Jun 2027 04:40:32.174   01 Jun 2027 04:41:21.550            49.376                Irkutsk          2393.000
        15   01 Jun 2027 04:41:28.289   01 Jun 2027 04:42:21.012            52.723               Magadan1          3369.500
        16   01 Jun 2027 04:42:22.501   01 Jun 2027 04:42:33.816            11.315                Norilsk           744.500
        17   01 Jun 2027 04:42:44.381   01 Jun 2027 04:43:37.438            53.057               Magadan2          5282.500
        18   01 Jun 2027 04:43:42.966   01 Jun 2027 04:44:06.881            23.915                Norilsk          2764.000
        19   01 Jun 2027 04:44:09.502   01 Jun 2027 04:46:45.440           155.938                Irkutsk          1310.500
        20   01 Jun 2027 04:46:52.521   01 Jun 2027 04:47:05.873            13.352                Irkutsk          1669.000
        21   01 Jun 2027 04:47:43.386   01 Jun 2027 04:48:04.631            21.245              Murmansk1          1871.500
        22   01 Jun 2027 06:16:39.829   01 Jun 2027 06:17:21.470            41.641                Irkutsk           373.500
        23   01 Jun 2027 06:17:26.981   01 Jun 2027 06:17:52.109            25.128                Novosib          2755.500
        24   01 Jun 2027 06:17:55.478   01 Jun 2027 06:18:19.058            23.580                Norilsk          1684.500
        25   01 Jun 2027 06:18:23.186   01 Jun 2027 06:19:00.836            37.650                Novosib          2064.000
        26   01 Jun 2027 06:19:07.149   01 Jun 2027 06:19:56.583            49.434                Norilsk          3156.500
        27   01 Jun 2027 06:19:59.950   01 Jun 2027 06:20:23.046            23.096                Novosib          1683.500
        28   01 Jun 2027 06:20:23.563   01 Jun 2027 06:20:29.536             5.973                Irkutsk           258.500
        29   01 Jun 2027 06:20:30.395   01 Jun 2027 06:21:03.230            32.835                Novosib           429.500
        30   01 Jun 2027 06:21:03.843   01 Jun 2027 06:21:51.031            47.188              Murmansk1           306.500
        31   01 Jun 2027 06:21:57.066   01 Jun 2027 06:22:32.041            34.975                 Moscow          3017.500
        32   01 Jun 2027 06:22:41.291   01 Jun 2027 06:22:54.263            12.972                Irkutsk           486.000
        33   01 Jun 2027 07:54:35.753   01 Jun 2027 07:55:16.702            40.949              Murmansk1           345.000
        34   01 Jun 2027 07:55:20.321   01 Jun 2027 07:55:55.622            35.301              Murmansk1          1809.500
        35   01 Jun 2027 07:55:55.681   01 Jun 2027 07:56:13.750            18.069              Murmansk1            29.500
        36   01 Jun 2027 07:56:22.469   01 Jun 2027 07:57:50.428            87.959                Novosib          4359.500
        37   01 Jun 2027 07:57:52.237   01 Jun 2027 07:58:54.564            62.327              Murmansk1           904.500
        38   01 Jun 2027 09:28:14.126   01 Jun 2027 09:29:36.020            81.894                 Moscow          9611.500
        39   01 Jun 2027 09:29:45.872   01 Jun 2027 09:30:53.981            68.109              Murmansk1          4926.000
        40   01 Jun 2027 09:30:54.557   01 Jun 2027 09:31:58.992            64.435                 Moscow           288.000
        41   01 Jun 2027 09:32:03.362   01 Jun 2027 09:32:21.030            17.668              Murmansk1          2185.000
        42   01 Jun 2027 09:32:29.118   01 Jun 2027 09:33:15.706            46.588                Norilsk          4044.000
        43   01 Jun 2027 09:33:30.008   01 Jun 2027 09:34:37.688            67.680              Murmansk1          7151.000
        44   01 Jun 2027 09:34:45.420   01 Jun 2027 09:35:25.410            39.990                Norilsk          3866.000
        45   01 Jun 2027 09:35:26.124   01 Jun 2027 09:36:38.032            71.908                 Moscow           357.000
        46   02 Jun 2027 03:14:09.449   02 Jun 2027 03:14:28.251            18.802               Magadan2          1914.500
        47   02 Jun 2027 03:14:35.440   02 Jun 2027 03:16:11.423            95.983                Irkutsk          3594.500
        48   02 Jun 2027 03:16:16.672   02 Jun 2027 03:17:24.732            68.060                Anadyr2          2624.500
        49   02 Jun 2027 03:17:38.639   02 Jun 2027 03:18:44.378            65.739                Anadyr2          6953.500
        50   02 Jun 2027 03:18:50.972   02 Jun 2027 03:19:31.291            40.319                Anadyr1          3297.000
        51   02 Jun 2027 03:19:38.284   02 Jun 2027 03:20:41.743            63.459               Magadan1          3496.500
        52   02 Jun 2027 03:20:44.053   02 Jun 2027 03:20:59.045            14.992               Magadan1          1155.000
        53   02 Jun 2027 03:21:15.632   02 Jun 2027 03:21:51.940            36.308                Norilsk          4538.500
        54   02 Jun 2027 03:22:12.481   02 Jun 2027 03:23:00.239            47.758               Magadan1          3755.000
        55   02 Jun 2027 04:51:48.774   02 Jun 2027 04:52:10.937            22.163                Norilsk          2770.375
        56   02 Jun 2027 04:52:13.729   02 Jun 2027 04:52:29.790            16.061               Magadan2          1561.125
        57   02 Jun 2027 04:52:36.428   02 Jun 2027 04:53:36.753            60.325                Irkutsk          3319.000
        58   02 Jun 2027 04:53:41.781   02 Jun 2027 04:54:11.401            29.620               Magadan1          2514.000
        59   02 Jun 2027 04:54:13.806   02 Jun 2027 04:54:40.362            26.556               Magadan2          1202.500
        60   02 Jun 2027 04:54:41.219   02 Jun 2027 04:55:03.217            21.998                Norilsk           428.500
        61   02 Jun 2027 04:55:04.817   02 Jun 2027 04:55:24.852            20.035                Norilsk           800.000
        62   02 Jun 2027 04:55:33.346   02 Jun 2027 04:56:16.654            43.308                Norilsk          4247.000
        63   02 Jun 2027 04:56:18.678   02 Jun 2027 04:56:42.465            23.787                Novosib          1012.000
        64   02 Jun 2027 04:56:43.684   02 Jun 2027 04:56:55.826            12.142               Magadan2           609.500
        65   02 Jun 2027 04:57:01.613   02 Jun 2027 04:57:50.572            48.959               Magadan2          2893.500
        66   02 Jun 2027 04:57:55.688   02 Jun 2027 04:58:23.751            28.063              Murmansk1          2558.000
        67   02 Jun 2027 04:58:29.744   02 Jun 2027 04:59:46.396            76.652              Murmansk1          2996.500
        68   02 Jun 2027 06:28:28.940   02 Jun 2027 06:28:44.515            15.575                Irkutsk             4.500
        69   02 Jun 2027 06:28:54.945   02 Jun 2027 06:30:35.425           100.480                Novosib          5215.000
        70   02 Jun 2027 06:30:52.432   02 Jun 2027 06:32:03.609            71.177                Novosib          8503.500
        71   02 Jun 2027 06:32:08.067   02 Jun 2027 06:32:36.322            28.255              Murmansk1          2229.000
        72   02 Jun 2027 06:32:36.838   02 Jun 2027 06:33:00.291            23.453                 Moscow           258.000
        73   02 Jun 2027 06:33:07.983   02 Jun 2027 06:34:01.460            53.477                 Moscow          3846.000
        74   02 Jun 2027 06:34:01.563   02 Jun 2027 06:34:09.057             7.494              Murmansk2            51.500
        75   02 Jun 2027 06:34:23.769   02 Jun 2027 06:34:49.586            25.817                Irkutsk          3227.125
        76   02 Jun 2027 06:34:51.353   02 Jun 2027 06:35:35.695            44.342              Murmansk1          5012.375
        77   02 Jun 2027 08:06:34.715   02 Jun 2027 08:06:38.015             3.300                 Moscow           352.000
        78   02 Jun 2027 08:06:47.336   02 Jun 2027 08:07:58.318            70.982                Novosib          4660.500
        79   02 Jun 2027 08:07:58.758   02 Jun 2027 08:08:03.736             4.978                Novosib           220.000
        80   02 Jun 2027 08:08:10.230   02 Jun 2027 08:08:28.350            18.120                Norilsk          2265.000
        81   02 Jun 2027 08:08:31.826   02 Jun 2027 08:09:02.619            30.793              Murmansk2          2720.000
        82   02 Jun 2027 08:09:09.385   02 Jun 2027 08:09:40.515            31.130              Murmansk1          3383.000
        83   02 Jun 2027 08:09:42.491   02 Jun 2027 08:09:58.006            15.515                Novosib           988.000
        84   02 Jun 2027 08:10:00.002   02 Jun 2027 08:10:41.654            41.652                 Moscow           998.000
        85   02 Jun 2027 08:10:47.701   02 Jun 2027 08:10:51.835             4.134              Murmansk2           504.000
        86   02 Jun 2027 09:40:35.799   02 Jun 2027 09:41:44.895            69.096                 Moscow          6959.500
        87   02 Jun 2027 09:41:53.814   02 Jun 2027 09:42:38.344            44.530                 Moscow          4459.500
        88   02 Jun 2027 09:42:43.913   02 Jun 2027 09:43:12.530            28.617              Murmansk1          2784.500
        89   02 Jun 2027 09:43:28.789   02 Jun 2027 09:44:45.957            77.168              Murmansk1          8129.500
        90   02 Jun 2027 09:44:53.955   02 Jun 2027 09:45:36.957            43.002                 Moscow          3999.000
        91   02 Jun 2027 09:45:37.814   02 Jun 2027 09:45:49.276            11.462              Murmansk2           428.500
        92   02 Jun 2027 09:45:50.557   02 Jun 2027 09:46:15.205            24.648                Norilsk           640.500
        93   02 Jun 2027 09:46:23.456   02 Jun 2027 09:47:25.081            61.625                Norilsk          4125.500
        94   03 Jun 2027 03:25:38.520   03 Jun 2027 03:25:41.255             2.735               Magadan2           285.500
        95   03 Jun 2027 03:26:06.846   03 Jun 2027 03:27:48.660           101.814               Magadan1         12726.750
        96   03 Jun 2027 03:27:48.660   03 Jun 2027 03:27:50.375             1.715               Magadan2            68.750
        97   03 Jun 2027 03:28:08.104   03 Jun 2027 03:28:45.491            37.387                Irkutsk          4673.375
        98   03 Jun 2027 03:28:47.060   03 Jun 2027 03:29:31.160            44.100                Irkutsk          4975.625
        99   03 Jun 2027 03:29:38.480   03 Jun 2027 03:30:13.548            35.068                Anadyr2          3660.000
       100   03 Jun 2027 03:30:17.373   03 Jun 2027 03:30:42.449            25.076                Novosib          1912.500
       101   03 Jun 2027 03:30:43.150   03 Jun 2027 03:30:51.580             8.430               Magadan1           350.500
       102   03 Jun 2027 03:30:53.283   03 Jun 2027 03:31:13.736            20.453                Anadyr1           851.500
       103   03 Jun 2027 03:31:16.616   03 Jun 2027 03:31:29.358            12.742                Anadyr1          1440.000
       104   03 Jun 2027 03:31:35.761   03 Jun 2027 03:32:24.219            48.458                Novosib          3201.500
       105   03 Jun 2027 03:32:31.883   03 Jun 2027 03:33:20.494            48.611                Novosib          3832.000
       106   03 Jun 2027 03:33:20.548   03 Jun 2027 03:33:25.210             4.662                Anadyr1            27.000
       107   03 Jun 2027 03:33:40.835   03 Jun 2027 03:35:17.256            96.421                Norilsk          7812.500
       108   03 Jun 2027 05:03:58.853   03 Jun 2027 05:04:52.331            53.478                Irkutsk          6684.750
       109   03 Jun 2027 05:04:58.468   03 Jun 2027 05:05:44.210            45.742               Magadan2          4009.250
       110   03 Jun 2027 05:06:04.224   03 Jun 2027 05:07:29.352            85.128               Magadan2         10007.000
       111   03 Jun 2027 05:07:32.345   03 Jun 2027 05:07:47.745            15.400                Novosib          1496.500
       112   03 Jun 2027 05:07:48.066   03 Jun 2027 05:08:24.916            36.850                Novosib           160.500
       113   03 Jun 2027 05:08:25.688   03 Jun 2027 05:09:13.529            47.841                Novosib           386.000
       114   03 Jun 2027 05:09:15.694   03 Jun 2027 05:10:36.960            81.266                Novosib          1082.500
       115   03 Jun 2027 05:10:40.277   03 Jun 2027 05:11:21.363            41.086                Novosib          1658.500
       116   03 Jun 2027 06:40:40.162   03 Jun 2027 06:40:50.105             9.943                Irkutsk          1111.500
       117   03 Jun 2027 06:40:53.913   03 Jun 2027 06:41:55.261            61.348                Novosib          1904.000
       118   03 Jun 2027 06:42:19.866   03 Jun 2027 06:44:03.097           103.231                Norilsk         12302.500
       119   03 Jun 2027 06:44:06.453   03 Jun 2027 06:44:38.345            31.892              Murmansk2          1678.000
       120   03 Jun 2027 06:44:38.468   03 Jun 2027 06:44:40.365             1.897              Murmansk2            61.500
       121   03 Jun 2027 06:44:42.846   03 Jun 2027 06:45:14.390            31.544                Norilsk          1240.500
       122   03 Jun 2027 06:45:17.851   03 Jun 2027 06:46:06.347            48.496                 Moscow          1730.500
       123   03 Jun 2027 06:46:09.331   03 Jun 2027 06:46:43.137            33.806                Irkutsk          1492.000
       124   03 Jun 2027 06:46:47.879   03 Jun 2027 06:47:26.449            38.570                Novosib          2371.000
       125   03 Jun 2027 08:17:51.777   03 Jun 2027 08:18:29.181            37.404                Norilsk          2468.500
       126   03 Jun 2027 08:18:30.274   03 Jun 2027 08:18:46.836            16.562                Norilsk           546.500
       127   03 Jun 2027 08:18:56.249   03 Jun 2027 08:19:51.705            55.456              Murmansk2          4706.500
       128   03 Jun 2027 08:19:56.698   03 Jun 2027 08:20:34.678            37.980                Novosib          2496.500
       129   03 Jun 2027 08:20:36.068   03 Jun 2027 08:20:58.374            22.306                Novosib           695.000
       130   03 Jun 2027 08:21:06.690   03 Jun 2027 08:21:43.304            36.614              Murmansk2          4158.000
       131   03 Jun 2027 08:21:43.780   03 Jun 2027 08:22:18.400            34.620                Norilsk           238.000
       132   03 Jun 2027 08:22:20.944   03 Jun 2027 08:22:33.335            12.391                Norilsk          1272.000
       133   03 Jun 2027 08:22:41.576   03 Jun 2027 08:23:30.106            48.530              Murmansk1          3798.500
       134   03 Jun 2027 09:52:37.202   03 Jun 2027 09:53:08.464            31.262                 Moscow           143.500
       135   03 Jun 2027 09:53:09.639   03 Jun 2027 09:53:51.599            41.960                 Moscow           587.500
       136   03 Jun 2027 09:54:31.255   03 Jun 2027 09:56:15.138           103.883                 Moscow          1232.000
       137   03 Jun 2027 09:56:45.860   03 Jun 2027 09:57:20.843            34.983                 Moscow          4372.875
       138   03 Jun 2027 09:57:23.181   03 Jun 2027 09:59:24.031           120.850                Norilsk         12157.125
       139   04 Jun 2027 03:38:55.453   04 Jun 2027 03:40:06.003            70.550               Magadan2          8560.000
       140   04 Jun 2027 03:40:21.817   04 Jun 2027 03:41:34.028            72.211                Norilsk          7907.000
       141   04 Jun 2027 03:41:38.718   04 Jun 2027 03:42:13.413            34.695                Anadyr1          2345.000
       142   04 Jun 2027 03:42:15.636   04 Jun 2027 03:42:28.436            12.800                Norilsk          1111.500
       143   04 Jun 2027 03:42:31.082   04 Jun 2027 03:42:44.692            13.610               Magadan1          1323.000
       144   04 Jun 2027 03:42:45.821   04 Jun 2027 03:42:51.044             5.223               Magadan1           564.500
       145   04 Jun 2027 03:42:52.449   04 Jun 2027 03:43:15.140            22.691                Norilsk           702.500
       146   04 Jun 2027 03:43:16.803   04 Jun 2027 03:43:26.218             9.415                Novosib           831.500
       147   04 Jun 2027 03:43:42.981   04 Jun 2027 03:44:52.491            69.510                Norilsk          8381.500
       148   04 Jun 2027 03:45:04.347   04 Jun 2027 03:45:53.799            49.452               Magadan2          5928.000
       149   04 Jun 2027 03:45:58.081   04 Jun 2027 03:46:10.098            12.017                Anadyr1          1502.125
       150   04 Jun 2027 03:46:19.901   04 Jun 2027 03:47:20.063            60.162              Murmansk1          5540.375
       151   04 Jun 2027 05:16:12.235   04 Jun 2027 05:16:35.915            23.680                Norilsk          1428.000
       152   04 Jun 2027 05:16:53.417   04 Jun 2027 05:17:14.955            21.538                Novosib          2692.250
       153   04 Jun 2027 05:17:19.152   04 Jun 2027 05:18:35.241            76.089                Irkutsk          8157.250
       154   04 Jun 2027 05:18:35.375   04 Jun 2027 05:18:40.448             5.073                Norilsk            67.000
       155   04 Jun 2027 05:18:42.005   04 Jun 2027 05:19:15.862            33.857                Norilsk           778.500
       156   04 Jun 2027 05:19:20.261   04 Jun 2027 05:19:45.439            25.178                Novosib          2199.500
       157   04 Jun 2027 05:19:47.405   04 Jun 2027 05:20:06.191            18.786                Novosib           983.000
       158   04 Jun 2027 05:20:08.000   04 Jun 2027 05:20:12.307             4.307               Magadan1           538.375
       159   04 Jun 2027 05:20:24.224   04 Jun 2027 05:21:15.739            51.515                Novosib          6324.625
       160   04 Jun 2027 05:21:25.975   04 Jun 2027 05:22:21.414            55.439              Murmansk2          5118.000
       161   04 Jun 2027 05:22:32.224   04 Jun 2027 05:23:36.120            63.896                Novosib          5405.000
       162   04 Jun 2027 06:53:09.627   04 Jun 2027 06:53:43.034            33.407                Norilsk          2003.500
       163   04 Jun 2027 06:54:16.564   04 Jun 2027 06:56:37.053           140.489                Norilsk         16765.000
       164   04 Jun 2027 06:56:37.055   04 Jun 2027 06:56:40.530             3.475              Murmansk2             1.000
       165   04 Jun 2027 06:56:47.329   04 Jun 2027 06:57:21.621            34.292                 Moscow          3399.500
       166   04 Jun 2027 06:57:25.195   04 Jun 2027 06:57:40.255            15.060                Novosib          1787.000
       167   04 Jun 2027 06:57:43.967   04 Jun 2027 06:57:57.944            13.977                Irkutsk          1739.000
       168   04 Jun 2027 06:57:58.230   04 Jun 2027 06:58:30.241            32.011              Murmansk2           143.000
       169   04 Jun 2027 06:58:41.986   04 Jun 2027 06:59:34.427            52.441                Norilsk          5872.500
       170   04 Jun 2027 08:30:04.795   04 Jun 2027 08:30:26.697            21.902                Norilsk          2587.500
       171   04 Jun 2027 08:30:27.003   04 Jun 2027 08:30:44.983            17.980              Murmansk2           153.000
       172   04 Jun 2027 08:30:52.076   04 Jun 2027 08:31:47.739            55.663              Murmansk2          3546.500
       173   04 Jun 2027 08:31:53.536   04 Jun 2027 08:32:55.780            62.244                Novosib          2898.500
       174   04 Jun 2027 08:32:56.118   04 Jun 2027 08:33:04.532             8.414              Murmansk2           169.000
       175   04 Jun 2027 08:33:11.713   04 Jun 2027 08:33:42.183            30.470                Norilsk          3590.500
       176   04 Jun 2027 08:33:44.669   04 Jun 2027 08:34:00.175            15.506                Norilsk          1243.000
       177   04 Jun 2027 08:34:13.569   04 Jun 2027 08:35:11.663            58.094                Novosib          6697.000
       178   04 Jun 2027 10:07:17.308   04 Jun 2027 10:07:57.794            40.486              Murmansk2          3758.500
       179   04 Jun 2027 10:08:04.404   04 Jun 2027 10:08:47.213            42.809              Murmansk2          3305.000
       180   04 Jun 2027 10:09:08.348   04 Jun 2027 10:09:35.617            27.269                 Moscow          3408.625
       181   04 Jun 2027 10:09:41.570   04 Jun 2027 10:11:02.660            81.090              Murmansk2          7960.875
       182   05 Jun 2027 03:49:18.924   05 Jun 2027 03:49:35.141            16.217               Magadan2            33.000
       183   05 Jun 2027 03:51:29.725   05 Jun 2027 03:52:26.979            57.254                Irkutsk          6308.000
       184   05 Jun 2027 03:52:30.312   05 Jun 2027 03:52:58.523            28.211               Magadan1          1666.500
       185   05 Jun 2027 03:53:00.886   05 Jun 2027 03:53:20.111            19.225               Magadan1          1181.500
       186   05 Jun 2027 03:53:30.163   05 Jun 2027 03:54:27.103            56.940                Novosib          5026.000
       187   05 Jun 2027 03:54:28.503   05 Jun 2027 03:54:36.249             7.746                Novosib           700.000
       188   05 Jun 2027 03:54:43.815   05 Jun 2027 03:55:14.185            30.370               Magadan2          3783.000
       189   05 Jun 2027 03:55:14.284   05 Jun 2027 03:55:45.689            31.405               Magadan2            49.500
       190   05 Jun 2027 03:55:49.541   05 Jun 2027 03:57:19.511            89.970                Anadyr1          1926.000
       191   05 Jun 2027 03:57:29.637   05 Jun 2027 03:58:14.908            45.271               Magadan2          5063.000
       192   05 Jun 2027 03:58:17.815   05 Jun 2027 03:58:28.761            10.946                Novosib          1368.250
       193   05 Jun 2027 03:58:33.935   05 Jun 2027 03:58:51.101            17.166                Novosib          2145.750
       194   05 Jun 2027 03:58:52.787   05 Jun 2027 03:59:05.889            13.102               Magadan2          1369.500
       195   05 Jun 2027 03:59:07.389   05 Jun 2027 03:59:31.638            24.249              Murmansk2           134.000
       196   05 Jun 2027 05:28:30.567   05 Jun 2027 05:29:25.295            54.728                Novosib          6841.000
       197   05 Jun 2027 05:29:49.333   05 Jun 2027 05:31:43.964           114.631                Novosib         12458.000
       198   05 Jun 2027 05:31:46.236   05 Jun 2027 05:31:48.511             2.275                Novosib           284.375
       199   05 Jun 2027 05:31:55.059   05 Jun 2027 05:33:17.659            82.600                Novosib          4125.625
       200   05 Jun 2027 05:33:19.565   05 Jun 2027 05:33:28.859             9.294              Murmansk2           953.000
       201   05 Jun 2027 05:33:46.972   05 Jun 2027 05:35:08.882            81.910                Norilsk          9056.500
       202   05 Jun 2027 07:05:49.986   05 Jun 2027 07:07:15.931            85.945                 Moscow          5647.000
       203   05 Jun 2027 07:07:17.962   05 Jun 2027 07:07:42.101            24.139              Murmansk1          1015.500
       204   05 Jun 2027 07:07:44.331   05 Jun 2027 07:08:20.275            35.944                Norilsk          1115.000
       205   05 Jun 2027 07:08:25.164   05 Jun 2027 07:09:08.048            42.884                Norilsk          2444.500
       206   05 Jun 2027 07:09:24.909   05 Jun 2027 07:10:17.718            52.809                 Moscow          6601.125
       207   05 Jun 2027 07:10:18.576   05 Jun 2027 07:10:41.746            23.170                Novosib          2258.375
       208   05 Jun 2027 08:42:10.826   05 Jun 2027 08:43:23.395            72.569                Novosib          4622.000
       209   05 Jun 2027 08:43:27.858   05 Jun 2027 08:44:01.399            33.541              Murmansk1          2231.500
       210   05 Jun 2027 08:44:07.978   05 Jun 2027 08:44:55.036            47.058                 Moscow          3289.500
       211   05 Jun 2027 08:45:00.659   05 Jun 2027 08:46:17.122            76.463                Novosib          2811.500
       212   05 Jun 2027 08:46:20.131   05 Jun 2027 08:47:08.484            48.353                Novosib          1504.500
       213   05 Jun 2027 10:20:48.175   05 Jun 2027 10:22:57.499           129.324              Murmansk1         14998.500
       214   06 Jun 2027 04:04:32.714   06 Jun 2027 04:04:47.641            14.927               Magadan1           842.500
       215   06 Jun 2027 04:04:50.892   06 Jun 2027 04:05:50.038            59.146                Novosib          1625.500
       216   06 Jun 2027 04:05:50.706   06 Jun 2027 04:05:56.309             5.603                Norilsk           334.000
       217   06 Jun 2027 04:05:57.222   06 Jun 2027 04:06:04.029             6.807                Norilsk           456.500
       218   06 Jun 2027 04:06:10.720   06 Jun 2027 04:06:45.996            35.276               Magadan2          3345.500
       219   06 Jun 2027 04:06:47.895   06 Jun 2027 04:07:11.347            23.452               Magadan2           949.500
       220   06 Jun 2027 04:07:14.332   06 Jun 2027 04:07:33.209            18.877               Magadan2          1492.500
       221   06 Jun 2027 04:07:50.432   06 Jun 2027 04:09:05.217            74.785                Irkutsk          8611.500
       222   06 Jun 2027 04:09:09.213   06 Jun 2027 04:09:42.999            33.786               Magadan1          1998.000
       223   06 Jun 2027 04:09:44.917   06 Jun 2027 04:10:54.212            69.295                Irkutsk           959.000
       224   06 Jun 2027 04:10:55.006   06 Jun 2027 04:11:34.055            39.049              Murmansk1           397.000
       225   06 Jun 2027 05:41:00.207   06 Jun 2027 05:41:37.472            37.265                Novosib          4658.125
       226   06 Jun 2027 05:41:45.306   06 Jun 2027 05:42:43.715            58.409                Irkutsk          4570.875
       227   06 Jun 2027 05:42:52.721   06 Jun 2027 05:43:44.109            51.388                Novosib          4503.000
       228   06 Jun 2027 05:43:46.137   06 Jun 2027 05:44:01.480            15.343                Irkutsk          1014.000
       229   06 Jun 2027 05:44:02.296   06 Jun 2027 05:45:06.462            64.166                Irkutsk           408.000
       230   06 Jun 2027 05:45:12.088   06 Jun 2027 05:45:57.015            44.927              Murmansk2          2813.000
       231   06 Jun 2027 05:46:02.959   06 Jun 2027 05:47:05.639            62.680                Novosib          2972.000
       232   06 Jun 2027 05:47:16.996   06 Jun 2027 05:47:21.806             4.810                Norilsk           290.500
       233   06 Jun 2027 07:18:13.156   06 Jun 2027 07:18:46.215            33.059              Murmansk2           345.500
       234   06 Jun 2027 07:18:50.300   06 Jun 2027 07:19:33.641            43.341                Irkutsk          2042.500
       235   06 Jun 2027 07:19:35.843   06 Jun 2027 07:20:20.774            44.931                Norilsk          1101.000
       236   06 Jun 2027 07:20:27.440   06 Jun 2027 07:21:09.427            41.987                Norilsk          3333.000
       237   06 Jun 2027 07:21:20.258   06 Jun 2027 07:22:05.096            44.838                Irkutsk          5415.500
       238   06 Jun 2027 07:22:12.352   06 Jun 2027 07:22:44.681            32.329              Murmansk1          3628.000
       239   06 Jun 2027 07:22:49.906   06 Jun 2027 07:22:59.712             9.806                Norilsk           283.500
       240   06 Jun 2027 08:54:24.531   06 Jun 2027 08:54:39.402            14.871              Murmansk2           810.500
       241   06 Jun 2027 08:54:55.016   06 Jun 2027 08:56:27.807            92.791                 Moscow          7807.000
       242   06 Jun 2027 08:56:29.388   06 Jun 2027 08:57:12.374            42.986                 Moscow           790.500
       243   06 Jun 2027 08:57:15.101   06 Jun 2027 08:58:00.181            45.080                Novosib          1363.500
       244   06 Jun 2027 08:58:04.976   06 Jun 2027 08:58:25.705            20.729                Norilsk          2397.500
       245   06 Jun 2027 08:58:27.434   06 Jun 2027 08:59:06.151            38.717              Murmansk2           864.500
       246   07 Jun 2027 04:16:36.864   07 Jun 2027 04:16:59.435            22.571                Norilsk          2312.000
       247   07 Jun 2027 04:17:04.395   07 Jun 2027 04:17:36.467            32.072               Magadan1          2480.000
       248   07 Jun 2027 04:17:47.507   07 Jun 2027 04:18:38.708            51.201                Norilsk          5520.000
       249   07 Jun 2027 04:18:43.900   07 Jun 2027 04:19:10.278            26.378               Magadan1          2596.000
       250   07 Jun 2027 04:19:16.097   07 Jun 2027 04:19:57.477            41.380                Novosib          2909.500
       251   07 Jun 2027 04:20:07.368   07 Jun 2027 04:20:16.543             9.175                Norilsk          1146.875
       252   07 Jun 2027 04:20:18.812   07 Jun 2027 04:21:25.154            66.342                Norilsk          4933.125
       253   07 Jun 2027 04:21:27.222   07 Jun 2027 04:21:50.437            23.215                Norilsk          1034.000
       254   07 Jun 2027 04:21:55.165   07 Jun 2027 04:22:40.619            45.454              Murmansk1          2364.000
       255   07 Jun 2027 04:22:43.007   07 Jun 2027 04:23:26.572            43.565              Murmansk1          1194.000
       256   07 Jun 2027 05:52:36.005   07 Jun 2027 05:53:28.467            52.462                Novosib          3961.500
       257   07 Jun 2027 05:53:46.970   07 Jun 2027 05:55:20.980            94.010                Norilsk          9251.500
       258   07 Jun 2027 05:55:24.391   07 Jun 2027 05:56:04.844            40.453                Irkutsk          1705.500
       259   07 Jun 2027 05:56:05.876   07 Jun 2027 05:56:24.310            18.434                Novosib           516.000
       260   07 Jun 2027 05:56:27.097   07 Jun 2027 05:56:47.555            20.458              Murmansk1          1393.500
       261   07 Jun 2027 05:56:55.973   07 Jun 2027 05:57:28.225            32.252                Irkutsk          4031.500
       262   07 Jun 2027 05:57:28.320   07 Jun 2027 05:57:32.582             4.262                Norilsk           225.000
       263   07 Jun 2027 05:57:39.202   07 Jun 2027 05:58:48.243            69.041                Novosib          3310.000
       264   07 Jun 2027 07:30:26.850   07 Jun 2027 07:30:38.540            11.690                Norilsk           214.000
       265   07 Jun 2027 07:30:43.651   07 Jun 2027 07:31:28.690            45.039                Novosib          2555.500
       266   07 Jun 2027 07:31:33.832   07 Jun 2027 07:32:50.913            77.081                Irkutsk          2571.000
       267   07 Jun 2027 07:32:51.679   07 Jun 2027 07:33:10.384            18.705                Norilsk           383.000
       268   07 Jun 2027 07:33:22.360   07 Jun 2027 07:34:03.452            41.092                Novosib          5136.500
       269   07 Jun 2027 07:34:04.835   07 Jun 2027 07:34:31.952            27.117              Murmansk1          1543.000
       270   07 Jun 2027 07:34:41.788   07 Jun 2027 07:35:23.673            41.885                 Moscow          4918.000
       271   07 Jun 2027 09:06:19.140   07 Jun 2027 09:06:43.732            24.592                Novosib           567.000
       272   07 Jun 2027 09:06:58.335   07 Jun 2027 09:09:00.221           121.886                Novosib          7301.500
       273   07 Jun 2027 09:09:00.866   07 Jun 2027 09:09:34.201            33.335              Murmansk1           322.500
       274   07 Jun 2027 09:09:40.361   07 Jun 2027 09:10:06.740            26.379                 Moscow          3080.000
       275   07 Jun 2027 09:10:09.122   07 Jun 2027 09:10:33.565            24.443                Norilsk          1191.000
       276   07 Jun 2027 09:10:43.546   07 Jun 2027 09:11:06.292            22.746                Novosib          2843.250
       277   07 Jun 2027 09:11:09.862   07 Jun 2027 09:11:16.501             6.639                 Moscow           829.875
       278   07 Jun 2027 09:11:16.526   07 Jun 2027 09:11:39.130            22.604                Norilsk          1056.375
       279   08 Jun 2027 04:27:57.676   08 Jun 2027 04:29:07.872            70.196                Irkutsk          4911.000
       280   08 Jun 2027 04:29:12.035   08 Jun 2027 04:29:28.913            16.878               Magadan1          2081.500
       281   08 Jun 2027 04:29:39.333   08 Jun 2027 04:29:49.907            10.574                Norilsk          1321.750
       282   08 Jun 2027 04:29:59.140   08 Jun 2027 04:31:10.479            71.339               Magadan2          8504.750
       283   08 Jun 2027 04:31:16.070   08 Jun 2027 04:31:41.925            25.855                Norilsk          2795.500
       284   08 Jun 2027 04:31:43.100   08 Jun 2027 04:31:59.663            16.563                Novosib           587.500
       285   08 Jun 2027 04:32:00.099   08 Jun 2027 04:32:25.171            25.072               Magadan1           218.000
       286   08 Jun 2027 04:32:34.703   08 Jun 2027 04:33:15.014            40.311                Irkutsk          4766.000
       287   08 Jun 2027 04:33:16.802   08 Jun 2027 04:33:20.888             4.086                Norilsk           510.750
       288   08 Jun 2027 04:33:21.447   08 Jun 2027 04:33:40.658            19.211               Magadan2           662.750
       289   08 Jun 2027 04:33:50.690   08 Jun 2027 04:34:39.947            49.257                Novosib          5016.000
       290   08 Jun 2027 04:34:42.631   08 Jun 2027 04:35:18.110            35.479              Murmansk1          1342.000
       291   08 Jun 2027 04:35:23.503   08 Jun 2027 04:35:49.432            25.929                Norilsk          1386.000
       292   08 Jun 2027 06:04:50.226   08 Jun 2027 06:05:58.424            68.198                Irkutsk          6306.000
       293   08 Jun 2027 06:05:58.657   08 Jun 2027 06:06:00.940             2.283                Norilsk           116.500
       294   08 Jun 2027 06:06:12.348   08 Jun 2027 06:07:09.549            57.201                Novosib          5704.000
       295   08 Jun 2027 06:07:21.257   08 Jun 2027 06:08:16.374            55.117                Norilsk          5854.000
       296   08 Jun 2027 06:08:17.151   08 Jun 2027 06:08:22.617             5.466                Irkutsk           388.500
       297   08 Jun 2027 06:08:23.382   08 Jun 2027 06:08:28.006             4.624                Norilsk           382.500
       298   08 Jun 2027 06:08:31.391   08 Jun 2027 06:08:48.529            17.138                Irkutsk          1692.500
       299   08 Jun 2027 06:08:49.787   08 Jun 2027 06:09:08.707            18.920              Murmansk2           629.000
       300   08 Jun 2027 06:09:19.894   08 Jun 2027 06:10:27.597            67.703                Norilsk          5593.500
       301   08 Jun 2027 06:10:35.846   08 Jun 2027 06:11:14.322            38.476                 Moscow          4124.500
       302   08 Jun 2027 07:42:58.524   08 Jun 2027 07:44:20.309            81.785                Norilsk          4770.000
       303   08 Jun 2027 07:44:22.530   08 Jun 2027 07:44:42.551            20.021                Norilsk          1110.500
       304   08 Jun 2027 07:44:51.966   08 Jun 2027 07:45:17.152            25.186                Irkutsk          3148.250
       305   08 Jun 2027 07:45:17.894   08 Jun 2027 07:46:12.584            54.690                 Moscow          1930.250
       306   08 Jun 2027 07:46:19.465   08 Jun 2027 07:47:16.892            57.427              Murmansk1          3440.500
       307   08 Jun 2027 09:16:30.958   08 Jun 2027 09:18:08.337            97.379                 Moscow         12054.500
       308   08 Jun 2027 09:18:08.925   08 Jun 2027 09:18:11.351             2.426                Novosib           294.000
       309   08 Jun 2027 09:18:15.846   08 Jun 2027 09:19:04.994            49.148              Murmansk1          2247.500
       310   08 Jun 2027 09:19:07.202   08 Jun 2027 09:19:24.088            16.886                Novosib          1104.000
       311   08 Jun 2027 09:19:24.490   08 Jun 2027 09:19:43.284            18.794                 Moscow           201.000
       312   08 Jun 2027 09:19:50.487   08 Jun 2027 09:20:58.761            68.274                Novosib          3601.500
       313   08 Jun 2027 09:21:00.451   08 Jun 2027 09:21:38.686            38.235              Murmansk1           845.000
       314   08 Jun 2027 09:21:43.055   08 Jun 2027 09:22:11.272            28.217                Novosib          2184.500
       315   08 Jun 2027 09:22:13.914   08 Jun 2027 09:22:40.517            26.603                Norilsk          1321.000
       316   08 Jun 2027 09:22:49.056   08 Jun 2027 09:23:06.433            17.377              Murmansk1          1053.500
       317   08 Jun 2027 09:23:08.619   08 Jun 2027 09:23:23.756            15.137                 Moscow          1093.000
       318   08 Jun 2027 09:23:39.798   08 Jun 2027 09:25:47.906           128.108                Norilsk          8021.000
       319   09 Jun 2027 03:02:56.493   09 Jun 2027 03:03:06.362             9.869               Magadan1           263.500
       320   09 Jun 2027 03:03:17.083   09 Jun 2027 03:04:06.820            49.737                Irkutsk          5360.500
       321   09 Jun 2027 03:04:29.423   09 Jun 2027 03:05:29.764            60.341                Anadyr2          4530.500
       322   09 Jun 2027 03:05:34.285   09 Jun 2027 03:05:55.809            21.524                Anadyr2          2260.500
       323   09 Jun 2027 03:06:02.755   09 Jun 2027 03:06:31.823            29.068                Irkutsk          3473.000
       324   09 Jun 2027 03:06:35.654   09 Jun 2027 03:07:09.249            33.595                Anadyr2          1915.500
       325   09 Jun 2027 03:07:11.605   09 Jun 2027 03:07:29.864            18.259                Anadyr2          1178.000
       326   09 Jun 2027 03:07:31.742   09 Jun 2027 03:07:57.661            25.919               Magadan1           939.000
       327   09 Jun 2027 03:08:04.348   09 Jun 2027 03:09:35.936            91.588                Anadyr1          3343.500
       328   09 Jun 2027 03:09:37.082   09 Jun 2027 03:10:08.703            31.621               Magadan1           573.000
       329   09 Jun 2027 04:39:58.719   09 Jun 2027 04:40:42.385            43.666                Novosib          1562.000
       330   09 Jun 2027 04:40:46.553   09 Jun 2027 04:41:35.549            48.996                Irkutsk          2084.000
       331   09 Jun 2027 04:41:45.095   09 Jun 2027 04:42:35.553            50.458               Magadan1          4773.000
       332   09 Jun 2027 04:42:35.920   09 Jun 2027 04:42:38.651             2.731                Irkutsk           183.500
       333   09 Jun 2027 04:42:40.225   09 Jun 2027 04:42:48.452             8.227                Norilsk           787.000
       334   09 Jun 2027 04:42:55.699   09 Jun 2027 04:43:51.202            55.503                Irkutsk          3623.500
       335   09 Jun 2027 04:43:52.150   09 Jun 2027 04:44:12.981            20.831               Magadan2           474.000
       336   09 Jun 2027 04:44:22.047   09 Jun 2027 04:45:08.481            46.434                Norilsk          4533.000
       337   09 Jun 2027 04:45:11.039   09 Jun 2027 04:45:13.256             2.217                Novosib           277.125
       338   09 Jun 2027 04:45:15.155   09 Jun 2027 04:45:53.860            38.705               Magadan2          1951.375
       339   09 Jun 2027 04:46:00.593   09 Jun 2027 04:46:25.779            25.186               Magadan2          3148.250
       340   09 Jun 2027 04:46:44.697   09 Jun 2027 04:48:19.117            94.420              Murmansk2          9677.250
       341   09 Jun 2027 06:16:54.365   09 Jun 2027 06:17:35.616            41.251                Irkutsk           389.500
       342   09 Jun 2027 06:17:41.436   09 Jun 2027 06:18:06.286            24.850                Novosib          2910.000
       343   09 Jun 2027 06:18:12.860   09 Jun 2027 06:18:42.133            29.273                Norilsk          3287.000
       344   09 Jun 2027 06:18:43.567   09 Jun 2027 06:19:21.803            38.236                Norilsk           717.000
       345   09 Jun 2027 06:19:28.500   09 Jun 2027 06:20:00.253            31.753              Murmansk2          3348.500
       346   09 Jun 2027 06:20:01.268   09 Jun 2027 06:20:27.553            26.285                Irkutsk           507.500
       347   09 Jun 2027 06:20:32.440   09 Jun 2027 06:20:52.008            19.568              Murmansk2          2443.500
       348   09 Jun 2027 06:21:03.451   09 Jun 2027 06:22:05.896            62.445              Murmansk2          5721.500
       349   09 Jun 2027 06:22:18.355   09 Jun 2027 06:23:27.914            69.559              Murmansk2          6229.500
       350   09 Jun 2027 07:54:50.984   09 Jun 2027 07:55:31.519            40.535              Murmansk2           537.000
       351   09 Jun 2027 07:55:34.803   09 Jun 2027 07:56:10.467            35.664              Murmansk1          1642.000
       352   09 Jun 2027 07:56:13.532   09 Jun 2027 07:56:28.381            14.849              Murmansk2          1532.500
       353   09 Jun 2027 07:56:32.861   09 Jun 2027 07:56:55.663            22.802                Norilsk          2240.000
       354   09 Jun 2027 07:57:02.718   09 Jun 2027 07:57:44.831            42.113              Murmansk2          3527.500
       355   09 Jun 2027 07:57:49.991   09 Jun 2027 07:58:26.715            36.724              Murmansk1          2580.000
       356   09 Jun 2027 07:58:29.219   09 Jun 2027 07:58:43.031            13.812                Novosib          1252.000
       357   09 Jun 2027 07:58:48.976   09 Jun 2027 07:59:07.030            18.054                 Moscow          2256.750
       358   09 Jun 2027 07:59:09.291   09 Jun 2027 07:59:16.722             7.431              Murmansk2           434.750
       359   09 Jun 2027 09:28:28.909   09 Jun 2027 09:29:51.056            82.147                 Moscow          9495.000
       360   09 Jun 2027 09:30:00.436   09 Jun 2027 09:31:10.998            70.562              Murmansk2          4690.000
       361   09 Jun 2027 09:31:13.980   09 Jun 2027 09:32:06.379            52.399                Novosib          1491.000
       362   09 Jun 2027 09:32:08.139   09 Jun 2027 09:32:18.018             9.879              Murmansk1           880.000
       363   09 Jun 2027 09:32:21.339   09 Jun 2027 09:32:56.303            34.964                Novosib          1660.500
       364   09 Jun 2027 09:32:59.402   09 Jun 2027 09:33:26.629            27.227                 Moscow          1549.500
       365   09 Jun 2027 09:33:32.545   09 Jun 2027 09:34:07.398            34.853                Norilsk          2958.000
       366   09 Jun 2027 09:34:18.917   09 Jun 2027 09:35:08.218            49.301              Murmansk2          5759.500
       367   09 Jun 2027 09:35:12.929   09 Jun 2027 09:35:39.314            26.385              Murmansk2          2355.500
       368   09 Jun 2027 09:35:40.025   09 Jun 2027 09:36:11.288            31.263                Norilsk           355.500
       369   10 Jun 2027 03:14:24.461   10 Jun 2027 03:14:53.531            29.070               Magadan2          2499.000
       370   10 Jun 2027 03:15:07.618   10 Jun 2027 03:15:45.922            38.304               Magadan1          4788.000
       371   10 Jun 2027 03:15:45.922   10 Jun 2027 03:15:55.907             9.985               Magadan2          1248.125
       372   10 Jun 2027 03:16:02.353   10 Jun 2027 03:16:52.142            49.789               Magadan1          4230.375
       373   10 Jun 2027 03:17:00.620   10 Jun 2027 03:18:20.822            80.202               Magadan1          4239.000
       374   10 Jun 2027 03:18:22.295   10 Jun 2027 03:19:01.436            39.141                Anadyr1           736.500
       375   10 Jun 2027 03:19:05.531   10 Jun 2027 03:19:31.052            25.521                Anadyr1          2047.500
       376   10 Jun 2027 03:19:31.640   10 Jun 2027 03:19:47.555            15.915                Anadyr2           294.000
       377   10 Jun 2027 03:19:52.865   10 Jun 2027 03:20:58.123            65.258               Magadan1          2655.000
       378   10 Jun 2027 03:20:58.715   10 Jun 2027 03:21:04.398             5.683               Magadan2           296.000
       379   10 Jun 2027 03:21:06.999   10 Jun 2027 03:21:14.118             7.119               Magadan1           889.875
       380   10 Jun 2027 03:21:14.118   10 Jun 2027 03:21:36.957            22.839               Magadan2           410.625
       381   10 Jun 2027 03:21:39.055   10 Jun 2027 03:22:31.855            52.800                Anadyr1          1049.000
       382   10 Jun 2027 03:22:32.152   10 Jun 2027 03:22:49.684            17.532              Murmansk2           148.500
       383   10 Jun 2027 03:22:49.838   10 Jun 2027 03:23:16.848            27.010               Magadan1            77.000
       384   10 Jun 2027 04:52:04.684   10 Jun 2027 04:52:33.724            29.040                Norilsk          3609.500
       385   10 Jun 2027 04:52:44.685   10 Jun 2027 04:53:32.016            47.331                Novosib          5480.500
       386   10 Jun 2027 04:53:34.234   10 Jun 2027 04:53:56.809            22.575               Magadan1          1109.000
       387   10 Jun 2027 04:54:14.990   10 Jun 2027 04:55:48.490            93.500                Novosib          9090.500
       388   10 Jun 2027 04:55:48.504   10 Jun 2027 04:56:04.408            15.904                Norilsk             7.000
       389   10 Jun 2027 04:56:05.446   10 Jun 2027 04:57:00.150            54.704               Magadan1           519.000
       390   10 Jun 2027 04:57:01.008   10 Jun 2027 04:57:10.195             9.187                Norilsk           429.000
       391   10 Jun 2027 04:57:13.453   10 Jun 2027 04:58:04.901            51.448               Magadan1          1629.000
       392   10 Jun 2027 04:58:10.201   10 Jun 2027 04:58:43.305            33.104              Murmansk1          2650.000
       393   10 Jun 2027 04:58:46.770   10 Jun 2027 05:00:02.789            76.019              Murmansk1          1732.500
       394   10 Jun 2027 06:28:58.781   10 Jun 2027 06:30:47.405           108.624                Irkutsk          7542.500
       395   10 Jun 2027 06:30:51.136   10 Jun 2027 06:31:21.569            30.433                Novosib          1865.500
       396   10 Jun 2027 06:31:22.605   10 Jun 2027 06:32:02.134            39.529                Norilsk           518.000
       397   10 Jun 2027 06:32:10.642   10 Jun 2027 06:32:18.273             7.631                Novosib           953.875
       398   10 Jun 2027 06:32:22.871   10 Jun 2027 06:33:58.996            96.125              Murmansk2          5599.125
       399   10 Jun 2027 06:34:00.474   10 Jun 2027 06:34:18.712            18.238              Murmansk2           739.000
       400   10 Jun 2027 06:34:18.957   10 Jun 2027 06:35:03.708            44.751                 Moscow           122.500
       401   10 Jun 2027 06:35:05.906   10 Jun 2027 06:35:20.419            14.513              Murmansk2          1099.000
       402   10 Jun 2027 06:35:21.078   10 Jun 2027 06:35:24.473             3.395                Norilsk           329.500
       403   10 Jun 2027 06:35:29.170   10 Jun 2027 06:35:51.484            22.314                 Moscow           972.500
       404   10 Jun 2027 08:06:52.540   10 Jun 2027 08:07:12.685            20.145                 Moscow          1896.500
       405   10 Jun 2027 08:07:20.199   10 Jun 2027 08:08:15.442            55.243                Norilsk          3757.000
       406   10 Jun 2027 08:08:17.658   10 Jun 2027 08:09:11.128            53.470                Novosib          1108.000
       407   10 Jun 2027 08:09:12.085   10 Jun 2027 08:09:21.619             9.534                Norilsk           478.500
       408   10 Jun 2027 08:09:21.917   10 Jun 2027 08:09:43.425            21.508                Norilsk           149.000
       409   10 Jun 2027 08:09:48.983   10 Jun 2027 08:10:25.063            36.080              Murmansk2          2779.000
       410   10 Jun 2027 08:10:36.285   10 Jun 2027 08:10:58.737            22.452                Norilsk          2806.500
       411   10 Jun 2027 08:10:59.618   10 Jun 2027 08:12:27.583            87.965                 Moscow          2804.500
       412   10 Jun 2027 09:40:50.459   10 Jun 2027 09:41:59.900            69.441                 Moscow          6652.000
       413   10 Jun 2027 09:42:07.852   10 Jun 2027 09:42:52.860            45.008                 Moscow          3976.000
       414   10 Jun 2027 09:43:00.858   10 Jun 2027 09:43:44.540            43.682              Murmansk2          3999.000
       415   10 Jun 2027 09:43:51.278   10 Jun 2027 09:44:19.440            28.162              Murmansk1          3369.000
       416   10 Jun 2027 09:44:30.033   10 Jun 2027 09:45:33.051            63.018              Murmansk2          5296.500
       417   10 Jun 2027 09:45:51.615   10 Jun 2027 09:47:07.209            75.594                 Moscow          9282.000
       418   10 Jun 2027 09:47:13.918   10 Jun 2027 09:48:02.738            48.820                 Moscow          3354.500
       419   11 Jun 2027 03:25:53.687   11 Jun 2027 03:26:21.379            27.692               Magadan1           613.000
       420   11 Jun 2027 03:26:27.721   11 Jun 2027 03:27:17.301            49.580                Irkutsk          3171.000
       421   11 Jun 2027 03:27:31.408   11 Jun 2027 03:28:37.133            65.725               Magadan2          7053.500
       422   11 Jun 2027 03:28:40.374   11 Jun 2027 03:29:41.400            61.026                Anadyr2          1620.500
       423   11 Jun 2027 03:29:41.676   11 Jun 2027 03:30:14.981            33.305               Magadan2           138.000
       424   11 Jun 2027 03:30:18.604   11 Jun 2027 03:30:35.311            16.707                Irkutsk          1811.500
       425   11 Jun 2027 03:30:38.508   11 Jun 2027 03:30:58.986            20.478               Magadan2          1598.500
       426   11 Jun 2027 03:30:59.104   11 Jun 2027 03:31:06.193             7.089               Magadan2            59.000
       427   11 Jun 2027 03:31:08.940   11 Jun 2027 03:31:29.933            20.993                Anadyr1          1373.500
       428   11 Jun 2027 03:31:32.375   11 Jun 2027 03:31:44.443            12.068                Anadyr2          1221.000
       429   11 Jun 2027 03:31:44.568   11 Jun 2027 03:32:01.739            17.171               Magadan2            62.500
       430   11 Jun 2027 03:32:03.861   11 Jun 2027 03:32:15.845            11.984                Anadyr1          1061.000
       431   11 Jun 2027 03:32:20.004   11 Jun 2027 03:32:47.504            27.500                Norilsk          2079.500
       432   11 Jun 2027 03:32:49.388   11 Jun 2027 03:33:36.836            47.448                Novosib           942.000
       433   11 Jun 2027 03:33:36.883   11 Jun 2027 03:33:40.229             3.346                Anadyr2            23.500
       434   11 Jun 2027 03:33:46.352   11 Jun 2027 03:34:09.465            23.113                Irkutsk          2889.125
       435   11 Jun 2027 03:34:14.208   11 Jun 2027 03:34:37.486            23.278                Novosib           172.375
       436   11 Jun 2027 03:34:41.419   11 Jun 2027 03:35:32.265            50.846                Norilsk          1966.500
       437   11 Jun 2027 05:04:00.074   11 Jun 2027 05:04:49.963            49.889                Novosib           917.500
       438   11 Jun 2027 05:04:55.184   11 Jun 2027 05:05:18.525            23.341               Magadan2          2610.500
       439   11 Jun 2027 05:05:23.363   11 Jun 2027 05:05:47.781            24.418                Irkutsk          2419.000
       440   11 Jun 2027 05:05:53.368   11 Jun 2027 05:06:37.454            44.086                Norilsk          2793.500
       441   11 Jun 2027 05:06:40.404   11 Jun 2027 05:07:07.446            27.042                Norilsk          1475.000
       442   11 Jun 2027 05:07:07.934   11 Jun 2027 05:07:37.904            29.970                Norilsk           244.000
       443   11 Jun 2027 05:07:39.474   11 Jun 2027 05:08:05.195            25.721                Norilsk           785.000
       444   11 Jun 2027 05:08:41.905   11 Jun 2027 05:11:36.852           174.947                Novosib         18355.000
       445   11 Jun 2027 06:40:58.691   11 Jun 2027 06:42:07.371            68.680                Novosib          2909.500
       446   11 Jun 2027 06:42:35.205   11 Jun 2027 06:44:28.852           113.647                Norilsk         13917.000
       447   11 Jun 2027 06:44:32.100   11 Jun 2027 06:44:53.093            20.993              Murmansk2          1624.000
       448   11 Jun 2027 06:44:54.958   11 Jun 2027 06:45:56.258            61.300              Murmansk2           932.500
       449   11 Jun 2027 06:46:15.444   11 Jun 2027 06:46:55.002            39.558              Murmansk2          3848.000
       450   11 Jun 2027 06:47:02.337   11 Jun 2027 06:47:40.628            38.291                Novosib          3667.500
       451   11 Jun 2027 08:18:05.686   11 Jun 2027 08:18:26.083            20.397              Murmansk2          2105.000
       452   11 Jun 2027 08:18:34.364   11 Jun 2027 08:20:26.276           111.912                 Moscow          4140.500
       453   11 Jun 2027 08:20:26.619   11 Jun 2027 08:20:32.975             6.356                Norilsk           171.500
       454   11 Jun 2027 08:20:50.260   11 Jun 2027 08:22:56.327           126.067              Murmansk1          8642.500
       455   11 Jun 2027 09:53:01.964   11 Jun 2027 09:53:47.354            45.390              Murmansk1          4919.500
       456   11 Jun 2027 09:53:49.726   11 Jun 2027 09:54:19.721            29.995              Murmansk2          1186.000
       457   11 Jun 2027 09:54:45.802   11 Jun 2027 09:56:29.808           104.006                 Moscow          1206.000
       458   11 Jun 2027 09:57:00.273   11 Jun 2027 09:57:30.882            30.609                 Moscow          3826.125
       459   11 Jun 2027 09:57:36.837   11 Jun 2027 09:57:54.403            17.566                 Moscow          2195.750
       460   11 Jun 2027 09:57:55.718   11 Jun 2027 09:59:38.623           102.905                Norilsk         12845.625
       461   12 Jun 2027 03:39:11.585   12 Jun 2027 03:40:45.059            93.474               Magadan1          9291.500
       462   12 Jun 2027 03:41:16.725   12 Jun 2027 03:43:36.255           139.530               Magadan2         15833.000
       463   12 Jun 2027 03:43:59.794   12 Jun 2027 03:45:53.629           113.835                Norilsk         11769.500
       464   12 Jun 2027 03:45:59.915   12 Jun 2027 03:46:24.330            24.415                Anadyr2          3051.875
       465   12 Jun 2027 03:46:26.373   12 Jun 2027 03:46:37.080            10.707                Irkutsk          1112.625
       466   12 Jun 2027 03:46:38.900   12 Jun 2027 03:46:55.456            16.556               Magadan2           910.000
       467   12 Jun 2027 03:46:59.580   12 Jun 2027 03:47:25.084            25.504               Magadan2          2062.000
       468   12 Jun 2027 03:47:34.541   12 Jun 2027 03:48:00.636            26.095              Murmansk2           705.000
       469   12 Jun 2027 05:16:29.172   12 Jun 2027 05:16:50.452            21.280                Norilsk          2320.500
       470   12 Jun 2027 05:17:07.987   12 Jun 2027 05:17:33.134            25.147                Novosib          3143.375
       471   12 Jun 2027 05:17:33.820   12 Jun 2027 05:18:28.217            54.397                Irkutsk          5967.125
       472   12 Jun 2027 05:18:36.941   12 Jun 2027 05:18:56.156            19.215                Norilsk          2401.875
       473   12 Jun 2027 05:19:08.414   12 Jun 2027 05:20:22.990            74.576               Magadan2          8089.125
       474   12 Jun 2027 05:20:37.405   12 Jun 2027 05:21:30.573            53.168                Novosib          6646.000
       475   12 Jun 2027 05:21:41.453   12 Jun 2027 05:22:36.173            54.720              Murmansk2          6001.500
       476   12 Jun 2027 05:22:46.647   12 Jun 2027 05:23:50.158            63.511                Novosib          5237.000
       477   12 Jun 2027 06:53:28.021   12 Jun 2027 06:54:55.599            87.578                Novosib          3684.500
       478   12 Jun 2027 06:54:56.105   12 Jun 2027 06:55:00.889             4.784                Irkutsk           253.000
       479   12 Jun 2027 06:55:01.489   12 Jun 2027 06:55:42.184            40.695              Murmansk2           300.000
       480   12 Jun 2027 06:55:45.411   12 Jun 2027 06:56:25.605            40.194                Irkutsk          1613.500
       481   12 Jun 2027 06:56:31.335   12 Jun 2027 06:56:51.656            20.321              Murmansk2          2540.125
       482   12 Jun 2027 06:56:51.656   12 Jun 2027 06:56:58.396             6.740              Murmansk1           324.875
