uniorb/output/strategy_2/Drop/Drop_KinoSat_111404.txt

KinoSat_111404
-------------------------
    Access    *     Start Time (UTCG)     *     Stop Time (UTCG)  *   Duration (s)        *       Station  *  Data (Mbytes)
         1   01 Jun 2027 03:35:11.686   01 Jun 2027 03:35:16.017             4.331                Norilsk           135.344
         2   01 Jun 2027 03:35:37.259   01 Jun 2027 03:36:39.854            62.595                Norilsk          1956.094
         3   01 Jun 2027 03:36:41.932   01 Jun 2027 03:37:11.808            29.876              Murmansk2           933.625
         4   01 Jun 2027 03:38:25.937   01 Jun 2027 03:38:31.916             5.979              Murmansk1           186.844
         5   01 Jun 2027 03:39:02.324   01 Jun 2027 03:39:17.279            14.955              Murmansk2           467.344
         6   01 Jun 2027 03:39:17.279   01 Jun 2027 03:39:55.263            37.984              Murmansk1          1187.000
         7   01 Jun 2027 03:40:28.095   01 Jun 2027 03:43:34.376           186.281                 Moscow          5821.281
         8   01 Jun 2027 03:55:00.101   01 Jun 2027 03:58:28.974           208.873               CapeTown          6527.281
         9   01 Jun 2027 04:53:43.818   01 Jun 2027 04:53:56.209            12.391                Anadyr2           387.219
        10   01 Jun 2027 04:58:15.451   01 Jun 2027 04:58:33.462            18.011                Anadyr1           562.844
        11   01 Jun 2027 04:58:33.462   01 Jun 2027 04:58:57.034            23.572                Anadyr2           736.625
        12   01 Jun 2027 04:59:03.558   01 Jun 2027 04:59:58.889            55.331               Magadan2          1729.094
        13   01 Jun 2027 05:00:51.928   01 Jun 2027 05:01:17.489            25.561               Magadan2           798.781
        14   01 Jun 2027 05:04:18.701   01 Jun 2027 05:04:23.419             4.718                Anadyr2           147.438
        15   01 Jun 2027 05:16:17.794   01 Jun 2027 05:16:31.161            13.367              Murmansk1           417.719
        16   01 Jun 2027 06:34:22.763   01 Jun 2027 06:35:20.557            57.794                Anadyr2          1806.063
        17   01 Jun 2027 06:35:37.414   01 Jun 2027 06:38:39.761           182.347                Anadyr1          5698.344
        18   01 Jun 2027 06:38:39.761   01 Jun 2027 06:40:15.932            96.171                Anadyr2          3005.344
        19   01 Jun 2027 08:09:15.236   01 Jun 2027 08:09:22.046             6.810                Anadyr2           212.813
        20   01 Jun 2027 08:10:20.657   01 Jun 2027 08:11:48.758            88.101                Irkutsk          2753.156
        21   01 Jun 2027 08:12:01.738   01 Jun 2027 08:12:35.621            33.883                Irkutsk          1058.844
        22   01 Jun 2027 08:12:36.269   01 Jun 2027 08:15:31.178           174.909                Anadyr2          5465.906
        23   01 Jun 2027 08:16:00.798   01 Jun 2027 08:16:20.085            19.287                Norilsk           602.719
        24   01 Jun 2027 08:51:16.466   01 Jun 2027 08:51:17.537             1.071            RioGallegos            33.469
        25   01 Jun 2027 09:45:52.876   01 Jun 2027 09:46:24.847            31.971                Irkutsk           999.094
        26   01 Jun 2027 09:47:06.480   01 Jun 2027 09:48:53.022           106.542                Norilsk          3329.437
        27   01 Jun 2027 09:49:01.971   01 Jun 2027 09:50:35.220            93.249               Magadan1          2914.031
        28   01 Jun 2027 09:50:50.498   01 Jun 2027 09:52:48.645           118.147                Norilsk          3692.094
        29   01 Jun 2027 09:57:32.702   01 Jun 2027 09:58:17.185            44.483              Murmansk2          1390.094
        30   01 Jun 2027 10:26:27.404   01 Jun 2027 10:27:10.970            43.566            RioGallegos          1361.437
        31   01 Jun 2027 10:27:50.403   01 Jun 2027 10:28:22.194            31.791            RioGallegos           993.469
        32   01 Jun 2027 10:29:23.556   01 Jun 2027 10:30:31.381            67.825            RioGallegos          2119.531
        33   01 Jun 2027 11:01:15.130   01 Jun 2027 11:02:22.190            67.060                Sumatra          2095.625
        34   01 Jun 2027 11:02:25.776   01 Jun 2027 11:04:05.910           100.134                Sumatra          3129.188
        35   01 Jun 2027 11:22:43.147   01 Jun 2027 11:24:40.825           117.678                Irkutsk          3677.437
        36   01 Jun 2027 11:24:50.486   01 Jun 2027 11:27:06.911           136.425                Novosib          4263.281
        37   01 Jun 2027 11:27:09.692   01 Jun 2027 11:27:13.140             3.448                Norilsk           107.750
        38   01 Jun 2027 11:27:17.246   01 Jun 2027 11:28:31.180            73.934                Novosib          2310.438
        39   01 Jun 2027 11:28:35.465   01 Jun 2027 11:29:01.634            26.169                 Moscow           817.781
        40   01 Jun 2027 12:06:01.153   01 Jun 2027 12:07:15.080            73.927            RioGallegos          2310.219
        41   01 Jun 2027 12:08:17.419   01 Jun 2027 12:09:37.770            80.351            RioGallegos          2510.969
        42   01 Jun 2027 12:41:16.724   01 Jun 2027 12:44:16.727           180.003                Sumatra          5625.094
        43   01 Jun 2027 12:53:52.599   01 Jun 2027 12:54:25.582            32.983                Novosib          1030.719
        44   01 Jun 2027 12:57:11.850   01 Jun 2027 12:58:19.860            68.010                Norilsk          2125.312
        45   01 Jun 2027 12:58:36.601   01 Jun 2027 12:59:02.138            25.537                Norilsk           798.031
        46   01 Jun 2027 12:59:56.023   01 Jun 2027 12:59:59.515             3.492                Irkutsk           109.125
        47   01 Jun 2027 13:00:44.960   01 Jun 2027 13:01:06.516            21.556                Norilsk           673.625
        48   01 Jun 2027 13:01:32.029   01 Jun 2027 13:01:49.001            16.972                Norilsk           530.375
        49   01 Jun 2027 13:03:05.428   01 Jun 2027 13:03:22.234            16.806                Norilsk           525.188
        50   01 Jun 2027 14:29:51.742   01 Jun 2027 14:32:18.727           146.985                 Moscow          4593.281
        51   01 Jun 2027 14:32:27.492   01 Jun 2027 14:32:32.880             5.388                 Moscow           168.375
        52   01 Jun 2027 14:32:37.651   01 Jun 2027 14:32:47.541             9.890                 Moscow           309.062
        53   01 Jun 2027 14:33:07.865   01 Jun 2027 14:33:36.516            28.651                 Moscow           895.344
        54   01 Jun 2027 14:34:34.695   01 Jun 2027 14:35:14.562            39.867              Murmansk2          1245.844
        55   01 Jun 2027 14:35:17.137   01 Jun 2027 14:35:42.985            25.848              Murmansk1           807.750
        56   01 Jun 2027 14:36:52.414   01 Jun 2027 14:38:13.467            81.053                Norilsk          2532.906
        57   01 Jun 2027 14:39:06.457   01 Jun 2027 14:40:45.224            98.767                Norilsk          3086.469
        58   01 Jun 2027 14:41:26.317   01 Jun 2027 14:41:46.521            20.204                Norilsk           631.375
        59   01 Jun 2027 15:44:42.716   01 Jun 2027 15:45:08.167            25.451               CapeTown           795.344
        60   01 Jun 2027 16:06:56.817   01 Jun 2027 16:08:40.182           103.365                 Moscow          3230.156
        61   01 Jun 2027 16:08:45.983   01 Jun 2027 16:09:16.607            30.624                 Moscow           957.000
        62   01 Jun 2027 16:10:11.033   01 Jun 2027 16:10:32.151            21.118              Murmansk2           659.937
        63   01 Jun 2027 16:10:32.151   01 Jun 2027 16:12:16.275           104.124              Murmansk1          3253.875
        64   01 Jun 2027 16:24:24.493   01 Jun 2027 16:25:48.063            83.570                Anadyr2          2611.563
        65   01 Jun 2027 16:27:00.602   01 Jun 2027 16:28:03.198            62.596                Anadyr1          1956.125
        66   01 Jun 2027 17:19:17.409   01 Jun 2027 17:21:32.861           135.452               CapeTown          4232.875
        67   01 Jun 2027 17:49:18.510   01 Jun 2027 17:50:09.105            50.595              Murmansk2          1581.094
        68   01 Jun 2027 17:50:16.195   01 Jun 2027 17:52:39.095           142.900              Murmansk1          4465.625
        69   01 Jun 2027 17:54:19.054   01 Jun 2027 17:54:37.008            17.954              Murmansk2           561.063
        70   01 Jun 2027 17:59:53.787   01 Jun 2027 17:59:58.419             4.632                Anadyr1           144.750
        71   01 Jun 2027 18:01:00.460   01 Jun 2027 18:02:06.241            65.781                Anadyr2          2055.656
        72   01 Jun 2027 18:03:30.894   01 Jun 2027 18:04:58.179            87.285               Magadan1          2727.656
        73   01 Jun 2027 18:05:15.632   01 Jun 2027 18:05:23.797             8.165               Magadan1           255.156
        74   01 Jun 2027 19:02:28.017   01 Jun 2027 19:02:29.385             1.368               CapeTown            42.750
        75   01 Jun 2027 19:35:48.369   01 Jun 2027 19:39:33.884           225.515                Anadyr1          7047.344
        76   01 Jun 2027 19:39:39.379   01 Jun 2027 19:41:38.053           118.674               Magadan1          3708.562
        77   01 Jun 2027 19:41:38.053   01 Jun 2027 19:42:48.851            70.798               Magadan2          2212.437
        78   01 Jun 2027 21:11:40.768   01 Jun 2027 21:15:21.569           220.801                Anadyr1          6900.031
        79   01 Jun 2027 21:15:25.423   01 Jun 2027 21:15:40.747            15.324                Norilsk           478.875
        80   01 Jun 2027 21:15:48.035   01 Jun 2027 21:17:48.142           120.107               Magadan1          3753.344
        81   01 Jun 2027 21:17:50.135   01 Jun 2027 21:19:19.001            88.866                Norilsk          2777.063
        82   01 Jun 2027 21:19:33.318   01 Jun 2027 21:21:35.934           122.616                Irkutsk          3831.750
        83   01 Jun 2027 21:36:13.824   01 Jun 2027 21:36:54.689            40.865                Sumatra          1277.031
        84   01 Jun 2027 22:05:49.098   01 Jun 2027 22:06:14.083            24.985            RioGallegos           780.781
        85   01 Jun 2027 22:14:12.606   01 Jun 2027 22:14:48.719            36.113            RioGallegos          1128.531
        86   01 Jun 2027 22:47:07.556   01 Jun 2027 22:49:33.668           146.112                Anadyr2          4566.000
        87   01 Jun 2027 22:49:43.781   01 Jun 2027 22:51:23.044            99.263                Norilsk          3101.969
        88   01 Jun 2027 22:51:42.766   01 Jun 2027 22:52:00.748            17.982               Magadan2           561.937
        89   01 Jun 2027 22:52:44.374   01 Jun 2027 22:53:04.471            20.097               Magadan1           628.031
        90   01 Jun 2027 22:53:32.592   01 Jun 2027 22:54:40.940            68.348                Irkutsk          2135.875
        91   01 Jun 2027 22:54:52.035   01 Jun 2027 22:56:38.843           106.808                Novosib          3337.750
        92   01 Jun 2027 23:07:14.522   01 Jun 2027 23:07:55.726            41.204                Sumatra          1287.625
        93   01 Jun 2027 23:09:52.927   01 Jun 2027 23:10:10.448            17.521                Sumatra           547.531
        94   01 Jun 2027 23:11:43.624   01 Jun 2027 23:13:14.184            90.560                Sumatra          2830.000
        95   01 Jun 2027 23:51:05.329   01 Jun 2027 23:51:50.423            45.094            RioGallegos          1409.187
        96   02 Jun 2027 00:21:31.877   02 Jun 2027 00:22:06.345            34.468                Anadyr2          1077.125
        97   02 Jun 2027 00:23:04.538   02 Jun 2027 00:23:17.530            12.992                Anadyr1           406.000
        98   02 Jun 2027 00:23:17.530   02 Jun 2027 00:23:34.280            16.750                Anadyr2           523.437
        99   02 Jun 2027 00:24:05.923   02 Jun 2027 00:24:18.644            12.721                Anadyr1           397.531
       100   02 Jun 2027 00:25:31.700   02 Jun 2027 00:25:44.154            12.454                Norilsk           389.187
       101   02 Jun 2027 00:25:52.270   02 Jun 2027 00:26:04.361            12.091                Anadyr2           377.844
       102   02 Jun 2027 00:26:10.014   02 Jun 2027 00:27:36.671            86.657               Magadan1          2708.031
       103   02 Jun 2027 00:28:17.390   02 Jun 2027 00:28:22.032             4.642               Magadan1           145.062
       104   02 Jun 2027 00:28:26.881   02 Jun 2027 00:29:01.368            34.487               Magadan1          1077.719
       105   02 Jun 2027 00:29:14.346   02 Jun 2027 00:30:13.333            58.987              Murmansk2          1843.344
       106   02 Jun 2027 00:30:13.333   02 Jun 2027 00:31:54.486           101.153              Murmansk1          3161.031
       107   02 Jun 2027 00:36:50.366   02 Jun 2027 00:38:22.253            91.887                  Delhi          2871.469
       108   02 Jun 2027 00:39:38.594   02 Jun 2027 00:39:51.290            12.696                  Delhi           396.750
       109   02 Jun 2027 00:43:47.343   02 Jun 2027 00:43:57.768            10.425                  Delhi           325.781
       110   02 Jun 2027 00:44:18.663   02 Jun 2027 00:44:21.554             2.891                  Delhi            90.344
       111   02 Jun 2027 00:47:09.126   02 Jun 2027 00:48:43.743            94.617                  Delhi          2956.781
       112   02 Jun 2027 01:19:45.673   02 Jun 2027 01:19:58.110            12.437            RioGallegos           388.656
       113   02 Jun 2027 01:21:32.055   02 Jun 2027 01:21:39.874             7.819            RioGallegos           244.344
       114   02 Jun 2027 01:22:12.733   02 Jun 2027 01:22:32.305            19.572            RioGallegos           611.625
       115   02 Jun 2027 01:24:27.163   02 Jun 2027 01:25:27.732            60.569            RioGallegos          1892.781
       116   02 Jun 2027 01:54:53.646   02 Jun 2027 01:54:56.539             2.893                Anadyr1            90.406
       117   02 Jun 2027 01:55:53.080   02 Jun 2027 01:56:27.249            34.169                Anadyr1          1067.781
       118   02 Jun 2027 01:57:25.308   02 Jun 2027 01:57:51.684            26.376                Anadyr2           824.250
       119   02 Jun 2027 01:59:59.338   02 Jun 2027 02:00:38.138            38.800                Anadyr2          1212.500
       120   02 Jun 2027 02:01:06.050   02 Jun 2027 02:02:01.616            55.566               Magadan1          1736.438
       121   02 Jun 2027 02:03:04.014   02 Jun 2027 02:03:06.982             2.968                Norilsk            92.750
       122   02 Jun 2027 02:03:20.201   02 Jun 2027 02:03:28.220             8.019               Magadan2           250.594
       123   02 Jun 2027 02:03:45.321   02 Jun 2027 02:04:29.512            44.191              Murmansk2          1380.969
       124   02 Jun 2027 02:04:29.512   02 Jun 2027 02:05:16.566            47.054              Murmansk1          1470.438
       125   02 Jun 2027 02:05:21.633   02 Jun 2027 02:06:21.611            59.978                Novosib          1874.312
       126   02 Jun 2027 02:08:46.424   02 Jun 2027 02:08:53.216             6.792                Irkutsk           212.250
       127   02 Jun 2027 02:09:49.044   02 Jun 2027 02:10:55.492            66.448                Irkutsk          2076.500
       128   02 Jun 2027 02:17:45.857   02 Jun 2027 02:18:45.793            59.936                  Delhi          1873.000
       129   02 Jun 2027 02:36:32.148   02 Jun 2027 02:36:53.963            21.815               CapeTown           681.719
       130   02 Jun 2027 02:39:20.511   02 Jun 2027 02:39:45.068            24.557               CapeTown           767.406
       131   02 Jun 2027 03:47:17.786   02 Jun 2027 03:48:23.959            66.173                Norilsk          2067.906
       132   02 Jun 2027 03:48:41.027   02 Jun 2027 03:48:41.517             0.490                Norilsk            15.313
       133   02 Jun 2027 03:48:46.618   02 Jun 2027 03:49:35.486            48.868              Murmansk2          1527.125
       134   02 Jun 2027 03:50:22.216   02 Jun 2027 03:51:03.851            41.635              Murmansk2          1301.094
       135   02 Jun 2027 03:51:18.780   02 Jun 2027 03:51:58.620            39.840              Murmansk2          1245.000
       136   02 Jun 2027 03:52:25.034   02 Jun 2027 03:52:54.629            29.595                 Moscow           924.844
       137   02 Jun 2027 03:53:35.904   02 Jun 2027 03:53:55.074            19.170                 Moscow           599.063
       138   02 Jun 2027 04:09:56.010   02 Jun 2027 04:10:07.784            11.774               CapeTown           367.938
       139   02 Jun 2027 05:10:09.644   02 Jun 2027 05:12:13.283           123.639               Magadan2          3863.719
       140   02 Jun 2027 05:12:25.554   02 Jun 2027 05:12:40.202            14.648                Anadyr2           457.750
       141   02 Jun 2027 05:13:06.085   02 Jun 2027 05:14:00.407            54.322               Magadan2          1697.563
       142   02 Jun 2027 05:14:40.851   02 Jun 2027 05:14:45.028             4.177                Anadyr1           130.531
       143   02 Jun 2027 05:15:20.114   02 Jun 2027 05:15:41.489            21.375                Anadyr1           667.969
       144   02 Jun 2027 05:15:56.835   02 Jun 2027 05:15:57.270             0.435               Magadan1            13.594
       145   02 Jun 2027 06:46:39.817   02 Jun 2027 06:48:05.290            85.473               Magadan1          2671.031
       146   02 Jun 2027 06:48:05.290   02 Jun 2027 06:48:15.868            10.578               Magadan2           330.562
       147   02 Jun 2027 06:48:34.632   02 Jun 2027 06:52:15.714           221.082                Anadyr2          6908.812
       148   02 Jun 2027 08:20:19.741   02 Jun 2027 08:21:16.985            57.244               Magadan1          1788.875
       149   02 Jun 2027 08:21:30.238   02 Jun 2027 08:24:02.113           151.875                Anadyr2          4746.094
       150   02 Jun 2027 08:24:02.113   02 Jun 2027 08:25:14.426            72.313                Anadyr1          2259.781
       151   02 Jun 2027 08:25:21.443   02 Jun 2027 08:26:18.803            57.360               Magadan2          1792.500
       152   02 Jun 2027 08:26:28.193   02 Jun 2027 08:27:18.085            49.892                Anadyr1          1559.125
       153   02 Jun 2027 08:27:22.374   02 Jun 2027 08:27:55.157            32.783              Murmansk2          1024.469
       154   02 Jun 2027 08:31:10.594   02 Jun 2027 08:31:22.411            11.817              Murmansk2           369.281
       155   02 Jun 2027 09:03:01.060   02 Jun 2027 09:03:41.026            39.966            RioGallegos          1248.938
       156   02 Jun 2027 09:05:33.303   02 Jun 2027 09:06:04.251            30.948            RioGallegos           967.125
       157   02 Jun 2027 09:41:11.884   02 Jun 2027 09:42:13.846            61.962                Sumatra          1936.313
       158   02 Jun 2027 09:56:58.593   02 Jun 2027 09:58:19.534            80.941               Magadan2          2529.406
       159   02 Jun 2027 09:58:19.534   02 Jun 2027 09:59:16.463            56.929               Magadan1          1779.031
       160   02 Jun 2027 09:59:28.231   02 Jun 2027 09:59:37.096             8.865                Irkutsk           277.031
       161   02 Jun 2027 09:59:44.592   02 Jun 2027 10:00:21.881            37.289                Novosib          1165.281
       162   02 Jun 2027 10:00:27.676   02 Jun 2027 10:00:31.822             4.146                Irkutsk           129.563
       163   02 Jun 2027 10:00:40.939   02 Jun 2027 10:02:09.598            88.659               Magadan1          2770.594
       164   02 Jun 2027 10:02:15.390   02 Jun 2027 10:02:21.209             5.819                Novosib           181.844
       165   02 Jun 2027 10:02:21.665   02 Jun 2027 10:02:29.968             8.303              Murmansk2           259.469
       166   02 Jun 2027 10:02:36.393   02 Jun 2027 10:03:10.380            33.987                Novosib          1062.094
       167   02 Jun 2027 10:03:15.190   02 Jun 2027 10:03:16.325             1.135              Murmansk1            35.469
       168   02 Jun 2027 10:03:17.978   02 Jun 2027 10:03:54.754            36.776                Norilsk          1149.250
       169   02 Jun 2027 10:03:55.958   02 Jun 2027 10:04:55.264            59.306              Murmansk1          1853.312
       170   02 Jun 2027 10:38:38.559   02 Jun 2027 10:39:02.542            23.983            RioGallegos           749.469
       171   02 Jun 2027 11:13:15.315   02 Jun 2027 11:15:23.447           128.132                Sumatra          4004.125
       172   02 Jun 2027 11:33:14.634   02 Jun 2027 11:33:54.692            40.058                Irkutsk          1251.813
       173   02 Jun 2027 11:34:07.717   02 Jun 2027 11:34:10.669             2.952                Irkutsk            92.250
       174   02 Jun 2027 11:34:16.687   02 Jun 2027 11:34:19.795             3.108                Novosib            97.125
       175   02 Jun 2027 11:34:42.969   02 Jun 2027 11:35:43.687            60.718                Irkutsk          1897.437
       176   02 Jun 2027 11:35:48.929   02 Jun 2027 11:36:22.920            33.991                Irkutsk          1062.219
       177   02 Jun 2027 11:36:44.865   02 Jun 2027 11:36:51.981             7.116                Novosib           222.375
       178   02 Jun 2027 11:36:53.717   02 Jun 2027 11:37:24.137            30.420              Murmansk2           950.625
       179   02 Jun 2027 11:37:27.127   02 Jun 2027 11:38:04.469            37.342                Novosib          1166.937
       180   02 Jun 2027 11:38:15.295   02 Jun 2027 11:39:05.980            50.685                Novosib          1583.906
       181   02 Jun 2027 11:39:10.624   02 Jun 2027 11:39:37.713            27.089                Norilsk           846.531
       182   02 Jun 2027 11:39:43.281   02 Jun 2027 11:40:13.987            30.706                Norilsk           959.563
       183   02 Jun 2027 11:40:49.237   02 Jun 2027 11:40:57.857             8.620              Murmansk2           269.375
       184   02 Jun 2027 11:41:45.047   02 Jun 2027 11:41:51.319             6.272              Murmansk1           196.000
       185   02 Jun 2027 12:19:12.777   02 Jun 2027 12:20:14.430            61.653            RioGallegos          1926.656
       186   02 Jun 2027 12:22:14.187   02 Jun 2027 12:23:13.007            58.820            RioGallegos          1838.125
       187   02 Jun 2027 12:59:09.251   02 Jun 2027 12:59:42.815            33.564                  Delhi          1048.875
       188   02 Jun 2027 13:00:31.672   02 Jun 2027 13:01:24.524            52.852                  Delhi          1651.625
       189   02 Jun 2027 13:05:31.457   02 Jun 2027 13:06:34.857            63.400                Novosib          1981.250
       190   02 Jun 2027 13:09:33.294   02 Jun 2027 13:12:43.471           190.177                Norilsk          5943.031
       191   02 Jun 2027 14:41:50.990   02 Jun 2027 14:44:38.966           167.976                 Moscow          5249.250
       192   02 Jun 2027 14:44:55.756   02 Jun 2027 14:45:09.824            14.068                 Moscow           439.625
       193   02 Jun 2027 14:45:18.744   02 Jun 2027 14:47:27.513           128.769              Murmansk2          4024.031
       194   02 Jun 2027 14:49:55.182   02 Jun 2027 14:50:10.175            14.993                Norilsk           468.531
       195   02 Jun 2027 14:50:55.087   02 Jun 2027 14:52:44.058           108.971                Norilsk          3405.344
       196   02 Jun 2027 15:56:17.725   02 Jun 2027 15:59:25.108           187.383               CapeTown          5855.719
       197   02 Jun 2027 16:19:25.522   02 Jun 2027 16:19:32.574             7.052                 Moscow           220.375
       198   02 Jun 2027 16:22:28.485   02 Jun 2027 16:22:56.007            27.522              Murmansk2           860.063
       199   02 Jun 2027 16:24:07.359   02 Jun 2027 16:24:37.544            30.185              Murmansk2           943.281
       200   02 Jun 2027 16:24:50.887   02 Jun 2027 16:25:39.554            48.667              Murmansk1          1520.844
       201   02 Jun 2027 16:36:19.105   02 Jun 2027 16:37:48.171            89.066                Anadyr1          2783.313
       202   02 Jun 2027 16:37:57.580   02 Jun 2027 16:38:49.826            52.246                Anadyr2          1632.688
       203   02 Jun 2027 16:44:45.235   02 Jun 2027 16:45:34.296            49.061                Anadyr2          1533.156
       204   02 Jun 2027 17:31:23.373   02 Jun 2027 17:32:10.055            46.682               CapeTown          1458.813
       205   02 Jun 2027 17:39:50.771   02 Jun 2027 17:40:07.119            16.348               CapeTown           510.875
       206   02 Jun 2027 17:41:33.768   02 Jun 2027 17:42:01.461            27.693               CapeTown           865.406
       207   02 Jun 2027 18:01:56.742   02 Jun 2027 18:06:18.278           261.536              Murmansk2          8173.000
       208   02 Jun 2027 18:13:06.756   02 Jun 2027 18:13:29.108            22.352                Anadyr2           698.500
       209   02 Jun 2027 18:15:12.041   02 Jun 2027 18:16:06.746            54.705               Magadan1          1709.531
       210   02 Jun 2027 18:17:12.149   02 Jun 2027 18:17:24.712            12.563               Magadan2           392.594
       211   02 Jun 2027 18:18:23.892   02 Jun 2027 18:18:28.068             4.176               Magadan2           130.500
       212   02 Jun 2027 18:19:48.839   02 Jun 2027 18:20:09.908            21.069               Magadan1           658.406
       213   02 Jun 2027 18:21:15.713   02 Jun 2027 18:21:28.702            12.989               Magadan1           405.906
       214   02 Jun 2027 19:47:49.975   02 Jun 2027 19:49:34.568           104.593                Anadyr2          3268.531
       215   02 Jun 2027 19:49:43.252   02 Jun 2027 19:51:35.207           111.955                Anadyr1          3498.594
       216   02 Jun 2027 19:51:48.619   02 Jun 2027 19:55:08.031           199.412               Magadan1          6231.625
       217   02 Jun 2027 19:58:14.775   02 Jun 2027 19:58:31.737            16.962               Magadan1           530.063
       218   02 Jun 2027 19:58:50.314   02 Jun 2027 19:59:11.673            21.359               Magadan1           667.469
       219   02 Jun 2027 20:44:53.187   02 Jun 2027 20:46:48.096           114.909            RioGallegos          3590.906
       220   02 Jun 2027 21:23:40.671   02 Jun 2027 21:25:03.717            83.046                Anadyr2          2595.188
       221   02 Jun 2027 21:25:06.433   02 Jun 2027 21:25:11.813             5.380                Anadyr2           168.125
       222   02 Jun 2027 21:25:18.462   02 Jun 2027 21:25:26.373             7.911                Anadyr2           247.219
       223   02 Jun 2027 21:25:51.541   02 Jun 2027 21:27:40.110           108.569                Norilsk          3392.781
       224   02 Jun 2027 21:28:06.336   02 Jun 2027 21:29:28.453            82.117                Norilsk          2566.156
       225   02 Jun 2027 21:31:01.442   02 Jun 2027 21:32:09.822            68.380                Irkutsk          2136.875
       226   02 Jun 2027 21:32:55.241   02 Jun 2027 21:33:36.822            41.581                Irkutsk          1299.406
       227   02 Jun 2027 21:36:46.783   02 Jun 2027 21:37:24.002            37.219                Irkutsk          1163.094
       228   02 Jun 2027 21:46:29.219   02 Jun 2027 21:48:03.906            94.687                Sumatra          2958.969
       229   02 Jun 2027 21:48:16.784   02 Jun 2027 21:48:17.420             0.636                Sumatra            19.875
       230   02 Jun 2027 21:50:17.390   02 Jun 2027 21:51:10.050            52.660                Sumatra          1645.625
       231   02 Jun 2027 22:59:01.793   02 Jun 2027 22:59:33.018            31.225                Anadyr1           975.781
       232   02 Jun 2027 23:01:33.645   02 Jun 2027 23:03:25.083           111.438                Norilsk          3482.438
       233   02 Jun 2027 23:03:28.527   02 Jun 2027 23:04:12.314            43.787               Magadan2          1368.344
       234   02 Jun 2027 23:05:30.710   02 Jun 2027 23:06:40.333            69.623                Irkutsk          2175.719
       235   02 Jun 2027 23:06:46.239   02 Jun 2027 23:07:18.563            32.324                Novosib          1010.125
       236   02 Jun 2027 23:12:38.044   02 Jun 2027 23:12:40.214             2.170                Novosib            67.812
       237   02 Jun 2027 23:13:51.714   02 Jun 2027 23:14:24.674            32.960                Novosib          1030.000
       238   02 Jun 2027 23:15:31.202   02 Jun 2027 23:15:47.304            16.102                Novosib           503.187
       239   02 Jun 2027 23:17:56.254   02 Jun 2027 23:19:14.791            78.537                  Delhi          2454.281
       240   02 Jun 2027 23:28:12.672   02 Jun 2027 23:28:15.826             3.154                Sumatra            98.562
       241   02 Jun 2027 23:28:51.875   02 Jun 2027 23:28:58.417             6.542                Sumatra           204.437
       242   02 Jun 2027 23:59:39.456   03 Jun 2027 00:00:06.063            26.607            RioGallegos           831.469
       243   03 Jun 2027 00:05:07.896   03 Jun 2027 00:05:26.130            18.234            RioGallegos           569.812
       244   03 Jun 2027 00:33:16.339   03 Jun 2027 00:35:11.762           115.423                Anadyr2          3606.969
       245   03 Jun 2027 00:37:33.849   03 Jun 2027 00:37:45.268            11.419                Norilsk           356.844
       246   03 Jun 2027 00:38:10.802   03 Jun 2027 00:39:14.387            63.585               Magadan1          1987.031
       247   03 Jun 2027 00:39:57.956   03 Jun 2027 00:40:28.038            30.082               Magadan1           940.063
       248   03 Jun 2027 00:40:31.009   03 Jun 2027 00:41:40.235            69.226               Magadan1          2163.312
       249   03 Jun 2027 00:41:53.185   03 Jun 2027 00:43:57.290           124.105              Murmansk1          3878.281
       250   03 Jun 2027 00:48:45.104   03 Jun 2027 00:49:17.085            31.981                  Delhi           999.406
       251   03 Jun 2027 00:52:28.120   03 Jun 2027 00:52:39.910            11.790                  Delhi           368.437
       252   03 Jun 2027 00:54:34.378   03 Jun 2027 00:54:48.009            13.631                  Delhi           425.969
       253   03 Jun 2027 00:56:29.743   03 Jun 2027 00:57:16.642            46.899                  Delhi          1465.594
       254   03 Jun 2027 01:01:00.698   03 Jun 2027 01:01:07.283             6.585                  Delhi           205.781
       255   03 Jun 2027 01:30:25.414   03 Jun 2027 01:31:53.589            88.175            RioGallegos          2755.469
       256   03 Jun 2027 02:06:35.033   03 Jun 2027 02:07:49.019            73.986                Anadyr1          2312.062
       257   03 Jun 2027 02:08:49.111   03 Jun 2027 02:09:10.385            21.274                Anadyr1           664.813
       258   03 Jun 2027 02:11:38.020   03 Jun 2027 02:12:01.470            23.450                Anadyr1           732.812
       259   03 Jun 2027 02:12:41.890   03 Jun 2027 02:12:57.231            15.341                Anadyr2           479.406
       260   03 Jun 2027 02:12:58.261   03 Jun 2027 02:13:04.020             5.759               Magadan2           179.969
       261   03 Jun 2027 02:13:12.794   03 Jun 2027 02:13:41.668            28.874               Magadan1           902.312
       262   03 Jun 2027 02:13:59.627   03 Jun 2027 02:14:08.578             8.951               Magadan1           279.719
       263   03 Jun 2027 02:14:44.769   03 Jun 2027 02:15:02.593            17.824                Norilsk           557.000
       264   03 Jun 2027 02:15:09.797   03 Jun 2027 02:15:45.012            35.215                Norilsk          1100.469
       265   03 Jun 2027 02:15:45.211   03 Jun 2027 02:16:17.126            31.915              Murmansk1           997.344
       266   03 Jun 2027 02:16:17.126   03 Jun 2027 02:16:17.410             0.284              Murmansk2             8.875
       267   03 Jun 2027 02:16:21.806   03 Jun 2027 02:17:10.904            49.098              Murmansk2          1534.312
       268   03 Jun 2027 02:17:25.859   03 Jun 2027 02:18:40.217            74.358                Novosib          2323.687
       269   03 Jun 2027 02:26:09.981   03 Jun 2027 02:26:55.530            45.549                  Delhi          1423.406
       270   03 Jun 2027 02:32:25.335   03 Jun 2027 02:32:35.419            10.084                  Delhi           315.125
       271   03 Jun 2027 02:48:16.396   03 Jun 2027 02:48:33.268            16.872               CapeTown           527.250
       272   03 Jun 2027 02:50:59.679   03 Jun 2027 02:51:45.942            46.263               CapeTown          1445.719
       273   03 Jun 2027 04:00:10.905   03 Jun 2027 04:01:17.973            67.068                Novosib          2095.875
       274   03 Jun 2027 04:01:21.005   03 Jun 2027 04:01:34.625            13.620              Murmansk1           425.625
       275   03 Jun 2027 04:02:11.744   03 Jun 2027 04:03:05.237            53.493              Murmansk1          1671.656
       276   03 Jun 2027 04:04:52.980   03 Jun 2027 04:05:01.017             8.037                 Moscow           251.156
       277   03 Jun 2027 05:22:38.979   03 Jun 2027 05:23:08.699            29.720               Magadan2           928.750
       278   03 Jun 2027 05:23:12.506   03 Jun 2027 05:24:26.609            74.103               Magadan2          2315.719
       279   03 Jun 2027 05:24:50.570   03 Jun 2027 05:27:00.055           129.485               Magadan2          4046.406
       280   03 Jun 2027 05:27:00.055   03 Jun 2027 05:27:20.234            20.179               Magadan1           630.594
       281   03 Jun 2027 06:58:12.826   03 Jun 2027 06:58:54.907            42.081                Anadyr1          1315.031
       282   03 Jun 2027 06:58:54.907   03 Jun 2027 07:00:35.056           100.149                Anadyr2          3129.656
       283   03 Jun 2027 07:00:43.019   03 Jun 2027 07:01:18.669            35.650                Anadyr1          1114.063
       284   03 Jun 2027 07:01:18.669   03 Jun 2027 07:01:53.880            35.211                Anadyr2          1100.344
       285   03 Jun 2027 07:07:45.553   03 Jun 2027 07:08:17.292            31.739                 Moscow           991.844
       286   03 Jun 2027 07:42:17.813   03 Jun 2027 07:42:48.024            30.211            RioGallegos           944.094
       287   03 Jun 2027 08:32:29.378   03 Jun 2027 08:32:47.793            18.415               Magadan2           575.469
       288   03 Jun 2027 08:32:47.793   03 Jun 2027 08:33:14.233            26.440               Magadan1           826.250
       289   03 Jun 2027 08:33:31.375   03 Jun 2027 08:33:37.037             5.662               Magadan1           176.938
       290   03 Jun 2027 08:33:40.664   03 Jun 2027 08:34:45.475            64.811                Anadyr1          2025.344
       291   03 Jun 2027 08:34:45.475   03 Jun 2027 08:35:53.946            68.471                Anadyr2          2139.719
       292   03 Jun 2027 08:36:06.880   03 Jun 2027 08:36:20.096            13.216                Norilsk           413.000
       293   03 Jun 2027 08:36:29.657   03 Jun 2027 08:36:51.369            21.712                Novosib           678.500
       294   03 Jun 2027 08:37:01.189   03 Jun 2027 08:37:10.783             9.594                Norilsk           299.813
       295   03 Jun 2027 08:37:12.038   03 Jun 2027 08:37:58.295            46.257               Magadan1          1445.531
       296   03 Jun 2027 08:38:09.228   03 Jun 2027 08:38:58.450            49.222                Anadyr2          1538.187
       297   03 Jun 2027 08:39:03.865   03 Jun 2027 08:39:46.102            42.237               Magadan1          1319.906
       298   03 Jun 2027 08:39:57.328   03 Jun 2027 08:40:12.551            15.223              Murmansk2           475.719
       299   03 Jun 2027 08:41:08.141   03 Jun 2027 08:41:37.772            29.631              Murmansk2           925.969
       300   03 Jun 2027 09:14:48.886   03 Jun 2027 09:15:17.981            29.095            RioGallegos           909.219
       301   03 Jun 2027 09:19:25.179   03 Jun 2027 09:19:27.816             2.637            RioGallegos            82.406
       302   03 Jun 2027 09:51:56.004   03 Jun 2027 09:53:30.496            94.492                Sumatra          2952.875
       303   03 Jun 2027 10:09:11.798   03 Jun 2027 10:09:25.704            13.906                Novosib           434.562
       304   03 Jun 2027 10:09:42.938   03 Jun 2027 10:09:58.938            16.000                Norilsk           500.000
       305   03 Jun 2027 10:10:16.724   03 Jun 2027 10:10:42.402            25.678                Irkutsk           802.438
       306   03 Jun 2027 10:11:00.991   03 Jun 2027 10:12:59.269           118.278               Magadan1          3696.188
       307   03 Jun 2027 10:13:10.714   03 Jun 2027 10:13:23.280            12.566              Murmansk2           392.688
       308   03 Jun 2027 10:13:25.482   03 Jun 2027 10:14:26.469            60.987                Novosib          1905.844
       309   03 Jun 2027 10:14:37.178   03 Jun 2027 10:15:08.683            31.505                Irkutsk           984.531
       310   03 Jun 2027 10:15:10.768   03 Jun 2027 10:15:17.958             7.190              Murmansk2           224.687
       311   03 Jun 2027 10:15:21.367   03 Jun 2027 10:15:23.399             2.032                Norilsk            63.500
       312   03 Jun 2027 10:15:28.159   03 Jun 2027 10:15:30.128             1.969                Novosib            61.531
       313   03 Jun 2027 10:15:48.993   03 Jun 2027 10:16:30.232            41.239                Novosib          1288.719
       314   03 Jun 2027 10:50:53.644   03 Jun 2027 10:51:38.992            45.348            RioGallegos          1417.125
       315   03 Jun 2027 10:51:58.902   03 Jun 2027 10:52:28.631            29.729            RioGallegos           929.031
       316   03 Jun 2027 11:25:21.189   03 Jun 2027 11:27:42.194           141.005                Sumatra          4406.406
       317   03 Jun 2027 11:46:13.928   03 Jun 2027 11:46:46.057            32.129                Irkutsk          1004.031
       318   03 Jun 2027 11:47:05.847   03 Jun 2027 11:47:12.467             6.620                Norilsk           206.875
       319   03 Jun 2027 11:47:15.009   03 Jun 2027 11:47:27.097            12.088              Murmansk2           377.750
       320   03 Jun 2027 11:47:35.154   03 Jun 2027 11:48:11.709            36.555              Murmansk1          1142.344
       321   03 Jun 2027 11:48:18.136   03 Jun 2027 11:48:36.331            18.195                 Moscow           568.594
       322   03 Jun 2027 11:48:43.292   03 Jun 2027 11:48:54.958            11.666                Novosib           364.562
       323   03 Jun 2027 11:48:55.788   03 Jun 2027 11:49:45.678            49.890              Murmansk2          1559.063
       324   03 Jun 2027 11:49:56.876   03 Jun 2027 11:51:04.095            67.219                Novosib          2100.594
       325   03 Jun 2027 11:51:10.153   03 Jun 2027 11:51:38.119            27.966                Norilsk           873.937
       326   03 Jun 2027 11:51:53.907   03 Jun 2027 11:52:47.243            53.336              Murmansk1          1666.750
       327   03 Jun 2027 12:33:20.464   03 Jun 2027 12:35:05.506           105.042            RioGallegos          3282.563
       328   03 Jun 2027 13:09:53.710   03 Jun 2027 13:10:16.664            22.954                  Delhi           717.313
       329   03 Jun 2027 13:14:16.012   03 Jun 2027 13:14:42.878            26.866                  Delhi           839.562
       330   03 Jun 2027 13:17:40.576   03 Jun 2027 13:19:45.605           125.029                  Delhi          3907.156
       331   03 Jun 2027 13:21:36.136   03 Jun 2027 13:23:10.172            94.036                Novosib          2938.625
       332   03 Jun 2027 13:23:17.235   03 Jun 2027 13:24:05.654            48.419                Norilsk          1513.094
       333   03 Jun 2027 13:25:35.179   03 Jun 2027 13:26:49.470            74.291                Norilsk          2321.594
       334   03 Jun 2027 14:53:53.131   03 Jun 2027 14:57:52.002           238.871                 Moscow          7464.719
       335   03 Jun 2027 14:58:10.356   03 Jun 2027 14:59:01.177            50.821              Murmansk2          1588.156
       336   03 Jun 2027 15:00:40.797   03 Jun 2027 15:00:46.291             5.494              Murmansk2           171.687
       337   03 Jun 2027 15:01:01.578   03 Jun 2027 15:01:32.461            30.883              Murmansk2           965.094
       338   03 Jun 2027 15:02:23.356   03 Jun 2027 15:03:44.393            81.037                Norilsk          2532.406
       339   03 Jun 2027 15:04:41.768   03 Jun 2027 15:05:42.995            61.227                Norilsk          1913.344
       340   03 Jun 2027 16:07:59.610   03 Jun 2027 16:08:32.829            33.219               CapeTown          1038.094
       341   03 Jun 2027 16:09:01.638   03 Jun 2027 16:09:13.962            12.324               CapeTown           385.125
       342   03 Jun 2027 16:09:36.260   03 Jun 2027 16:10:47.940            71.680               CapeTown          2240.000
       343   03 Jun 2027 16:31:55.996   03 Jun 2027 16:32:30.486            34.490                 Moscow          1077.812
       344   03 Jun 2027 16:33:19.628   03 Jun 2027 16:33:57.303            37.675                 Moscow          1177.344
       345   03 Jun 2027 16:34:48.063   03 Jun 2027 16:35:01.484            13.421              Murmansk2           419.406
       346   03 Jun 2027 16:35:43.139   03 Jun 2027 16:37:02.282            79.143                 Moscow          2473.219
       347   03 Jun 2027 16:48:15.269   03 Jun 2027 16:49:48.647            93.378                Anadyr2          2918.063
       348   03 Jun 2027 16:49:52.819   03 Jun 2027 16:50:13.548            20.729                Anadyr1           647.781
       349   03 Jun 2027 16:52:36.526   03 Jun 2027 16:52:46.387             9.861                Anadyr2           308.156
       350   03 Jun 2027 16:53:24.913   03 Jun 2027 16:53:41.899            16.986                Anadyr1           530.813
       351   03 Jun 2027 16:55:23.408   03 Jun 2027 16:56:21.206            57.798                Anadyr1          1806.187
       352   03 Jun 2027 17:44:30.964   03 Jun 2027 17:45:08.286            37.322               CapeTown          1166.313
       353   03 Jun 2027 17:51:04.858   03 Jun 2027 17:51:14.600             9.742               CapeTown           304.438
       354   03 Jun 2027 17:52:42.740   03 Jun 2027 17:53:16.088            33.348               CapeTown          1042.125
       355   03 Jun 2027 18:14:38.885   03 Jun 2027 18:16:51.850           132.965              Murmansk2          4155.156
       356   03 Jun 2027 18:18:03.283   03 Jun 2027 18:19:35.575            92.292              Murmansk1          2884.125
       357   03 Jun 2027 18:25:20.862   03 Jun 2027 18:25:43.257            22.395                Anadyr2           699.844
       358   03 Jun 2027 18:26:58.604   03 Jun 2027 18:28:37.830            99.226               Magadan1          3100.813
       359   03 Jun 2027 18:34:56.571   03 Jun 2027 18:35:03.648             7.077               Magadan2           221.156
       360   03 Jun 2027 19:59:51.509   03 Jun 2027 20:03:34.746           223.237                Anadyr2          6976.156
       361   03 Jun 2027 20:03:52.678   03 Jun 2027 20:07:47.167           234.489               Magadan2          7327.781
       362   03 Jun 2027 20:55:50.069   03 Jun 2027 20:58:26.950           156.881            RioGallegos          4902.531
       363   03 Jun 2027 21:00:59.151   03 Jun 2027 21:01:20.477            21.326            RioGallegos           666.438
       364   03 Jun 2027 21:35:40.137   03 Jun 2027 21:37:52.558           132.421                Anadyr1          4138.156
       365   03 Jun 2027 21:38:05.399   03 Jun 2027 21:39:38.313            92.914               Magadan2          2903.563
       366   03 Jun 2027 21:40:02.347   03 Jun 2027 21:40:49.983            47.636               Magadan2          1488.625
       367   03 Jun 2027 21:42:39.570   03 Jun 2027 21:43:26.009            46.439                Irkutsk          1451.219
       368   03 Jun 2027 21:45:43.402   03 Jun 2027 21:45:50.563             7.161                Irkutsk           223.781
       369   03 Jun 2027 21:46:54.304   03 Jun 2027 21:47:15.055            20.751                Irkutsk           648.469
       370   03 Jun 2027 21:48:37.523   03 Jun 2027 21:49:09.555            32.032                Irkutsk          1001.000
       371   03 Jun 2027 21:57:28.894   03 Jun 2027 21:57:55.296            26.402                Sumatra           825.062
       372   03 Jun 2027 21:59:01.647   03 Jun 2027 21:59:50.553            48.906                Sumatra          1528.312
       373   03 Jun 2027 22:01:26.661   03 Jun 2027 22:03:00.335            93.674                Sumatra          2927.312
       374   03 Jun 2027 23:10:54.929   03 Jun 2027 23:11:18.021            23.092                Anadyr1           721.625
       375   03 Jun 2027 23:11:43.814   03 Jun 2027 23:12:09.023            25.209                Anadyr2           787.781
       376   03 Jun 2027 23:13:35.420   03 Jun 2027 23:15:27.101           111.681                Norilsk          3490.031
       377   03 Jun 2027 23:15:40.315   03 Jun 2027 23:16:13.344            33.029               Magadan2          1032.156
       378   03 Jun 2027 23:17:29.956   03 Jun 2027 23:18:36.583            66.627                Irkutsk          2082.094
       379   03 Jun 2027 23:20:47.727   03 Jun 2027 23:20:54.425             6.698                Novosib           209.312
       380   03 Jun 2027 23:21:04.363   03 Jun 2027 23:21:39.046            34.683                Novosib          1083.844
       381   03 Jun 2027 23:25:52.243   03 Jun 2027 23:25:54.343             2.100                Irkutsk            65.625
       382   03 Jun 2027 23:26:28.079   03 Jun 2027 23:27:27.661            59.582                Novosib          1861.937
       383   03 Jun 2027 23:27:49.048   03 Jun 2027 23:29:38.857           109.809                  Delhi          3431.531
       384   04 Jun 2027 00:14:25.565   04 Jun 2027 00:15:15.325            49.760            RioGallegos          1555.000
       385   04 Jun 2027 00:45:09.765   04 Jun 2027 00:45:12.663             2.898                Anadyr2            90.563
       386   04 Jun 2027 00:45:29.092   04 Jun 2027 00:46:08.687            39.595                Anadyr2          1237.344
       387   04 Jun 2027 00:47:15.105   04 Jun 2027 00:47:17.632             2.527                Anadyr1            78.969
       388   04 Jun 2027 00:47:17.632   04 Jun 2027 00:47:28.234            10.602                Anadyr2           331.312
       389   04 Jun 2027 00:49:35.940   04 Jun 2027 00:50:12.298            36.358                Norilsk          1136.187
       390   04 Jun 2027 00:50:35.018   04 Jun 2027 00:51:39.780            64.762                Norilsk          2023.812
       391   04 Jun 2027 00:51:41.741   04 Jun 2027 00:52:01.718            19.977               Magadan1           624.281
       392   04 Jun 2027 00:52:27.401   04 Jun 2027 00:54:55.249           147.848              Murmansk2          4620.250
       393   04 Jun 2027 00:57:25.920   04 Jun 2027 00:57:31.921             6.001              Murmansk1           187.531
       394   04 Jun 2027 00:58:08.446   04 Jun 2027 00:58:30.486            22.040                Novosib           688.750
       395   04 Jun 2027 01:00:25.383   04 Jun 2027 01:01:00.684            35.301                Novosib          1103.156
       396   04 Jun 2027 01:03:38.532   04 Jun 2027 01:03:55.265            16.733                  Delhi           522.906
       397   04 Jun 2027 01:06:07.483   04 Jun 2027 01:06:17.172             9.689                Novosib           302.781
       398   04 Jun 2027 01:07:29.517   04 Jun 2027 01:07:41.738            12.221                  Delhi           381.906
       399   04 Jun 2027 01:10:09.483   04 Jun 2027 01:10:33.502            24.019                  Delhi           750.594
       400   04 Jun 2027 01:42:43.434   04 Jun 2027 01:44:02.762            79.328            RioGallegos          2479.000
       401   04 Jun 2027 01:47:21.752   04 Jun 2027 01:47:42.419            20.667            RioGallegos           645.844
       402   04 Jun 2027 02:18:16.873   04 Jun 2027 02:19:06.460            49.587                Anadyr1          1549.594
       403   04 Jun 2027 02:20:15.214   04 Jun 2027 02:20:49.651            34.437                Anadyr2          1076.156
       404   04 Jun 2027 02:24:15.862   04 Jun 2027 02:24:38.452            22.590                Anadyr2           705.937
       405   04 Jun 2027 02:25:04.002   04 Jun 2027 02:25:09.090             5.088               Magadan1           159.000
       406   04 Jun 2027 02:25:31.077   04 Jun 2027 02:26:51.087            80.010                Norilsk          2500.313
       407   04 Jun 2027 02:27:45.621   04 Jun 2027 02:28:44.543            58.922              Murmansk1          1841.312
       408   04 Jun 2027 02:28:56.537   04 Jun 2027 02:29:48.653            52.116              Murmansk1          1628.625
       409   04 Jun 2027 02:31:05.409   04 Jun 2027 02:31:59.089            53.680                Irkutsk          1677.500
       410   04 Jun 2027 02:35:06.134   04 Jun 2027 02:35:18.763            12.629                Irkutsk           394.656
       411   04 Jun 2027 02:38:44.443   04 Jun 2027 02:39:08.333            23.890                  Delhi           746.563
       412   04 Jun 2027 02:41:18.032   04 Jun 2027 02:43:13.731           115.699                  Delhi          3615.594
       413   04 Jun 2027 04:12:11.627   04 Jun 2027 04:12:32.893            21.266                Norilsk           664.562
       414   04 Jun 2027 04:13:17.649   04 Jun 2027 04:13:52.769            35.120              Murmansk2          1097.500
       415   04 Jun 2027 04:13:52.769   04 Jun 2027 04:14:37.766            44.997              Murmansk1          1406.156
       416   04 Jun 2027 04:15:06.452   04 Jun 2027 04:15:52.151            45.699              Murmansk1          1428.094
       417   04 Jun 2027 05:34:52.008   04 Jun 2027 05:37:52.619           180.611               Magadan1          5644.094
       418   04 Jun 2027 05:38:15.836   04 Jun 2027 05:38:22.947             7.111                Anadyr1           222.219
       419   04 Jun 2027 07:10:30.118   04 Jun 2027 07:10:41.548            11.430               Magadan1           357.187
       420   04 Jun 2027 07:10:56.661   04 Jun 2027 07:11:43.137            46.476                Anadyr1          1452.375
       421   04 Jun 2027 07:11:50.847   04 Jun 2027 07:11:55.482             4.635               Magadan2           144.844
       422   04 Jun 2027 07:12:08.089   04 Jun 2027 07:12:17.688             9.599                Norilsk           299.969
       423   04 Jun 2027 07:12:20.552   04 Jun 2027 07:12:46.141            25.589               Magadan2           799.656
       424   04 Jun 2027 07:13:19.953   04 Jun 2027 07:13:47.105            27.152                Anadyr1           848.500
       425   04 Jun 2027 07:13:47.105   04 Jun 2027 07:14:44.301            57.196                Anadyr2          1787.375
       426   04 Jun 2027 07:53:40.049   04 Jun 2027 07:54:58.136            78.087            RioGallegos          2440.219
       427   04 Jun 2027 08:44:29.632   04 Jun 2027 08:45:20.385            50.753               Magadan1          1586.031
       428   04 Jun 2027 08:45:25.575   04 Jun 2027 08:46:33.988            68.413               Magadan2          2137.906
       429   04 Jun 2027 08:46:45.386   04 Jun 2027 08:47:09.033            23.647               Magadan1           738.969
       430   04 Jun 2027 08:47:42.423   04 Jun 2027 08:49:24.839           102.416                Anadyr2          3200.500
       431   04 Jun 2027 08:49:34.311   04 Jun 2027 08:49:41.557             7.246                Norilsk           226.438
       432   04 Jun 2027 08:49:44.155   04 Jun 2027 08:50:07.662            23.507                Irkutsk           734.594
       433   04 Jun 2027 08:50:14.682   04 Jun 2027 08:50:24.622             9.940                Anadyr2           310.625
       434   04 Jun 2027 08:50:32.659   04 Jun 2027 08:51:23.395            50.736              Murmansk1          1585.500
       435   04 Jun 2027 08:51:32.535   04 Jun 2027 08:51:41.253             8.718              Murmansk2           272.437
       436   04 Jun 2027 08:51:41.253   04 Jun 2027 08:51:51.895            10.642              Murmansk1           332.562
       437   04 Jun 2027 08:53:06.523   04 Jun 2027 08:53:20.456            13.933              Murmansk2           435.406
       438   04 Jun 2027 08:57:24.640   04 Jun 2027 08:57:36.025            11.385              Murmansk2           355.781
       439   04 Jun 2027 08:59:04.402   04 Jun 2027 08:59:20.743            16.341              Murmansk2           510.656
       440   04 Jun 2027 09:26:39.921   04 Jun 2027 09:27:29.773            49.852            RioGallegos          1557.875
       441   04 Jun 2027 10:03:06.237   04 Jun 2027 10:03:45.098            38.861                Sumatra          1214.406
       442   04 Jun 2027 10:06:46.273   04 Jun 2027 10:07:36.943            50.670                Sumatra          1583.438
       443   04 Jun 2027 10:21:20.044   04 Jun 2027 10:21:32.789            12.745                Novosib           398.281
       444   04 Jun 2027 10:22:15.581   04 Jun 2027 10:23:09.344            53.763                Norilsk          1680.094
       445   04 Jun 2027 10:23:19.240   04 Jun 2027 10:23:33.101            13.861                Norilsk           433.156
       446   04 Jun 2027 10:23:36.978   04 Jun 2027 10:23:58.614            21.636                Novosib           676.125
       447   04 Jun 2027 10:24:01.873   04 Jun 2027 10:24:29.807            27.934                Irkutsk           872.937
       448   04 Jun 2027 10:24:50.407   04 Jun 2027 10:24:58.669             8.262                Norilsk           258.188
       449   04 Jun 2027 10:25:18.351   04 Jun 2027 10:25:46.613            28.262                Norilsk           883.187
       450   04 Jun 2027 10:25:54.545   04 Jun 2027 10:26:12.274            17.729                Irkutsk           554.031
       451   04 Jun 2027 10:26:13.503   04 Jun 2027 10:27:07.009            53.506              Murmansk1          1672.063
       452   04 Jun 2027 10:27:16.672   04 Jun 2027 10:27:19.454             2.782                Novosib            86.937
       453   04 Jun 2027 10:27:19.625   04 Jun 2027 10:27:57.914            38.289              Murmansk1          1196.531
       454   04 Jun 2027 10:28:17.653   04 Jun 2027 10:28:54.580            36.927                Norilsk          1153.969
       455   04 Jun 2027 11:03:12.995   04 Jun 2027 11:03:15.008             2.013            RioGallegos            62.906
       456   04 Jun 2027 11:04:01.844   04 Jun 2027 11:04:33.168            31.324            RioGallegos           978.875
       457   04 Jun 2027 11:07:47.077   04 Jun 2027 11:08:00.042            12.965            RioGallegos           405.156
       458   04 Jun 2027 11:37:33.094   04 Jun 2027 11:39:31.749           118.655                Sumatra          3707.969
       459   04 Jun 2027 11:58:16.385   04 Jun 2027 11:59:20.122            63.737                Irkutsk          1991.781
       460   04 Jun 2027 11:59:22.599   04 Jun 2027 11:59:36.246            13.647                Novosib           426.469
       461   04 Jun 2027 11:59:36.796   04 Jun 2027 11:59:40.744             3.948              Murmansk1           123.375
       462   04 Jun 2027 11:59:41.004   04 Jun 2027 11:59:56.427            15.423                Irkutsk           481.969
       463   04 Jun 2027 12:00:04.830   04 Jun 2027 12:00:55.747            50.917              Murmansk1          1591.156
       464   04 Jun 2027 12:00:58.226   04 Jun 2027 12:01:12.344            14.118                Norilsk           441.188
       465   04 Jun 2027 12:01:32.059   04 Jun 2027 12:02:02.024            29.965                Novosib           936.406
       466   04 Jun 2027 12:02:02.772   04 Jun 2027 12:03:02.518            59.746                Irkutsk          1867.063
       467   04 Jun 2027 12:03:31.647   04 Jun 2027 12:03:56.666            25.019                Novosib           781.844
       468   04 Jun 2027 12:05:13.510   04 Jun 2027 12:05:15.620             2.110                Novosib            65.938
       469   04 Jun 2027 12:06:18.895   04 Jun 2027 12:06:32.669            13.774              Murmansk1           430.437
       470   04 Jun 2027 12:07:01.536   04 Jun 2027 12:07:31.921            30.385                Norilsk           949.531
       471   04 Jun 2027 12:08:20.533   04 Jun 2027 12:08:27.907             7.374              Murmansk2           230.438
       472   04 Jun 2027 12:09:12.664   04 Jun 2027 12:09:34.206            21.542              Murmansk1           673.187
       473   04 Jun 2027 13:22:16.548   04 Jun 2027 13:22:56.596            40.048                  Delhi          1251.500
       474   04 Jun 2027 13:23:41.489   04 Jun 2027 13:23:47.620             6.131                  Delhi           191.594
       475   04 Jun 2027 13:26:18.160   04 Jun 2027 13:27:29.908            71.748                  Delhi          2242.125
       476   04 Jun 2027 13:29:31.811   04 Jun 2027 13:30:52.657            80.846                  Delhi          2526.437
       477   04 Jun 2027 13:30:54.923   04 Jun 2027 13:31:12.920            17.997                 Moscow           562.406
       478   04 Jun 2027 13:31:53.123   04 Jun 2027 13:33:34.129           101.006                Novosib          3156.437
       479   04 Jun 2027 13:34:29.731   04 Jun 2027 13:35:37.436            67.705                Novosib          2115.781
       480   04 Jun 2027 13:39:29.136   04 Jun 2027 13:40:25.454            56.318                Novosib          1759.937
       481   04 Jun 2027 15:05:58.264   04 Jun 2027 15:09:32.647           214.383                 Moscow          6699.469
       482   04 Jun 2027 15:10:08.871   04 Jun 2027 15:10:41.337            32.466              Murmansk1          1014.562
