uniorb/output/strategy_2/Drop/Drop_KinoSat_112006.txt

KinoSat_112006
-------------------------
    Access    *     Start Time (UTCG)     *     Stop Time (UTCG)  *   Duration (s)        *       Station  *  Data (Mbytes)
         1   01 Jun 2027 04:26:59.742   01 Jun 2027 04:27:15.797            16.055              Murmansk1           501.719
         2   01 Jun 2027 04:27:15.797   01 Jun 2027 04:27:59.436            43.639              Murmansk2          1363.719
         3   01 Jun 2027 04:28:25.631   01 Jun 2027 04:30:12.055           106.424                Irkutsk          3325.750
         4   01 Jun 2027 04:30:22.127   01 Jun 2027 04:30:34.400            12.273                Norilsk           383.531
         5   01 Jun 2027 04:32:26.496   01 Jun 2027 04:32:35.868             9.372                Novosib           292.875
         6   01 Jun 2027 04:33:54.845   01 Jun 2027 04:35:10.012            75.167                Novosib          2348.969
         7   01 Jun 2027 04:39:04.079   01 Jun 2027 04:40:49.094           105.015                  Delhi          3281.719
         8   01 Jun 2027 06:05:11.626   01 Jun 2027 06:06:13.441            61.815                Novosib          1931.719
         9   01 Jun 2027 06:06:25.600   01 Jun 2027 06:06:35.131             9.531              Murmansk2           297.844
        10   01 Jun 2027 06:06:54.829   01 Jun 2027 06:07:22.898            28.069                 Moscow           877.156
        11   01 Jun 2027 06:07:39.704   01 Jun 2027 06:08:09.881            30.177              Murmansk1           943.031
        12   01 Jun 2027 06:08:17.642   01 Jun 2027 06:08:27.868            10.226                 Moscow           319.563
        13   01 Jun 2027 06:08:40.735   01 Jun 2027 06:09:03.068            22.333                 Moscow           697.906
        14   01 Jun 2027 06:09:03.900   01 Jun 2027 06:09:43.925            40.025              Murmansk1          1250.781
        15   01 Jun 2027 06:09:59.453   01 Jun 2027 06:10:26.338            26.885                 Moscow           840.156
        16   01 Jun 2027 06:11:30.213   01 Jun 2027 06:12:05.664            35.451                 Moscow          1107.844
        17   01 Jun 2027 06:13:20.625   01 Jun 2027 06:13:23.417             2.792                 Moscow            87.250
        18   01 Jun 2027 06:24:52.501   01 Jun 2027 06:27:14.718           142.217               CapeTown          4444.281
        19   01 Jun 2027 07:28:44.448   01 Jun 2027 07:28:51.317             6.869               Magadan2           214.656
        20   01 Jun 2027 07:28:51.317   01 Jun 2027 07:29:49.996            58.679               Magadan1          1833.719
        21   01 Jun 2027 07:33:59.792   01 Jun 2027 07:34:13.553            13.761                Anadyr2           430.031
        22   01 Jun 2027 07:40:37.021   01 Jun 2027 07:41:10.379            33.358              Murmansk1          1042.438
        23   01 Jun 2027 07:41:33.132   01 Jun 2027 07:42:06.265            33.133                 Moscow          1035.406
        24   01 Jun 2027 07:42:15.012   01 Jun 2027 07:42:35.058            20.046                 Moscow           626.438
        25   01 Jun 2027 07:43:12.110   01 Jun 2027 07:45:18.032           125.922                 Moscow          3935.062
        26   01 Jun 2027 07:45:31.224   01 Jun 2027 07:47:20.890           109.666                 Moscow          3427.063
        27   01 Jun 2027 08:01:46.814   01 Jun 2027 08:11:52.391           605.577               CapeTown         18924.281
        28   01 Jun 2027 09:02:10.837   01 Jun 2027 09:02:40.535            29.698                Anadyr2           928.062
        29   01 Jun 2027 09:04:23.789   01 Jun 2027 09:10:07.132           343.343                Anadyr2         10729.469
        30   01 Jun 2027 10:37:26.674   01 Jun 2027 10:45:25.723           479.049                Anadyr1         14970.281
        31   01 Jun 2027 12:12:55.351   01 Jun 2027 12:20:03.464           428.113               Magadan2         13378.531
        32   01 Jun 2027 14:36:08.549   01 Jun 2027 14:43:18.923           430.374            RioGallegos         13449.187
        33   01 Jun 2027 15:10:45.271   01 Jun 2027 15:15:07.499           262.228                Sumatra          8194.625
        34   01 Jun 2027 15:26:40.130   01 Jun 2027 15:30:13.610           213.480                Irkutsk          6671.250
        35   01 Jun 2027 17:06:12.463   01 Jun 2027 17:06:24.608            12.145                Novosib           379.531
        36   01 Jun 2027 20:19:01.810   01 Jun 2027 20:20:34.918            93.108              Murmansk1          2909.625
        37   01 Jun 2027 20:22:00.042   01 Jun 2027 20:24:37.734           157.692              Murmansk1          4927.875
        38   01 Jun 2027 20:25:24.453   01 Jun 2027 20:27:49.430           144.977              Murmansk2          4530.531
        39   01 Jun 2027 21:27:54.974   01 Jun 2027 21:32:34.406           279.432               CapeTown          8732.250
        40   02 Jun 2027 03:01:45.651   02 Jun 2027 03:02:32.596            46.945               Magadan1          1467.031
        41   02 Jun 2027 03:03:29.098   02 Jun 2027 03:04:03.427            34.329                Novosib          1072.781
        42   02 Jun 2027 03:04:17.108   02 Jun 2027 03:04:21.539             4.431                Norilsk           138.469
        43   02 Jun 2027 03:04:49.105   02 Jun 2027 03:05:04.146            15.041                Novosib           470.031
        44   02 Jun 2027 03:05:16.095   02 Jun 2027 03:07:31.902           135.807                Irkutsk          4243.969
        45   02 Jun 2027 03:07:45.149   02 Jun 2027 03:08:58.727            73.578                  Delhi          2299.312
        46   02 Jun 2027 03:10:35.836   02 Jun 2027 03:10:42.576             6.740                Irkutsk           210.625
        47   02 Jun 2027 03:48:01.203   02 Jun 2027 03:52:37.200           275.997            RioGallegos          8624.906
        48   02 Jun 2027 04:36:12.959   02 Jun 2027 04:36:40.673            27.714                Irkutsk           866.063
        49   02 Jun 2027 04:39:00.543   02 Jun 2027 04:39:17.829            17.286              Murmansk1           540.187
        50   02 Jun 2027 04:39:50.613   02 Jun 2027 04:42:09.881           139.268              Murmansk1          4352.125
        51   02 Jun 2027 04:42:09.881   02 Jun 2027 04:43:08.684            58.803              Murmansk2          1837.594
        52   02 Jun 2027 04:43:19.947   02 Jun 2027 04:48:53.080           333.133                  Delhi         10410.406
        53   02 Jun 2027 04:52:58.794   02 Jun 2027 04:53:16.415            17.621                  Delhi           550.656
        54   02 Jun 2027 06:17:10.165   02 Jun 2027 06:17:27.118            16.953                Novosib           529.781
        55   02 Jun 2027 06:17:27.738   02 Jun 2027 06:19:03.531            95.793              Murmansk1          2993.531
        56   02 Jun 2027 06:19:06.990   02 Jun 2027 06:19:31.489            24.499              Murmansk1           765.594
        57   02 Jun 2027 06:20:30.718   02 Jun 2027 06:23:35.366           184.648                 Moscow          5770.250
        58   02 Jun 2027 06:24:23.651   02 Jun 2027 06:24:56.533            32.882                 Moscow          1027.563
        59   02 Jun 2027 06:36:42.876   02 Jun 2027 06:40:32.396           229.520               CapeTown          7172.500
        60   02 Jun 2027 07:39:59.324   02 Jun 2027 07:40:23.590            24.266               Magadan2           758.313
        61   02 Jun 2027 07:40:23.590   02 Jun 2027 07:40:57.853            34.263               Magadan1          1070.719
        62   02 Jun 2027 07:41:21.266   02 Jun 2027 07:43:40.944           139.678               Magadan1          4364.937
        63   02 Jun 2027 08:14:27.747   02 Jun 2027 08:21:56.304           448.557               CapeTown         14017.406
        64   02 Jun 2027 09:14:04.971   02 Jun 2027 09:15:05.368            60.397                Anadyr2          1887.406
        65   02 Jun 2027 09:17:21.407   02 Jun 2027 09:22:07.325           285.918                Anadyr2          8934.938
        66   02 Jun 2027 10:48:32.527   02 Jun 2027 10:49:19.177            46.650                Irkutsk          1457.813
        67   02 Jun 2027 10:50:14.528   02 Jun 2027 10:57:14.020           419.492                Anadyr1         13109.125
        68   02 Jun 2027 12:25:53.386   02 Jun 2027 12:32:08.252           374.866               Magadan2         11714.563
        69   02 Jun 2027 13:57:24.639   02 Jun 2027 13:59:42.030           137.391                Irkutsk          4293.469
        70   02 Jun 2027 14:48:48.613   02 Jun 2027 14:54:41.511           352.898            RioGallegos         11028.062
        71   02 Jun 2027 15:39:19.822   02 Jun 2027 15:39:44.072            24.250                Norilsk           757.812
        72   02 Jun 2027 15:39:48.715   02 Jun 2027 15:40:30.125            41.410                Novosib          1294.062
        73   02 Jun 2027 15:44:15.582   02 Jun 2027 15:44:32.684            17.102                Norilsk           534.438
        74   02 Jun 2027 15:44:50.617   02 Jun 2027 15:45:29.114            38.497                Norilsk          1203.031
        75   02 Jun 2027 17:11:41.668   02 Jun 2027 17:13:06.624            84.956                 Moscow          2654.875
        76   02 Jun 2027 17:15:08.835   02 Jun 2027 17:16:14.387            65.552              Murmansk2          2048.500
        77   02 Jun 2027 17:19:16.922   02 Jun 2027 17:23:50.711           273.789                Norilsk          8555.906
        78   02 Jun 2027 17:24:41.392   02 Jun 2027 17:25:21.313            39.921                Norilsk          1247.531
        79   02 Jun 2027 18:49:09.558   02 Jun 2027 18:50:17.608            68.050                 Moscow          2126.562
        80   02 Jun 2027 18:52:15.869   02 Jun 2027 18:53:13.227            57.358              Murmansk2          1792.438
        81   02 Jun 2027 18:54:00.021   02 Jun 2027 18:54:33.812            33.791                 Moscow          1055.969
        82   02 Jun 2027 18:55:54.880   02 Jun 2027 18:56:21.613            26.733              Murmansk1           835.406
        83   02 Jun 2027 18:56:59.320   02 Jun 2027 18:58:23.916            84.596              Murmansk2          2643.625
        84   02 Jun 2027 20:01:13.335   02 Jun 2027 20:02:33.766            80.431               CapeTown          2513.469
        85   02 Jun 2027 20:04:09.951   02 Jun 2027 20:05:33.752            83.801               CapeTown          2618.781
        86   02 Jun 2027 20:09:47.711   02 Jun 2027 20:10:17.674            29.963               CapeTown           936.344
        87   02 Jun 2027 20:31:39.613   02 Jun 2027 20:39:46.756           487.143              Murmansk1         15223.219
        88   02 Jun 2027 22:17:40.730   02 Jun 2027 22:18:57.855            77.125                Anadyr1          2410.156
        89   02 Jun 2027 22:19:13.088   02 Jun 2027 22:19:26.904            13.816                Anadyr1           431.750
        90   02 Jun 2027 22:20:00.393   02 Jun 2027 22:21:26.612            86.219               Magadan2          2694.344
        91   02 Jun 2027 22:21:26.612   02 Jun 2027 22:21:50.606            23.994               Magadan1           749.813
        92   02 Jun 2027 22:22:32.878   02 Jun 2027 22:23:14.314            41.436               Magadan1          1294.875
        93   02 Jun 2027 22:23:23.055   02 Jun 2027 22:23:29.009             5.954               Magadan2           186.062
        94   02 Jun 2027 22:29:25.131   02 Jun 2027 22:29:34.025             8.894               Magadan1           277.938
        95   02 Jun 2027 23:14:53.662   02 Jun 2027 23:16:44.437           110.775            RioGallegos          3461.719
        96   02 Jun 2027 23:53:32.428   02 Jun 2027 23:55:06.776            94.348                Anadyr2          2948.375
        97   02 Jun 2027 23:55:10.499   02 Jun 2027 23:57:01.217           110.718                Anadyr1          3459.938
        98   02 Jun 2027 23:57:09.376   02 Jun 2027 23:57:26.984            17.608                Norilsk           550.250
        99   02 Jun 2027 23:57:43.384   02 Jun 2027 23:59:17.360            93.976               Magadan1          2936.750
       100   03 Jun 2027 00:00:50.162   03 Jun 2027 00:01:10.331            20.169               Magadan2           630.281
       101   03 Jun 2027 00:01:10.331   03 Jun 2027 00:01:19.036             8.705               Magadan1           272.031
       102   03 Jun 2027 00:02:00.910   03 Jun 2027 00:02:33.864            32.954                Irkutsk          1029.813
       103   03 Jun 2027 00:03:17.611   03 Jun 2027 00:03:52.417            34.806               Magadan2          1087.688
       104   03 Jun 2027 00:05:08.370   03 Jun 2027 00:06:12.418            64.048                Irkutsk          2001.500
       105   03 Jun 2027 00:16:31.068   03 Jun 2027 00:18:15.024           103.956                Sumatra          3248.625
       106   03 Jun 2027 00:21:12.042   03 Jun 2027 00:21:55.357            43.315                Sumatra          1353.594
       107   03 Jun 2027 00:47:34.726   03 Jun 2027 00:48:15.602            40.876            RioGallegos          1277.375
       108   03 Jun 2027 00:49:56.141   03 Jun 2027 00:50:11.855            15.714            RioGallegos           491.062
       109   03 Jun 2027 00:56:09.120   03 Jun 2027 00:57:06.172            57.052            RioGallegos          1782.875
       110   03 Jun 2027 01:28:55.165   03 Jun 2027 01:28:58.807             3.642                Anadyr1           113.813
       111   03 Jun 2027 01:29:11.702   03 Jun 2027 01:29:17.407             5.705                Anadyr2           178.281
       112   03 Jun 2027 01:30:25.762   03 Jun 2027 01:31:40.920            75.158                Anadyr2          2348.687
       113   03 Jun 2027 01:32:00.963   03 Jun 2027 01:34:06.599           125.636               Magadan2          3926.125
       114   03 Jun 2027 01:35:21.289   03 Jun 2027 01:38:21.190           179.901                Irkutsk          5621.906
       115   03 Jun 2027 01:49:07.565   03 Jun 2027 01:50:41.165            93.600                Sumatra          2925.000
       116   03 Jun 2027 01:52:14.296   03 Jun 2027 01:53:32.720            78.424                Sumatra          2450.750
       117   03 Jun 2027 01:58:10.378   03 Jun 2027 01:58:47.828            37.450                Sumatra          1170.312
       118   03 Jun 2027 02:29:10.723   03 Jun 2027 02:29:38.108            27.385            RioGallegos           855.781
       119   03 Jun 2027 02:32:33.141   03 Jun 2027 02:33:00.435            27.294            RioGallegos           852.937
       120   03 Jun 2027 02:35:05.286   03 Jun 2027 02:35:16.116            10.830            RioGallegos           338.437
       121   03 Jun 2027 03:12:34.736   03 Jun 2027 03:12:41.863             7.127               Magadan2           222.719
       122   03 Jun 2027 03:12:46.360   03 Jun 2027 03:13:32.892            46.532               Magadan2          1454.125
       123   03 Jun 2027 03:13:34.552   03 Jun 2027 03:14:00.086            25.534               Magadan2           797.937
       124   03 Jun 2027 03:14:13.550   03 Jun 2027 03:14:35.709            22.159                Norilsk           692.469
       125   03 Jun 2027 03:14:41.391   03 Jun 2027 03:15:05.536            24.145                Norilsk           754.531
       126   03 Jun 2027 03:15:42.189   03 Jun 2027 03:15:46.616             4.427                Irkutsk           138.344
       127   03 Jun 2027 03:16:48.192   03 Jun 2027 03:17:08.955            20.763                Novosib           648.844
       128   03 Jun 2027 03:18:08.049   03 Jun 2027 03:18:17.299             9.250                Novosib           289.063
       129   03 Jun 2027 03:18:36.213   03 Jun 2027 03:31:19.452           763.239                  Delhi         23851.219
       130   03 Jun 2027 04:00:15.934   03 Jun 2027 04:05:06.029           290.095            RioGallegos          9065.469
       131   03 Jun 2027 04:07:51.192   03 Jun 2027 04:08:09.910            18.718            RioGallegos           584.938
       132   03 Jun 2027 04:36:29.722   03 Jun 2027 04:37:12.838            43.116                Anadyr1          1347.375
       133   03 Jun 2027 04:38:50.302   03 Jun 2027 04:39:12.594            22.292                Anadyr1           696.625
       134   03 Jun 2027 04:40:52.918   03 Jun 2027 04:42:15.845            82.927                Anadyr1          2591.469
       135   03 Jun 2027 04:47:16.681   03 Jun 2027 04:48:19.432            62.751                Novosib          1960.969
       136   03 Jun 2027 04:48:31.443   03 Jun 2027 04:51:25.402           173.959                Irkutsk          5436.219
       137   03 Jun 2027 04:52:49.253   03 Jun 2027 04:54:55.932           126.679                Novosib          3958.719
       138   03 Jun 2027 04:55:40.899   03 Jun 2027 04:56:17.724            36.825                Novosib          1150.781
       139   03 Jun 2027 04:56:48.462   03 Jun 2027 05:02:52.867           364.405                  Delhi         11387.656
       140   03 Jun 2027 05:04:19.236   03 Jun 2027 05:04:29.335            10.099                  Delhi           315.594
       141   03 Jun 2027 05:04:30.674   03 Jun 2027 05:04:34.295             3.621                  Delhi           113.156
       142   03 Jun 2027 06:28:34.070   03 Jun 2027 06:28:48.356            14.286              Murmansk2           446.437
       143   03 Jun 2027 06:29:13.361   03 Jun 2027 06:29:18.191             4.830                Norilsk           150.937
       144   03 Jun 2027 06:29:18.948   03 Jun 2027 06:29:44.574            25.626              Murmansk1           800.813
       145   03 Jun 2027 06:29:58.981   03 Jun 2027 06:30:32.408            33.427              Murmansk2          1044.594
       146   03 Jun 2027 06:30:34.525   03 Jun 2027 06:30:58.227            23.702                Novosib           740.687
       147   03 Jun 2027 06:31:00.085   03 Jun 2027 06:31:22.343            22.258              Murmansk1           695.563
       148   03 Jun 2027 06:31:22.343   03 Jun 2027 06:32:28.640            66.297              Murmansk2          2071.781
       149   03 Jun 2027 06:32:30.746   03 Jun 2027 06:32:59.600            28.854                 Moscow           901.688
       150   03 Jun 2027 06:33:16.522   03 Jun 2027 06:33:23.238             6.716                 Moscow           209.875
       151   03 Jun 2027 06:48:38.351   03 Jun 2027 06:49:41.732            63.381               CapeTown          1980.656
       152   03 Jun 2027 06:51:50.314   03 Jun 2027 06:52:20.791            30.477               CapeTown           952.406
       153   03 Jun 2027 07:51:54.953   03 Jun 2027 07:52:37.137            42.184                Anadyr2          1318.250
       154   03 Jun 2027 07:52:37.137   03 Jun 2027 07:52:37.953             0.816                Anadyr1            25.500
       155   03 Jun 2027 07:52:49.290   03 Jun 2027 07:53:41.462            52.172                Anadyr1          1630.375
       156   03 Jun 2027 08:01:29.096   03 Jun 2027 08:01:57.106            28.010                 Moscow           875.312
       157   03 Jun 2027 08:02:00.398   03 Jun 2027 08:02:03.003             2.605                 Moscow            81.406
       158   03 Jun 2027 08:02:16.380   03 Jun 2027 08:02:34.159            17.779                 Moscow           555.594
       159   03 Jun 2027 08:27:23.151   03 Jun 2027 08:35:07.590           464.439               CapeTown         14513.719
       160   03 Jun 2027 09:28:00.366   03 Jun 2027 09:28:05.128             4.762               Magadan1           148.813
       161   03 Jun 2027 09:28:06.927   03 Jun 2027 09:29:01.068            54.141                Anadyr1          1691.906
       162   03 Jun 2027 09:29:03.446   03 Jun 2027 09:29:50.222            46.776               Magadan1          1461.750
       163   03 Jun 2027 09:30:05.174   03 Jun 2027 09:30:37.203            32.029                Norilsk          1000.906
       164   03 Jun 2027 09:31:36.134   03 Jun 2027 09:31:59.029            22.895                Norilsk           715.469
       165   03 Jun 2027 09:31:59.153   03 Jun 2027 09:32:29.080            29.927                Anadyr1           935.219
       166   03 Jun 2027 09:33:19.869   03 Jun 2027 09:33:23.766             3.897               Magadan1           121.781
       167   03 Jun 2027 09:33:39.565   03 Jun 2027 09:34:06.992            27.427                Anadyr1           857.094
       168   03 Jun 2027 09:41:22.073   03 Jun 2027 09:42:16.752            54.679                 Moscow          1708.719
       169   03 Jun 2027 10:57:53.473   03 Jun 2027 10:59:52.012           118.539               Magadan2          3704.344
       170   03 Jun 2027 11:01:03.020   03 Jun 2027 11:02:49.834           106.814               Magadan2          3337.937
       171   03 Jun 2027 11:03:10.648   03 Jun 2027 11:08:56.579           345.931                Anadyr2         10810.344
       172   03 Jun 2027 11:09:41.383   03 Jun 2027 11:09:58.583            17.200              Murmansk1           537.500
       173   03 Jun 2027 11:10:12.882   03 Jun 2027 11:10:21.446             8.564              Murmansk1           267.625
       174   03 Jun 2027 11:11:05.997   03 Jun 2027 11:11:21.360            15.363              Murmansk1           480.094
       175   03 Jun 2027 11:44:41.610   03 Jun 2027 11:45:34.618            53.008            RioGallegos          1656.500
       176   03 Jun 2027 11:50:14.776   03 Jun 2027 11:50:41.273            26.497            RioGallegos           828.031
       177   03 Jun 2027 12:21:55.443   03 Jun 2027 12:23:49.129           113.686                Sumatra          3552.688
       178   03 Jun 2027 12:32:48.206   03 Jun 2027 12:34:09.791            81.585                Irkutsk          2549.531
       179   03 Jun 2027 12:35:05.483   03 Jun 2027 12:35:08.690             3.207                Irkutsk           100.219
       180   03 Jun 2027 12:38:14.039   03 Jun 2027 12:38:33.900            19.861                Norilsk           620.656
       181   03 Jun 2027 12:38:52.636   03 Jun 2027 12:39:09.906            17.270                Norilsk           539.688
       182   03 Jun 2027 12:39:22.092   03 Jun 2027 12:43:30.180           248.088               Magadan2          7752.750
       183   03 Jun 2027 13:23:51.405   03 Jun 2027 13:24:08.522            17.117            RioGallegos           534.906
       184   03 Jun 2027 13:24:30.449   03 Jun 2027 13:25:30.813            60.364            RioGallegos          1886.375
       185   03 Jun 2027 13:58:12.128   03 Jun 2027 13:59:44.972            92.844                Sumatra          2901.375
       186   03 Jun 2027 14:03:46.058   03 Jun 2027 14:04:53.629            67.571                Sumatra          2111.594
       187   03 Jun 2027 14:09:48.039   03 Jun 2027 14:10:42.108            54.069                Irkutsk          1689.656
       188   03 Jun 2027 14:15:03.843   03 Jun 2027 14:15:04.382             0.539                Irkutsk            16.844
       189   03 Jun 2027 14:17:59.909   03 Jun 2027 14:19:44.321           104.412                Irkutsk          3262.875
       190   03 Jun 2027 15:02:35.266   03 Jun 2027 15:05:28.493           173.227            RioGallegos          5413.344
       191   03 Jun 2027 15:39:41.853   03 Jun 2027 15:40:31.979            50.126                  Delhi          1566.437
       192   03 Jun 2027 15:47:45.334   03 Jun 2027 15:52:26.555           281.221                Novosib          8788.156
       193   03 Jun 2027 17:25:45.472   03 Jun 2027 17:27:02.042            76.570                 Moscow          2392.812
       194   03 Jun 2027 17:28:44.755   03 Jun 2027 17:29:22.681            37.926              Murmansk2          1185.188
       195   03 Jun 2027 17:32:03.796   03 Jun 2027 17:37:03.065           299.269                Norilsk          9352.156
       196   03 Jun 2027 19:01:41.105   03 Jun 2027 19:03:35.196           114.091                 Moscow          3565.344
       197   03 Jun 2027 19:04:35.341   03 Jun 2027 19:05:44.219            68.878              Murmansk2          2152.437
       198   03 Jun 2027 19:08:20.008   03 Jun 2027 19:08:57.020            37.012              Murmansk2          1156.625
       199   03 Jun 2027 19:10:25.003   03 Jun 2027 19:11:52.261            87.258              Murmansk1          2726.813
       200   03 Jun 2027 20:13:51.796   03 Jun 2027 20:15:58.203           126.407               CapeTown          3950.219
       201   03 Jun 2027 20:44:21.180   03 Jun 2027 20:51:42.431           441.251              Murmansk2         13789.094
       202   03 Jun 2027 22:29:42.580   03 Jun 2027 22:32:55.538           192.958                Anadyr1          6029.938
       203   03 Jun 2027 22:33:18.882   03 Jun 2027 22:33:47.778            28.896               Magadan1           903.000
       204   03 Jun 2027 22:33:58.781   03 Jun 2027 22:34:58.172            59.391               Magadan1          1855.969
       205   03 Jun 2027 22:35:47.135   03 Jun 2027 22:35:56.202             9.067               Magadan2           283.344
       206   03 Jun 2027 22:36:30.493   03 Jun 2027 22:37:07.641            37.148               Magadan2          1160.875
       207   03 Jun 2027 23:25:44.389   03 Jun 2027 23:28:24.357           159.968            RioGallegos          4999.000
       208   03 Jun 2027 23:30:40.758   03 Jun 2027 23:30:56.832            16.074            RioGallegos           502.313
       209   04 Jun 2027 00:05:32.262   04 Jun 2027 00:07:21.871           109.609                Anadyr1          3425.281
       210   04 Jun 2027 00:07:37.283   04 Jun 2027 00:09:28.626           111.343                Norilsk          3479.469
       211   04 Jun 2027 00:09:49.861   04 Jun 2027 00:10:53.785            63.924               Magadan1          1997.625
       212   04 Jun 2027 00:12:31.431   04 Jun 2027 00:13:27.434            56.003                Irkutsk          1750.094
       213   04 Jun 2027 00:14:34.949   04 Jun 2027 00:15:02.734            27.785                Irkutsk           868.281
       214   04 Jun 2027 00:16:58.219   04 Jun 2027 00:17:08.671            10.452                Irkutsk           326.625
       215   04 Jun 2027 00:17:50.079   04 Jun 2027 00:18:06.160            16.081                Irkutsk           502.531
       216   04 Jun 2027 00:27:26.738   04 Jun 2027 00:29:21.315           114.577                Sumatra          3580.531
       217   04 Jun 2027 00:30:20.435   04 Jun 2027 00:31:18.669            58.234                Sumatra          1819.813
       218   04 Jun 2027 00:59:31.394   04 Jun 2027 01:00:37.504            66.110            RioGallegos          2065.938
       219   04 Jun 2027 01:07:36.332   04 Jun 2027 01:07:42.370             6.038            RioGallegos           188.687
       220   04 Jun 2027 01:09:03.997   04 Jun 2027 01:09:18.314            14.317            RioGallegos           447.406
       221   04 Jun 2027 01:11:04.351   04 Jun 2027 01:11:41.999            37.648            RioGallegos          1176.500
       222   04 Jun 2027 01:40:48.711   04 Jun 2027 01:40:58.433             9.722                Anadyr1           303.813
       223   04 Jun 2027 01:42:19.611   04 Jun 2027 01:42:58.724            39.113                Anadyr2          1222.281
       224   04 Jun 2027 01:43:25.172   04 Jun 2027 01:45:07.154           101.982                Norilsk          3186.938
       225   04 Jun 2027 01:45:33.904   04 Jun 2027 01:45:58.973            25.069               Magadan1           783.406
       226   04 Jun 2027 01:47:20.720   04 Jun 2027 01:50:18.967           178.247                Irkutsk          5570.219
       227   04 Jun 2027 01:54:59.004   04 Jun 2027 01:55:09.658            10.654                Irkutsk           332.937
       228   04 Jun 2027 01:57:43.646   04 Jun 2027 01:57:55.869            12.223                Novosib           381.969
       229   04 Jun 2027 01:59:07.189   04 Jun 2027 01:59:42.100            34.911                  Delhi          1090.969
       230   04 Jun 2027 02:01:15.854   04 Jun 2027 02:01:25.590             9.736                Sumatra           304.250
       231   04 Jun 2027 02:04:08.495   04 Jun 2027 02:05:59.572           111.077                Sumatra          3471.156
       232   04 Jun 2027 02:07:14.902   04 Jun 2027 02:09:16.693           121.791                Sumatra          3805.969
       233   04 Jun 2027 03:24:18.023   04 Jun 2027 03:24:26.406             8.383               Magadan2           261.969
       234   04 Jun 2027 03:24:36.803   04 Jun 2027 03:25:27.380            50.577               Magadan1          1580.531
       235   04 Jun 2027 03:27:23.071   04 Jun 2027 03:27:27.822             4.751                Irkutsk           148.469
       236   04 Jun 2027 03:27:49.221   04 Jun 2027 03:27:54.656             5.435              Murmansk2           169.844
       237   04 Jun 2027 03:28:14.679   04 Jun 2027 03:29:32.414            77.735                Novosib          2429.219
       238   04 Jun 2027 03:30:33.737   04 Jun 2027 03:30:37.126             3.389                Norilsk           105.906
       239   04 Jun 2027 03:31:01.507   04 Jun 2027 03:32:21.096            79.589                Norilsk          2487.156
       240   04 Jun 2027 03:32:30.542   04 Jun 2027 03:33:09.231            38.689                Irkutsk          1209.031
       241   04 Jun 2027 03:33:09.524   04 Jun 2027 03:33:44.857            35.333                Novosib          1104.156
       242   04 Jun 2027 03:33:46.177   04 Jun 2027 03:40:33.662           407.485                  Delhi         12733.906
       243   04 Jun 2027 04:12:34.131   04 Jun 2027 04:19:24.995           410.864            RioGallegos         12839.500
       244   04 Jun 2027 04:48:11.502   04 Jun 2027 04:48:33.790            22.288                Anadyr2           696.500
       245   04 Jun 2027 04:48:33.790   04 Jun 2027 04:48:45.251            11.461                Anadyr1           358.156
       246   04 Jun 2027 04:49:03.884   04 Jun 2027 04:49:10.941             7.057                Anadyr1           220.531
       247   04 Jun 2027 04:50:27.289   04 Jun 2027 04:52:12.451           105.162                Anadyr1          3286.313
       248   04 Jun 2027 04:52:55.684   04 Jun 2027 04:54:08.762            73.078                Anadyr1          2283.688
       249   04 Jun 2027 05:00:06.099   04 Jun 2027 05:00:24.994            18.895                Novosib           590.469
       250   04 Jun 2027 05:03:21.980   04 Jun 2027 05:03:24.094             2.114              Murmansk2            66.062
       251   04 Jun 2027 05:03:39.461   04 Jun 2027 05:04:01.323            21.862                Irkutsk           683.187
       252   04 Jun 2027 05:04:09.386   04 Jun 2027 05:04:12.957             3.571                 Moscow           111.594
       253   04 Jun 2027 05:04:27.087   04 Jun 2027 05:05:17.903            50.816                Novosib          1588.000
       254   04 Jun 2027 05:05:21.693   04 Jun 2027 05:05:58.444            36.751              Murmansk1          1148.469
       255   04 Jun 2027 05:06:05.743   04 Jun 2027 05:06:46.020            40.277              Murmansk2          1258.656
       256   04 Jun 2027 05:06:55.922   04 Jun 2027 05:07:08.429            12.507                 Moscow           390.844
       257   04 Jun 2027 05:07:20.493   04 Jun 2027 05:08:25.201            64.708                 Moscow          2022.125
       258   04 Jun 2027 05:08:30.103   04 Jun 2027 05:15:34.947           424.844                  Delhi         13276.375
       259   04 Jun 2027 06:40:19.175   04 Jun 2027 06:40:23.823             4.648                Norilsk           145.250
       260   04 Jun 2027 06:40:42.201   04 Jun 2027 06:42:32.488           110.287                 Moscow          3446.469
       261   04 Jun 2027 06:42:49.457   04 Jun 2027 06:43:53.946            64.489                 Moscow          2015.281
       262   04 Jun 2027 06:44:10.552   04 Jun 2027 06:44:26.971            16.419                 Moscow           513.094
       263   04 Jun 2027 06:44:37.946   04 Jun 2027 06:45:40.954            63.008                 Moscow          1969.000
       264   04 Jun 2027 06:46:21.133   04 Jun 2027 06:46:45.888            24.755                 Moscow           773.594
       265   04 Jun 2027 06:47:47.850   04 Jun 2027 06:48:33.137            45.287                 Moscow          1415.219
       266   04 Jun 2027 07:00:38.871   04 Jun 2027 07:01:29.539            50.668               CapeTown          1583.375
       267   04 Jun 2027 08:03:48.286   04 Jun 2027 08:04:38.617            50.331                Anadyr1          1572.844
       268   04 Jun 2027 08:05:04.620   04 Jun 2027 08:05:11.604             6.984               Magadan1           218.250
       269   04 Jun 2027 08:05:15.572   04 Jun 2027 08:05:56.761            41.189                Anadyr1          1287.156
       270   04 Jun 2027 08:07:01.105   04 Jun 2027 08:07:04.084             2.979                Anadyr2            93.094
       271   04 Jun 2027 08:08:28.164   04 Jun 2027 08:09:51.418            83.254                Anadyr2          2601.687
       272   04 Jun 2027 08:40:45.357   04 Jun 2027 08:46:03.340           317.983               CapeTown          9936.969
       273   04 Jun 2027 09:40:04.963   04 Jun 2027 09:41:51.197           106.234                Anadyr1          3319.812
       274   04 Jun 2027 09:41:51.197   04 Jun 2027 09:43:52.521           121.324                Anadyr2          3791.375
       275   04 Jun 2027 11:10:15.930   04 Jun 2027 11:10:44.227            28.297               Magadan1           884.281
       276   04 Jun 2027 11:14:04.997   04 Jun 2027 11:14:34.325            29.328                Irkutsk           916.500
       277   04 Jun 2027 11:14:54.395   04 Jun 2027 11:15:06.236            11.841                Norilsk           370.031
       278   04 Jun 2027 11:15:21.265   04 Jun 2027 11:15:28.784             7.519                Norilsk           234.969
       279   04 Jun 2027 11:15:30.315   04 Jun 2027 11:21:35.136           364.821               Magadan1         11400.656
       280   04 Jun 2027 12:44:45.935   04 Jun 2027 12:46:08.477            82.542                Irkutsk          2579.437
       281   04 Jun 2027 12:49:41.417   04 Jun 2027 12:50:11.050            29.633                Norilsk           926.031
       282   04 Jun 2027 13:33:00.726   04 Jun 2027 13:33:26.404            25.678            RioGallegos           802.438
       283   04 Jun 2027 13:35:14.889   04 Jun 2027 13:38:03.003           168.114            RioGallegos          5253.563
       284   04 Jun 2027 14:07:22.323   04 Jun 2027 14:07:59.486            37.163                Sumatra          1161.344
       285   04 Jun 2027 14:10:03.352   04 Jun 2027 14:12:16.931           133.579                Sumatra          4174.344
       286   04 Jun 2027 14:22:16.533   04 Jun 2027 14:23:53.484            96.951                Irkutsk          3029.719
       287   04 Jun 2027 14:26:48.140   04 Jun 2027 14:27:51.081            62.941                Irkutsk          1966.906
       288   04 Jun 2027 14:31:20.934   04 Jun 2027 14:32:56.486            95.552                Irkutsk          2986.000
       289   04 Jun 2027 15:52:03.909   04 Jun 2027 15:54:13.337           129.428                  Delhi          4044.625
       290   04 Jun 2027 16:00:18.063   04 Jun 2027 16:02:26.046           127.983                Novosib          3999.469
       291   04 Jun 2027 16:04:09.031   04 Jun 2027 16:04:59.027            49.996                Norilsk          1562.375
       292   04 Jun 2027 16:05:47.177   04 Jun 2027 16:06:36.897            49.720                Novosib          1553.750
       293   04 Jun 2027 16:13:37.113   04 Jun 2027 16:14:34.337            57.224                Norilsk          1788.250
       294   04 Jun 2027 17:37:02.114   04 Jun 2027 17:39:03.176           121.062                 Moscow          3783.188
       295   04 Jun 2027 17:40:46.845   04 Jun 2027 17:41:04.740            17.895              Murmansk2           559.219
       296   04 Jun 2027 17:42:27.434   04 Jun 2027 17:42:33.856             6.422              Murmansk2           200.687
       297   04 Jun 2027 17:44:56.490   04 Jun 2027 17:49:55.172           298.682                Norilsk          9333.812
       298   04 Jun 2027 19:14:18.584   04 Jun 2027 19:20:26.660           368.076                 Moscow         11502.375
       299   04 Jun 2027 20:27:10.782   04 Jun 2027 20:29:41.568           150.786               CapeTown          4712.063
       300   04 Jun 2027 20:57:07.268   04 Jun 2027 21:03:35.685           388.417              Murmansk2         12138.031
       301   04 Jun 2027 22:41:44.328   04 Jun 2027 22:43:37.379           113.051                Anadyr1          3532.844
       302   04 Jun 2027 22:44:00.707   04 Jun 2027 22:45:50.450           109.743               Magadan2          3429.469
       303   04 Jun 2027 22:46:29.062   04 Jun 2027 22:47:08.865            39.803               Magadan1          1243.844
       304   04 Jun 2027 22:47:28.467   04 Jun 2027 22:47:37.891             9.424               Magadan1           294.500
       305   04 Jun 2027 22:47:45.298   04 Jun 2027 22:47:54.677             9.379               Magadan2           293.094
       306   04 Jun 2027 22:48:01.152   04 Jun 2027 22:48:40.263            39.111               Magadan2          1222.219
       307   04 Jun 2027 22:52:20.558   04 Jun 2027 22:53:02.734            42.176               Magadan1          1318.000
       308   04 Jun 2027 23:37:07.897   04 Jun 2027 23:39:24.054           136.157            RioGallegos          4254.906
       309   04 Jun 2027 23:42:15.946   04 Jun 2027 23:43:01.646            45.700            RioGallegos          1428.125
       310   04 Jun 2027 23:44:45.693   04 Jun 2027 23:44:50.447             4.754            RioGallegos           148.563
       311   05 Jun 2027 00:17:31.599   05 Jun 2027 00:18:55.371            83.772                Anadyr1          2617.875
       312   05 Jun 2027 00:19:01.977   05 Jun 2027 00:19:04.109             2.132                Anadyr2            66.625
       313   05 Jun 2027 00:19:06.497   05 Jun 2027 00:19:08.325             1.828                Anadyr2            57.125
       314   05 Jun 2027 00:19:35.816   05 Jun 2027 00:21:13.108            97.292                Norilsk          3040.375
       315   05 Jun 2027 00:21:18.827   05 Jun 2027 00:22:37.090            78.263               Magadan2          2445.719
       316   05 Jun 2027 00:24:15.303   05 Jun 2027 00:25:26.394            71.091                Irkutsk          2221.594
       317   05 Jun 2027 00:26:32.843   05 Jun 2027 00:28:34.148           121.305                Irkutsk          3790.781
       318   05 Jun 2027 00:38:42.877   05 Jun 2027 00:39:18.289            35.412                Sumatra          1106.625
       319   05 Jun 2027 00:42:16.175   05 Jun 2027 00:43:40.836            84.661                Sumatra          2645.656
       320   05 Jun 2027 01:13:31.081   05 Jun 2027 01:14:11.866            40.785            RioGallegos          1274.531
       321   05 Jun 2027 01:20:10.726   05 Jun 2027 01:21:03.106            52.380            RioGallegos          1636.875
       322   05 Jun 2027 01:52:41.051   05 Jun 2027 01:53:04.412            23.361                Anadyr1           730.031
       323   05 Jun 2027 01:53:35.629   05 Jun 2027 01:54:11.162            35.533                Anadyr1          1110.406
       324   05 Jun 2027 01:55:27.421   05 Jun 2027 01:57:00.871            93.450                Norilsk          2920.312
       325   05 Jun 2027 01:57:02.235   05 Jun 2027 01:57:46.800            44.565               Magadan1          1392.656
       326   05 Jun 2027 01:59:21.180   05 Jun 2027 02:01:22.150           120.970                Irkutsk          3780.312
       327   05 Jun 2027 02:02:25.203   05 Jun 2027 02:02:34.223             9.020                Novosib           281.875
       328   05 Jun 2027 02:03:17.262   05 Jun 2027 02:03:17.306             0.044                Irkutsk             1.375
       329   05 Jun 2027 02:03:59.057   05 Jun 2027 02:04:13.551            14.494                Novosib           452.938
       330   05 Jun 2027 02:06:30.132   05 Jun 2027 02:06:38.736             8.604                Irkutsk           268.875
       331   05 Jun 2027 02:08:48.121   05 Jun 2027 02:09:18.919            30.798                  Delhi           962.438
       332   05 Jun 2027 02:11:10.230   05 Jun 2027 02:11:20.772            10.542                  Delhi           329.437
       333   05 Jun 2027 02:11:50.306   05 Jun 2027 02:12:05.617            15.311                  Delhi           478.469
       334   05 Jun 2027 02:13:30.477   05 Jun 2027 02:14:45.306            74.829                Sumatra          2338.406
       335   05 Jun 2027 02:15:56.614   05 Jun 2027 02:18:37.679           161.065                Sumatra          5033.281
       336   05 Jun 2027 03:36:38.653   05 Jun 2027 03:36:54.965            16.312               Magadan2           509.750
       337   05 Jun 2027 03:39:36.006   05 Jun 2027 03:39:37.670             1.664                Novosib            52.000
       338   05 Jun 2027 03:39:57.603   05 Jun 2027 03:42:22.485           144.882                Novosib          4527.562
       339   05 Jun 2027 03:42:29.693   05 Jun 2027 03:42:45.354            15.661                Norilsk           489.406
       340   05 Jun 2027 03:44:27.857   05 Jun 2027 03:44:51.060            23.203                Novosib           725.094
       341   05 Jun 2027 03:44:57.789   05 Jun 2027 03:49:16.385           258.596                  Delhi          8081.125
       342   05 Jun 2027 03:52:04.769   05 Jun 2027 03:52:13.671             8.902                  Delhi           278.187
       343   05 Jun 2027 04:24:57.970   05 Jun 2027 04:30:32.089           334.119            RioGallegos         10441.219
       344   05 Jun 2027 05:14:38.917   05 Jun 2027 05:16:45.678           126.761                Irkutsk          3961.281
       345   05 Jun 2027 05:17:23.770   05 Jun 2027 05:18:39.319            75.549              Murmansk2          2360.906
       346   05 Jun 2027 05:18:39.975   05 Jun 2027 05:19:09.437            29.462              Murmansk2           920.688
       347   05 Jun 2027 05:19:16.957   05 Jun 2027 05:19:42.722            25.765                Novosib           805.156
       348   05 Jun 2027 05:20:49.935   05 Jun 2027 05:21:40.462            50.527                Novosib          1578.969
       349   05 Jun 2027 05:21:48.252   05 Jun 2027 05:26:06.729           258.477                  Delhi          8077.406
       350   05 Jun 2027 06:52:45.382   05 Jun 2027 06:53:11.280            25.898                 Moscow           809.312
       351   05 Jun 2027 06:53:22.655   05 Jun 2027 06:54:24.390            61.735              Murmansk2          1929.219
       352   05 Jun 2027 06:54:48.479   05 Jun 2027 06:55:26.270            37.791              Murmansk2          1180.969
       353   05 Jun 2027 06:55:27.822   05 Jun 2027 06:55:47.644            19.822                 Moscow           619.438
       354   05 Jun 2027 06:56:29.039   05 Jun 2027 06:56:43.181            14.142              Murmansk2           441.937
       355   05 Jun 2027 06:57:10.206   05 Jun 2027 06:57:50.130            39.924              Murmansk1          1247.625
       356   05 Jun 2027 06:58:17.548   05 Jun 2027 06:58:25.378             7.830              Murmansk1           244.687
       357   05 Jun 2027 07:12:44.556   05 Jun 2027 07:15:41.731           177.175               CapeTown          5536.719
       358   05 Jun 2027 08:15:38.996   05 Jun 2027 08:17:45.199           126.203                Anadyr1          3943.844
       359   05 Jun 2027 08:20:28.570   05 Jun 2027 08:21:45.898            77.328                Anadyr2          2416.500
       360   05 Jun 2027 09:47:26.203   05 Jun 2027 09:49:27.769           121.566                Anadyr2          3798.937
       361   05 Jun 2027 09:49:27.769   05 Jun 2027 09:50:36.563            68.794                Anadyr1          2149.812
       362   05 Jun 2027 09:52:14.689   05 Jun 2027 09:57:23.499           308.810                Anadyr2          9650.312
       363   05 Jun 2027 11:27:15.920   05 Jun 2027 11:30:46.491           210.571               Magadan1          6580.344
       364   05 Jun 2027 11:30:58.812   05 Jun 2027 11:31:31.944            33.132                Irkutsk          1035.375
       365   05 Jun 2027 11:31:41.056   05 Jun 2027 11:31:53.027            11.971                Irkutsk           374.094
       366   05 Jun 2027 11:32:03.494   05 Jun 2027 11:33:05.156            61.662                Novosib          1926.937
       367   05 Jun 2027 11:33:14.411   05 Jun 2027 11:33:30.559            16.148               Magadan1           504.625
       368   05 Jun 2027 11:33:37.284   05 Jun 2027 11:33:41.405             4.121                Norilsk           128.781
       369   05 Jun 2027 11:33:52.513   05 Jun 2027 11:34:26.267            33.754                Novosib          1054.812
       370   05 Jun 2027 11:40:54.880   05 Jun 2027 11:40:55.131             0.251              Murmansk2             7.844
       371   05 Jun 2027 12:08:26.165   05 Jun 2027 12:09:46.453            80.288            RioGallegos          2509.000
       372   05 Jun 2027 12:44:25.893   05 Jun 2027 12:45:05.567            39.674                Sumatra          1239.812
       373   05 Jun 2027 12:45:23.761   05 Jun 2027 12:47:24.523           120.762                Sumatra          3773.813
       374   05 Jun 2027 12:56:46.880   05 Jun 2027 12:58:05.895            79.015                Irkutsk          2469.219
       375   05 Jun 2027 13:00:03.993   05 Jun 2027 13:00:13.479             9.486                Irkutsk           296.438
       376   05 Jun 2027 13:01:40.993   05 Jun 2027 13:02:45.057            64.064                Norilsk          2002.000
       377   05 Jun 2027 13:07:05.010   05 Jun 2027 13:07:08.873             3.863              Murmansk1           120.719
       378   05 Jun 2027 13:12:01.480   05 Jun 2027 13:12:30.964            29.484                Norilsk           921.375
       379   05 Jun 2027 13:16:28.476   05 Jun 2027 13:17:16.731            48.255              Murmansk1          1507.969
       380   05 Jun 2027 13:45:24.320   05 Jun 2027 13:46:22.663            58.343            RioGallegos          1823.219
       381   05 Jun 2027 13:50:37.727   05 Jun 2027 13:50:42.141             4.414            RioGallegos           137.937
       382   05 Jun 2027 13:53:29.407   05 Jun 2027 13:55:20.890           111.483            RioGallegos          3483.844
       383   05 Jun 2027 14:19:40.467   05 Jun 2027 14:22:03.885           143.418                Sumatra          4481.813
       384   05 Jun 2027 14:24:21.831   05 Jun 2027 14:25:02.781            40.950                Sumatra          1279.687
       385   05 Jun 2027 14:34:50.975   05 Jun 2027 14:37:57.360           186.385                Irkutsk          5824.531
       386   05 Jun 2027 14:39:50.848   05 Jun 2027 14:40:49.761            58.913                Irkutsk          1841.031
       387   05 Jun 2027 16:04:34.162   05 Jun 2027 16:10:45.255           371.093                  Delhi         11596.656
       388   05 Jun 2027 16:12:56.966   05 Jun 2027 16:15:06.991           130.025                Novosib          4063.281
       389   05 Jun 2027 16:15:45.902   05 Jun 2027 16:19:12.013           206.111                Novosib          6440.969
       390   05 Jun 2027 17:57:58.618   05 Jun 2027 17:59:48.025           109.407                Norilsk          3418.969
       391   05 Jun 2027 18:00:20.243   05 Jun 2027 18:01:37.744            77.501                Norilsk          2421.906
       392   05 Jun 2027 19:27:03.437   05 Jun 2027 19:33:55.750           412.313                 Moscow         12884.781
       393   05 Jun 2027 20:38:46.062   05 Jun 2027 20:39:17.975            31.913               CapeTown           997.281
       394   05 Jun 2027 20:39:53.999   05 Jun 2027 20:40:49.336            55.337               CapeTown          1729.281
       395   05 Jun 2027 20:42:17.832   05 Jun 2027 20:42:49.745            31.913               CapeTown           997.281
       396   05 Jun 2027 20:47:40.792   05 Jun 2027 20:48:29.301            48.509               CapeTown          1515.906
       397   05 Jun 2027 21:09:59.282   05 Jun 2027 21:15:25.122           325.840              Murmansk2         10182.500
       398   05 Jun 2027 22:53:45.934   05 Jun 2027 22:55:14.490            88.556                Anadyr1          2767.375
       399   05 Jun 2027 22:56:01.660   05 Jun 2027 22:57:49.389           107.729               Magadan1          3366.531
       400   05 Jun 2027 22:59:12.232   05 Jun 2027 22:59:44.726            32.494               Magadan2          1015.437
       401   05 Jun 2027 22:59:44.726   05 Jun 2027 22:59:51.507             6.781               Magadan1           211.906
       402   05 Jun 2027 23:00:10.374   05 Jun 2027 23:00:44.538            34.164               Magadan1          1067.625
       403   05 Jun 2027 23:00:53.180   05 Jun 2027 23:01:12.870            19.690               Magadan2           615.313
       404   05 Jun 2027 23:02:31.072   05 Jun 2027 23:02:46.691            15.619               Magadan2           488.094
       405   05 Jun 2027 23:03:15.887   05 Jun 2027 23:03:28.808            12.921               Magadan2           403.781
       406   05 Jun 2027 23:48:43.611   05 Jun 2027 23:51:58.871           195.260            RioGallegos          6101.875
       407   05 Jun 2027 23:55:07.358   05 Jun 2027 23:55:30.200            22.842            RioGallegos           713.812
       408   05 Jun 2027 23:56:06.143   05 Jun 2027 23:56:33.361            27.218            RioGallegos           850.563
       409   05 Jun 2027 23:57:39.834   05 Jun 2027 23:57:41.869             2.035            RioGallegos            63.594
       410   06 Jun 2027 00:29:30.352   06 Jun 2027 00:30:47.956            77.604                Anadyr2          2425.125
       411   06 Jun 2027 00:30:52.208   06 Jun 2027 00:31:09.585            17.377                Anadyr1           543.031
       412   06 Jun 2027 00:31:35.335   06 Jun 2027 00:33:14.787            99.452                Norilsk          3107.875
       413   06 Jun 2027 00:34:33.693   06 Jun 2027 00:34:50.428            16.735               Magadan2           522.969
       414   06 Jun 2027 00:35:01.968   06 Jun 2027 00:35:15.984            14.016                Norilsk           438.000
       415   06 Jun 2027 00:35:27.206   06 Jun 2027 00:35:30.018             2.812               Magadan2            87.875
       416   06 Jun 2027 00:35:44.316   06 Jun 2027 00:35:53.204             8.888               Magadan1           277.750
       417   06 Jun 2027 00:36:03.411   06 Jun 2027 00:37:26.415            83.004                Irkutsk          2593.875
       418   06 Jun 2027 00:38:27.603   06 Jun 2027 00:39:36.433            68.830                Irkutsk          2150.937
       419   06 Jun 2027 00:42:47.849   06 Jun 2027 00:43:17.019            29.170                Irkutsk           911.562
       420   06 Jun 2027 00:50:11.501   06 Jun 2027 00:51:30.842            79.341                Sumatra          2479.406
       421   06 Jun 2027 00:56:12.435   06 Jun 2027 00:56:56.392            43.957                Sumatra          1373.656
       422   06 Jun 2027 01:01:19.962   06 Jun 2027 01:01:27.813             7.851                Sumatra           245.344
       423   06 Jun 2027 01:24:34.638   06 Jun 2027 01:24:46.330            11.692            RioGallegos           365.375
       424   06 Jun 2027 01:26:30.438   06 Jun 2027 01:26:39.670             9.232            RioGallegos           288.500
       425   06 Jun 2027 01:27:22.896   06 Jun 2027 01:27:56.252            33.356            RioGallegos          1042.375
       426   06 Jun 2027 01:31:05.616   06 Jun 2027 01:31:18.501            12.885            RioGallegos           402.656
       427   06 Jun 2027 01:33:03.349   06 Jun 2027 01:33:38.447            35.098            RioGallegos          1096.813
       428   06 Jun 2027 02:04:32.116   06 Jun 2027 02:04:37.963             5.847                Anadyr2           182.719
       429   06 Jun 2027 02:04:46.948   06 Jun 2027 02:04:59.219            12.271                Anadyr2           383.469
       430   06 Jun 2027 02:04:59.219   06 Jun 2027 02:05:26.133            26.914                Anadyr1           841.062
       431   06 Jun 2027 02:05:59.387   06 Jun 2027 02:06:31.224            31.837                Anadyr2           994.906
       432   06 Jun 2027 02:07:29.781   06 Jun 2027 02:08:50.580            80.799                Norilsk          2524.969
       433   06 Jun 2027 02:10:48.511   06 Jun 2027 02:10:51.481             2.970                Norilsk            92.812
       434   06 Jun 2027 02:11:22.573   06 Jun 2027 02:13:39.404           136.831                Irkutsk          4275.969
       435   06 Jun 2027 02:15:00.386   06 Jun 2027 02:15:20.763            20.377                Irkutsk           636.781
       436   06 Jun 2027 02:19:09.994   06 Jun 2027 02:20:00.765            50.771                Novosib          1586.594
       437   06 Jun 2027 02:23:04.517   06 Jun 2027 02:23:29.651            25.134                  Delhi           785.437
       438   06 Jun 2027 02:25:52.483   06 Jun 2027 02:31:33.944           341.461                Sumatra         10670.656
       439   06 Jun 2027 03:08:03.876   06 Jun 2027 03:08:12.911             9.035            RioGallegos           282.344
       440   06 Jun 2027 03:50:29.474   06 Jun 2027 03:51:24.151            54.677                Irkutsk          1708.656
       441   06 Jun 2027 03:51:34.202   06 Jun 2027 03:51:45.720            11.518                Irkutsk           359.937
       442   06 Jun 2027 03:52:16.345   06 Jun 2027 03:52:34.751            18.406              Murmansk2           575.187
       443   06 Jun 2027 03:52:56.213   06 Jun 2027 03:54:22.919            86.706                Norilsk          2709.563
       444   06 Jun 2027 03:54:40.767   06 Jun 2027 03:59:00.794           260.027                  Delhi          8125.844
       445   06 Jun 2027 04:03:27.376   06 Jun 2027 04:04:21.292            53.916                  Delhi          1684.875
       446   06 Jun 2027 04:04:43.335   06 Jun 2027 04:07:10.085           146.750                  Delhi          4585.937
       447   06 Jun 2027 04:37:33.318   06 Jun 2027 04:41:25.353           232.035            RioGallegos          7251.094
       448   06 Jun 2027 05:27:34.396   06 Jun 2027 05:28:09.335            34.939                Novosib          1091.844
       449   06 Jun 2027 05:28:12.825   06 Jun 2027 05:29:04.224            51.399              Murmansk1          1606.219
       450   06 Jun 2027 05:29:14.587   06 Jun 2027 05:29:49.034            34.447                Norilsk          1076.469
       451   06 Jun 2027 05:29:54.522   06 Jun 2027 05:30:01.705             7.183                 Moscow           224.469
       452   06 Jun 2027 05:30:01.851   06 Jun 2027 05:30:33.353            31.502              Murmansk1           984.437
       453   06 Jun 2027 05:30:34.159   06 Jun 2027 05:30:52.200            18.041                Norilsk           563.781
       454   06 Jun 2027 05:30:53.986   06 Jun 2027 05:31:44.077            50.091                 Moscow          1565.344
       455   06 Jun 2027 05:32:13.786   06 Jun 2027 05:32:22.322             8.536              Murmansk1           266.750
       456   06 Jun 2027 05:33:08.098   06 Jun 2027 05:33:12.183             4.085              Murmansk1           127.656
       457   06 Jun 2027 05:33:12.810   06 Jun 2027 05:34:04.754            51.944                Novosib          1623.250
       458   06 Jun 2027 05:50:09.998   06 Jun 2027 05:51:13.648            63.650               CapeTown          1989.062
       459   06 Jun 2027 05:51:57.433   06 Jun 2027 05:53:05.848            68.415               CapeTown          2137.969
       460   06 Jun 2027 07:04:04.848   06 Jun 2027 07:04:52.108            47.260                 Moscow          1476.875
       461   06 Jun 2027 07:04:54.464   06 Jun 2027 07:05:24.278            29.814              Murmansk2           931.687
       462   06 Jun 2027 07:05:24.278   06 Jun 2027 07:05:46.838            22.560              Murmansk1           705.000
       463   06 Jun 2027 07:05:46.838   06 Jun 2027 07:05:53.901             7.063              Murmansk2           220.719
       464   06 Jun 2027 07:05:59.940   06 Jun 2027 07:06:18.562            18.622              Murmansk1           581.937
       465   06 Jun 2027 07:06:24.595   06 Jun 2027 07:08:08.095           103.500                 Moscow          3234.375
       466   06 Jun 2027 07:24:55.657   06 Jun 2027 07:26:40.057           104.400               CapeTown          3262.500
       467   06 Jun 2027 07:34:19.349   06 Jun 2027 07:34:42.796            23.447               CapeTown           732.719
       468   06 Jun 2027 08:27:37.887   06 Jun 2027 08:27:56.779            18.892               Magadan2           590.375
       469   06 Jun 2027 08:28:40.855   06 Jun 2027 08:28:56.128            15.273                Anadyr2           477.281
       470   06 Jun 2027 08:28:56.128   06 Jun 2027 08:29:50.972            54.844                Anadyr1          1713.875
       471   06 Jun 2027 08:30:12.029   06 Jun 2027 08:30:24.777            12.748               Magadan2           398.375
       472   06 Jun 2027 08:30:35.184   06 Jun 2027 08:31:21.980            46.796                Anadyr1          1462.375
       473   06 Jun 2027 08:32:28.503   06 Jun 2027 08:33:38.198            69.695                Anadyr1          2177.969
       474   06 Jun 2027 09:59:55.770   06 Jun 2027 10:00:59.429            63.659                Anadyr1          1989.344
       475   06 Jun 2027 10:04:04.298   06 Jun 2027 10:04:58.223            53.925                Norilsk          1685.156
       476   06 Jun 2027 10:05:30.816   06 Jun 2027 10:09:55.947           265.131                Anadyr2          8285.344
       477   06 Jun 2027 11:35:12.785   06 Jun 2027 11:40:46.716           333.931               Magadan2         10435.344
       478   06 Jun 2027 11:41:41.778   06 Jun 2027 11:42:47.343            65.565                Norilsk          2048.906
       479   06 Jun 2027 11:42:53.663   06 Jun 2027 11:43:02.673             9.010                Novosib           281.563
       480   06 Jun 2027 11:43:06.665   06 Jun 2027 11:43:16.200             9.535                Norilsk           297.969
       481   06 Jun 2027 11:43:22.701   06 Jun 2027 11:43:56.411            33.710                Irkutsk          1053.437
       482   06 Jun 2027 11:43:58.567   06 Jun 2027 11:45:05.538            66.971                Novosib          2092.844
