uniorb/output/strategy_2/Drop/Drop_KinoSat_111209.txt

KinoSat_111209
-------------------------
    Access    *     Start Time (UTCG)     *     Stop Time (UTCG)  *   Duration (s)        *       Station  *  Data (Mbytes)
         1   01 Jun 2027 04:18:52.012   01 Jun 2027 04:18:53.989             1.977                Anadyr1            61.781
         2   01 Jun 2027 04:18:53.989   01 Jun 2027 04:19:14.436            20.447                Anadyr2           638.969
         3   01 Jun 2027 04:19:21.831   01 Jun 2027 04:21:16.483           114.652               Magadan2          3582.875
         4   01 Jun 2027 05:53:56.602   01 Jun 2027 05:54:05.711             9.109               Magadan1           284.656
         5   01 Jun 2027 05:54:27.596   01 Jun 2027 05:56:05.325            97.729                Anadyr1          3054.031
         6   01 Jun 2027 05:56:19.525   01 Jun 2027 05:57:38.171            78.646               Magadan2          2457.687
         7   01 Jun 2027 05:57:38.171   01 Jun 2027 05:58:55.576            77.405               Magadan1          2418.906
         8   01 Jun 2027 07:28:51.317   01 Jun 2027 07:29:49.996            58.679               Magadan2          1833.719
         9   01 Jun 2027 07:30:04.234   01 Jun 2027 07:32:41.112           156.878               Magadan1          4902.438
        10   01 Jun 2027 07:32:41.112   01 Jun 2027 07:33:05.869            24.757               Magadan2           773.656
        11   01 Jun 2027 07:33:06.069   01 Jun 2027 07:33:42.946            36.877               Magadan2          1152.406
        12   01 Jun 2027 07:33:45.466   01 Jun 2027 07:34:27.848            42.382                Irkutsk          1324.438
        13   01 Jun 2027 07:34:52.345   01 Jun 2027 07:34:54.414             2.069                Anadyr2            64.656
        14   01 Jun 2027 07:35:59.923   01 Jun 2027 07:37:23.034            83.111                Norilsk          2597.219
        15   01 Jun 2027 07:37:47.359   01 Jun 2027 07:37:49.373             2.014                Norilsk            62.937
        16   01 Jun 2027 08:10:38.093   01 Jun 2027 08:12:13.705            95.612            RioGallegos          2987.875
        17   01 Jun 2027 08:49:51.595   01 Jun 2027 08:50:17.449            25.854                Sumatra           807.938
        18   01 Jun 2027 09:06:18.035   01 Jun 2027 09:07:23.771            65.736                Irkutsk          2054.250
        19   01 Jun 2027 09:07:28.333   01 Jun 2027 09:09:25.369           117.036                Irkutsk          3657.375
        20   01 Jun 2027 09:09:29.985   01 Jun 2027 09:09:49.242            19.257               Magadan1           601.781
        21   01 Jun 2027 09:09:52.754   01 Jun 2027 09:10:30.427            37.673                Norilsk          1177.281
        22   01 Jun 2027 09:10:33.256   01 Jun 2027 09:10:51.149            17.893                Irkutsk           559.156
        23   01 Jun 2027 09:11:08.315   01 Jun 2027 09:14:47.749           219.434              Murmansk1          6857.313
        24   01 Jun 2027 09:15:14.314   01 Jun 2027 09:15:26.781            12.467              Murmansk1           389.594
        25   01 Jun 2027 09:46:09.695   01 Jun 2027 09:47:58.154           108.459            RioGallegos          3389.344
        26   01 Jun 2027 09:49:53.272   01 Jun 2027 09:50:01.799             8.527            RioGallegos           266.469
        27   01 Jun 2027 09:50:26.495   01 Jun 2027 09:50:39.282            12.787            RioGallegos           399.594
        28   01 Jun 2027 10:20:48.715   01 Jun 2027 10:22:58.730           130.015                Sumatra          4062.969
        29   01 Jun 2027 10:42:14.279   01 Jun 2027 10:43:20.527            66.248                Irkutsk          2070.250
        30   01 Jun 2027 10:43:59.035   01 Jun 2027 10:44:33.339            34.304                Novosib          1072.000
        31   01 Jun 2027 10:44:38.196   01 Jun 2027 10:44:49.393            11.197                Norilsk           349.906
        32   01 Jun 2027 10:44:51.782   01 Jun 2027 10:45:28.566            36.784                Novosib          1149.500
        33   01 Jun 2027 10:45:28.570   01 Jun 2027 10:46:54.866            86.296                Irkutsk          2696.750
        34   01 Jun 2027 10:47:09.417   01 Jun 2027 10:50:24.949           195.532                Norilsk          6110.375
        35   01 Jun 2027 11:26:39.518   01 Jun 2027 11:27:21.960            42.442            RioGallegos          1326.312
        36   01 Jun 2027 11:29:50.380   01 Jun 2027 11:30:31.465            41.085            RioGallegos          1283.906
        37   01 Jun 2027 12:07:16.147   01 Jun 2027 12:08:06.783            50.636                  Delhi          1582.375
        38   01 Jun 2027 12:09:10.936   01 Jun 2027 12:09:44.016            33.080                  Delhi          1033.750
        39   01 Jun 2027 12:12:59.861   01 Jun 2027 12:13:38.894            39.033                Novosib          1219.781
        40   01 Jun 2027 12:14:01.877   01 Jun 2027 12:14:37.646            35.769                Novosib          1117.781
        41   01 Jun 2027 12:15:26.732   01 Jun 2027 12:17:07.462           100.730                Novosib          3147.813
        42   01 Jun 2027 12:18:18.865   01 Jun 2027 12:18:28.522             9.657                Norilsk           301.781
        43   01 Jun 2027 12:18:31.557   01 Jun 2027 12:18:54.465            22.908              Murmansk1           715.875
        44   01 Jun 2027 12:18:54.868   01 Jun 2027 12:20:36.410           101.542                Norilsk          3173.187
        45   01 Jun 2027 13:49:24.824   01 Jun 2027 13:50:47.588            82.764                 Moscow          2586.375
        46   01 Jun 2027 13:51:55.116   01 Jun 2027 13:52:39.395            44.279                 Moscow          1383.719
        47   01 Jun 2027 13:52:51.859   01 Jun 2027 13:53:33.316            41.457              Murmansk2          1295.531
        48   01 Jun 2027 13:54:23.287   01 Jun 2027 13:54:31.634             8.347              Murmansk1           260.844
        49   01 Jun 2027 13:54:58.427   01 Jun 2027 13:55:49.283            50.856              Murmansk2          1589.250
        50   01 Jun 2027 13:57:00.205   01 Jun 2027 13:58:42.544           102.339                Norilsk          3198.094
        51   01 Jun 2027 14:00:14.806   01 Jun 2027 14:00:42.262            27.456                Norilsk           858.000
        52   01 Jun 2027 15:04:11.372   01 Jun 2027 15:04:25.972            14.600               CapeTown           456.250
        53   01 Jun 2027 15:05:24.174   01 Jun 2027 15:07:05.104           100.930               CapeTown          3154.063
        54   01 Jun 2027 15:29:58.458   01 Jun 2027 15:30:17.779            19.321              Murmansk2           603.781
        55   01 Jun 2027 15:30:35.823   01 Jun 2027 15:30:44.719             8.896              Murmansk1           278.000
        56   01 Jun 2027 15:32:10.818   01 Jun 2027 15:32:30.815            19.997              Murmansk1           624.906
        57   01 Jun 2027 15:34:12.434   01 Jun 2027 15:34:28.208            15.774              Murmansk2           492.938
        58   01 Jun 2027 15:37:28.652   01 Jun 2027 15:37:58.732            30.080              Murmansk2           940.000
        59   01 Jun 2027 15:43:54.702   01 Jun 2027 15:45:42.550           107.848                Anadyr2          3370.250
        60   01 Jun 2027 15:47:57.515   01 Jun 2027 15:48:13.069            15.554                Anadyr1           486.063
        61   01 Jun 2027 15:48:27.836   01 Jun 2027 15:48:34.745             6.909                Anadyr1           215.906
        62   01 Jun 2027 15:48:38.544   01 Jun 2027 15:49:55.381            76.837                Anadyr1          2401.156
        63   01 Jun 2027 17:09:22.296   01 Jun 2027 17:12:16.111           173.815              Murmansk2          5431.719
        64   01 Jun 2027 17:13:49.030   01 Jun 2027 17:14:14.057            25.027              Murmansk2           782.094
        65   01 Jun 2027 17:14:39.177   01 Jun 2027 17:15:00.277            21.100              Murmansk1           659.375
        66   01 Jun 2027 17:20:41.851   01 Jun 2027 17:20:56.743            14.892                Anadyr2           465.375
        67   01 Jun 2027 17:21:36.271   01 Jun 2027 17:21:36.298             0.027                Anadyr2             0.844
        68   01 Jun 2027 17:22:20.216   01 Jun 2027 17:22:58.160            37.944                Anadyr2          1185.750
        69   01 Jun 2027 17:24:28.083   01 Jun 2027 17:25:32.284            64.201               Magadan1          2006.281
        70   01 Jun 2027 18:55:23.451   01 Jun 2027 18:59:13.711           230.260                Anadyr1          7195.625
        71   01 Jun 2027 18:59:57.267   01 Jun 2027 19:01:11.433            74.166                Anadyr2          2317.687
        72   01 Jun 2027 19:01:56.928   01 Jun 2027 19:02:22.392            25.464               Magadan1           795.750
        73   01 Jun 2027 19:02:22.392   01 Jun 2027 19:02:50.992            28.600               Magadan2           893.750
        74   01 Jun 2027 19:04:41.349   01 Jun 2027 19:04:53.449            12.100               Magadan1           378.125
        75   01 Jun 2027 19:08:43.996   01 Jun 2027 19:09:16.241            32.245               Magadan1          1007.656
        76   01 Jun 2027 19:52:56.717   01 Jun 2027 19:54:30.267            93.550            RioGallegos          2923.437
        77   01 Jun 2027 20:31:14.310   01 Jun 2027 20:32:24.619            70.309                Anadyr1          2197.156
        78   01 Jun 2027 20:32:56.089   01 Jun 2027 20:33:31.777            35.688                Anadyr2          1115.250
        79   01 Jun 2027 20:33:36.196   01 Jun 2027 20:34:39.294            63.098               Magadan1          1971.813
        80   01 Jun 2027 20:34:53.361   01 Jun 2027 20:35:53.202            59.841                Norilsk          1870.031
        81   01 Jun 2027 20:36:34.295   01 Jun 2027 20:37:08.010            33.715                Norilsk          1053.594
        82   01 Jun 2027 20:38:42.341   01 Jun 2027 20:39:22.133            39.792                Irkutsk          1243.500
        83   01 Jun 2027 20:39:26.264   01 Jun 2027 20:40:21.868            55.604                Norilsk          1737.625
        84   01 Jun 2027 20:42:16.980   01 Jun 2027 20:43:19.167            62.187                Irkutsk          1943.344
        85   01 Jun 2027 20:55:59.722   01 Jun 2027 20:56:40.996            41.274                Sumatra          1289.812
        86   01 Jun 2027 20:59:58.525   01 Jun 2027 21:00:58.760            60.235                Sumatra          1882.344
        87   01 Jun 2027 22:08:11.690   01 Jun 2027 22:08:27.106            15.416                Anadyr1           481.750
        88   01 Jun 2027 22:08:56.095   01 Jun 2027 22:09:02.041             5.946                Anadyr1           185.813
        89   01 Jun 2027 22:09:24.147   01 Jun 2027 22:09:54.621            30.474                Norilsk           952.312
        90   01 Jun 2027 22:10:27.802   01 Jun 2027 22:10:37.313             9.511               Magadan2           297.219
        91   01 Jun 2027 22:10:49.797   01 Jun 2027 22:10:52.629             2.832                Norilsk            88.500
        92   01 Jun 2027 22:11:12.640   01 Jun 2027 22:11:20.297             7.657               Magadan2           239.281
        93   01 Jun 2027 22:12:54.666   01 Jun 2027 22:12:58.912             4.246                Norilsk           132.688
        94   01 Jun 2027 22:13:03.180   01 Jun 2027 22:13:12.880             9.700               Magadan1           303.125
        95   01 Jun 2027 22:13:53.767   01 Jun 2027 22:14:37.497            43.730               Magadan1          1366.563
        96   01 Jun 2027 22:16:47.897   01 Jun 2027 22:16:52.312             4.415               Magadan2           137.969
        97   01 Jun 2027 22:17:00.249   01 Jun 2027 22:17:34.708            34.459               Magadan2          1076.844
        98   01 Jun 2027 22:17:53.924   01 Jun 2027 22:18:08.319            14.395                Novosib           449.844
        99   01 Jun 2027 22:18:14.863   01 Jun 2027 22:18:23.801             8.938                Novosib           279.313
       100   01 Jun 2027 22:18:54.037   01 Jun 2027 22:18:59.791             5.754                Novosib           179.812
       101   01 Jun 2027 22:20:19.731   01 Jun 2027 22:20:52.396            32.665                Novosib          1020.781
       102   01 Jun 2027 22:24:55.233   01 Jun 2027 22:24:59.722             4.489                Irkutsk           140.281
       103   01 Jun 2027 22:31:30.997   01 Jun 2027 22:32:40.754            69.757                Sumatra          2179.906
       104   01 Jun 2027 23:40:53.244   01 Jun 2027 23:42:51.727           118.483                Anadyr2          3702.594
       105   01 Jun 2027 23:42:51.727   01 Jun 2027 23:43:06.845            15.118                Anadyr1           472.438
       106   01 Jun 2027 23:43:45.822   01 Jun 2027 23:43:55.767             9.945                Anadyr2           310.781
       107   01 Jun 2027 23:45:02.844   01 Jun 2027 23:45:09.808             6.964                Anadyr1           217.625
       108   01 Jun 2027 23:45:19.874   01 Jun 2027 23:45:45.933            26.059                Norilsk           814.344
       109   01 Jun 2027 23:45:49.422   01 Jun 2027 23:46:55.006            65.584               Magadan2          2049.500
       110   01 Jun 2027 23:47:04.901   01 Jun 2027 23:47:16.986            12.085               Magadan1           377.656
       111   01 Jun 2027 23:47:24.981   01 Jun 2027 23:47:34.930             9.949               Magadan1           310.906
       112   01 Jun 2027 23:47:42.520   01 Jun 2027 23:48:31.298            48.778               Magadan1          1524.312
       113   01 Jun 2027 23:49:26.074   01 Jun 2027 23:51:36.928           130.854              Murmansk2          4089.188
       114   02 Jun 2027 00:03:15.740   02 Jun 2027 00:04:18.814            63.074                  Delhi          1971.062
       115   02 Jun 2027 00:43:24.879   02 Jun 2027 00:43:38.525            13.646            RioGallegos           426.438
       116   02 Jun 2027 01:14:12.739   02 Jun 2027 01:14:37.677            24.938                Anadyr1           779.313
       117   02 Jun 2027 01:14:51.202   02 Jun 2027 01:15:21.861            30.659                Anadyr2           958.094
       118   02 Jun 2027 01:15:21.861   02 Jun 2027 01:15:33.168            11.307                Anadyr1           353.344
       119   02 Jun 2027 01:16:12.216   02 Jun 2027 01:16:52.407            40.191                Anadyr2          1255.969
       120   02 Jun 2027 01:16:52.407   02 Jun 2027 01:16:58.867             6.460                Anadyr1           201.875
       121   02 Jun 2027 01:17:00.508   02 Jun 2027 01:17:17.846            17.338                Anadyr2           541.813
       122   02 Jun 2027 01:20:02.186   02 Jun 2027 01:20:33.515            31.329                Anadyr2           979.031
       123   02 Jun 2027 01:20:50.276   02 Jun 2027 01:23:01.407           131.131               Magadan2          4097.844
       124   02 Jun 2027 01:23:19.588   02 Jun 2027 01:24:08.324            48.736              Murmansk1          1523.000
       125   02 Jun 2027 01:27:12.010   02 Jun 2027 01:27:26.669            14.659              Murmansk1           458.094
       126   02 Jun 2027 01:27:42.855   02 Jun 2027 01:28:08.171            25.316              Murmansk1           791.125
       127   02 Jun 2027 01:30:38.292   02 Jun 2027 01:32:10.793            92.501                Novosib          2890.656
       128   02 Jun 2027 01:56:40.043   02 Jun 2027 01:57:28.847            48.804               CapeTown          1525.125
       129   02 Jun 2027 02:47:55.049   02 Jun 2027 02:49:16.646            81.597                Anadyr1          2549.906
       130   02 Jun 2027 02:50:14.456   02 Jun 2027 02:51:16.807            62.351                Anadyr2          1948.469
       131   02 Jun 2027 02:52:05.818   02 Jun 2027 02:53:23.714            77.896               Magadan2          2434.250
       132   02 Jun 2027 02:56:43.871   02 Jun 2027 02:56:56.666            12.795                Norilsk           399.844
       133   02 Jun 2027 02:59:13.372   02 Jun 2027 02:59:41.762            28.390              Murmansk2           887.187
       134   02 Jun 2027 03:06:51.704   02 Jun 2027 03:07:00.242             8.538              Murmansk2           266.812
       135   02 Jun 2027 03:07:11.807   02 Jun 2027 03:07:29.567            17.760                Novosib           555.000
       136   02 Jun 2027 03:07:51.752   02 Jun 2027 03:08:30.673            38.921                Norilsk          1216.281
       137   02 Jun 2027 03:08:34.801   02 Jun 2027 03:11:29.667           174.866              Murmansk1          5464.563
       138   02 Jun 2027 03:11:29.667   02 Jun 2027 03:11:50.156            20.489              Murmansk2           640.281
       139   02 Jun 2027 03:11:58.482   02 Jun 2027 03:12:16.511            18.029                 Moscow           563.406
       140   02 Jun 2027 03:26:21.562   02 Jun 2027 03:29:20.534           178.972               CapeTown          5592.875
       141   02 Jun 2027 04:23:03.983   02 Jun 2027 04:24:32.864            88.881                Anadyr1          2777.531
       142   02 Jun 2027 04:27:14.575   02 Jun 2027 04:27:32.142            17.567               Magadan2           548.969
       143   02 Jun 2027 04:30:14.760   02 Jun 2027 04:34:07.808           233.048                Anadyr1          7282.750
       144   02 Jun 2027 04:34:09.894   02 Jun 2027 04:34:28.606            18.712               Magadan2           584.750
       145   02 Jun 2027 06:07:02.586   02 Jun 2027 06:07:48.202            45.616                Anadyr2          1425.500
       146   02 Jun 2027 06:08:05.742   02 Jun 2027 06:09:38.516            92.774                Anadyr2          2899.188
       147   02 Jun 2027 06:09:39.978   02 Jun 2027 06:10:45.351            65.373               Magadan1          2042.906
       148   02 Jun 2027 07:40:52.823   02 Jun 2027 07:42:20.066            87.243                Anadyr1          2726.344
       149   02 Jun 2027 07:42:40.232   02 Jun 2027 07:42:41.318             1.086                Irkutsk            33.938
       150   02 Jun 2027 07:42:50.272   02 Jun 2027 07:43:08.808            18.536                Irkutsk           579.250
       151   02 Jun 2027 07:43:14.116   02 Jun 2027 07:43:40.059            25.943                Novosib           810.719
       152   02 Jun 2027 07:43:40.944   02 Jun 2027 07:44:04.222            23.278               Magadan1           727.437
       153   02 Jun 2027 07:44:04.222   02 Jun 2027 07:44:20.905            16.683               Magadan2           521.344
       154   02 Jun 2027 07:44:26.299   02 Jun 2027 07:46:36.319           130.020                Anadyr1          4063.125
       155   02 Jun 2027 07:47:03.877   02 Jun 2027 07:47:45.614            41.737                Novosib          1304.281
       156   02 Jun 2027 07:48:13.378   02 Jun 2027 07:48:18.741             5.363              Murmansk1           167.594
       157   02 Jun 2027 07:48:41.220   02 Jun 2027 07:49:05.122            23.902              Murmansk2           746.938
       158   02 Jun 2027 07:49:05.122   02 Jun 2027 07:49:43.518            38.396              Murmansk1          1199.875
       159   02 Jun 2027 07:49:50.284   02 Jun 2027 07:50:02.020            11.736                Norilsk           366.750
       160   02 Jun 2027 08:22:25.166   02 Jun 2027 08:24:23.730           118.564            RioGallegos          3705.125
       161   02 Jun 2027 09:17:34.625   02 Jun 2027 09:18:19.977            45.352                Irkutsk          1417.250
       162   02 Jun 2027 09:18:28.742   02 Jun 2027 09:18:38.379             9.637                Irkutsk           301.156
       163   02 Jun 2027 09:18:41.832   02 Jun 2027 09:19:10.347            28.515                Norilsk           891.094
       164   02 Jun 2027 09:19:18.761   02 Jun 2027 09:20:35.673            76.912                Irkutsk          2403.500
       165   02 Jun 2027 09:20:40.238   02 Jun 2027 09:21:29.889            49.651                Novosib          1551.594
       166   02 Jun 2027 09:21:38.928   02 Jun 2027 09:22:43.176            64.248                Irkutsk          2007.750
       167   02 Jun 2027 09:22:48.523   02 Jun 2027 09:22:58.616            10.093                Irkutsk           315.406
       168   02 Jun 2027 09:23:04.015   02 Jun 2027 09:24:24.195            80.180              Murmansk1          2505.625
       169   02 Jun 2027 09:58:23.790   02 Jun 2027 09:58:35.587            11.797            RioGallegos           368.656
       170   02 Jun 2027 09:59:20.635   02 Jun 2027 09:59:58.143            37.508            RioGallegos          1172.125
       171   02 Jun 2027 10:07:55.203   02 Jun 2027 10:08:12.393            17.190            RioGallegos           537.187
       172   02 Jun 2027 10:32:53.162   02 Jun 2027 10:35:17.290           144.128                Sumatra          4504.000
       173   02 Jun 2027 10:53:11.127   02 Jun 2027 10:53:23.838            12.711                  Delhi           397.219
       174   02 Jun 2027 10:53:34.375   02 Jun 2027 10:53:47.381            13.006                Novosib           406.438
       175   02 Jun 2027 10:54:16.332   02 Jun 2027 10:55:17.644            61.312                Irkutsk          1916.000
       176   02 Jun 2027 10:55:38.153   02 Jun 2027 10:55:40.877             2.724                Irkutsk            85.125
       177   02 Jun 2027 10:55:44.883   02 Jun 2027 10:55:54.527             9.644              Murmansk2           301.375
       178   02 Jun 2027 10:55:59.003   02 Jun 2027 10:56:32.782            33.779                 Moscow          1055.594
       179   02 Jun 2027 10:56:37.259   02 Jun 2027 10:56:58.054            20.795                Irkutsk           649.844
       180   02 Jun 2027 10:57:00.180   02 Jun 2027 10:57:25.890            25.710                Novosib           803.437
       181   02 Jun 2027 10:57:29.996   02 Jun 2027 10:57:39.792             9.796                Novosib           306.125
       182   02 Jun 2027 10:57:56.754   02 Jun 2027 10:58:31.048            34.294                Norilsk          1071.688
       183   02 Jun 2027 10:58:31.444   02 Jun 2027 10:58:34.485             3.041              Murmansk1            95.031
       184   02 Jun 2027 10:58:37.636   02 Jun 2027 10:59:17.882            40.246                 Moscow          1257.687
       185   02 Jun 2027 11:40:12.847   02 Jun 2027 11:41:08.982            56.135            RioGallegos          1754.219
       186   02 Jun 2027 11:42:18.186   02 Jun 2027 11:43:03.074            44.888            RioGallegos          1402.750
       187   02 Jun 2027 12:17:23.369   02 Jun 2027 12:18:06.554            43.185                  Delhi          1349.531
       188   02 Jun 2027 12:22:15.833   02 Jun 2027 12:22:17.428             1.595                  Delhi            49.844
       189   02 Jun 2027 12:25:26.721   02 Jun 2027 12:27:30.062           123.341                Novosib          3854.406
       190   02 Jun 2027 12:29:18.620   02 Jun 2027 12:31:18.022           119.402              Murmansk1          3731.313
       191   02 Jun 2027 12:39:13.445   02 Jun 2027 12:40:02.720            49.275              Murmansk2          1539.844
       192   02 Jun 2027 14:01:26.243   02 Jun 2027 14:03:45.578           139.335                 Moscow          4354.219
       193   02 Jun 2027 14:04:42.885   02 Jun 2027 14:05:29.628            46.743                 Moscow          1460.719
       194   02 Jun 2027 14:05:57.211   02 Jun 2027 14:08:42.871           165.660              Murmansk2          5176.875
       195   02 Jun 2027 14:09:46.879   02 Jun 2027 14:10:44.246            57.367                Norilsk          1792.719
       196   02 Jun 2027 14:12:12.713   02 Jun 2027 14:12:44.622            31.909                Norilsk           997.156
       197   02 Jun 2027 15:15:37.409   02 Jun 2027 15:17:40.951           123.542               CapeTown          3860.687
       198   02 Jun 2027 15:18:56.961   02 Jun 2027 15:20:06.788            69.827               CapeTown          2182.094
       199   02 Jun 2027 15:42:17.461   02 Jun 2027 15:43:18.890            61.429              Murmansk2          1919.656
       200   02 Jun 2027 15:46:08.803   02 Jun 2027 15:46:29.230            20.427              Murmansk2           638.344
       201   02 Jun 2027 15:52:04.839   02 Jun 2027 15:52:08.591             3.752              Murmansk1           117.250
       202   02 Jun 2027 15:55:50.404   02 Jun 2027 15:57:43.027           112.623                Anadyr1          3519.469
       203   02 Jun 2027 15:59:29.447   02 Jun 2027 15:59:34.104             4.657                Anadyr2           145.531
       204   02 Jun 2027 15:59:57.885   02 Jun 2027 16:00:09.554            11.669                Anadyr2           364.656
       205   02 Jun 2027 16:00:39.857   02 Jun 2027 16:00:55.772            15.915                Anadyr2           497.344
       206   02 Jun 2027 16:51:03.655   02 Jun 2027 16:51:46.476            42.821               CapeTown          1338.156
       207   02 Jun 2027 16:51:56.893   02 Jun 2027 16:52:51.956            55.063               CapeTown          1720.719
       208   02 Jun 2027 17:22:03.469   02 Jun 2027 17:24:17.723           134.254              Murmansk2          4195.438
       209   02 Jun 2027 17:25:28.050   02 Jun 2027 17:26:18.568            50.518              Murmansk2          1578.688
       210   02 Jun 2027 17:31:29.371   02 Jun 2027 17:32:22.511            53.140                Anadyr2          1660.625
       211   02 Jun 2027 17:33:29.312   02 Jun 2027 17:33:35.787             6.475                Anadyr1           202.344
       212   02 Jun 2027 17:34:35.850   02 Jun 2027 17:35:59.029            83.179               Magadan2          2599.344
       213   02 Jun 2027 17:36:24.990   02 Jun 2027 17:37:04.101            39.111               Magadan1          1222.219
       214   02 Jun 2027 17:37:53.638   02 Jun 2027 17:38:01.132             7.494               Magadan2           234.188
       215   02 Jun 2027 17:38:15.929   02 Jun 2027 17:38:19.924             3.995               Magadan1           124.844
       216   02 Jun 2027 17:38:45.564   02 Jun 2027 17:38:51.438             5.874               Magadan1           183.563
       217   02 Jun 2027 17:40:01.344   02 Jun 2027 17:41:17.329            75.985               Magadan2          2374.531
       218   02 Jun 2027 19:07:24.894   02 Jun 2027 19:09:28.276           123.382                Anadyr1          3855.687
       219   02 Jun 2027 19:09:43.759   02 Jun 2027 19:12:02.305           138.546               Magadan2          4329.562
       220   02 Jun 2027 19:12:39.667   02 Jun 2027 19:13:35.218            55.551               Magadan1          1735.969
       221   02 Jun 2027 20:03:35.855   02 Jun 2027 20:06:08.184           152.329            RioGallegos          4760.281
       222   02 Jun 2027 20:09:07.021   02 Jun 2027 20:09:16.629             9.608            RioGallegos           300.250
       223   02 Jun 2027 20:43:13.778   02 Jun 2027 20:43:43.893            30.115                Anadyr2           941.094
       224   02 Jun 2027 20:45:13.745   02 Jun 2027 20:45:22.239             8.494                Anadyr1           265.438
       225   02 Jun 2027 20:45:23.682   02 Jun 2027 20:49:07.177           223.495                Norilsk          6984.219
       226   02 Jun 2027 20:50:18.459   02 Jun 2027 20:51:19.656            61.197                Irkutsk          1912.406
       227   02 Jun 2027 20:52:13.378   02 Jun 2027 20:53:05.956            52.578                Norilsk          1643.063
       228   02 Jun 2027 20:53:07.663   02 Jun 2027 20:53:30.668            23.005                Irkutsk           718.906
       229   02 Jun 2027 21:05:14.706   02 Jun 2027 21:07:31.839           137.133                Sumatra          4285.406
       230   02 Jun 2027 21:09:12.631   02 Jun 2027 21:09:41.373            28.742                Sumatra           898.187
       231   02 Jun 2027 22:20:29.717   02 Jun 2027 22:20:53.462            23.745                Anadyr2           742.031
       232   02 Jun 2027 22:21:44.987   02 Jun 2027 22:23:23.055            98.068               Magadan2          3064.625
       233   02 Jun 2027 22:23:29.009   02 Jun 2027 22:23:42.214            13.205               Magadan2           412.656
       234   02 Jun 2027 22:25:03.964   02 Jun 2027 22:26:21.794            77.830                Irkutsk          2432.187
       235   02 Jun 2027 22:26:45.813   02 Jun 2027 22:28:59.783           133.970                Novosib          4186.562
       236   02 Jun 2027 22:35:41.884   02 Jun 2027 22:37:27.556           105.672                  Delhi          3302.250
       237   02 Jun 2027 23:54:50.926   02 Jun 2027 23:55:10.499            19.573                Anadyr1           611.656
       238   02 Jun 2027 23:57:43.384   02 Jun 2027 23:59:00.492            77.108               Magadan2          2409.625
       239   02 Jun 2027 23:59:23.892   02 Jun 2027 23:59:26.705             2.813               Magadan1            87.906
       240   02 Jun 2027 23:59:37.131   02 Jun 2027 23:59:48.672            11.541               Magadan1           360.656
       241   03 Jun 2027 00:00:05.658   03 Jun 2027 00:01:34.531            88.873              Murmansk2          2777.281
       242   03 Jun 2027 00:01:56.741   03 Jun 2027 00:03:31.608            94.867              Murmansk1          2964.594
       243   03 Jun 2027 00:04:30.215   03 Jun 2027 00:05:27.975            57.760              Murmansk2          1805.000
       244   03 Jun 2027 00:08:17.345   03 Jun 2027 00:08:18.619             1.274                  Delhi            39.812
       245   03 Jun 2027 00:09:00.545   03 Jun 2027 00:10:22.366            81.821                  Delhi          2556.906
       246   03 Jun 2027 00:50:11.855   03 Jun 2027 00:51:19.995            68.140            RioGallegos          2129.375
       247   03 Jun 2027 01:25:54.459   03 Jun 2027 01:26:22.522            28.063                Anadyr2           876.969
       248   03 Jun 2027 01:26:29.583   03 Jun 2027 01:26:48.572            18.989                Anadyr1           593.406
       249   03 Jun 2027 01:27:23.160   03 Jun 2027 01:28:20.603            57.443                Anadyr1          1795.094
       250   03 Jun 2027 01:31:56.972   03 Jun 2027 01:34:06.599           129.627               Magadan1          4050.844
       251   03 Jun 2027 01:34:06.599   03 Jun 2027 01:35:10.490            63.891               Magadan2          1996.594
       252   03 Jun 2027 01:35:19.759   03 Jun 2027 01:37:00.803           101.044              Murmansk2          3157.625
       253   03 Jun 2027 01:41:59.637   03 Jun 2027 01:42:19.445            19.808                Irkutsk           619.000
       254   03 Jun 2027 01:43:38.329   03 Jun 2027 01:43:48.980            10.651                 Moscow           332.844
       255   03 Jun 2027 01:44:32.022   03 Jun 2027 01:44:41.648             9.626                 Moscow           300.813
       256   03 Jun 2027 01:46:33.687   03 Jun 2027 01:47:03.877            30.190                  Delhi           943.438
       257   03 Jun 2027 02:05:11.839   03 Jun 2027 02:05:59.416            47.577               CapeTown          1486.781
       258   03 Jun 2027 02:13:58.435   03 Jun 2027 02:14:00.079             1.644               CapeTown            51.375
       259   03 Jun 2027 02:59:44.939   03 Jun 2027 03:00:00.180            15.241                Anadyr2           476.281
       260   03 Jun 2027 03:00:39.283   03 Jun 2027 03:02:12.206            92.923                Anadyr2          2903.844
       261   03 Jun 2027 03:19:00.480   03 Jun 2027 03:19:45.333            44.853                Norilsk          1401.656
       262   03 Jun 2027 03:20:56.846   03 Jun 2027 03:22:23.335            86.489              Murmansk2          2702.781
       263   03 Jun 2027 03:22:23.335   03 Jun 2027 03:22:25.213             1.878              Murmansk1            58.687
       264   03 Jun 2027 03:22:52.175   03 Jun 2027 03:23:59.461            67.286              Murmansk1          2102.688
       265   03 Jun 2027 04:42:15.845   03 Jun 2027 04:45:49.483           213.638                Anadyr1          6676.188
       266   03 Jun 2027 04:45:56.754   03 Jun 2027 04:46:08.238            11.484                Anadyr1           358.875
       267   03 Jun 2027 04:48:30.081   03 Jun 2027 04:48:40.821            10.740                Norilsk           335.625
       268   03 Jun 2027 06:18:56.333   03 Jun 2027 06:19:01.221             4.888               Magadan1           152.750
       269   03 Jun 2027 06:19:06.155   03 Jun 2027 06:19:11.549             5.394                Anadyr1           168.562
       270   03 Jun 2027 06:19:18.444   03 Jun 2027 06:19:40.374            21.930               Magadan2           685.313
       271   03 Jun 2027 06:19:50.920   03 Jun 2027 06:19:51.976             1.056               Magadan2            33.000
       272   03 Jun 2027 06:19:59.389   03 Jun 2027 06:21:42.302           102.913               Magadan2          3216.031
       273   03 Jun 2027 07:01:21.679   03 Jun 2027 07:02:11.618            49.939            RioGallegos          1560.594
       274   03 Jun 2027 07:51:59.629   03 Jun 2027 07:52:12.457            12.828               Magadan2           400.875
       275   03 Jun 2027 07:52:55.595   03 Jun 2027 07:53:11.830            16.235               Magadan1           507.344
       276   03 Jun 2027 07:53:14.339   03 Jun 2027 07:53:19.771             5.432               Magadan1           169.750
       277   03 Jun 2027 07:53:45.302   03 Jun 2027 07:54:05.111            19.809                Norilsk           619.031
       278   03 Jun 2027 07:54:08.343   03 Jun 2027 07:54:38.369            30.026               Magadan1           938.313
       279   03 Jun 2027 07:54:58.384   03 Jun 2027 07:55:16.343            17.959                Anadyr1           561.219
       280   03 Jun 2027 07:55:33.407   03 Jun 2027 07:55:36.587             3.180                Novosib            99.375
       281   03 Jun 2027 07:55:36.846   03 Jun 2027 07:56:29.471            52.625                Novosib          1644.531
       282   03 Jun 2027 07:56:42.466   03 Jun 2027 07:56:43.274             0.808               Magadan1            25.250
       283   03 Jun 2027 07:56:56.175   03 Jun 2027 07:57:16.623            20.448                Norilsk           639.000
       284   03 Jun 2027 07:57:22.627   03 Jun 2027 07:57:30.004             7.377                Irkutsk           230.531
       285   03 Jun 2027 07:57:36.590   03 Jun 2027 07:57:55.342            18.752                Anadyr1           586.000
       286   03 Jun 2027 07:58:07.647   03 Jun 2027 07:58:33.963            26.316              Murmansk1           822.375
       287   03 Jun 2027 07:58:35.735   03 Jun 2027 07:58:42.454             6.719               Magadan1           209.969
       288   03 Jun 2027 07:58:58.435   03 Jun 2027 07:59:02.354             3.919                Norilsk           122.469
       289   03 Jun 2027 07:59:07.783   03 Jun 2027 08:00:03.996            56.213              Murmansk2          1756.656
       290   03 Jun 2027 08:02:20.459   03 Jun 2027 08:02:27.574             7.115              Murmansk1           222.344
       291   03 Jun 2027 08:34:15.436   03 Jun 2027 08:34:36.195            20.759            RioGallegos           648.719
       292   03 Jun 2027 08:34:58.425   03 Jun 2027 08:35:27.444            29.019            RioGallegos           906.844
       293   03 Jun 2027 09:10:50.152   03 Jun 2027 09:11:54.875            64.723                Sumatra          2022.594
       294   03 Jun 2027 09:17:30.643   03 Jun 2027 09:18:20.574            49.931                Sumatra          1560.344
       295   03 Jun 2027 09:28:55.026   03 Jun 2027 09:29:02.558             7.532                Novosib           235.375
       296   03 Jun 2027 09:29:25.690   03 Jun 2027 09:30:05.174            39.484                Norilsk          1233.875
       297   03 Jun 2027 09:30:18.854   03 Jun 2027 09:31:03.294            44.440                Novosib          1388.750
       298   03 Jun 2027 09:31:06.052   03 Jun 2027 09:31:23.508            17.456                Irkutsk           545.500
       299   03 Jun 2027 09:31:24.696   03 Jun 2027 09:31:36.134            11.438                Norilsk           357.437
       300   03 Jun 2027 09:31:51.591   03 Jun 2027 09:31:58.183             6.592                Novosib           206.000
       301   03 Jun 2027 09:32:03.179   03 Jun 2027 09:33:21.320            78.141                Irkutsk          2441.906
       302   03 Jun 2027 09:33:41.827   03 Jun 2027 09:34:19.269            37.442                Norilsk          1170.062
       303   03 Jun 2027 09:34:27.974   03 Jun 2027 09:34:33.267             5.293                Novosib           165.406
       304   03 Jun 2027 09:34:34.267   03 Jun 2027 09:35:41.445            67.178              Murmansk1          2099.313
       305   03 Jun 2027 10:10:42.043   03 Jun 2027 10:11:03.635            21.592            RioGallegos           674.750
       306   03 Jun 2027 10:13:00.367   03 Jun 2027 10:13:26.657            26.290            RioGallegos           821.562
       307   03 Jun 2027 10:15:17.069   03 Jun 2027 10:15:35.198            18.129            RioGallegos           566.531
       308   03 Jun 2027 10:45:03.501   03 Jun 2027 10:45:31.353            27.852                Sumatra           870.375
       309   03 Jun 2027 10:47:46.837   03 Jun 2027 10:49:47.189           120.352                Sumatra          3761.000
       310   03 Jun 2027 11:06:20.396   03 Jun 2027 11:07:02.927            42.531                Norilsk          1329.094
       311   03 Jun 2027 11:07:10.501   03 Jun 2027 11:08:07.949            57.448                 Moscow          1795.250
       312   03 Jun 2027 11:08:19.899   03 Jun 2027 11:08:41.661            21.762                 Moscow           680.063
       313   03 Jun 2027 11:08:42.659   03 Jun 2027 11:09:12.343            29.684              Murmansk2           927.625
       314   03 Jun 2027 11:09:12.343   03 Jun 2027 11:09:41.383            29.040              Murmansk1           907.500
       315   03 Jun 2027 11:09:49.072   03 Jun 2027 11:10:12.882            23.810              Murmansk2           744.063
       316   03 Jun 2027 11:10:21.446   03 Jun 2027 11:10:34.559            13.113              Murmansk2           409.781
       317   03 Jun 2027 11:10:46.116   03 Jun 2027 11:11:02.063            15.947                Novosib           498.344
       318   03 Jun 2027 11:11:05.997   03 Jun 2027 11:11:21.360            15.363              Murmansk2           480.094
       319   03 Jun 2027 11:12:04.503   03 Jun 2027 11:12:17.488            12.985                 Moscow           405.781
       320   03 Jun 2027 12:29:44.406   03 Jun 2027 12:31:41.080           116.674                  Delhi          3646.063
       321   03 Jun 2027 12:33:57.436   03 Jun 2027 12:34:18.982            21.546                  Delhi           673.312
       322   03 Jun 2027 12:37:58.699   03 Jun 2027 12:38:28.195            29.496                Novosib           921.750
       323   03 Jun 2027 12:38:29.609   03 Jun 2027 12:39:40.425            70.816                 Moscow          2213.000
       324   03 Jun 2027 12:41:04.841   03 Jun 2027 12:42:16.079            71.238                Novosib          2226.187
       325   03 Jun 2027 12:42:28.524   03 Jun 2027 12:43:18.576            50.052              Murmansk1          1564.125
       326   03 Jun 2027 12:44:15.575   03 Jun 2027 12:44:20.629             5.054              Murmansk1           157.937
       327   03 Jun 2027 12:44:36.204   03 Jun 2027 12:44:51.681            15.477              Murmansk1           483.656
       328   03 Jun 2027 12:46:27.780   03 Jun 2027 12:46:46.557            18.777                Norilsk           586.781
       329   03 Jun 2027 14:13:30.617   03 Jun 2027 14:16:45.496           194.879                 Moscow          6089.969
       330   03 Jun 2027 14:16:49.466   03 Jun 2027 14:17:19.765            30.299                 Moscow           946.844
       331   03 Jun 2027 14:18:26.697   03 Jun 2027 14:18:56.576            29.879              Murmansk2           933.719
       332   03 Jun 2027 14:19:01.155   03 Jun 2027 14:20:41.812           100.657              Murmansk1          3145.531
       333   03 Jun 2027 14:22:39.576   03 Jun 2027 14:24:09.169            89.593                Norilsk          2799.781
       334   03 Jun 2027 14:24:46.903   03 Jun 2027 14:26:28.147           101.244                Norilsk          3163.875
       335   03 Jun 2027 14:35:51.952   03 Jun 2027 14:36:03.878            11.926                Anadyr2           372.688
       336   03 Jun 2027 15:27:23.243   03 Jun 2027 15:28:03.067            39.824               CapeTown          1244.500
       337   03 Jun 2027 15:28:38.830   03 Jun 2027 15:29:17.373            38.543               CapeTown          1204.469
       338   03 Jun 2027 15:54:38.668   03 Jun 2027 15:54:39.411             0.743              Murmansk1            23.219
       339   03 Jun 2027 15:54:53.384   03 Jun 2027 15:55:35.605            42.221              Murmansk1          1319.406
       340   03 Jun 2027 15:56:13.403   03 Jun 2027 15:56:22.185             8.782              Murmansk2           274.438
       341   03 Jun 2027 15:56:34.465   03 Jun 2027 15:57:07.574            33.109              Murmansk1          1034.656
       342   03 Jun 2027 15:58:16.275   03 Jun 2027 15:58:30.502            14.227              Murmansk1           444.594
       343   03 Jun 2027 15:59:00.366   03 Jun 2027 15:59:28.258            27.892              Murmansk1           871.625
       344   03 Jun 2027 16:07:47.373   03 Jun 2027 16:09:43.772           116.399                Anadyr1          3637.469
       345   03 Jun 2027 16:10:15.935   03 Jun 2027 16:11:25.919            69.984                Anadyr2          2187.000
       346   03 Jun 2027 17:03:14.920   03 Jun 2027 17:04:13.199            58.279               CapeTown          1821.219
       347   03 Jun 2027 17:34:49.210   03 Jun 2027 17:37:44.882           175.672              Murmansk1          5489.750
       348   03 Jun 2027 17:38:44.486   03 Jun 2027 17:40:01.733            77.247              Murmansk1          2413.969
       349   03 Jun 2027 17:43:44.188   03 Jun 2027 17:44:07.181            22.993                Anadyr2           718.531
       350   03 Jun 2027 17:46:25.100   03 Jun 2027 17:47:58.229            93.129               Magadan1          2910.281
       351   03 Jun 2027 17:48:34.698   03 Jun 2027 17:49:48.573            73.875               Magadan2          2308.594
       352   03 Jun 2027 19:19:26.242   03 Jun 2027 19:21:28.950           122.708                Anadyr1          3834.625
       353   03 Jun 2027 19:21:43.723   03 Jun 2027 19:23:14.358            90.635               Magadan2          2832.344
       354   03 Jun 2027 19:23:50.358   03 Jun 2027 19:25:39.226           108.868               Magadan1          3402.125
       355   03 Jun 2027 19:32:41.794   03 Jun 2027 19:33:06.682            24.888               Magadan1           777.750
       356   03 Jun 2027 20:14:56.476   03 Jun 2027 20:17:52.052           175.576            RioGallegos          5486.750
       357   03 Jun 2027 20:21:09.236   03 Jun 2027 20:22:03.695            54.459            RioGallegos          1701.844
       358   03 Jun 2027 20:57:21.434   03 Jun 2027 21:01:07.057           225.623                Norilsk          7050.719
       359   03 Jun 2027 21:02:01.248   03 Jun 2027 21:02:29.806            28.558                Irkutsk           892.437
       360   03 Jun 2027 21:02:37.635   03 Jun 2027 21:03:18.358            40.723                Irkutsk          1272.594
       361   03 Jun 2027 21:05:01.526   03 Jun 2027 21:05:22.256            20.730                Irkutsk           647.813
       362   03 Jun 2027 21:16:29.453   03 Jun 2027 21:18:29.587           120.134                Sumatra          3754.187
       363   03 Jun 2027 21:20:06.380   03 Jun 2027 21:20:39.364            32.984                Sumatra          1030.750
       364   03 Jun 2027 21:21:34.795   03 Jun 2027 21:22:41.831            67.036                Sumatra          2094.875
       365   03 Jun 2027 22:33:47.778   03 Jun 2027 22:33:58.781            11.003               Magadan1           343.844
       366   03 Jun 2027 22:34:04.892   03 Jun 2027 22:35:14.278            69.386                Norilsk          2168.313
       367   03 Jun 2027 22:37:03.881   03 Jun 2027 22:38:05.846            61.965                Irkutsk          1936.406
       368   03 Jun 2027 22:38:21.820   03 Jun 2027 22:39:11.420            49.600                Novosib          1550.000
       369   03 Jun 2027 22:43:10.810   03 Jun 2027 22:44:27.506            76.696                Novosib          2396.750
       370   03 Jun 2027 22:46:37.251   03 Jun 2027 22:49:03.681           146.430                  Delhi          4575.937
       371   04 Jun 2027 00:06:36.111   04 Jun 2027 00:06:51.550            15.439                Anadyr2           482.469
       372   04 Jun 2027 00:09:00.142   04 Jun 2027 00:09:48.384            48.242                Anadyr1          1507.562
       373   04 Jun 2027 00:09:49.861   04 Jun 2027 00:10:53.785            63.924               Magadan2          1997.625
       374   04 Jun 2027 00:10:53.785   04 Jun 2027 00:11:22.269            28.484               Magadan1           890.125
       375   04 Jun 2027 00:11:54.308   04 Jun 2027 00:14:08.590           134.282              Murmansk1          4196.313
       376   04 Jun 2027 00:14:08.590   04 Jun 2027 00:16:31.875           143.285              Murmansk2          4477.656
       377   04 Jun 2027 00:24:59.507   04 Jun 2027 00:26:08.967            69.460                  Delhi          2170.625
       378   04 Jun 2027 01:06:34.735   04 Jun 2027 01:07:11.182            36.447            RioGallegos          1138.969
       379   04 Jun 2027 01:37:36.749   04 Jun 2027 01:38:01.593            24.844                Anadyr2           776.375
       380   04 Jun 2027 01:38:46.627   04 Jun 2027 01:39:24.500            37.873                Anadyr1          1183.531
       381   04 Jun 2027 01:40:21.289   04 Jun 2027 01:40:43.148            21.859                Anadyr2           683.094
       382   04 Jun 2027 01:40:43.862   04 Jun 2027 01:40:48.711             4.849                Anadyr1           151.531
       383   04 Jun 2027 01:43:29.146   04 Jun 2027 01:44:31.623            62.477               Magadan1          1952.406
       384   04 Jun 2027 01:44:58.416   04 Jun 2027 01:45:33.904            35.488               Magadan2          1109.000
       385   04 Jun 2027 01:45:45.761   04 Jun 2027 01:47:07.112            81.351               Magadan2          2542.219
       386   04 Jun 2027 01:47:20.373   04 Jun 2027 01:48:11.343            50.970              Murmansk1          1592.812
       387   04 Jun 2027 01:48:19.808   04 Jun 2027 01:48:46.903            27.095              Murmansk2           846.719
       388   04 Jun 2027 01:50:59.175   04 Jun 2027 01:51:23.262            24.087                 Moscow           752.719
       389   04 Jun 2027 01:55:28.398   04 Jun 2027 01:55:47.425            19.027                 Moscow           594.594
       390   04 Jun 2027 01:57:14.105   04 Jun 2027 01:57:44.300            30.195                 Moscow           943.594
       391   04 Jun 2027 01:59:43.576   04 Jun 2027 01:59:58.862            15.286                  Delhi           477.687
       392   04 Jun 2027 02:00:33.434   04 Jun 2027 02:02:45.902           132.468                  Delhi          4139.625
       393   04 Jun 2027 03:32:52.987   04 Jun 2027 03:36:07.014           194.027              Murmansk2          6063.344
       394   04 Jun 2027 03:36:21.412   04 Jun 2027 03:37:01.450            40.038                 Moscow          1251.188
       395   04 Jun 2027 03:50:26.348   04 Jun 2027 03:52:44.753           138.405               CapeTown          4325.156
       396   04 Jun 2027 04:54:00.191   04 Jun 2027 04:56:21.310           141.119               Magadan1          4409.969
       397   04 Jun 2027 04:56:21.310   04 Jun 2027 04:56:51.905            30.595               Magadan2           956.094
       398   04 Jun 2027 04:56:53.856   04 Jun 2027 05:00:02.698           188.842                Anadyr2          5901.313
       399   04 Jun 2027 06:30:08.025   04 Jun 2027 06:31:02.093            54.068                Irkutsk          1689.625
       400   04 Jun 2027 06:31:07.535   04 Jun 2027 06:31:11.721             4.186               Magadan2           130.812
       401   04 Jun 2027 06:31:17.113   04 Jun 2027 06:31:34.632            17.519               Magadan2           547.469
       402   04 Jun 2027 06:31:45.165   04 Jun 2027 06:31:52.866             7.701               Magadan1           240.656
       403   04 Jun 2027 06:31:55.988   04 Jun 2027 06:32:53.803            57.815                Irkutsk          1806.719
       404   04 Jun 2027 06:33:02.717   04 Jun 2027 06:33:21.725            19.008                Anadyr1           594.000
       405   04 Jun 2027 06:33:42.687   04 Jun 2027 06:33:45.002             2.315               Magadan1            72.344
       406   04 Jun 2027 06:34:22.425   04 Jun 2027 06:35:38.992            76.567                Anadyr2          2392.719
       407   04 Jun 2027 08:05:11.604   04 Jun 2027 08:05:32.797            21.193               Magadan1           662.281
       408   04 Jun 2027 08:05:34.120   04 Jun 2027 08:06:09.953            35.833               Magadan2          1119.781
       409   04 Jun 2027 08:06:29.843   04 Jun 2027 08:06:38.978             9.135                Irkutsk           285.469
       410   04 Jun 2027 08:06:46.489   04 Jun 2027 08:07:37.665            51.176               Magadan2          1599.250
       411   04 Jun 2027 08:07:44.775   04 Jun 2027 08:08:13.063            28.288                Norilsk           884.000
       412   04 Jun 2027 08:08:19.595   04 Jun 2027 08:09:24.684            65.089                Irkutsk          2034.031
       413   04 Jun 2027 08:09:32.711   04 Jun 2027 08:09:45.828            13.117                Novosib           409.906
       414   04 Jun 2027 08:09:47.380   04 Jun 2027 08:10:22.009            34.629                Norilsk          1082.156
       415   04 Jun 2027 08:10:42.885   04 Jun 2027 08:10:48.801             5.916                Norilsk           184.875
       416   04 Jun 2027 08:10:55.810   04 Jun 2027 08:11:20.414            24.604              Murmansk2           768.875
       417   04 Jun 2027 08:12:33.394   04 Jun 2027 08:12:45.004            11.610              Murmansk1           362.812
       418   04 Jun 2027 08:15:36.115   04 Jun 2027 08:15:38.787             2.672              Murmansk2            83.500
       419   04 Jun 2027 08:16:25.207   04 Jun 2027 08:17:07.135            41.928              Murmansk1          1310.250
       420   04 Jun 2027 08:46:08.890   04 Jun 2027 08:47:08.791            59.901            RioGallegos          1871.906
       421   04 Jun 2027 09:22:11.881   04 Jun 2027 09:23:17.101            65.220                Sumatra          2038.125
       422   04 Jun 2027 09:41:34.084   04 Jun 2027 09:42:15.805            41.721                Irkutsk          1303.781
       423   04 Jun 2027 09:42:41.676   04 Jun 2027 09:43:14.169            32.493                Norilsk          1015.406
       424   04 Jun 2027 09:43:14.752   04 Jun 2027 09:43:18.151             3.399                Novosib           106.219
       425   04 Jun 2027 09:43:22.585   04 Jun 2027 09:43:47.614            25.029                Norilsk           782.156
       426   04 Jun 2027 09:43:48.104   04 Jun 2027 09:44:52.411            64.307                Novosib          2009.594
       427   04 Jun 2027 09:44:58.614   04 Jun 2027 09:45:17.291            18.677                Irkutsk           583.656
       428   04 Jun 2027 09:45:28.841   04 Jun 2027 09:46:18.367            49.526                Novosib          1547.687
       429   04 Jun 2027 09:46:28.779   04 Jun 2027 09:47:17.339            48.560              Murmansk2          1517.500
       430   04 Jun 2027 09:50:32.398   04 Jun 2027 09:50:32.886             0.488              Murmansk2            15.250
       431   04 Jun 2027 10:23:04.888   04 Jun 2027 10:23:34.751            29.863            RioGallegos           933.219
       432   04 Jun 2027 10:23:37.456   04 Jun 2027 10:23:58.360            20.904            RioGallegos           653.250
       433   04 Jun 2027 10:26:09.456   04 Jun 2027 10:26:13.149             3.693            RioGallegos           115.406
       434   04 Jun 2027 10:27:16.934   04 Jun 2027 10:28:12.588            55.654            RioGallegos          1739.187
       435   04 Jun 2027 10:57:20.427   04 Jun 2027 10:57:53.813            33.386                Sumatra          1043.313
       436   04 Jun 2027 11:06:28.453   04 Jun 2027 11:07:57.653            89.200                  Delhi          2787.500
       437   04 Jun 2027 11:18:30.542   04 Jun 2027 11:19:07.147            36.605                Irkutsk          1143.906
       438   04 Jun 2027 11:19:15.146   04 Jun 2027 11:20:09.844            54.698                Novosib          1709.312
       439   04 Jun 2027 11:20:11.882   04 Jun 2027 11:20:58.330            46.448                 Moscow          1451.500
       440   04 Jun 2027 11:21:04.097   04 Jun 2027 11:21:41.843            37.746                Novosib          1179.563
       441   04 Jun 2027 11:21:48.625   04 Jun 2027 11:22:12.157            23.532              Murmansk2           735.375
       442   04 Jun 2027 11:22:14.142   04 Jun 2027 11:22:20.580             6.438                Novosib           201.188
       443   04 Jun 2027 11:22:25.652   04 Jun 2027 11:22:34.927             9.275              Murmansk2           289.844
       444   04 Jun 2027 11:22:34.927   04 Jun 2027 11:22:43.147             8.220              Murmansk1           256.875
       445   04 Jun 2027 11:22:58.809   04 Jun 2027 11:23:06.140             7.331                 Moscow           229.094
       446   04 Jun 2027 11:23:19.285   04 Jun 2027 11:23:57.116            37.831              Murmansk1          1182.219
       447   04 Jun 2027 12:42:13.400   04 Jun 2027 12:43:50.951            97.551                  Delhi          3048.469
       448   04 Jun 2027 12:45:39.345   04 Jun 2027 12:46:18.813            39.468                  Delhi          1233.375
       449   04 Jun 2027 12:50:33.290   04 Jun 2027 12:51:00.852            27.562                 Moscow           861.313
       450   04 Jun 2027 12:51:28.072   04 Jun 2027 12:51:44.612            16.540                 Moscow           516.875
       451   04 Jun 2027 12:53:01.931   04 Jun 2027 12:54:10.289            68.358                Novosib          2136.188
       452   04 Jun 2027 12:54:18.289   04 Jun 2027 12:54:50.753            32.464                Norilsk          1014.500
       453   04 Jun 2027 12:54:52.714   04 Jun 2027 12:55:45.755            53.041              Murmansk1          1657.531
       454   04 Jun 2027 12:55:45.755   04 Jun 2027 12:56:15.631            29.876              Murmansk2           933.625
       455   04 Jun 2027 12:58:29.960   04 Jun 2027 12:58:31.403             1.443              Murmansk2            45.094
       456   04 Jun 2027 12:58:53.596   04 Jun 2027 12:59:15.182            21.586                Norilsk           674.562
       457   04 Jun 2027 14:25:38.061   04 Jun 2027 14:27:34.687           116.626                 Moscow          3644.563
       458   04 Jun 2027 14:29:09.480   04 Jun 2027 14:32:17.806           188.326              Murmansk1          5885.188
       459   04 Jun 2027 14:32:17.806   04 Jun 2027 14:32:52.281            34.475              Murmansk2          1077.344
       460   04 Jun 2027 14:35:42.301   04 Jun 2027 14:36:49.077            66.776                Norilsk          2086.750
       461   04 Jun 2027 14:38:27.947   04 Jun 2027 14:39:13.776            45.829                Norilsk          1432.156
       462   04 Jun 2027 14:45:18.920   04 Jun 2027 14:46:03.406            44.486                Anadyr1          1390.188
       463   04 Jun 2027 14:46:47.045   04 Jun 2027 14:47:08.744            21.699                Anadyr1           678.094
       464   04 Jun 2027 14:48:07.259   04 Jun 2027 14:48:46.930            39.671                Anadyr1          1239.719
       465   04 Jun 2027 15:39:13.376   04 Jun 2027 15:40:17.858            64.482               CapeTown          2015.062
       466   04 Jun 2027 16:04:42.841   04 Jun 2027 16:05:44.256            61.415                 Moscow          1919.219
       467   04 Jun 2027 16:07:02.168   04 Jun 2027 16:08:14.293            72.125              Murmansk1          2253.906
       468   04 Jun 2027 16:19:45.323   04 Jun 2027 16:22:05.827           140.504                Anadyr1          4390.750
       469   04 Jun 2027 16:25:15.463   04 Jun 2027 16:25:39.337            23.874                Anadyr1           746.063
       470   04 Jun 2027 17:15:29.905   04 Jun 2027 17:16:02.638            32.733               CapeTown          1022.906
       471   04 Jun 2027 17:16:09.258   04 Jun 2027 17:16:23.691            14.433               CapeTown           451.031
       472   04 Jun 2027 17:20:17.454   04 Jun 2027 17:20:50.173            32.719               CapeTown          1022.469
       473   04 Jun 2027 17:47:40.989   04 Jun 2027 17:52:01.736           260.747              Murmansk2          8148.344
       474   04 Jun 2027 17:55:31.758   04 Jun 2027 17:56:12.309            40.551                Anadyr1          1267.219
       475   04 Jun 2027 17:58:17.081   04 Jun 2027 18:01:17.619           180.538               Magadan2          5641.812
       476   04 Jun 2027 19:31:27.455   04 Jun 2027 19:33:30.588           123.133                Anadyr1          3847.906
       477   04 Jun 2027 19:33:35.709   04 Jun 2027 19:34:51.791            76.082                Anadyr2          2377.562
       478   04 Jun 2027 19:34:59.186   04 Jun 2027 19:36:58.262           119.076               Magadan1          3721.125
       479   04 Jun 2027 19:38:05.434   04 Jun 2027 19:38:18.898            13.464               Magadan2           420.750
       480   04 Jun 2027 19:44:24.480   04 Jun 2027 19:44:34.823            10.343               Magadan1           323.219
       481   04 Jun 2027 19:45:20.331   04 Jun 2027 19:46:37.090            76.759               Magadan1          2398.719
       482   04 Jun 2027 20:26:30.529   04 Jun 2027 20:27:27.167            56.638            RioGallegos          1769.937
