uniorb/output/strategy_2/Drop/Drop_KinoSat_111403.txt

KinoSat_111403
-------------------------
    Access    *     Start Time (UTCG)     *     Stop Time (UTCG)  *   Duration (s)        *       Station  *  Data (Mbytes)
         1   01 Jun 2027 03:44:16.417   01 Jun 2027 03:44:29.659            13.242                Norilsk           413.813
         2   01 Jun 2027 03:45:10.244   01 Jun 2027 03:45:59.288            49.044                Norilsk          1532.625
         3   01 Jun 2027 03:46:15.674   01 Jun 2027 03:46:47.696            32.022              Murmansk1          1000.687
         4   01 Jun 2027 03:46:54.789   01 Jun 2027 03:47:10.008            15.219              Murmansk1           475.594
         5   01 Jun 2027 03:48:04.921   01 Jun 2027 03:48:38.007            33.086              Murmansk2          1033.937
         6   01 Jun 2027 03:49:09.215   01 Jun 2027 03:49:34.466            25.251                 Moscow           789.094
         7   01 Jun 2027 04:08:53.529   01 Jun 2027 04:10:37.699           104.170               CapeTown          3255.312
         8   01 Jun 2027 05:07:43.445   01 Jun 2027 05:09:13.991            90.546               Magadan1          2829.562
         9   01 Jun 2027 05:09:28.711   01 Jun 2027 05:13:59.083           270.372                Anadyr2          8449.125
        10   01 Jun 2027 05:20:53.702   01 Jun 2027 05:20:55.928             2.226                Norilsk            69.563
        11   01 Jun 2027 05:22:22.496   01 Jun 2027 05:22:53.306            30.810              Murmansk2           962.812
        12   01 Jun 2027 06:43:56.273   01 Jun 2027 06:46:08.845           132.572                Anadyr2          4142.875
        13   01 Jun 2027 06:46:27.301   01 Jun 2027 06:49:12.117           164.816               Magadan2          5150.500
        14   01 Jun 2027 08:18:48.736   01 Jun 2027 08:20:03.534            74.798               Magadan1          2337.438
        15   01 Jun 2027 08:20:03.534   01 Jun 2027 08:22:45.857           162.323               Magadan2          5072.594
        16   01 Jun 2027 08:22:47.912   01 Jun 2027 08:23:52.741            64.829               Magadan1          2025.906
        17   01 Jun 2027 08:24:02.760   01 Jun 2027 08:24:52.797            50.037                Anadyr2          1563.656
        18   01 Jun 2027 08:25:05.699   01 Jun 2027 08:25:06.438             0.739                Novosib            23.094
        19   01 Jun 2027 09:55:28.922   01 Jun 2027 09:56:57.180            88.258                Irkutsk          2758.063
        20   01 Jun 2027 09:57:49.004   01 Jun 2027 09:59:50.202           121.198               Magadan1          3787.437
        21   01 Jun 2027 10:00:22.682   01 Jun 2027 10:01:17.577            54.895                Irkutsk          1715.469
        22   01 Jun 2027 10:01:30.343   01 Jun 2027 10:02:32.096            61.753              Murmansk2          1929.781
        23   01 Jun 2027 10:36:10.329   01 Jun 2027 10:37:02.835            52.506            RioGallegos          1640.812
        24   01 Jun 2027 10:39:05.020   01 Jun 2027 10:39:52.365            47.345            RioGallegos          1479.531
        25   01 Jun 2027 10:40:40.111   01 Jun 2027 10:40:49.916             9.805            RioGallegos           306.406
        26   01 Jun 2027 10:44:00.015   01 Jun 2027 10:44:30.511            30.496            RioGallegos           953.000
        27   01 Jun 2027 11:10:49.190   01 Jun 2027 11:13:10.592           141.402                Sumatra          4418.812
        28   01 Jun 2027 11:31:22.737   01 Jun 2027 11:32:17.024            54.287                Irkutsk          1696.469
        29   01 Jun 2027 11:33:04.289   01 Jun 2027 11:34:49.133           104.844              Murmansk2          3276.375
        30   01 Jun 2027 11:34:54.609   01 Jun 2027 11:35:07.448            12.839              Murmansk2           401.219
        31   01 Jun 2027 11:35:16.014   01 Jun 2027 11:36:10.082            54.068                Irkutsk          1689.625
        32   01 Jun 2027 11:36:15.149   01 Jun 2027 11:36:17.587             2.438              Murmansk2            76.188
        33   01 Jun 2027 11:36:20.154   01 Jun 2027 11:37:46.231            86.077                 Moscow          2689.906
        34   01 Jun 2027 11:37:54.748   01 Jun 2027 11:38:26.027            31.279                Novosib           977.469
        35   01 Jun 2027 11:40:47.409   01 Jun 2027 11:40:55.392             7.983              Murmansk2           249.469
        36   01 Jun 2027 12:19:11.023   01 Jun 2027 12:19:52.518            41.495            RioGallegos          1296.719
        37   01 Jun 2027 12:55:09.732   01 Jun 2027 12:59:13.708           243.976                  Delhi          7624.250
        38   01 Jun 2027 13:03:00.661   01 Jun 2027 13:04:06.986            66.325                Novosib          2072.656
        39   01 Jun 2027 13:07:03.090   01 Jun 2027 13:10:18.315           195.225                Norilsk          6100.781
        40   01 Jun 2027 14:39:25.283   01 Jun 2027 14:42:28.344           183.061                 Moscow          5720.656
        41   01 Jun 2027 14:42:43.842   01 Jun 2027 14:43:15.570            31.728                 Moscow           991.500
        42   01 Jun 2027 14:44:01.323   01 Jun 2027 14:46:12.935           131.612              Murmansk1          4112.875
        43   01 Jun 2027 14:47:00.726   01 Jun 2027 14:47:46.966            46.240                Norilsk          1445.000
        44   01 Jun 2027 14:48:18.861   01 Jun 2027 14:49:07.892            49.031                Norilsk          1532.219
        45   01 Jun 2027 14:50:17.119   01 Jun 2027 14:52:30.132           133.013                Norilsk          4156.656
        46   01 Jun 2027 15:53:56.591   01 Jun 2027 15:54:43.620            47.029               CapeTown          1469.656
        47   01 Jun 2027 16:16:52.267   01 Jun 2027 16:17:27.545            35.278                 Moscow          1102.437
        48   01 Jun 2027 16:19:59.104   01 Jun 2027 16:21:43.975           104.871              Murmansk1          3277.219
        49   01 Jun 2027 16:22:24.747   01 Jun 2027 16:22:42.229            17.482              Murmansk2           546.313
        50   01 Jun 2027 16:33:54.439   01 Jun 2027 16:35:22.572            88.133                Anadyr2          2754.156
        51   01 Jun 2027 16:35:32.865   01 Jun 2027 16:35:39.249             6.384                Anadyr1           199.500
        52   01 Jun 2027 16:35:49.597   01 Jun 2027 16:36:35.934            46.337                Anadyr1          1448.031
        53   01 Jun 2027 17:28:56.285   01 Jun 2027 17:30:25.776            89.491               CapeTown          2796.594
        54   01 Jun 2027 17:34:36.468   01 Jun 2027 17:34:42.536             6.068               CapeTown           189.625
        55   01 Jun 2027 17:37:33.298   01 Jun 2027 17:37:35.644             2.346               CapeTown            73.312
        56   01 Jun 2027 17:39:06.943   01 Jun 2027 17:39:31.676            24.733               CapeTown           772.906
        57   01 Jun 2027 17:59:22.963   01 Jun 2027 18:00:33.039            70.076              Murmansk2          2189.875
        58   01 Jun 2027 18:00:59.970   01 Jun 2027 18:03:52.849           172.879              Murmansk1          5402.469
        59   01 Jun 2027 18:04:37.154   01 Jun 2027 18:05:23.309            46.155              Murmansk1          1442.344
        60   01 Jun 2027 18:09:28.769   01 Jun 2027 18:11:39.871           131.102                Anadyr2          4096.938
        61   01 Jun 2027 18:12:49.750   01 Jun 2027 18:13:40.160            50.410               Magadan1          1575.312
        62   01 Jun 2027 18:14:07.898   01 Jun 2027 18:14:12.466             4.568               Magadan1           142.750
        63   01 Jun 2027 18:14:20.592   01 Jun 2027 18:14:41.574            20.982               Magadan1           655.687
        64   01 Jun 2027 18:15:04.437   01 Jun 2027 18:15:54.356            49.919               Magadan1          1559.969
        65   01 Jun 2027 19:45:24.026   01 Jun 2027 19:49:09.354           225.328                Anadyr1          7041.500
        66   01 Jun 2027 19:49:28.836   01 Jun 2027 19:50:06.278            37.442               Magadan2          1170.062
        67   01 Jun 2027 19:50:09.036   01 Jun 2027 19:51:58.314           109.278               Magadan1          3414.937
        68   01 Jun 2027 19:58:41.464   01 Jun 2027 19:59:12.719            31.255               Magadan1           976.719
        69   01 Jun 2027 20:42:51.143   01 Jun 2027 20:44:27.778            96.635            RioGallegos          3019.844
        70   01 Jun 2027 20:45:00.759   01 Jun 2027 20:45:29.841            29.082            RioGallegos           908.813
        71   01 Jun 2027 21:21:15.098   01 Jun 2027 21:23:25.692           130.594                Anadyr1          4081.063
        72   01 Jun 2027 21:23:26.761   01 Jun 2027 21:25:00.581            93.820                Norilsk          2931.875
        73   01 Jun 2027 21:25:02.424   01 Jun 2027 21:25:58.772            56.348               Magadan1          1760.875
        74   01 Jun 2027 21:26:13.764   01 Jun 2027 21:26:44.603            30.839               Magadan2           963.719
        75   01 Jun 2027 21:27:03.000   01 Jun 2027 21:27:16.258            13.258               Magadan1           414.313
        76   01 Jun 2027 21:27:59.664   01 Jun 2027 21:28:02.823             3.159               Magadan1            98.719
        77   01 Jun 2027 21:28:35.319   01 Jun 2027 21:28:48.333            13.014               Magadan1           406.687
        78   01 Jun 2027 21:29:00.682   01 Jun 2027 21:29:30.295            29.613               Magadan1           925.406
        79   01 Jun 2027 21:30:29.465   01 Jun 2027 21:31:06.014            36.549                Irkutsk          1142.156
        80   01 Jun 2027 21:34:22.798   01 Jun 2027 21:34:33.097            10.299                Irkutsk           321.844
        81   01 Jun 2027 21:34:59.721   01 Jun 2027 21:35:26.227            26.506                Irkutsk           828.312
        82   01 Jun 2027 21:35:59.216   01 Jun 2027 21:36:23.667            24.451                Irkutsk           764.094
        83   01 Jun 2027 21:44:19.658   01 Jun 2027 21:45:58.495            98.837                Sumatra          3088.656
        84   01 Jun 2027 21:46:32.692   01 Jun 2027 21:47:36.519            63.827                Sumatra          1994.594
        85   01 Jun 2027 21:49:36.846   01 Jun 2027 21:51:00.701            83.855                Sumatra          2620.469
        86   01 Jun 2027 22:57:23.741   01 Jun 2027 22:57:31.027             7.286                Anadyr1           227.688
        87   01 Jun 2027 22:57:58.294   01 Jun 2027 22:59:25.066            86.772                Anadyr1          2711.625
        88   01 Jun 2027 22:59:43.094   01 Jun 2027 23:00:44.944            61.850               Magadan1          1932.813
        89   01 Jun 2027 23:01:05.583   01 Jun 2027 23:01:53.294            47.711               Magadan2          1490.969
        90   01 Jun 2027 23:03:05.366   01 Jun 2027 23:04:15.147            69.781                Irkutsk          2180.656
        91   01 Jun 2027 23:04:23.564   01 Jun 2027 23:05:34.704            71.140                Novosib          2223.125
        92   01 Jun 2027 23:10:14.198   01 Jun 2027 23:10:19.474             5.276                Novosib           164.875
        93   01 Jun 2027 23:10:54.316   01 Jun 2027 23:11:04.005             9.689                Novosib           302.781
        94   01 Jun 2027 23:11:34.612   01 Jun 2027 23:11:59.235            24.623                Irkutsk           769.469
        95   01 Jun 2027 23:12:22.978   01 Jun 2027 23:12:58.435            35.457                Novosib          1108.031
        96   01 Jun 2027 23:15:02.699   01 Jun 2027 23:15:31.863            29.164                Irkutsk           911.375
        97   01 Jun 2027 23:21:37.477   01 Jun 2027 23:22:12.361            34.884                Sumatra          1090.125
        98   01 Jun 2027 23:23:16.837   01 Jun 2027 23:24:12.407            55.570                Sumatra          1736.563
        99   01 Jun 2027 23:28:49.667   01 Jun 2027 23:29:28.279            38.612                Sumatra          1206.625
       100   02 Jun 2027 00:01:18.038   02 Jun 2027 00:02:06.122            48.084            RioGallegos          1502.625
       101   02 Jun 2027 00:02:43.318   02 Jun 2027 00:02:49.260             5.942            RioGallegos           185.688
       102   02 Jun 2027 00:03:13.990   02 Jun 2027 00:03:21.897             7.907            RioGallegos           247.094
       103   02 Jun 2027 00:30:53.989   02 Jun 2027 00:31:41.763            47.774                Anadyr2          1492.937
       104   02 Jun 2027 00:33:08.295   02 Jun 2027 00:33:20.680            12.385                Anadyr2           387.031
       105   02 Jun 2027 00:33:38.606   02 Jun 2027 00:33:55.807            17.201                Anadyr2           537.531
       106   02 Jun 2027 00:34:16.956   02 Jun 2027 00:34:34.351            17.395                Anadyr2           543.594
       107   02 Jun 2027 00:35:07.788   02 Jun 2027 00:35:50.722            42.934                Norilsk          1341.688
       108   02 Jun 2027 00:36:19.600   02 Jun 2027 00:37:11.324            51.724                Norilsk          1616.375
       109   02 Jun 2027 00:37:52.948   02 Jun 2027 00:38:05.648            12.700               Magadan2           396.875
       110   02 Jun 2027 00:38:11.577   02 Jun 2027 00:39:20.984            69.407               Magadan1          2168.969
       111   02 Jun 2027 00:39:27.944   02 Jun 2027 00:40:27.858            59.914              Murmansk2          1872.312
       112   02 Jun 2027 00:42:00.997   02 Jun 2027 00:42:30.581            29.584              Murmansk2           924.500
       113   02 Jun 2027 00:45:59.777   02 Jun 2027 00:46:56.947            57.170                Novosib          1786.563
       114   02 Jun 2027 00:48:58.412   02 Jun 2027 00:49:39.617            41.205                Novosib          1287.656
       115   02 Jun 2027 00:53:11.719   02 Jun 2027 00:53:54.165            42.446                  Delhi          1326.438
       116   02 Jun 2027 00:54:53.978   02 Jun 2027 00:55:52.425            58.447                  Delhi          1826.469
       117   02 Jun 2027 01:30:35.080   02 Jun 2027 01:30:57.910            22.830            RioGallegos           713.438
       118   02 Jun 2027 01:32:26.986   02 Jun 2027 01:32:54.358            27.372            RioGallegos           855.375
       119   02 Jun 2027 01:35:06.970   02 Jun 2027 01:35:57.439            50.469            RioGallegos          1577.156
       120   02 Jun 2027 02:04:13.194   02 Jun 2027 02:04:23.628            10.434                Anadyr2           326.062
       121   02 Jun 2027 02:04:39.431   02 Jun 2027 02:04:39.464             0.033                Anadyr1             1.031
       122   02 Jun 2027 02:04:51.140   02 Jun 2027 02:05:18.662            27.522                Anadyr1           860.063
       123   02 Jun 2027 02:06:23.495   02 Jun 2027 02:06:47.629            24.134                Anadyr2           754.188
       124   02 Jun 2027 02:07:29.802   02 Jun 2027 02:07:37.001             7.199                Anadyr1           224.969
       125   02 Jun 2027 02:08:44.259   02 Jun 2027 02:09:00.903            16.644                Anadyr2           520.125
       126   02 Jun 2027 02:09:32.601   02 Jun 2027 02:10:02.932            30.331                Anadyr1           947.844
       127   02 Jun 2027 02:10:23.547   02 Jun 2027 02:10:42.045            18.498               Magadan1           578.062
       128   02 Jun 2027 02:10:48.783   02 Jun 2027 02:11:03.470            14.687               Magadan2           458.969
       129   02 Jun 2027 02:11:16.218   02 Jun 2027 02:11:34.326            18.108               Magadan2           565.875
       130   02 Jun 2027 02:12:34.315   02 Jun 2027 02:12:43.010             8.695                Norilsk           271.719
       131   02 Jun 2027 02:12:55.766   02 Jun 2027 02:13:33.371            37.605               Magadan2          1175.156
       132   02 Jun 2027 02:13:43.157   02 Jun 2027 02:14:46.620            63.463              Murmansk1          1983.219
       133   02 Jun 2027 02:16:11.450   02 Jun 2027 02:16:23.419            11.969                Novosib           374.031
       134   02 Jun 2027 02:17:17.127   02 Jun 2027 02:17:42.704            25.577                 Moscow           799.281
       135   02 Jun 2027 02:19:55.293   02 Jun 2027 02:20:08.115            12.822              Murmansk2           400.687
       136   02 Jun 2027 02:20:34.635   02 Jun 2027 02:20:49.417            14.782                Irkutsk           461.938
       137   02 Jun 2027 02:21:37.985   02 Jun 2027 02:22:40.681            62.696                Irkutsk          1959.250
       138   02 Jun 2027 02:29:27.176   02 Jun 2027 02:29:41.519            14.343                  Delhi           448.219
       139   02 Jun 2027 02:32:21.137   02 Jun 2027 02:32:21.286             0.149                  Delhi             4.656
       140   02 Jun 2027 02:44:06.524   02 Jun 2027 02:45:20.257            73.733               CapeTown          2304.156
       141   02 Jun 2027 02:50:51.049   02 Jun 2027 02:51:26.147            35.098               CapeTown          1096.812
       142   02 Jun 2027 03:56:47.380   02 Jun 2027 03:57:53.833            66.453                Norilsk          2076.656
       143   02 Jun 2027 03:58:12.315   02 Jun 2027 03:58:17.475             5.160                Norilsk           161.250
       144   02 Jun 2027 03:58:48.238   02 Jun 2027 03:59:08.962            20.724              Murmansk2           647.625
       145   02 Jun 2027 03:59:48.439   02 Jun 2027 04:00:54.429            65.990              Murmansk1          2062.187
       146   02 Jun 2027 04:02:21.863   02 Jun 2027 04:02:34.170            12.307                 Moscow           384.594
       147   02 Jun 2027 05:20:10.389   02 Jun 2027 05:21:59.178           108.789                Anadyr1          3399.656
       148   02 Jun 2027 05:21:59.178   02 Jun 2027 05:23:30.558            91.380                Anadyr2          2855.625
       149   02 Jun 2027 05:23:44.647   02 Jun 2027 05:23:46.524             1.877               Magadan1            58.656
       150   02 Jun 2027 05:23:56.749   02 Jun 2027 05:24:51.570            54.821                Anadyr2          1713.156
       151   02 Jun 2027 06:58:05.641   02 Jun 2027 06:58:18.724            13.083               Magadan1           408.844
       152   02 Jun 2027 06:58:52.879   02 Jun 2027 07:01:49.531           176.652                Anadyr1          5520.375
       153   02 Jun 2027 07:02:21.075   02 Jun 2027 07:02:34.356            13.281              Murmansk1           415.031
       154   02 Jun 2027 07:03:10.005   02 Jun 2027 07:04:35.628            85.623              Murmansk2          2675.719
       155   02 Jun 2027 07:04:45.516   02 Jun 2027 07:05:39.336            53.820              Murmansk1          1681.875
       156   02 Jun 2027 07:40:00.572   02 Jun 2027 07:40:20.938            20.366            RioGallegos           636.437
       157   02 Jun 2027 07:43:26.805   02 Jun 2027 07:44:59.926            93.121            RioGallegos          2910.031
       158   02 Jun 2027 08:30:23.772   02 Jun 2027 08:30:27.471             3.699                Irkutsk           115.594
       159   02 Jun 2027 08:30:35.789   02 Jun 2027 08:30:43.800             8.011                Norilsk           250.344
       160   02 Jun 2027 08:30:48.203   02 Jun 2027 08:30:54.546             6.343                Norilsk           198.219
       161   02 Jun 2027 08:30:59.632   02 Jun 2027 08:31:22.439            22.807               Magadan2           712.719
       162   02 Jun 2027 08:31:22.439   02 Jun 2027 08:33:44.398           141.959               Magadan1          4436.219
       163   02 Jun 2027 08:34:13.266   02 Jun 2027 08:36:37.621           144.355                Anadyr1          4511.094
       164   02 Jun 2027 08:36:43.971   02 Jun 2027 08:37:20.754            36.783              Murmansk1          1149.469
       165   02 Jun 2027 08:40:35.247   02 Jun 2027 08:40:46.998            11.751              Murmansk2           367.219
       166   02 Jun 2027 08:42:58.219   02 Jun 2027 08:43:03.273             5.054              Murmansk2           157.937
       167   02 Jun 2027 09:12:25.497   02 Jun 2027 09:13:38.015            72.518            RioGallegos          2266.188
       168   02 Jun 2027 09:49:43.139   02 Jun 2027 09:51:19.387            96.248                Sumatra          3007.750
       169   02 Jun 2027 10:06:32.041   02 Jun 2027 10:06:39.347             7.306                Norilsk           228.313
       170   02 Jun 2027 10:06:44.271   02 Jun 2027 10:06:56.665            12.394                Novosib           387.312
       171   02 Jun 2027 10:07:04.813   02 Jun 2027 10:07:16.739            11.926                Novosib           372.688
       172   02 Jun 2027 10:07:30.246   02 Jun 2027 10:07:44.845            14.599                Irkutsk           456.219
       173   02 Jun 2027 10:07:52.505   02 Jun 2027 10:09:50.172           117.667               Magadan2          3677.094
       174   02 Jun 2027 10:10:01.260   02 Jun 2027 10:10:43.729            42.469                Novosib          1327.156
       175   02 Jun 2027 10:10:47.469   02 Jun 2027 10:11:48.773            61.304              Murmansk2          1915.750
       176   02 Jun 2027 10:11:57.453   02 Jun 2027 10:12:41.836            44.383              Murmansk1          1386.969
       177   02 Jun 2027 10:12:41.836   02 Jun 2027 10:12:52.162            10.326              Murmansk2           322.688
       178   02 Jun 2027 10:12:54.985   02 Jun 2027 10:12:57.593             2.608                Norilsk            81.500
       179   02 Jun 2027 10:13:03.320   02 Jun 2027 10:14:01.051            57.731                Norilsk          1804.094
       180   02 Jun 2027 10:48:24.584   02 Jun 2027 10:49:17.090            52.506            RioGallegos          1640.812
       181   02 Jun 2027 10:51:05.077   02 Jun 2027 10:51:13.058             7.981            RioGallegos           249.406
       182   02 Jun 2027 11:22:53.881   02 Jun 2027 11:23:54.325            60.444                Sumatra          1888.875
       183   02 Jun 2027 11:27:47.145   02 Jun 2027 11:28:42.367            55.222                Sumatra          1725.688
       184   02 Jun 2027 11:43:11.899   02 Jun 2027 11:43:24.512            12.613                  Delhi           394.156
       185   02 Jun 2027 11:43:33.771   02 Jun 2027 11:44:57.548            83.777                Novosib          2618.031
       186   02 Jun 2027 11:45:03.678   02 Jun 2027 11:45:58.432            54.754                Novosib          1711.062
       187   02 Jun 2027 11:46:19.735   02 Jun 2027 11:46:27.165             7.430                Novosib           232.188
       188   02 Jun 2027 11:46:28.235   02 Jun 2027 11:47:15.693            47.458              Murmansk2          1483.062
       189   02 Jun 2027 11:47:30.566   02 Jun 2027 11:48:38.995            68.429                Novosib          2138.406
       190   02 Jun 2027 11:48:45.166   02 Jun 2027 11:49:12.205            27.039                Norilsk           844.969
       191   02 Jun 2027 11:49:28.109   02 Jun 2027 11:50:17.812            49.703              Murmansk2          1553.219
       192   02 Jun 2027 12:30:15.085   02 Jun 2027 12:31:30.359            75.274            RioGallegos          2352.313
       193   02 Jun 2027 13:07:24.290   02 Jun 2027 13:07:37.544            13.254                  Delhi           414.187
       194   02 Jun 2027 13:09:59.982   02 Jun 2027 13:12:09.333           129.351                  Delhi          4042.219
       195   02 Jun 2027 13:15:27.704   02 Jun 2027 13:16:09.676            41.972                Novosib          1311.625
       196   02 Jun 2027 13:17:23.823   02 Jun 2027 13:19:10.735           106.912                Novosib          3341.000
       197   02 Jun 2027 13:19:26.237   02 Jun 2027 13:20:12.204            45.967                Norilsk          1436.469
       198   02 Jun 2027 13:23:08.786   02 Jun 2027 13:24:23.768            74.982                Norilsk          2343.188
       199   02 Jun 2027 14:51:26.823   02 Jun 2027 14:54:32.545           185.722                 Moscow          5803.812
       200   02 Jun 2027 14:54:45.329   02 Jun 2027 14:55:18.990            33.661                 Moscow          1051.906
       201   02 Jun 2027 14:55:32.840   02 Jun 2027 14:56:35.228            62.388              Murmansk2          1949.625
       202   02 Jun 2027 14:56:35.228   02 Jun 2027 14:56:45.867            10.639              Murmansk1           332.469
       203   02 Jun 2027 14:56:45.867   02 Jun 2027 14:57:33.526            47.659              Murmansk2          1489.344
       204   02 Jun 2027 14:59:47.462   02 Jun 2027 15:01:09.423            81.961                Norilsk          2561.281
       205   02 Jun 2027 15:02:16.700   02 Jun 2027 15:02:31.377            14.677                Norilsk           458.656
       206   02 Jun 2027 15:02:58.565   02 Jun 2027 15:04:26.113            87.548                Norilsk          2735.875
       207   02 Jun 2027 16:08:53.133   02 Jun 2027 16:09:52.570            59.437               CapeTown          1857.406
       208   02 Jun 2027 16:29:23.303   02 Jun 2027 16:30:36.720            73.417                 Moscow          2294.281
       209   02 Jun 2027 16:32:18.233   02 Jun 2027 16:32:26.836             8.603              Murmansk1           268.844
       210   02 Jun 2027 16:32:31.968   02 Jun 2027 16:33:27.933            55.965              Murmansk2          1748.906
       211   02 Jun 2027 16:41:41.132   02 Jun 2027 16:41:47.146             6.014              Murmansk2           187.937
       212   02 Jun 2027 16:42:07.945   02 Jun 2027 16:42:50.020            42.075              Murmansk2          1314.844
       213   02 Jun 2027 16:45:50.315   02 Jun 2027 16:47:02.463            72.148                Anadyr2          2254.625
       214   02 Jun 2027 16:47:02.463   02 Jun 2027 16:47:28.442            25.979                Anadyr1           811.844
       215   02 Jun 2027 16:50:54.305   02 Jun 2027 16:51:12.582            18.277                Anadyr2           571.156
       216   02 Jun 2027 16:52:58.004   02 Jun 2027 16:53:03.193             5.189                Anadyr1           162.156
       217   02 Jun 2027 16:54:26.661   02 Jun 2027 16:54:47.324            20.663                Anadyr2           645.719
       218   02 Jun 2027 16:54:47.324   02 Jun 2027 16:54:57.734            10.410                Anadyr1           325.312
       219   02 Jun 2027 17:41:04.580   02 Jun 2027 17:41:16.246            11.666               CapeTown           364.562
       220   02 Jun 2027 17:42:01.461   02 Jun 2027 17:42:41.977            40.516               CapeTown          1266.125
       221   02 Jun 2027 17:47:12.124   02 Jun 2027 17:48:49.581            97.457               CapeTown          3045.531
       222   02 Jun 2027 18:12:04.247   02 Jun 2027 18:13:57.515           113.268              Murmansk2          3539.625
       223   02 Jun 2027 18:14:17.523   02 Jun 2027 18:15:51.387            93.864              Murmansk1          2933.250
       224   02 Jun 2027 18:24:35.396   02 Jun 2027 18:26:12.464            97.068               Magadan1          3033.375
       225   02 Jun 2027 18:27:55.803   02 Jun 2027 18:28:12.673            16.870               Magadan1           527.188
       226   02 Jun 2027 18:28:38.426   02 Jun 2027 18:28:40.824             2.398               Magadan1            74.937
       227   02 Jun 2027 18:29:12.578   02 Jun 2027 18:29:20.841             8.263               Magadan2           258.219
       228   02 Jun 2027 19:57:25.573   02 Jun 2027 20:01:05.373           219.800                Anadyr2          6868.750
       229   02 Jun 2027 20:01:32.416   02 Jun 2027 20:03:27.204           114.788               Magadan1          3587.125
       230   02 Jun 2027 20:04:32.957   02 Jun 2027 20:05:25.672            52.715               Magadan1          1647.344
       231   02 Jun 2027 20:06:43.158   02 Jun 2027 20:07:14.178            31.020               Magadan2           969.375
       232   02 Jun 2027 20:09:49.112   02 Jun 2027 20:10:16.829            27.717               Magadan1           866.156
       233   02 Jun 2027 20:11:47.958   02 Jun 2027 20:12:23.683            35.725               Magadan2          1116.406
       234   02 Jun 2027 20:53:33.982   02 Jun 2027 20:56:05.133           151.151            RioGallegos          4723.469
       235   02 Jun 2027 21:33:14.660   02 Jun 2027 21:35:33.629           138.969                Anadyr2          4342.781
       236   02 Jun 2027 21:35:39.250   02 Jun 2027 21:36:02.437            23.187               Magadan1           724.594
       237   02 Jun 2027 21:36:30.839   02 Jun 2027 21:37:01.768            30.929                Norilsk           966.531
       238   02 Jun 2027 21:37:43.143   02 Jun 2027 21:38:20.185            37.042               Magadan2          1157.563
       239   02 Jun 2027 21:38:21.475   02 Jun 2027 21:39:02.305            40.830                Norilsk          1275.938
       240   02 Jun 2027 21:40:17.852   02 Jun 2027 21:41:00.914            43.062                Irkutsk          1345.687
       241   02 Jun 2027 21:43:23.411   02 Jun 2027 21:43:26.915             3.504                Irkutsk           109.500
       242   02 Jun 2027 21:44:22.009   02 Jun 2027 21:44:49.444            27.435                Irkutsk           857.344
       243   02 Jun 2027 21:55:13.783   02 Jun 2027 21:56:40.916            87.133                Sumatra          2722.906
       244   02 Jun 2027 21:58:57.514   02 Jun 2027 22:00:36.261            98.747                Sumatra          3085.844
       245   02 Jun 2027 23:08:30.809   02 Jun 2027 23:08:57.663            26.854                Anadyr1           839.188
       246   02 Jun 2027 23:09:45.897   02 Jun 2027 23:11:03.440            77.543                Anadyr2          2423.219
       247   02 Jun 2027 23:11:09.411   02 Jun 2027 23:11:21.189            11.778                Norilsk           368.063
       248   02 Jun 2027 23:11:46.104   02 Jun 2027 23:13:21.243            95.139               Magadan2          2973.094
       249   02 Jun 2027 23:15:04.396   02 Jun 2027 23:16:12.028            67.632                Irkutsk          2113.500
       250   02 Jun 2027 23:18:22.863   02 Jun 2027 23:18:35.779            12.916                Novosib           403.625
       251   02 Jun 2027 23:20:31.014   02 Jun 2027 23:20:45.331            14.317                Novosib           447.406
       252   02 Jun 2027 23:23:12.544   02 Jun 2027 23:24:02.107            49.563                Novosib          1548.844
       253   02 Jun 2027 23:25:39.543   02 Jun 2027 23:27:10.866            91.323                  Delhi          2853.844
       254   03 Jun 2027 00:10:04.516   03 Jun 2027 00:10:12.710             8.194            RioGallegos           256.063
       255   03 Jun 2027 00:10:19.668   03 Jun 2027 00:10:59.956            40.288            RioGallegos          1259.000
       256   03 Jun 2027 00:14:13.465   03 Jun 2027 00:14:45.335            31.870            RioGallegos           995.937
       257   03 Jun 2027 00:42:37.626   03 Jun 2027 00:42:44.514             6.888                Anadyr2           215.250
       258   03 Jun 2027 00:42:47.798   03 Jun 2027 00:43:03.411            15.613                Anadyr2           487.906
       259   03 Jun 2027 00:43:42.972   03 Jun 2027 00:44:46.772            63.800                Anadyr1          1993.750
       260   03 Jun 2027 00:47:09.886   03 Jun 2027 00:48:11.300            61.414                Norilsk          1919.188
       261   03 Jun 2027 00:48:19.797   03 Jun 2027 00:49:11.250            51.453               Magadan2          1607.906
       262   03 Jun 2027 00:50:04.421   03 Jun 2027 00:52:29.469           145.048              Murmansk2          4532.750
       263   03 Jun 2027 00:55:01.293   03 Jun 2027 00:55:31.162            29.869              Murmansk2           933.406
       264   03 Jun 2027 00:58:54.331   03 Jun 2027 01:00:25.615            91.284                  Delhi          2852.625
       265   03 Jun 2027 01:40:13.749   03 Jun 2027 01:41:35.067            81.318            RioGallegos          2541.187
       266   03 Jun 2027 01:44:55.582   03 Jun 2027 01:45:05.182             9.600            RioGallegos           300.000
       267   03 Jun 2027 02:15:54.932   03 Jun 2027 02:15:55.387             0.455                Anadyr2            14.219
       268   03 Jun 2027 02:16:13.426   03 Jun 2027 02:16:40.693            27.267                Anadyr2           852.094
       269   03 Jun 2027 02:16:40.693   03 Jun 2027 02:16:48.628             7.935                Anadyr1           247.969
       270   03 Jun 2027 02:17:25.119   03 Jun 2027 02:17:44.218            19.099                Anadyr1           596.844
       271   03 Jun 2027 02:18:23.974   03 Jun 2027 02:19:14.571            50.597                Anadyr2          1581.156
       272   03 Jun 2027 02:21:58.674   03 Jun 2027 02:22:25.466            26.792               Magadan1           837.250
       273   03 Jun 2027 02:22:40.488   03 Jun 2027 02:23:02.902            22.414               Magadan2           700.437
       274   03 Jun 2027 02:23:05.330   03 Jun 2027 02:23:20.550            15.220                Norilsk           475.625
       275   03 Jun 2027 02:23:44.635   03 Jun 2027 02:24:04.529            19.894               Magadan1           621.687
       276   03 Jun 2027 02:25:19.870   03 Jun 2027 02:26:40.380            80.510              Murmansk2          2515.938
       277   03 Jun 2027 02:26:40.380   03 Jun 2027 02:27:07.283            26.903              Murmansk1           840.719
       278   03 Jun 2027 02:28:09.556   03 Jun 2027 02:28:26.194            16.638                Novosib           519.938
       279   03 Jun 2027 02:28:33.989   03 Jun 2027 02:29:39.855            65.866                Irkutsk          2058.313
       280   03 Jun 2027 02:37:15.708   03 Jun 2027 02:38:05.947            50.239                Novosib          1569.969
       281   03 Jun 2027 02:42:19.317   03 Jun 2027 02:43:23.519            64.202                  Delhi          2006.312
       282   03 Jun 2027 04:09:47.369   03 Jun 2027 04:10:08.186            20.817                Norilsk           650.531
       283   03 Jun 2027 04:11:01.829   03 Jun 2027 04:11:08.709             6.880              Murmansk2           215.000
       284   03 Jun 2027 04:11:20.609   03 Jun 2027 04:11:37.414            16.805              Murmansk2           525.156
       285   03 Jun 2027 04:11:37.414   03 Jun 2027 04:11:42.778             5.364              Murmansk1           167.625
       286   03 Jun 2027 04:12:56.258   03 Jun 2027 04:14:00.314            64.056              Murmansk1          2001.750
       287   03 Jun 2027 04:33:35.614   03 Jun 2027 04:34:07.357            31.743               CapeTown           991.969
       288   03 Jun 2027 04:37:25.073   03 Jun 2027 04:38:00.065            34.992               CapeTown          1093.500
       289   03 Jun 2027 04:38:18.543   03 Jun 2027 04:38:26.369             7.826               CapeTown           244.563
       290   03 Jun 2027 04:38:54.173   03 Jun 2027 04:40:24.373            90.200               CapeTown          2818.750
       291   03 Jun 2027 05:31:53.987   03 Jun 2027 05:33:14.994            81.007                Anadyr1          2531.469
       292   03 Jun 2027 05:33:21.365   03 Jun 2027 05:33:57.460            36.095                Anadyr1          1127.969
       293   03 Jun 2027 05:34:08.220   03 Jun 2027 05:35:30.113            81.893               Magadan2          2559.156
       294   03 Jun 2027 05:36:49.572   03 Jun 2027 05:37:43.203            53.631                Anadyr1          1675.969
       295   03 Jun 2027 07:08:02.117   03 Jun 2027 07:08:18.423            16.306                Anadyr2           509.562
       296   03 Jun 2027 07:08:30.445   03 Jun 2027 07:08:34.568             4.123                Norilsk           128.844
       297   03 Jun 2027 07:08:41.651   03 Jun 2027 07:09:20.315            38.664               Magadan2          1208.250
       298   03 Jun 2027 07:09:26.307   03 Jun 2027 07:09:34.813             8.506               Magadan2           265.812
       299   03 Jun 2027 07:09:45.296   03 Jun 2027 07:09:54.450             9.154               Magadan2           286.063
       300   03 Jun 2027 07:10:09.446   03 Jun 2027 07:11:23.104            73.658                Anadyr2          2301.812
       301   03 Jun 2027 07:51:21.787   03 Jun 2027 07:52:30.310            68.523            RioGallegos          2141.344
       302   03 Jun 2027 08:41:36.577   03 Jun 2027 08:42:14.696            38.119                Irkutsk          1191.219
       303   03 Jun 2027 08:42:45.353   03 Jun 2027 08:42:48.110             2.757                Norilsk            86.156
       304   03 Jun 2027 08:43:01.606   03 Jun 2027 08:44:04.235            62.629               Magadan2          1957.156
       305   03 Jun 2027 08:44:19.203   03 Jun 2027 08:45:19.499            60.296                Anadyr2          1884.250
       306   03 Jun 2027 08:45:33.733   03 Jun 2027 08:45:36.049             2.316                Novosib            72.375
       307   03 Jun 2027 08:45:43.222   03 Jun 2027 08:46:36.691            53.469               Magadan1          1670.906
       308   03 Jun 2027 08:47:03.572   03 Jun 2027 08:47:42.031            38.459                Anadyr1          1201.844
       309   03 Jun 2027 08:47:52.857   03 Jun 2027 08:48:10.705            17.848               Magadan1           557.750
       310   03 Jun 2027 08:48:22.930   03 Jun 2027 08:48:45.603            22.673              Murmansk1           708.531
       311   03 Jun 2027 08:48:45.603   03 Jun 2027 08:49:09.265            23.662              Murmansk2           739.438
       312   03 Jun 2027 08:49:15.564   03 Jun 2027 08:49:45.939            30.375              Murmansk2           949.219
       313   03 Jun 2027 08:51:54.559   03 Jun 2027 08:52:07.180            12.621              Murmansk2           394.406
       314   03 Jun 2027 09:24:15.870   03 Jun 2027 09:25:16.424            60.554            RioGallegos          1892.312
       315   03 Jun 2027 09:29:43.729   03 Jun 2027 09:29:48.684             4.955            RioGallegos           154.844
       316   03 Jun 2027 10:00:49.444   03 Jun 2027 10:01:48.610            59.166                Sumatra          1848.937
       317   03 Jun 2027 10:09:49.812   03 Jun 2027 10:09:52.701             2.889                Sumatra            90.281
       318   03 Jun 2027 10:19:47.104   03 Jun 2027 10:20:17.465            30.361                Novosib           948.781
       319   03 Jun 2027 10:20:18.738   03 Jun 2027 10:20:22.619             3.881                Irkutsk           121.281
       320   03 Jun 2027 10:20:27.907   03 Jun 2027 10:20:46.100            18.193                Irkutsk           568.531
       321   03 Jun 2027 10:20:53.364   03 Jun 2027 10:21:07.097            13.733                Norilsk           429.156
       322   03 Jun 2027 10:21:24.848   03 Jun 2027 10:21:35.539            10.691                Irkutsk           334.094
       323   03 Jun 2027 10:21:41.965   03 Jun 2027 10:22:50.213            68.248                Novosib          2132.750
       324   03 Jun 2027 10:23:00.277   03 Jun 2027 10:24:12.256            71.979                Novosib          2249.344
       325   03 Jun 2027 10:24:28.823   03 Jun 2027 10:24:59.151            30.328                Norilsk           947.750
       326   03 Jun 2027 10:25:01.933   03 Jun 2027 10:26:28.658            86.725                Norilsk          2710.156
       327   03 Jun 2027 11:03:01.079   03 Jun 2027 11:03:20.003            18.924            RioGallegos           591.375
       328   03 Jun 2027 11:35:34.239   03 Jun 2027 11:37:07.721            93.482                Sumatra          2921.313
       329   03 Jun 2027 11:55:48.177   03 Jun 2027 11:56:57.179            69.002                Novosib          2156.312
       330   03 Jun 2027 11:57:03.859   03 Jun 2027 11:57:16.467            12.608                Irkutsk           394.000
       331   03 Jun 2027 11:57:16.529   03 Jun 2027 11:57:40.473            23.944              Murmansk1           748.250
       332   03 Jun 2027 11:57:51.026   03 Jun 2027 11:58:41.073            50.047                 Moscow          1563.969
       333   03 Jun 2027 11:58:42.884   03 Jun 2027 11:59:14.143            31.259              Murmansk2           976.844
       334   03 Jun 2027 11:59:22.254   03 Jun 2027 11:59:34.544            12.290                Norilsk           384.063
       335   03 Jun 2027 11:59:35.088   03 Jun 2027 12:01:05.077            89.989                Novosib          2812.156
       336   03 Jun 2027 12:01:35.528   03 Jun 2027 12:02:46.403            70.875                Novosib          2214.844
       337   03 Jun 2027 12:04:17.334   03 Jun 2027 12:04:35.423            18.089                Norilsk           565.281
       338   03 Jun 2027 12:05:05.022   03 Jun 2027 12:06:18.075            73.053                Norilsk          2282.906
       339   03 Jun 2027 13:19:45.605   03 Jun 2027 13:20:29.024            43.419                  Delhi          1356.844
       340   03 Jun 2027 13:24:23.311   03 Jun 2027 13:24:53.416            30.105                  Delhi           940.781
       341   03 Jun 2027 13:25:29.500   03 Jun 2027 13:25:58.986            29.486                  Delhi           921.437
       342   03 Jun 2027 13:27:07.467   03 Jun 2027 13:27:57.762            50.295                  Delhi          1571.719
       343   03 Jun 2027 13:27:59.888   03 Jun 2027 13:30:01.030           121.142                Novosib          3785.687
       344   03 Jun 2027 13:31:08.948   03 Jun 2027 13:31:46.785            37.837                Novosib          1182.406
       345   03 Jun 2027 13:32:53.295   03 Jun 2027 13:33:48.115            54.820                Norilsk          1713.125
       346   03 Jun 2027 13:37:38.442   03 Jun 2027 13:38:03.862            25.420                Norilsk           794.375
       347   03 Jun 2027 13:39:19.054   03 Jun 2027 13:40:05.537            46.483                Norilsk          1452.594
       348   03 Jun 2027 15:03:31.331   03 Jun 2027 15:06:46.174           194.843                 Moscow          6088.844
       349   03 Jun 2027 15:07:00.750   03 Jun 2027 15:07:36.184            35.434                 Moscow          1107.313
       350   03 Jun 2027 15:08:15.411   03 Jun 2027 15:08:36.439            21.028              Murmansk1           657.125
       351   03 Jun 2027 15:10:20.702   03 Jun 2027 15:10:35.907            15.205              Murmansk1           475.156
       352   03 Jun 2027 15:12:06.116   03 Jun 2027 15:12:22.072            15.956              Murmansk2           498.625
       353   03 Jun 2027 15:12:40.172   03 Jun 2027 15:14:33.781           113.609                Norilsk          3550.281
       354   03 Jun 2027 15:16:16.538   03 Jun 2027 15:16:21.682             5.144                Norilsk           160.750
       355   03 Jun 2027 15:16:31.637   03 Jun 2027 15:17:03.111            31.474                Norilsk           983.562
       356   03 Jun 2027 15:24:12.083   03 Jun 2027 15:25:09.795            57.712                Anadyr2          1803.500
       357   03 Jun 2027 16:23:16.102   03 Jun 2027 16:23:39.930            23.828               CapeTown           744.625
       358   03 Jun 2027 16:24:39.601   03 Jun 2027 16:24:47.252             7.651               CapeTown           239.094
       359   03 Jun 2027 16:26:49.697   03 Jun 2027 16:27:06.011            16.314               CapeTown           509.813
       360   03 Jun 2027 16:27:43.253   03 Jun 2027 16:28:20.840            37.587               CapeTown          1174.594
       361   03 Jun 2027 16:42:19.656   03 Jun 2027 16:42:59.288            39.632                 Moscow          1238.500
       362   03 Jun 2027 16:44:39.571   03 Jun 2027 16:45:10.063            30.492              Murmansk1           952.875
       363   03 Jun 2027 16:48:20.905   03 Jun 2027 16:48:47.488            26.583              Murmansk1           830.719
       364   03 Jun 2027 16:52:05.907   03 Jun 2027 16:52:44.573            38.666              Murmansk2          1208.312
       365   03 Jun 2027 16:57:47.447   03 Jun 2027 16:57:58.444            10.997                Anadyr1           343.656
       366   03 Jun 2027 16:57:58.444   03 Jun 2027 16:59:23.685            85.241                Anadyr2          2663.781
       367   03 Jun 2027 16:59:46.620   03 Jun 2027 17:00:18.364            31.744                Anadyr1           992.000
       368   03 Jun 2027 17:03:17.615   03 Jun 2027 17:03:40.798            23.183                Anadyr1           724.469
       369   03 Jun 2027 17:53:16.088   03 Jun 2027 17:54:17.292            61.204               CapeTown          1912.625
       370   03 Jun 2027 17:59:38.970   03 Jun 2027 17:59:53.185            14.215               CapeTown           444.219
       371   03 Jun 2027 18:01:42.755   03 Jun 2027 18:02:58.400            75.645               CapeTown          2363.906
       372   03 Jun 2027 18:24:50.089   03 Jun 2027 18:28:07.542           197.453              Murmansk1          6170.406
       373   03 Jun 2027 18:36:24.888   03 Jun 2027 18:37:24.705            59.817               Magadan1          1869.281
       374   03 Jun 2027 18:38:57.270   03 Jun 2027 18:39:12.536            15.266               Magadan1           477.062
       375   03 Jun 2027 18:39:46.646   03 Jun 2027 18:40:27.798            41.152               Magadan1          1286.000
       376   03 Jun 2027 18:43:08.420   03 Jun 2027 18:43:26.332            17.912               Magadan1           559.750
       377   03 Jun 2027 18:44:44.042   03 Jun 2027 18:45:13.542            29.500               Magadan1           921.875
       378   03 Jun 2027 20:09:27.025   03 Jun 2027 20:12:51.312           204.287                Anadyr2          6383.969
       379   03 Jun 2027 20:12:51.312   03 Jun 2027 20:12:54.116             2.804                Anadyr1            87.625
       380   03 Jun 2027 20:12:58.623   03 Jun 2027 20:16:03.765           185.142               Magadan1          5785.688
       381   03 Jun 2027 20:18:53.372   03 Jun 2027 20:19:25.509            32.137               Magadan2          1004.281
       382   03 Jun 2027 21:04:55.428   03 Jun 2027 21:07:48.675           173.247            RioGallegos          5413.969
       383   03 Jun 2027 21:10:25.856   03 Jun 2027 21:11:08.342            42.486            RioGallegos          1327.688
       384   03 Jun 2027 21:45:13.734   03 Jun 2027 21:45:39.842            26.108                Anadyr2           815.875
       385   03 Jun 2027 21:47:18.483   03 Jun 2027 21:47:27.431             8.948                Anadyr2           279.625
       386   03 Jun 2027 21:47:41.857   03 Jun 2027 21:49:11.746            89.889               Magadan1          2809.031
       387   03 Jun 2027 21:49:11.746   03 Jun 2027 21:50:12.395            60.649               Magadan2          1895.281
       388   03 Jun 2027 21:50:38.245   03 Jun 2027 21:50:54.292            16.047                Norilsk           501.469
       389   03 Jun 2027 21:52:00.941   03 Jun 2027 21:52:59.175            58.234                Irkutsk          1819.813
       390   03 Jun 2027 21:56:03.211   03 Jun 2027 21:56:17.244            14.033                Irkutsk           438.531
       391   03 Jun 2027 22:01:16.863   03 Jun 2027 22:01:28.593            11.730                Irkutsk           366.563
       392   03 Jun 2027 22:06:28.930   03 Jun 2027 22:09:09.384           160.454                Sumatra          5014.187
       393   03 Jun 2027 22:15:24.640   03 Jun 2027 22:15:36.889            12.249                Sumatra           382.781
       394   03 Jun 2027 23:20:22.997   03 Jun 2027 23:21:32.132            69.135                Anadyr2          2160.469
       395   03 Jun 2027 23:22:51.100   03 Jun 2027 23:22:59.774             8.674                Anadyr1           271.062
       396   03 Jun 2027 23:23:11.318   03 Jun 2027 23:25:03.131           111.813                Norilsk          3494.156
       397   03 Jun 2027 23:25:37.161   03 Jun 2027 23:25:37.754             0.593               Magadan1            18.531
       398   03 Jun 2027 23:25:51.208   03 Jun 2027 23:26:28.440            37.232               Magadan2          1163.500
       399   03 Jun 2027 23:27:04.455   03 Jun 2027 23:28:05.813            61.358                Irkutsk          1917.437
       400   03 Jun 2027 23:28:23.597   03 Jun 2027 23:30:18.608           115.011                Novosib          3594.094
       401   03 Jun 2027 23:36:36.021   03 Jun 2027 23:39:01.185           145.164                  Delhi          4536.375
       402   04 Jun 2027 00:54:20.371   04 Jun 2027 00:55:44.261            83.890                Anadyr2          2621.563
       403   04 Jun 2027 00:56:37.898   04 Jun 2027 00:56:52.531            14.633                Anadyr2           457.281
       404   04 Jun 2027 00:59:11.908   04 Jun 2027 00:59:22.368            10.460                Norilsk           326.875
       405   04 Jun 2027 00:59:39.321   04 Jun 2027 01:00:11.046            31.725                Norilsk           991.406
       406   04 Jun 2027 01:00:28.986   04 Jun 2027 01:01:38.766            69.780               Magadan1          2180.625
       407   04 Jun 2027 01:01:49.127   04 Jun 2027 01:02:17.460            28.333               Magadan2           885.406
       408   04 Jun 2027 01:02:27.893   04 Jun 2027 01:03:49.954            82.061              Murmansk1          2564.406
       409   04 Jun 2027 01:03:49.954   04 Jun 2027 01:04:31.003            41.049              Murmansk2          1282.781
       410   04 Jun 2027 01:06:17.172   04 Jun 2027 01:06:27.863            10.691                Novosib           334.094
       411   04 Jun 2027 01:10:18.599   04 Jun 2027 01:10:36.121            17.522                Novosib           547.562
       412   04 Jun 2027 01:13:30.602   04 Jun 2027 01:13:43.494            12.892                  Delhi           402.875
       413   04 Jun 2027 01:14:24.025   04 Jun 2027 01:15:06.410            42.385                  Delhi          1324.531
       414   04 Jun 2027 01:19:46.554   04 Jun 2027 01:19:56.285             9.731                  Delhi           304.094
       415   04 Jun 2027 01:52:36.037   04 Jun 2027 01:53:45.419            69.382            RioGallegos          2168.187
       416   04 Jun 2027 01:54:07.009   04 Jun 2027 01:54:22.732            15.723            RioGallegos           491.344
       417   04 Jun 2027 01:56:08.673   04 Jun 2027 01:56:29.186            20.513            RioGallegos           641.031
       418   04 Jun 2027 02:27:37.247   04 Jun 2027 02:28:42.038            64.791                Anadyr2          2024.719
       419   04 Jun 2027 02:29:07.849   04 Jun 2027 02:30:13.064            65.215                Anadyr2          2037.969
       420   04 Jun 2027 02:33:30.625   04 Jun 2027 02:34:21.392            50.767               Magadan1          1586.469
       421   04 Jun 2027 02:35:05.789   04 Jun 2027 02:35:22.981            17.192                Norilsk           537.250
       422   04 Jun 2027 02:37:20.617   04 Jun 2027 02:37:28.775             8.158              Murmansk1           254.937
       423   04 Jun 2027 02:37:40.102   04 Jun 2027 02:38:59.403            79.301              Murmansk2          2478.156
       424   04 Jun 2027 02:39:33.705   04 Jun 2027 02:40:31.263            57.558                Novosib          1798.687
       425   04 Jun 2027 02:44:16.294   04 Jun 2027 02:44:40.000            23.706                Irkutsk           740.813
       426   04 Jun 2027 02:49:11.070   04 Jun 2027 02:50:22.982            71.912                  Delhi          2247.250
       427   04 Jun 2027 03:13:46.161   04 Jun 2027 03:14:56.674            70.513               CapeTown          2203.531
       428   04 Jun 2027 04:22:06.712   04 Jun 2027 04:22:53.576            46.864              Murmansk1          1464.500
       429   04 Jun 2027 04:23:09.068   04 Jun 2027 04:23:21.514            12.446              Murmansk2           388.938
       430   04 Jun 2027 04:23:25.803   04 Jun 2027 04:23:35.169             9.366              Murmansk2           292.687
       431   04 Jun 2027 04:23:50.171   04 Jun 2027 04:24:58.207            68.036              Murmansk1          2126.125
       432   04 Jun 2027 05:44:10.866   04 Jun 2027 05:45:37.020            86.154               Magadan2          2692.312
       433   04 Jun 2027 05:45:51.961   04 Jun 2027 05:46:55.472            63.511               Magadan1          1984.719
       434   04 Jun 2027 07:20:23.409   04 Jun 2027 07:21:26.723            63.314                Anadyr2          1978.562
       435   04 Jun 2027 07:21:48.668   04 Jun 2027 07:21:56.487             7.819               Magadan2           244.344
       436   04 Jun 2027 07:22:09.043   04 Jun 2027 07:22:20.655            11.612                Anadyr2           362.875
       437   04 Jun 2027 07:22:20.655   04 Jun 2027 07:22:56.589            35.934                Anadyr1          1122.938
       438   04 Jun 2027 07:24:19.501   04 Jun 2027 07:25:05.533            46.032                Anadyr1          1438.500
       439   04 Jun 2027 08:02:47.692   04 Jun 2027 08:03:30.551            42.859            RioGallegos          1339.344
       440   04 Jun 2027 08:54:45.288   04 Jun 2027 08:54:57.439            12.151                Novosib           379.719
       441   04 Jun 2027 08:55:08.804   04 Jun 2027 08:55:24.433            15.629               Magadan2           488.406
       442   04 Jun 2027 08:55:39.570   04 Jun 2027 08:56:50.226            70.656               Magadan2          2208.000
       443   04 Jun 2027 08:57:38.395   04 Jun 2027 08:57:56.308            17.913               Magadan1           559.781
       444   04 Jun 2027 08:57:56.308   04 Jun 2027 08:58:20.266            23.958               Magadan2           748.687
       445   04 Jun 2027 08:58:23.458   04 Jun 2027 08:58:41.612            18.154                Irkutsk           567.312
       446   04 Jun 2027 08:59:00.252   04 Jun 2027 08:59:22.175            21.923                Novosib           685.094
       447   04 Jun 2027 08:59:30.586   04 Jun 2027 08:59:57.583            26.997                Irkutsk           843.656
       448   04 Jun 2027 09:00:01.285   04 Jun 2027 09:00:35.612            34.327              Murmansk2          1072.719
       449   04 Jun 2027 09:00:38.554   04 Jun 2027 09:01:01.297            22.743                Norilsk           710.719
       450   04 Jun 2027 09:01:03.358   04 Jun 2027 09:01:05.902             2.544               Magadan1            79.500
       451   04 Jun 2027 09:01:09.169   04 Jun 2027 09:01:15.038             5.869              Murmansk2           183.406
       452   04 Jun 2027 09:01:39.483   04 Jun 2027 09:01:44.903             5.420              Murmansk2           169.375
       453   04 Jun 2027 09:01:44.903   04 Jun 2027 09:03:00.191            75.288              Murmansk1          2352.750
       454   04 Jun 2027 09:36:09.450   04 Jun 2027 09:37:12.153            62.703            RioGallegos          1959.469
       455   04 Jun 2027 10:12:11.524   04 Jun 2027 10:12:52.151            40.627                Sumatra          1269.594
       456   04 Jun 2027 10:31:00.262   04 Jun 2027 10:31:08.401             8.139                Novosib           254.344
       457   04 Jun 2027 10:31:10.310   04 Jun 2027 10:31:12.680             2.370                Norilsk            74.063
       458   04 Jun 2027 10:31:30.117   04 Jun 2027 10:32:32.404            62.287                Irkutsk          1946.469
       459   04 Jun 2027 10:32:40.737   04 Jun 2027 10:32:59.843            19.106                Irkutsk           597.062
       460   04 Jun 2027 10:33:02.218   04 Jun 2027 10:33:06.787             4.569                Novosib           142.781
       461   04 Jun 2027 10:33:08.620   04 Jun 2027 10:33:38.507            29.887                Irkutsk           933.969
       462   04 Jun 2027 10:34:04.893   04 Jun 2027 10:34:20.230            15.337                Norilsk           479.281
       463   04 Jun 2027 10:34:23.442   04 Jun 2027 10:34:35.519            12.077              Murmansk1           377.406
       464   04 Jun 2027 10:34:35.519   04 Jun 2027 10:34:42.868             7.349              Murmansk2           229.656
       465   04 Jun 2027 10:34:56.082   04 Jun 2027 10:35:00.005             3.923                Novosib           122.594
       466   04 Jun 2027 10:35:01.507   04 Jun 2027 10:35:32.592            31.085              Murmansk2           971.406
       467   04 Jun 2027 10:35:42.584   04 Jun 2027 10:36:38.909            56.325              Murmansk2          1760.156
       468   04 Jun 2027 10:36:42.973   04 Jun 2027 10:36:53.042            10.069                Novosib           314.656
       469   04 Jun 2027 10:36:55.493   04 Jun 2027 10:37:33.430            37.937              Murmansk2          1185.531
       470   04 Jun 2027 11:13:06.074   04 Jun 2027 11:13:31.288            25.214            RioGallegos           787.938
       471   04 Jun 2027 11:14:55.319   04 Jun 2027 11:15:25.967            30.648            RioGallegos           957.750
       472   04 Jun 2027 11:47:21.754   04 Jun 2027 11:48:28.795            67.041                Sumatra          2095.031
       473   04 Jun 2027 11:55:59.180   04 Jun 2027 11:56:18.147            18.967                  Delhi           592.719
       474   04 Jun 2027 12:05:15.620   04 Jun 2027 12:05:36.549            20.929                Novosib           654.031
       475   04 Jun 2027 12:06:34.004   04 Jun 2027 12:06:57.953            23.949                Novosib           748.406
       476   04 Jun 2027 12:08:28.310   04 Jun 2027 12:08:41.218            12.908              Murmansk1           403.375
       477   04 Jun 2027 12:09:14.547   04 Jun 2027 12:09:54.273            39.726                Novosib          1241.437
       478   04 Jun 2027 12:12:51.006   04 Jun 2027 12:13:04.579            13.573              Murmansk1           424.156
       479   04 Jun 2027 12:14:26.048   04 Jun 2027 12:14:34.322             8.274                Norilsk           258.563
       480   04 Jun 2027 12:14:36.504   04 Jun 2027 12:14:39.725             3.221              Murmansk1           100.656
       481   04 Jun 2027 12:15:39.574   04 Jun 2027 12:16:01.056            21.482                Norilsk           671.312
       482   04 Jun 2027 12:18:48.536   04 Jun 2027 12:19:04.056            15.520              Murmansk1           485.000
