uniorb/output/strategy_2/Drop/Drop_KinoSat_110207.txt

KinoSat_110207
-------------------------
    Access    *     Start Time (UTCG)     *     Stop Time (UTCG)  *   Duration (s)        *       Station  *  Data (Mbytes)
         1   01 Jun 2027 03:41:57.982   01 Jun 2027 03:42:22.379            24.397                Norilsk          1862.500
         2   01 Jun 2027 03:42:23.566   01 Jun 2027 03:42:53.647            30.081                Norilsk           593.500
         3   01 Jun 2027 03:42:59.399   01 Jun 2027 03:43:28.368            28.969                Novosib          2876.000
         4   01 Jun 2027 03:43:29.396   01 Jun 2027 03:44:00.606            31.210                Irkutsk           514.000
         5   01 Jun 2027 03:44:04.111   01 Jun 2027 03:44:27.866            23.755               Magadan1          1752.500
         6   01 Jun 2027 03:44:28.877   01 Jun 2027 03:44:38.784             9.907                Irkutsk           505.500
         7   01 Jun 2027 03:44:42.004   01 Jun 2027 03:45:08.379            26.375                Novosib          1610.000
         8   01 Jun 2027 03:45:09.020   01 Jun 2027 03:45:35.443            26.423               Magadan1           320.500
         9   01 Jun 2027 03:45:36.492   01 Jun 2027 03:45:41.375             4.883                Novosib           524.500
        10   01 Jun 2027 03:45:56.590   01 Jun 2027 03:47:02.080            65.490               Magadan2          7607.500
        11   01 Jun 2027 03:47:08.155   01 Jun 2027 03:47:54.825            46.670                Norilsk          3037.500
        12   01 Jun 2027 03:47:58.765   01 Jun 2027 03:48:19.209            20.444              Murmansk1          1970.000
        13   01 Jun 2027 03:48:35.030   01 Jun 2027 03:49:23.518            48.488                Irkutsk          6061.000
        14   01 Jun 2027 03:49:27.077   01 Jun 2027 03:49:58.094            31.017                Norilsk          1849.500
        15   01 Jun 2027 05:18:53.103   01 Jun 2027 05:19:09.672            16.569                Novosib          2071.125
        16   01 Jun 2027 05:19:33.625   01 Jun 2027 05:21:33.307           119.682                Novosib         12109.875
        17   01 Jun 2027 05:21:33.872   01 Jun 2027 05:21:43.626             9.754                 Moscow           282.500
        18   01 Jun 2027 05:22:04.191   01 Jun 2027 05:23:33.957            89.766                Novosib         10282.500
        19   01 Jun 2027 05:23:39.003   01 Jun 2027 05:24:17.417            38.414                 Moscow          2523.000
        20   01 Jun 2027 05:24:37.148   01 Jun 2027 05:25:22.234            45.086              Murmansk1          3703.500
        21   01 Jun 2027 06:56:33.404   01 Jun 2027 06:56:50.198            16.794                 Moscow           555.500
        22   01 Jun 2027 06:56:51.414   01 Jun 2027 06:57:12.121            20.707                Norilsk           608.000
        23   01 Jun 2027 06:57:18.015   01 Jun 2027 06:58:14.321            56.306                 Moscow          2947.000
        24   01 Jun 2027 06:58:16.106   01 Jun 2027 06:58:25.354             9.248              Murmansk2           892.500
        25   01 Jun 2027 06:58:28.109   01 Jun 2027 06:59:07.863            39.754                Novosib          1377.500
        26   01 Jun 2027 06:59:10.804   01 Jun 2027 06:59:40.294            29.490                 Moscow          1470.500
        27   01 Jun 2027 06:59:44.299   01 Jun 2027 07:00:39.866            55.567                Novosib          2002.500
        28   01 Jun 2027 07:00:46.465   01 Jun 2027 07:01:25.816            39.351              Murmansk2          3299.500
        29   01 Jun 2027 08:30:49.138   01 Jun 2027 08:30:59.844            10.706                 Moscow          1247.000
        30   01 Jun 2027 08:31:12.377   01 Jun 2027 08:32:14.467            62.090              Murmansk2          6266.500
        31   01 Jun 2027 08:32:33.879   01 Jun 2027 08:32:43.264             9.385                 Moscow          1024.500
        32   01 Jun 2027 08:33:01.004   01 Jun 2027 08:34:18.168            77.164              Murmansk1          8870.000
        33   01 Jun 2027 08:34:31.637   01 Jun 2027 08:35:34.616            62.979              Murmansk2          6734.500
        34   01 Jun 2027 08:35:37.371   01 Jun 2027 08:35:43.924             6.553                 Moscow           819.125
        35   01 Jun 2027 08:35:55.949   01 Jun 2027 08:37:06.451            70.502                 Moscow          6570.875
        36   02 Jun 2027 03:54:15.601   02 Jun 2027 03:54:20.837             5.236                Norilsk           216.500
        37   02 Jun 2027 03:54:35.313   02 Jun 2027 03:55:10.750            35.437                Irkutsk          4429.625
        38   02 Jun 2027 03:55:17.391   02 Jun 2027 03:56:40.391            83.000                Novosib          6128.874
        39   02 Jun 2027 03:56:43.690   02 Jun 2027 03:57:16.726            33.036                Irkutsk          1649.500
        40   02 Jun 2027 03:57:26.286   02 Jun 2027 03:58:08.497            42.211               Magadan1          4780.000
        41   02 Jun 2027 03:58:10.249   02 Jun 2027 03:59:00.393            50.144                Novosib           876.000
        42   02 Jun 2027 03:59:08.962   02 Jun 2027 03:59:48.439            39.477              Murmansk1          4284.500
        43   02 Jun 2027 03:59:51.115   02 Jun 2027 04:00:11.734            20.619                Norilsk          1338.000
        44   02 Jun 2027 04:00:31.489   02 Jun 2027 04:02:21.028           109.539                Novosib          9877.500
        45   02 Jun 2027 05:31:39.566   02 Jun 2027 05:31:56.891            17.325                Norilsk          2165.625
        46   02 Jun 2027 05:31:58.527   02 Jun 2027 05:33:24.343            85.816                Novosib          8976.375
        47   02 Jun 2027 05:33:24.504   02 Jun 2027 05:33:39.431            14.927                Norilsk            80.500
        48   02 Jun 2027 05:33:39.593   02 Jun 2027 05:33:40.306             0.713                 Moscow            81.000
        49   02 Jun 2027 05:33:43.700   02 Jun 2027 05:34:20.330            36.630                 Moscow          1697.000
        50   02 Jun 2027 05:34:24.220   02 Jun 2027 05:34:49.885            25.665              Murmansk2          1945.000
        51   02 Jun 2027 05:35:00.491   02 Jun 2027 05:35:45.490            44.999              Murmansk1          5303.000
        52   02 Jun 2027 05:35:46.671   02 Jun 2027 05:36:19.337            32.666                 Moscow           590.500
        53   02 Jun 2027 05:36:19.776   02 Jun 2027 05:36:25.062             5.286              Murmansk2           219.500
        54   02 Jun 2027 05:36:26.846   02 Jun 2027 05:36:46.763            19.917                 Moscow           892.000
        55   02 Jun 2027 05:36:53.383   02 Jun 2027 05:37:30.655            37.272              Murmansk2          3310.000
        56   02 Jun 2027 07:08:11.858   02 Jun 2027 07:08:33.913            22.055                Novosib          2756.875
        57   02 Jun 2027 07:08:38.241   02 Jun 2027 07:08:41.337             3.096                 Moscow           387.000
        58   02 Jun 2027 07:08:53.311   02 Jun 2027 07:09:00.574             7.263                Norilsk           907.875
        59   02 Jun 2027 07:09:06.938   02 Jun 2027 07:11:12.714           125.776                Novosib         11329.250
        60   02 Jun 2027 07:11:20.189   02 Jun 2027 07:11:59.137            38.948                 Moscow          3737.500
        61   02 Jun 2027 07:12:03.743   02 Jun 2027 07:12:37.235            33.492              Murmansk2          2303.000
        62   02 Jun 2027 07:12:46.289   02 Jun 2027 07:13:22.779            36.490                Norilsk          4527.000
        63   02 Jun 2027 08:43:20.224   02 Jun 2027 08:43:27.862             7.638              Murmansk2            93.000
        64   02 Jun 2027 08:43:47.118   02 Jun 2027 08:44:03.130            16.012              Murmansk1           171.500
        65   02 Jun 2027 08:45:02.163   02 Jun 2027 08:45:58.415            56.252              Murmansk2           516.500
        66   02 Jun 2027 08:46:19.786   02 Jun 2027 08:48:24.254           124.468              Murmansk1         10685.500
        67   03 Jun 2027 04:06:54.199   03 Jun 2027 04:08:48.371           114.172                Norilsk         12758.500
        68   03 Jun 2027 04:08:54.660   03 Jun 2027 04:09:47.369            52.709                Norilsk          3144.500
        69   03 Jun 2027 04:09:50.743   03 Jun 2027 04:10:13.346            22.603                Novosib          1687.000
        70   03 Jun 2027 04:10:19.596   03 Jun 2027 04:11:06.731            47.135                Novosib          3125.000
        71   03 Jun 2027 04:11:08.709   03 Jun 2027 04:11:20.609            11.900              Murmansk2           989.000
        72   03 Jun 2027 04:11:37.414   03 Jun 2027 04:12:56.258            78.844              Murmansk2          8402.500
        73   03 Jun 2027 04:13:10.320   03 Jun 2027 04:13:26.829            16.509                Irkutsk          2063.625
        74   03 Jun 2027 04:13:34.885   03 Jun 2027 04:14:30.577            55.692                Novosib          4967.375
        75   03 Jun 2027 05:43:45.650   03 Jun 2027 05:44:55.985            70.335                Norilsk          8791.875
        76   03 Jun 2027 05:45:02.357   03 Jun 2027 05:46:07.776            65.419                Irkutsk          4975.125
        77   03 Jun 2027 05:46:09.660   03 Jun 2027 05:46:19.939            10.279                Novosib           942.000
        78   03 Jun 2027 05:46:20.669   03 Jun 2027 05:46:44.085            23.416                Norilsk           365.000
        79   03 Jun 2027 05:46:47.050   03 Jun 2027 05:47:02.636            15.586              Murmansk2          1482.500
        80   03 Jun 2027 05:47:06.741   03 Jun 2027 05:47:28.911            22.170                Norilsk          2052.500
        81   03 Jun 2027 05:47:31.577   03 Jun 2027 05:47:51.242            19.665                 Moscow          1333.000
        82   03 Jun 2027 05:47:53.270   03 Jun 2027 05:48:16.040            22.770                Norilsk          1014.000
        83   03 Jun 2027 05:48:17.938   03 Jun 2027 05:48:26.182             8.244              Murmansk2           949.000
        84   03 Jun 2027 07:20:29.064   03 Jun 2027 07:21:51.680            82.616                Norilsk          9036.500
        85   03 Jun 2027 07:22:09.487   03 Jun 2027 07:23:04.867            55.380                 Moscow          6922.500
        86   03 Jun 2027 07:23:14.873   03 Jun 2027 07:23:26.361            11.488                 Moscow          1436.000
        87   03 Jun 2027 07:23:27.619   03 Jun 2027 07:23:45.395            17.776                Norilsk          2222.000
        88   03 Jun 2027 07:23:50.449   03 Jun 2027 07:24:35.811            45.362                Norilsk          5670.250
        89   03 Jun 2027 07:24:41.262   03 Jun 2027 07:25:50.581            69.319              Murmansk2          3537.250
        90   03 Jun 2027 08:58:32.955   03 Jun 2027 08:59:15.695            42.740              Murmansk2          4783.500
        91   03 Jun 2027 08:59:19.610   03 Jun 2027 09:00:35.907            76.297              Murmansk2          1957.500
        92   04 Jun 2027 04:19:03.490   04 Jun 2027 04:19:31.452            27.962                Novosib          2838.500
        93   04 Jun 2027 04:19:45.542   04 Jun 2027 04:20:17.929            32.387                Irkutsk          4048.375
        94   04 Jun 2027 04:20:21.215   04 Jun 2027 04:21:06.946            45.731                Norilsk          4639.625
        95   04 Jun 2027 04:21:10.592   04 Jun 2027 04:21:39.977            29.385                Norilsk          1823.000
        96   04 Jun 2027 04:21:56.785   04 Jun 2027 04:22:52.842            56.057                Novosib          7007.125
        97   04 Jun 2027 04:22:53.576   04 Jun 2027 04:23:09.068            15.492              Murmansk2          1763.875
        98   04 Jun 2027 04:23:11.214   04 Jun 2027 04:24:12.665            61.451                Irkutsk          1073.000
        99   04 Jun 2027 04:24:12.988   04 Jun 2027 04:24:41.740            28.752              Murmansk2           161.500
       100   04 Jun 2027 04:24:52.604   04 Jun 2027 04:25:52.702            60.098                Novosib          5432.000
       101   04 Jun 2027 05:56:28.000   04 Jun 2027 05:56:32.658             4.658              Murmansk2           126.000
       102   04 Jun 2027 05:56:37.700   04 Jun 2027 05:57:10.620            32.920              Murmansk1          2521.000
       103   04 Jun 2027 05:57:11.167   04 Jun 2027 05:57:39.152            27.985                Norilsk           273.500
       104   04 Jun 2027 05:57:43.690   04 Jun 2027 05:58:25.364            41.674                Irkutsk          2269.000
       105   04 Jun 2027 05:58:27.668   04 Jun 2027 05:58:42.163            14.495                Norilsk          1152.000
       106   04 Jun 2027 05:58:44.766   04 Jun 2027 05:59:04.841            20.075              Murmansk2          1301.500
       107   04 Jun 2027 05:59:16.525   04 Jun 2027 06:00:20.400            63.875                Irkutsk          5842.000
       108   04 Jun 2027 06:00:24.221   04 Jun 2027 06:00:56.947            32.726              Murmansk2          1910.500
       109   04 Jun 2027 07:32:34.940   04 Jun 2027 07:32:44.984            10.044                Norilsk          1220.000
       110   04 Jun 2027 07:32:49.496   04 Jun 2027 07:33:57.543            68.047                 Moscow          2256.000
       111   04 Jun 2027 07:34:07.471   04 Jun 2027 07:34:48.306            40.835              Murmansk2          4964.000
       112   04 Jun 2027 07:35:02.759   04 Jun 2027 07:36:12.118            69.359                Norilsk          7226.500
       113   04 Jun 2027 07:36:14.191   04 Jun 2027 07:36:22.670             8.479                Novosib          1036.500
       114   04 Jun 2027 07:36:25.788   04 Jun 2027 07:37:01.927            36.139                Norilsk          1559.000
       115   05 Jun 2027 03:00:09.191   05 Jun 2027 03:00:18.746             9.555                Norilsk          1194.375
       116   05 Jun 2027 03:00:21.028   05 Jun 2027 03:01:02.915            41.887               Magadan2          4542.125
       117   05 Jun 2027 03:01:05.817   05 Jun 2027 03:01:19.707            13.890              Murmansk2          1451.000
       118   05 Jun 2027 03:01:25.806   05 Jun 2027 03:01:50.273            24.467                Novosib          1040.500
       119   05 Jun 2027 04:31:03.734   05 Jun 2027 04:31:44.661            40.927                Norilsk          2174.500
       120   05 Jun 2027 04:31:55.833   05 Jun 2027 04:32:06.634            10.801                Norilsk          1350.125
       121   05 Jun 2027 04:32:20.082   05 Jun 2027 04:33:57.359            97.277                Norilsk         10959.875
       122   05 Jun 2027 04:33:58.498   05 Jun 2027 04:34:24.119            25.621                Norilsk           569.500
       123   05 Jun 2027 04:34:24.457   05 Jun 2027 04:34:31.733             7.276                Norilsk           169.000
       124   05 Jun 2027 04:34:33.340   05 Jun 2027 04:35:33.270            59.930                Norilsk           803.500
       125   05 Jun 2027 04:35:37.801   05 Jun 2027 04:36:02.511            24.710                Norilsk          2265.500
       126   05 Jun 2027 04:36:12.671   05 Jun 2027 04:37:00.230            47.559              Murmansk1          5080.000
       127   05 Jun 2027 04:37:18.091   05 Jun 2027 04:38:13.762            55.671              Murmansk2          3455.000
       128   05 Jun 2027 06:08:36.688   05 Jun 2027 06:09:11.053            34.365                 Moscow          1653.500
       129   05 Jun 2027 06:09:12.553   05 Jun 2027 06:09:53.532            40.979              Murmansk1           750.000
       130   05 Jun 2027 06:10:06.733   05 Jun 2027 06:11:37.753            91.020                 Moscow          6600.500
       131   05 Jun 2027 06:11:47.008   05 Jun 2027 06:12:29.113            42.105              Murmansk2          4627.500
       132   05 Jun 2027 06:12:34.061   05 Jun 2027 06:12:58.316            24.255              Murmansk2          2474.000
       133   05 Jun 2027 06:12:58.510   05 Jun 2027 06:13:50.759            52.249              Murmansk2            97.000
       134   05 Jun 2027 07:44:39.552   05 Jun 2027 07:45:24.982            45.430                Novosib          2433.000
       135   05 Jun 2027 07:45:35.000   05 Jun 2027 07:46:37.380            62.380                Norilsk          5009.000
       136   05 Jun 2027 07:46:40.810   05 Jun 2027 07:47:14.338            33.528                Norilsk          1715.000
       137   05 Jun 2027 07:47:28.260   05 Jun 2027 07:48:24.451            56.191                 Moscow          6961.000
       138   05 Jun 2027 07:48:24.513   05 Jun 2027 07:48:34.979            10.466              Murmansk2            31.000
       139   05 Jun 2027 07:48:35.948   05 Jun 2027 07:48:58.123            22.175                Norilsk           484.500
       140   05 Jun 2027 07:48:58.393   05 Jun 2027 07:49:01.250             2.857                 Moscow           135.000
       141   05 Jun 2027 07:49:04.212   05 Jun 2027 07:49:23.607            19.395                Norilsk          1481.000
       142   05 Jun 2027 07:49:29.127   05 Jun 2027 07:50:01.420            32.293                Norilsk          2760.000
       143   06 Jun 2027 03:06:24.134   06 Jun 2027 03:07:59.868            95.734                Norilsk          7270.500
       144   06 Jun 2027 03:08:03.600   06 Jun 2027 03:08:42.539            38.939               Magadan1          1866.000
       145   06 Jun 2027 03:08:50.306   06 Jun 2027 03:10:43.064           112.758                Irkutsk          3883.500
       146   06 Jun 2027 03:10:49.751   06 Jun 2027 03:11:24.367            34.616                Norilsk          3343.500
       147   06 Jun 2027 03:11:27.470   06 Jun 2027 03:12:04.418            36.948                Novosib          1551.500
       148   06 Jun 2027 03:12:18.435   06 Jun 2027 03:13:48.313            89.878                Norilsk          7008.500
       149   06 Jun 2027 04:43:00.916   06 Jun 2027 04:44:22.814            81.898                Irkutsk          7679.500
       150   06 Jun 2027 04:44:45.783   06 Jun 2027 04:46:31.884           106.101                Irkutsk         11484.500
       151   06 Jun 2027 04:46:40.439   06 Jun 2027 04:49:12.499           152.060                Irkutsk          4277.500
       152   06 Jun 2027 06:21:05.967   06 Jun 2027 06:21:54.118            48.151                Irkutsk          1320.500
       153   06 Jun 2027 06:22:03.874   06 Jun 2027 06:22:50.063            46.189                Novosib          4878.000
       154   06 Jun 2027 06:22:54.131   06 Jun 2027 06:23:28.370            34.239                Norilsk          2034.000
       155   06 Jun 2027 06:23:30.134   06 Jun 2027 06:23:37.547             7.413                Irkutsk           882.000
       156   06 Jun 2027 06:23:39.787   06 Jun 2027 06:23:56.424            16.637                Novosib          1120.000
       157   06 Jun 2027 06:24:05.929   06 Jun 2027 06:24:39.514            33.585                Norilsk          4198.125
       158   06 Jun 2027 06:24:48.841   06 Jun 2027 06:25:44.136            55.295              Murmansk2          5217.875
       159   06 Jun 2027 07:54:32.103   06 Jun 2027 07:54:40.391             8.288                 Moscow          1036.000
       160   06 Jun 2027 07:54:48.986   06 Jun 2027 07:54:57.688             8.702                 Moscow          1087.750
       161   06 Jun 2027 07:55:08.415   06 Jun 2027 07:55:44.989            36.574              Murmansk2          2112.250
       162   06 Jun 2027 07:56:33.385   06 Jun 2027 07:57:20.797            47.412                 Moscow          5133.000
       163   06 Jun 2027 07:57:21.999   06 Jun 2027 07:58:33.413            71.414                 Moscow           601.000
       164   06 Jun 2027 07:58:34.780   06 Jun 2027 07:58:42.038             7.258                Norilsk           683.500
       165   06 Jun 2027 07:58:46.412   06 Jun 2027 07:59:05.718            19.306              Murmansk1          2187.000
       166   06 Jun 2027 07:59:18.960   06 Jun 2027 08:00:12.008            53.048              Murmansk1          6621.000
       167   06 Jun 2027 08:00:15.962   06 Jun 2027 08:00:55.498            39.536                Norilsk          1977.000
       168   06 Jun 2027 08:00:59.363   06 Jun 2027 08:01:17.810            18.447                Norilsk          1932.500
       169   06 Jun 2027 08:01:24.064   06 Jun 2027 08:02:04.321            40.257                 Moscow          3127.000
       170   07 Jun 2027 03:18:15.284   07 Jun 2027 03:19:09.692            54.408                Novosib          6181.000
       171   07 Jun 2027 03:19:13.377   07 Jun 2027 03:19:29.557            16.180               Magadan2          1842.500
       172   07 Jun 2027 03:19:32.417   07 Jun 2027 03:20:37.930            65.513               Magadan1          1430.000
       173   07 Jun 2027 03:20:38.736   07 Jun 2027 03:21:00.736            22.000                Norilsk           403.000
       174   07 Jun 2027 03:21:05.753   07 Jun 2027 03:21:29.323            23.570                Norilsk          2508.500
       175   07 Jun 2027 03:21:29.348   07 Jun 2027 03:21:34.446             5.098               Magadan1            12.500
       176   07 Jun 2027 03:21:57.956   07 Jun 2027 03:23:12.084            74.128                Norilsk          9266.000
       177   07 Jun 2027 03:23:15.704   07 Jun 2027 03:24:42.133            86.429               Magadan1          4299.000
       178   07 Jun 2027 03:24:50.295   07 Jun 2027 03:25:28.864            38.569              Murmansk1          4081.000
       179   07 Jun 2027 03:25:28.920   07 Jun 2027 03:25:53.564            24.644              Murmansk1            28.000
       180   07 Jun 2027 04:55:13.218   07 Jun 2027 04:56:03.813            50.595                Irkutsk          3264.500
       181   07 Jun 2027 04:56:14.087   07 Jun 2027 04:56:57.440            43.353                Norilsk          5137.000
       182   07 Jun 2027 04:57:01.255   07 Jun 2027 04:58:04.788            63.533                Irkutsk          1907.500
       183   07 Jun 2027 04:58:08.267   07 Jun 2027 04:58:29.321            21.054                Novosib          1739.500
       184   07 Jun 2027 04:58:31.261   07 Jun 2027 04:58:48.482            17.221              Murmansk1           970.000
       185   07 Jun 2027 04:58:51.939   07 Jun 2027 04:59:17.803            25.864                Norilsk          1728.500
       186   07 Jun 2027 04:59:25.214   07 Jun 2027 05:00:07.907            42.693              Murmansk1          3705.500
       187   07 Jun 2027 05:00:08.089   07 Jun 2027 05:00:26.406            18.317              Murmansk2            91.000
       188   07 Jun 2027 05:00:32.690   07 Jun 2027 05:01:40.104            67.414                 Moscow          3142.000
       189   07 Jun 2027 06:33:05.362   07 Jun 2027 06:33:47.988            42.626                Irkutsk          2196.500
       190   07 Jun 2027 06:33:50.609   07 Jun 2027 06:34:13.926            23.317                Novosib          1310.500
       191   07 Jun 2027 06:34:17.751   07 Jun 2027 06:34:40.806            23.055              Murmansk2          1912.500
       192   07 Jun 2027 06:34:44.282   07 Jun 2027 06:34:58.649            14.367                Norilsk          1738.000
       193   07 Jun 2027 06:35:11.334   07 Jun 2027 06:36:36.681            85.347                Novosib          6342.500
       194   07 Jun 2027 06:36:36.901   07 Jun 2027 06:37:24.833            47.932                 Moscow           110.000
       195   07 Jun 2027 08:06:54.033   07 Jun 2027 08:10:38.750           224.717                 Moscow         20219.500
       196   07 Jun 2027 08:10:43.447   07 Jun 2027 08:11:28.291            44.844                Norilsk          2348.500
       197   07 Jun 2027 08:11:29.670   07 Jun 2027 08:11:36.736             7.066                Novosib           689.500
       198   07 Jun 2027 08:11:41.248   07 Jun 2027 08:12:16.387            35.139                Norilsk          2256.000
       199   07 Jun 2027 08:12:30.172   07 Jun 2027 08:14:39.313           129.141                 Moscow          6892.500
       200   08 Jun 2027 03:30:16.753   08 Jun 2027 03:30:25.398             8.645               Magadan2           873.500
       201   08 Jun 2027 03:30:37.049   08 Jun 2027 03:31:31.417            54.368                Irkutsk          5825.500
       202   08 Jun 2027 03:31:32.367   08 Jun 2027 03:31:34.107             1.740               Magadan2           217.500
       203   08 Jun 2027 03:31:34.107   08 Jun 2027 03:32:06.325            32.218               Magadan1           257.500
       204   08 Jun 2027 03:32:16.305   08 Jun 2027 03:32:56.811            40.506                Norilsk          4990.000
       205   08 Jun 2027 03:32:57.500   08 Jun 2027 03:33:18.007            20.507                Novosib           344.500
       206   08 Jun 2027 03:33:18.520   08 Jun 2027 03:34:11.680            53.160                Irkutsk           256.500
       207   08 Jun 2027 03:34:17.680   08 Jun 2027 03:34:49.966            32.286                Novosib          3000.000
       208   08 Jun 2027 03:34:53.112   08 Jun 2027 03:35:06.657            13.545                Norilsk          1573.000
       209   08 Jun 2027 03:35:07.349   08 Jun 2027 03:35:58.207            50.858                Novosib           346.000
       210   08 Jun 2027 03:36:13.778   08 Jun 2027 03:36:58.673            44.895                Norilsk          5611.875
       211   08 Jun 2027 03:37:08.297   08 Jun 2027 03:38:20.709            72.412              Murmansk1          6985.625
       212   08 Jun 2027 05:07:09.326   08 Jun 2027 05:09:09.449           120.123                Novosib          5780.000
       213   08 Jun 2027 05:09:22.897   08 Jun 2027 05:10:23.070            60.173                Norilsk          6724.000
       214   08 Jun 2027 05:10:23.624   08 Jun 2027 05:11:03.812            40.188                Norilsk           277.000
       215   08 Jun 2027 05:11:04.836   08 Jun 2027 05:11:16.911            12.075                 Moscow           512.000
       216   08 Jun 2027 05:11:23.085   08 Jun 2027 05:11:43.517            20.432                Norilsk          2554.000
       217   08 Jun 2027 05:11:46.535   08 Jun 2027 05:12:16.633            30.098                 Moscow          2042.000
       218   08 Jun 2027 05:12:16.887   08 Jun 2027 05:12:19.706             2.819              Murmansk2           127.000
       219   08 Jun 2027 05:12:30.046   08 Jun 2027 05:13:33.557            63.511                 Moscow          5170.000
       220   08 Jun 2027 05:13:34.986   08 Jun 2027 05:14:19.055            44.069                 Moscow           714.500
       221   08 Jun 2027 06:45:03.696   08 Jun 2027 06:45:08.703             5.007                Irkutsk           625.875
       222   08 Jun 2027 06:45:16.447   08 Jun 2027 06:45:48.977            32.530                 Moscow          4066.250
       223   08 Jun 2027 06:45:56.154   08 Jun 2027 06:46:40.167            44.013                Novosib          4222.875
       224   08 Jun 2027 06:46:40.317   08 Jun 2027 06:46:49.491             9.174              Murmansk1            75.000
       225   08 Jun 2027 06:46:53.013   08 Jun 2027 06:47:12.490            19.477                Norilsk          1761.000
       226   08 Jun 2027 06:47:13.614   08 Jun 2027 06:48:12.287            58.673              Murmansk1           562.000
       227   08 Jun 2027 06:48:13.596   08 Jun 2027 06:48:32.081            18.485              Murmansk1           654.500
       228   08 Jun 2027 06:48:34.436   08 Jun 2027 06:49:01.972            27.536              Murmansk2          1177.500
       229   08 Jun 2027 06:49:11.078   08 Jun 2027 06:49:53.652            42.574              Murmansk1          4171.500
       230   08 Jun 2027 08:19:00.222   08 Jun 2027 08:20:20.682            80.460                 Moscow          9338.000
       231   08 Jun 2027 08:20:28.293   08 Jun 2027 08:21:26.642            58.349              Murmansk2          3805.500
       232   08 Jun 2027 08:21:30.893   08 Jun 2027 08:22:11.891            40.998              Murmansk2          2125.500
       233   08 Jun 2027 08:22:25.559   08 Jun 2027 08:23:24.499            58.940              Murmansk1          6834.000
       234   08 Jun 2027 08:23:38.989   08 Jun 2027 08:24:39.706            60.717              Murmansk1          7245.000
       235   08 Jun 2027 08:24:51.570   08 Jun 2027 08:25:39.236            47.666                Norilsk          5932.000
       236   08 Jun 2027 08:26:03.061   08 Jun 2027 08:27:54.295           111.234              Murmansk1         11148.500
       237   09 Jun 2027 03:42:20.303   09 Jun 2027 03:43:43.269            82.966                Irkutsk          5646.500
       238   09 Jun 2027 03:43:51.966   09 Jun 2027 03:44:35.574            43.608                Novosib          4348.500
       239   09 Jun 2027 03:44:43.136   09 Jun 2027 03:45:19.217            36.081               Magadan2          3781.000
       240   09 Jun 2027 03:45:19.875   09 Jun 2027 03:45:23.621             3.746               Magadan1           329.000
       241   09 Jun 2027 03:45:24.861   09 Jun 2027 03:46:16.090            51.229                Norilsk           620.000
       242   09 Jun 2027 03:46:17.803   09 Jun 2027 03:47:12.464            54.661                Novosib           856.500
       243   09 Jun 2027 03:47:13.071   09 Jun 2027 03:47:27.612            14.541              Murmansk2           303.500
       244   09 Jun 2027 03:47:37.897   09 Jun 2027 03:47:54.303            16.406               Magadan2          2050.750
       245   09 Jun 2027 03:48:10.630   09 Jun 2027 03:49:43.472            92.842                Norilsk         11255.250
       246   09 Jun 2027 05:19:07.025   09 Jun 2027 05:19:30.237            23.212                Norilsk          1589.000
       247   09 Jun 2027 05:19:48.649   09 Jun 2027 05:21:10.654            82.005                Irkutsk          9206.000
       248   09 Jun 2027 05:21:11.641   09 Jun 2027 05:21:12.561             0.920                Norilsk           115.000
       249   09 Jun 2027 05:21:15.455   09 Jun 2027 05:21:47.614            32.159                Novosib          1825.500
       250   09 Jun 2027 05:21:47.945   09 Jun 2027 05:22:00.321            12.376                 Moscow           165.500
       251   09 Jun 2027 05:22:18.944   09 Jun 2027 05:23:48.796            89.852                Novosib          9311.500
       252   09 Jun 2027 05:23:57.185   09 Jun 2027 05:24:34.711            37.526                 Moscow          4194.500
       253   09 Jun 2027 05:24:51.906   09 Jun 2027 05:25:41.388            49.482              Murmansk1          3741.000
       254   09 Jun 2027 06:56:49.187   09 Jun 2027 06:57:06.078            16.891                Norilsk          1129.500
       255   09 Jun 2027 06:57:10.192   09 Jun 2027 06:57:39.586            29.394                Novosib          2057.000
       256   09 Jun 2027 06:57:43.243   09 Jun 2027 06:58:01.818            18.575                Norilsk          1828.500
       257   09 Jun 2027 06:58:11.751   09 Jun 2027 06:59:22.665            70.914                Novosib          4966.500
       258   09 Jun 2027 06:59:25.115   09 Jun 2027 06:59:55.346            30.231                 Moscow          1225.000
       259   09 Jun 2027 06:59:59.005   09 Jun 2027 07:00:15.226            16.221                Novosib          1829.500
       260   09 Jun 2027 07:00:24.825   09 Jun 2027 07:01:18.281            53.456              Murmansk2          4799.500
       261   09 Jun 2027 08:31:03.985   09 Jun 2027 08:31:14.612            10.627                 Moscow          1052.500
       262   09 Jun 2027 08:31:31.551   09 Jun 2027 08:33:00.874            89.323              Murmansk1          8469.500
       263   09 Jun 2027 08:33:15.508   09 Jun 2027 08:34:21.271            65.763              Murmansk1          7317.000
       264   09 Jun 2027 08:34:33.022   09 Jun 2027 08:35:26.934            53.912              Murmansk2          5875.500
       265   09 Jun 2027 08:35:36.936   09 Jun 2027 08:36:27.904            50.968              Murmansk1          5001.000
       266   10 Jun 2027 03:54:38.005   10 Jun 2027 03:55:11.268            33.263                Norilsk          3935.000
       267   10 Jun 2027 03:55:21.651   10 Jun 2027 03:56:07.648            45.997                Novosib          5191.500
       268   10 Jun 2027 03:56:12.588   10 Jun 2027 03:56:48.398            35.810               Magadan2          2470.000
       269   10 Jun 2027 03:56:48.563   10 Jun 2027 03:56:53.093             4.530                Irkutsk            82.500
       270   10 Jun 2027 03:56:57.912   10 Jun 2027 03:57:35.508            37.596                Irkutsk          2409.500
       271   10 Jun 2027 03:57:41.590   10 Jun 2027 03:58:12.129            30.539               Magadan2          3041.000
       272   10 Jun 2027 03:58:17.607   10 Jun 2027 03:58:22.801             5.194                Irkutsk           649.250
       273   10 Jun 2027 03:58:23.232   10 Jun 2027 03:59:01.408            38.176               Magadan1          2305.250
       274   10 Jun 2027 03:59:01.460   10 Jun 2027 03:59:06.043             4.583              Murmansk1            26.000
       275   10 Jun 2027 03:59:08.856   10 Jun 2027 03:59:26.642            17.786              Murmansk1          1406.500
       276   10 Jun 2027 03:59:53.519   10 Jun 2027 04:01:40.430           106.911                Irkutsk         13363.875
       277   10 Jun 2027 04:01:53.446   10 Jun 2027 04:01:55.046             1.600                Norilsk            74.625
       278   10 Jun 2027 05:31:56.809   10 Jun 2027 05:33:39.727           102.918                Norilsk         11549.500
       279   10 Jun 2027 05:33:44.556   10 Jun 2027 05:34:08.465            23.909                Irkutsk          2414.500
       280   10 Jun 2027 05:34:09.854   10 Jun 2027 05:34:40.855            31.001              Murmansk1           694.500
       281   10 Jun 2027 05:34:42.760   10 Jun 2027 05:35:51.330            68.570                Novosib           952.500
       282   10 Jun 2027 05:35:51.411   10 Jun 2027 05:36:00.031             8.620              Murmansk2            40.500
       283   10 Jun 2027 05:36:04.597   10 Jun 2027 05:36:36.668            32.071                 Moscow          1471.500
       284   10 Jun 2027 05:36:37.480   10 Jun 2027 05:36:42.389             4.909              Murmansk1           406.000
       285   10 Jun 2027 05:36:43.728   10 Jun 2027 05:37:06.609            22.881                 Moscow           669.500
       286   10 Jun 2027 05:37:09.036   10 Jun 2027 05:37:45.161            36.125              Murmansk1          1213.500
       287   10 Jun 2027 07:08:27.508   10 Jun 2027 07:09:19.884            52.376              Murmansk2          4356.500
       288   10 Jun 2027 07:09:21.408   10 Jun 2027 07:10:09.218            47.810                Novosib           762.000
       289   10 Jun 2027 07:10:12.728   10 Jun 2027 07:10:40.361            27.633              Murmansk1          1755.000
       290   10 Jun 2027 07:10:40.506   10 Jun 2027 07:10:44.492             3.986              Murmansk2            72.500
       291   10 Jun 2027 07:10:44.833   10 Jun 2027 07:10:56.808            11.975                Novosib           170.500
       292   10 Jun 2027 07:10:58.033   10 Jun 2027 07:11:03.310             5.277                 Moscow           612.500
       293   10 Jun 2027 07:11:03.413   10 Jun 2027 07:11:34.984            31.571                 Moscow            51.500
       294   10 Jun 2027 07:11:40.602   10 Jun 2027 07:12:12.446            31.844                Norilsk          2809.000
       295   10 Jun 2027 07:12:13.252   10 Jun 2027 07:12:53.557            40.305                 Moscow           403.000
       296   10 Jun 2027 07:13:02.882   10 Jun 2027 07:13:38.949            36.067                Norilsk          4508.375
       297   10 Jun 2027 07:13:44.930   10 Jun 2027 07:14:00.516            15.586                 Moscow           154.125
       298   10 Jun 2027 08:43:44.492   10 Jun 2027 08:44:18.430            33.938              Murmansk1          3822.500
       299   10 Jun 2027 08:45:17.048   10 Jun 2027 08:46:15.769            58.721              Murmansk1           248.500
       300   10 Jun 2027 08:46:34.641   10 Jun 2027 08:48:39.494           124.853              Murmansk2          9436.000
       301   11 Jun 2027 04:07:11.347   11 Jun 2027 04:08:21.134            69.787                Norilsk          8723.375
       302   11 Jun 2027 04:08:22.057   11 Jun 2027 04:09:05.479            43.422                Novosib          5427.750
       303   11 Jun 2027 04:09:22.000   11 Jun 2027 04:10:33.663            71.663                Novosib          8582.374
       304   11 Jun 2027 04:10:35.592   11 Jun 2027 04:10:45.907            10.315                Norilsk           964.500
       305   11 Jun 2027 04:10:49.391   11 Jun 2027 04:11:08.005            18.614              Murmansk1          1742.000
       306   11 Jun 2027 04:11:20.523   11 Jun 2027 04:12:27.607            67.084              Murmansk2          6259.000
       307   11 Jun 2027 04:12:46.529   11 Jun 2027 04:13:06.004            19.475                Novosib          2434.375
       308   11 Jun 2027 04:13:13.280   11 Jun 2027 04:14:54.107           100.827              Murmansk2         10664.625
       309   11 Jun 2027 05:44:00.705   11 Jun 2027 05:45:32.741            92.036                Norilsk         10635.000
       310   11 Jun 2027 05:45:35.081   11 Jun 2027 05:45:49.125            14.044                 Moscow          1170.000
       311   11 Jun 2027 05:45:52.026   11 Jun 2027 05:46:21.342            29.316                Irkutsk          1450.500
       312   11 Jun 2027 05:46:24.400   11 Jun 2027 05:46:54.146            29.746                Novosib          1529.000
       313   11 Jun 2027 05:46:58.671   11 Jun 2027 05:47:16.887            18.216                Norilsk          2262.500
       314   11 Jun 2027 05:47:20.529   11 Jun 2027 05:47:43.706            23.177              Murmansk2          1821.000
       315   11 Jun 2027 05:47:47.233   11 Jun 2027 05:48:08.921            21.688                 Moscow          1763.500
       316   11 Jun 2027 05:48:11.207   11 Jun 2027 05:48:39.196            27.989                 Moscow          1143.000
       317   11 Jun 2027 05:48:41.219   11 Jun 2027 05:48:59.739            18.520              Murmansk1           469.500
       318   11 Jun 2027 07:20:43.673   11 Jun 2027 07:22:00.029            76.356              Murmansk1          8952.500
       319   11 Jun 2027 07:22:05.480   11 Jun 2027 07:22:46.365            40.885                Novosib          2725.500
       320   11 Jun 2027 07:22:53.816   11 Jun 2027 07:23:32.576            38.760                Norilsk          3725.500
       321   11 Jun 2027 07:23:41.148   11 Jun 2027 07:24:01.230            20.082                 Moscow          2510.250
       322   11 Jun 2027 07:24:05.448   11 Jun 2027 07:24:52.438            46.990                Norilsk          3884.750
       323   11 Jun 2027 07:24:56.958   11 Jun 2027 07:25:15.148            18.190              Murmansk1          2260.000
       324   11 Jun 2027 08:58:47.609   11 Jun 2027 08:59:30.875            43.266              Murmansk1          4539.500
       325   11 Jun 2027 08:59:34.245   11 Jun 2027 09:00:29.221            54.976              Murmansk2          1685.000
       326   12 Jun 2027 04:19:32.135   12 Jun 2027 04:20:58.185            86.050                Novosib          9526.500
       327   12 Jun 2027 04:21:04.407   12 Jun 2027 04:21:56.564            52.157                Norilsk          3111.000
       328   12 Jun 2027 04:21:58.208   12 Jun 2027 04:22:28.066            29.858                Irkutsk           822.000
       329   12 Jun 2027 04:22:30.974   12 Jun 2027 04:23:04.665            33.691                Novosib          1454.000
       330   12 Jun 2027 04:23:09.960   12 Jun 2027 04:23:40.049            30.089              Murmansk1          2647.500
       331   12 Jun 2027 04:23:40.355   12 Jun 2027 04:23:49.861             9.506              Murmansk2           153.000
       332   12 Jun 2027 04:23:57.536   12 Jun 2027 04:24:24.132            26.596                Norilsk          3324.500
       333   12 Jun 2027 04:24:26.600   12 Jun 2027 04:24:38.125            11.525                Irkutsk          1440.625
       334   12 Jun 2027 04:24:57.203   12 Jun 2027 04:26:24.509            87.306              Murmansk2          9845.375
       335   12 Jun 2027 05:56:42.641   12 Jun 2027 05:56:50.739             8.098              Murmansk1           457.000
       336   12 Jun 2027 05:56:52.598   12 Jun 2027 05:57:27.936            35.338              Murmansk2           929.500
       337   12 Jun 2027 05:57:37.543   12 Jun 2027 05:58:26.353            48.810                Novosib          4803.500
       338   12 Jun 2027 05:58:39.645   12 Jun 2027 05:59:42.334            62.689                Novosib          6646.000
       339   12 Jun 2027 05:59:46.172   12 Jun 2027 06:00:14.615            28.443              Murmansk1          1919.000
       340   12 Jun 2027 06:00:23.196   12 Jun 2027 06:01:42.417            79.221                Novosib          4290.500
       341   12 Jun 2027 07:32:50.260   12 Jun 2027 07:33:11.700            21.440                Norilsk          1296.000
       342   12 Jun 2027 07:33:20.793   12 Jun 2027 07:34:00.359            39.566                Norilsk          4546.500
       343   12 Jun 2027 07:34:11.965   12 Jun 2027 07:34:38.282            26.317                 Moscow          3289.625
       344   12 Jun 2027 07:34:41.544   12 Jun 2027 07:35:20.932            39.388              Murmansk1          4144.375
       345   12 Jun 2027 07:35:32.437   12 Jun 2027 07:35:46.708            14.271                 Moscow          1783.875
       346   12 Jun 2027 07:35:49.801   12 Jun 2027 07:36:36.226            46.425              Murmansk2          5515.125
       347   12 Jun 2027 07:36:37.830   12 Jun 2027 07:37:48.342            70.512                Novosib           802.000
       348   13 Jun 2027 03:00:06.183   13 Jun 2027 03:00:56.749            50.566                Irkutsk          3091.500
       349   13 Jun 2027 03:01:00.527   13 Jun 2027 03:01:22.739            22.212              Murmansk2          1889.000
       350   13 Jun 2027 03:01:24.421   13 Jun 2027 03:01:37.439            13.018                Irkutsk           841.000
       351   13 Jun 2027 04:31:19.018   13 Jun 2027 04:31:59.164            40.146                Norilsk          2793.500
       352   13 Jun 2027 04:32:10.683   13 Jun 2027 04:32:22.657            11.974                Norilsk          1496.750
       353   13 Jun 2027 04:32:37.037   13 Jun 2027 04:34:14.381            97.344                Novosib         11452.750
       354   13 Jun 2027 04:34:16.288   13 Jun 2027 04:34:39.136            22.848                Norilsk           953.500
       355   13 Jun 2027 04:34:39.246   13 Jun 2027 04:34:48.450             9.204                Norilsk            55.000
       356   13 Jun 2027 04:34:48.481   13 Jun 2027 04:35:47.782            59.301                Norilsk            15.500
       357   13 Jun 2027 04:35:52.548   13 Jun 2027 04:36:19.777            27.229                Norilsk          2383.000
       358   13 Jun 2027 04:36:28.330   13 Jun 2027 04:37:17.255            48.925              Murmansk2          4276.500
       359   13 Jun 2027 04:37:49.188   13 Jun 2027 04:38:30.297            41.109              Murmansk1          2144.500
       360   13 Jun 2027 06:08:54.337   13 Jun 2027 06:09:27.013            32.676                 Moscow          3116.000
       361   13 Jun 2027 06:09:29.862   13 Jun 2027 06:10:12.733            42.871              Murmansk1          1424.500
       362   13 Jun 2027 06:10:21.291   13 Jun 2027 06:11:01.596            40.305                 Moscow          4279.000
       363   13 Jun 2027 06:11:04.188   13 Jun 2027 06:11:52.838            48.650                 Moscow          1296.000
       364   13 Jun 2027 06:12:01.745   13 Jun 2027 06:12:43.957            42.212              Murmansk2          4453.500
       365   13 Jun 2027 06:12:51.399   13 Jun 2027 06:14:06.719            75.320              Murmansk1          3721.000
       366   13 Jun 2027 07:44:54.706   13 Jun 2027 07:45:41.380            46.674                Novosib          2536.500
       367   13 Jun 2027 07:45:49.663   13 Jun 2027 07:46:53.248            63.585                Norilsk          4141.500
       368   13 Jun 2027 07:46:55.667   13 Jun 2027 07:47:14.636            18.969                Norilsk          1209.500
       369   13 Jun 2027 07:47:26.587   13 Jun 2027 07:48:43.840            77.253                Novosib          5975.500
       370   13 Jun 2027 07:48:45.891   13 Jun 2027 07:49:39.159            53.268                Novosib          1025.500
       371   13 Jun 2027 07:49:45.212   13 Jun 2027 07:50:50.917            65.705                 Moscow          3026.500
