uniorb/output/strategy_2/Drop/Drop_KinoSat_110606.txt

KinoSat_110606
-------------------------
    Access    *     Start Time (UTCG)     *     Stop Time (UTCG)  *   Duration (s)        *       Station  *  Data (Mbytes)
         1   01 Jun 2027 03:34:54.982   01 Jun 2027 03:35:22.423            27.441               Magadan1           857.531
         2   01 Jun 2027 03:35:43.744   01 Jun 2027 03:36:07.171            23.427               Magadan1           732.094
         3   01 Jun 2027 03:36:28.683   01 Jun 2027 03:38:03.974            95.291                Anadyr1          2977.844
         4   01 Jun 2027 03:38:03.974   01 Jun 2027 03:38:36.549            32.575                Anadyr2          1017.969
         5   01 Jun 2027 03:38:50.012   01 Jun 2027 03:38:52.013             2.001                Anadyr2            62.531
         6   01 Jun 2027 03:39:10.202   01 Jun 2027 03:39:33.572            23.370                Anadyr2           730.312
         7   01 Jun 2027 03:39:33.572   01 Jun 2027 03:40:52.790            79.218                Anadyr1          2475.563
         8   01 Jun 2027 04:22:21.053   01 Jun 2027 04:23:17.898            56.845            RioGallegos          1776.406
         9   01 Jun 2027 04:24:20.021   01 Jun 2027 04:24:39.788            19.767            RioGallegos           617.719
        10   01 Jun 2027 05:11:25.236   01 Jun 2027 05:13:20.536           115.300                Irkutsk          3603.125
        11   01 Jun 2027 05:14:52.724   01 Jun 2027 05:14:54.290             1.566               Magadan2            48.937
        12   01 Jun 2027 05:15:06.708   01 Jun 2027 05:16:03.803            57.095               Magadan1          1784.219
        13   01 Jun 2027 05:21:32.171   01 Jun 2027 05:21:40.096             7.925                Norilsk           247.656
        14   01 Jun 2027 05:54:28.274   01 Jun 2027 05:55:15.002            46.728            RioGallegos          1460.250
        15   01 Jun 2027 05:55:57.290   01 Jun 2027 05:56:57.853            60.563            RioGallegos          1892.594
        16   01 Jun 2027 05:57:49.562   01 Jun 2027 05:58:52.804            63.242            RioGallegos          1976.313
        17   01 Jun 2027 05:59:40.476   01 Jun 2027 06:00:48.963            68.487            RioGallegos          2140.219
        18   01 Jun 2027 06:28:06.547   01 Jun 2027 06:30:37.909           151.362                Sumatra          4730.062
        19   01 Jun 2027 06:31:04.239   01 Jun 2027 06:34:31.524           207.285                Sumatra          6477.656
        20   01 Jun 2027 06:49:15.319   01 Jun 2027 06:50:02.873            47.554                Irkutsk          1486.062
        21   01 Jun 2027 06:50:06.559   01 Jun 2027 06:50:32.777            26.218                Novosib           819.312
        22   01 Jun 2027 06:50:46.012   01 Jun 2027 06:51:03.047            17.035                Norilsk           532.344
        23   01 Jun 2027 06:51:15.253   01 Jun 2027 06:51:55.610            40.357                Novosib          1261.156
        24   01 Jun 2027 06:52:01.564   01 Jun 2027 06:53:38.357            96.793              Murmansk1          3024.781
        25   01 Jun 2027 06:53:51.607   01 Jun 2027 06:54:06.926            15.319                Norilsk           478.719
        26   01 Jun 2027 06:56:15.577   01 Jun 2027 06:56:21.743             6.166              Murmansk2           192.688
        27   01 Jun 2027 06:59:55.964   01 Jun 2027 07:00:10.264            14.300              Murmansk2           446.875
        28   01 Jun 2027 07:28:15.678   01 Jun 2027 07:28:45.035            29.357            RioGallegos           917.406
        29   01 Jun 2027 07:30:02.259   01 Jun 2027 07:30:46.642            44.383            RioGallegos          1386.969
        30   01 Jun 2027 07:31:31.572   01 Jun 2027 07:32:50.081            78.509            RioGallegos          2453.406
        31   01 Jun 2027 07:37:43.569   01 Jun 2027 07:37:54.003            10.434            RioGallegos           326.063
        32   01 Jun 2027 08:02:30.422   01 Jun 2027 08:03:22.131            51.709                Sumatra          1615.906
        33   01 Jun 2027 08:04:39.339   01 Jun 2027 08:06:07.677            88.338                Sumatra          2760.562
        34   01 Jun 2027 08:07:06.725   01 Jun 2027 08:07:21.470            14.745                Sumatra           460.781
        35   01 Jun 2027 08:10:44.356   01 Jun 2027 08:15:09.606           265.250                  Delhi          8289.062
        36   01 Jun 2027 08:25:26.834   01 Jun 2027 08:25:42.603            15.769                Novosib           492.781
        37   01 Jun 2027 08:26:15.978   01 Jun 2027 08:26:28.139            12.161                 Moscow           380.031
        38   01 Jun 2027 08:27:06.731   01 Jun 2027 08:27:32.635            25.904                Irkutsk           809.500
        39   01 Jun 2027 08:27:42.410   01 Jun 2027 08:28:43.384            60.974                 Moscow          1905.438
        40   01 Jun 2027 08:28:47.015   01 Jun 2027 08:29:46.039            59.024                Novosib          1844.500
        41   01 Jun 2027 08:30:40.655   01 Jun 2027 08:30:49.138             8.483                 Moscow           265.094
        42   01 Jun 2027 08:31:06.448   01 Jun 2027 08:31:32.294            25.846                Norilsk           807.687
        43   01 Jun 2027 08:34:18.168   01 Jun 2027 08:34:57.344            39.176              Murmansk1          1224.250
        44   01 Jun 2027 09:47:24.539   01 Jun 2027 09:50:33.272           188.733                  Delhi          5897.906
        45   01 Jun 2027 09:56:14.398   01 Jun 2027 09:56:52.877            38.479                  Delhi          1202.469
        46   01 Jun 2027 10:00:51.908   01 Jun 2027 10:01:21.504            29.596                 Moscow           924.875
        47   01 Jun 2027 10:02:24.679   01 Jun 2027 10:03:44.764            80.085                Norilsk          2502.656
        48   01 Jun 2027 10:05:30.275   01 Jun 2027 10:05:30.480             0.205              Murmansk1             6.406
        49   01 Jun 2027 10:05:48.156   01 Jun 2027 10:05:54.094             5.938              Murmansk1           185.562
        50   01 Jun 2027 10:06:17.115   01 Jun 2027 10:07:31.206            74.091                 Moscow          2315.344
        51   01 Jun 2027 11:50:28.335   01 Jun 2027 11:54:57.121           268.786                Anadyr1          8399.562
        52   01 Jun 2027 15:03:26.179   01 Jun 2027 15:06:55.619           209.440               Magadan2          6545.000
        53   01 Jun 2027 15:07:39.950   01 Jun 2027 15:09:10.155            90.205               Magadan2          2818.906
        54   01 Jun 2027 15:10:50.430   01 Jun 2027 15:12:55.700           125.270               Magadan1          3914.687
        55   01 Jun 2027 17:32:05.226   01 Jun 2027 17:38:21.508           376.282            RioGallegos         11758.812
        56   01 Jun 2027 18:16:44.341   01 Jun 2027 18:17:26.560            42.219                Norilsk          1319.344
        57   01 Jun 2027 18:18:57.196   01 Jun 2027 18:20:12.823            75.627                Irkutsk          2363.344
        58   01 Jun 2027 18:20:49.656   01 Jun 2027 18:22:17.474            87.818                Irkutsk          2744.312
        59   01 Jun 2027 18:23:13.558   01 Jun 2027 18:23:18.543             4.985                Irkutsk           155.781
        60   01 Jun 2027 18:33:04.004   01 Jun 2027 18:34:23.059            79.055                Sumatra          2470.469
        61   01 Jun 2027 18:34:28.126   01 Jun 2027 18:36:34.760           126.634                Sumatra          3957.312
        62   01 Jun 2027 18:37:51.372   01 Jun 2027 18:39:58.747           127.375                Sumatra          3980.469
        63   01 Jun 2027 19:54:36.019   01 Jun 2027 19:56:02.587            86.568                Novosib          2705.250
        64   01 Jun 2027 19:56:48.670   01 Jun 2027 19:57:11.962            23.292                Novosib           727.875
        65   01 Jun 2027 20:03:03.340   01 Jun 2027 20:10:36.874           453.534                  Delhi         14172.938
        66   01 Jun 2027 21:28:56.873   01 Jun 2027 21:34:41.856           344.983              Murmansk2         10780.719
        67   01 Jun 2027 21:34:41.921   01 Jun 2027 21:36:15.623            93.702              Murmansk1          2928.188
        68   01 Jun 2027 23:08:02.234   01 Jun 2027 23:09:53.762           111.528                 Moscow          3485.250
        69   01 Jun 2027 23:10:22.953   01 Jun 2027 23:11:45.162            82.209                 Moscow          2569.031
        70   01 Jun 2027 23:14:49.857   01 Jun 2027 23:15:11.178            21.321                 Moscow           666.281
        71   01 Jun 2027 23:18:45.320   01 Jun 2027 23:19:46.029            60.709                 Moscow          1897.156
        72   01 Jun 2027 23:33:01.269   01 Jun 2027 23:34:05.924            64.655               CapeTown          2020.469
        73   01 Jun 2027 23:36:15.134   01 Jun 2027 23:39:53.581           218.447               CapeTown          6826.469
        74   02 Jun 2027 00:43:04.686   02 Jun 2027 00:43:38.040            33.354              Murmansk2          1042.313
        75   02 Jun 2027 00:46:03.581   02 Jun 2027 00:47:20.523            76.942              Murmansk1          2404.437
        76   02 Jun 2027 00:52:52.086   02 Jun 2027 00:52:56.459             4.373                 Moscow           136.656
        77   02 Jun 2027 00:53:24.101   02 Jun 2027 00:54:24.663            60.562                 Moscow          1892.562
        78   02 Jun 2027 01:10:37.868   02 Jun 2027 01:10:59.124            21.256               CapeTown           664.250
        79   02 Jun 2027 01:11:42.914   02 Jun 2027 01:12:15.721            32.807               CapeTown          1025.219
        80   02 Jun 2027 01:15:43.210   02 Jun 2027 01:16:04.633            21.423               CapeTown           669.469
        81   02 Jun 2027 01:16:50.530   02 Jun 2027 01:17:33.181            42.651               CapeTown          1332.844
        82   02 Jun 2027 02:04:45.683   02 Jun 2027 02:05:46.511            60.828               Magadan2          1900.875
        83   02 Jun 2027 02:05:55.311   02 Jun 2027 02:06:19.074            23.763               Magadan2           742.594
        84   02 Jun 2027 02:07:58.676   02 Jun 2027 02:08:01.813             3.137               Magadan1            98.031
        85   02 Jun 2027 02:08:14.448   02 Jun 2027 02:08:23.938             9.490               Magadan2           296.563
        86   02 Jun 2027 02:09:40.729   02 Jun 2027 02:10:07.238            26.509               Magadan2           828.406
        87   02 Jun 2027 02:11:42.712   02 Jun 2027 02:12:29.687            46.975               Magadan2          1467.969
        88   02 Jun 2027 02:15:21.468   02 Jun 2027 02:15:29.451             7.983               Magadan1           249.469
        89   02 Jun 2027 02:16:07.985   02 Jun 2027 02:16:33.405            25.420                Norilsk           794.375
        90   02 Jun 2027 02:16:40.051   02 Jun 2027 02:17:03.068            23.017              Murmansk2           719.281
        91   02 Jun 2027 02:17:41.984   02 Jun 2027 02:18:19.109            37.125              Murmansk1          1160.156
        92   02 Jun 2027 02:18:51.124   02 Jun 2027 02:19:01.005             9.881              Murmansk2           308.781
        93   02 Jun 2027 02:19:04.236   02 Jun 2027 02:19:28.839            24.603              Murmansk1           768.844
        94   02 Jun 2027 02:20:39.160   02 Jun 2027 02:20:46.559             7.399                 Moscow           231.219
        95   02 Jun 2027 02:20:54.492   02 Jun 2027 02:21:03.412             8.920                 Moscow           278.750
        96   02 Jun 2027 02:21:50.200   02 Jun 2027 02:22:10.400            20.200                 Moscow           631.250
        97   02 Jun 2027 02:23:42.348   02 Jun 2027 02:23:49.441             7.093              Murmansk1           221.656
        98   02 Jun 2027 02:24:16.216   02 Jun 2027 02:24:58.785            42.569              Murmansk1          1330.281
        99   02 Jun 2027 02:28:21.206   02 Jun 2027 02:28:31.506            10.300              Murmansk1           321.875
       100   02 Jun 2027 02:28:47.100   02 Jun 2027 02:28:58.757            11.657              Murmansk1           364.281
       101   02 Jun 2027 02:29:25.932   02 Jun 2027 02:29:36.798            10.866                 Moscow           339.563
       102   02 Jun 2027 02:30:04.288   02 Jun 2027 02:30:09.030             4.742                 Moscow           148.187
       103   02 Jun 2027 03:46:55.398   02 Jun 2027 03:47:35.331            39.933                Irkutsk          1247.906
       104   02 Jun 2027 03:47:59.946   02 Jun 2027 03:48:15.893            15.947               Magadan1           498.344
       105   02 Jun 2027 03:48:34.985   02 Jun 2027 03:48:47.641            12.656                Irkutsk           395.500
       106   02 Jun 2027 03:49:28.118   02 Jun 2027 03:50:28.934            60.816               Magadan2          1900.500
       107   02 Jun 2027 03:50:28.934   02 Jun 2027 03:50:56.964            28.030               Magadan1           875.937
       108   02 Jun 2027 03:51:24.382   02 Jun 2027 03:51:35.968            11.586               Magadan2           362.062
       109   02 Jun 2027 03:51:49.571   02 Jun 2027 03:51:52.612             3.041                Anadyr1            95.031
       110   02 Jun 2027 03:51:52.612   02 Jun 2027 03:52:49.199            56.587                Anadyr2          1768.344
       111   02 Jun 2027 04:32:39.255   02 Jun 2027 04:37:22.302           283.047            RioGallegos          8845.219
       112   02 Jun 2027 05:23:22.226   02 Jun 2027 05:23:48.397            26.171                Irkutsk           817.844
       113   02 Jun 2027 05:24:45.053   02 Jun 2027 05:25:59.702            74.649                Novosib          2332.781
       114   02 Jun 2027 05:26:20.837   02 Jun 2027 05:26:53.033            32.196               Magadan2          1006.125
       115   02 Jun 2027 05:27:08.154   02 Jun 2027 05:28:05.021            56.867               Magadan2          1777.094
       116   02 Jun 2027 05:28:30.602   02 Jun 2027 05:28:56.217            25.615              Murmansk1           800.469
       117   02 Jun 2027 06:03:14.038   02 Jun 2027 06:08:47.289           333.251            RioGallegos         10414.094
       118   02 Jun 2027 06:09:41.243   02 Jun 2027 06:10:51.978            70.735            RioGallegos          2210.469
       119   02 Jun 2027 06:38:51.563   02 Jun 2027 06:42:33.024           221.461                Sumatra          6920.656
       120   02 Jun 2027 06:44:25.797   02 Jun 2027 06:45:31.890            66.093                Sumatra          2065.406
       121   02 Jun 2027 06:59:46.744   02 Jun 2027 07:00:22.116            35.372                Novosib          1105.375
       122   02 Jun 2027 07:02:32.003   02 Jun 2027 07:04:30.717           118.714                Irkutsk          3709.812
       123   02 Jun 2027 07:04:35.628   02 Jun 2027 07:04:45.516             9.888              Murmansk2           309.000
       124   02 Jun 2027 07:05:12.539   02 Jun 2027 07:05:45.823            33.284                Norilsk          1040.125
       125   02 Jun 2027 07:40:43.945   02 Jun 2027 07:40:58.072            14.127            RioGallegos           441.469
       126   02 Jun 2027 07:41:53.896   02 Jun 2027 07:42:00.420             6.524            RioGallegos           203.875
       127   02 Jun 2027 07:42:18.554   02 Jun 2027 07:43:26.805            68.251            RioGallegos          2132.844
       128   02 Jun 2027 08:14:55.557   02 Jun 2027 08:15:13.942            18.385                Sumatra           574.531
       129   02 Jun 2027 08:16:16.743   02 Jun 2027 08:17:54.947            98.204                Sumatra          3068.875
       130   02 Jun 2027 08:22:19.275   02 Jun 2027 08:23:02.095            42.820                Sumatra          1338.125
       131   02 Jun 2027 08:24:23.917   02 Jun 2027 08:26:10.170           106.253                  Delhi          3320.406
       132   02 Jun 2027 08:28:31.246   02 Jun 2027 08:29:40.795            69.549                  Delhi          2173.406
       133   02 Jun 2027 08:37:20.754   02 Jun 2027 08:37:34.313            13.559              Murmansk2           423.719
       134   02 Jun 2027 08:37:43.814   02 Jun 2027 08:37:45.287             1.473                Novosib            46.031
       135   02 Jun 2027 08:37:47.421   02 Jun 2027 08:37:58.113            10.692              Murmansk1           334.125
       136   02 Jun 2027 08:38:25.253   02 Jun 2027 08:38:28.522             3.269                Norilsk           102.156
       137   02 Jun 2027 08:38:33.756   02 Jun 2027 08:39:06.204            32.448                Norilsk          1014.000
       138   02 Jun 2027 08:39:10.384   02 Jun 2027 08:39:15.083             4.699                Irkutsk           146.844
       139   02 Jun 2027 08:39:16.967   02 Jun 2027 08:40:25.098            68.131                Novosib          2129.094
       140   02 Jun 2027 08:40:27.934   02 Jun 2027 08:42:50.108           142.174                 Moscow          4442.938
       141   02 Jun 2027 10:00:04.354   02 Jun 2027 10:01:09.282            64.928                  Delhi          2029.000
       142   02 Jun 2027 10:02:33.621   02 Jun 2027 10:03:09.729            36.108                  Delhi          1128.375
       143   02 Jun 2027 10:11:58.459   02 Jun 2027 10:12:20.388            21.929                Novosib           685.281
       144   02 Jun 2027 10:12:27.253   02 Jun 2027 10:12:54.985            27.732                Norilsk           866.625
       145   02 Jun 2027 10:12:57.593   02 Jun 2027 10:13:03.320             5.727                Norilsk           178.969
       146   02 Jun 2027 10:13:06.471   02 Jun 2027 10:13:23.692            17.221                Novosib           538.156
       147   02 Jun 2027 10:13:31.176   02 Jun 2027 10:14:19.539            48.363              Murmansk1          1511.344
       148   02 Jun 2027 10:14:26.662   02 Jun 2027 10:14:34.321             7.659                Norilsk           239.344
       149   02 Jun 2027 10:14:39.823   02 Jun 2027 10:14:43.448             3.625              Murmansk1           113.281
       150   02 Jun 2027 10:14:47.380   02 Jun 2027 10:15:12.186            24.806              Murmansk1           775.188
       151   02 Jun 2027 10:15:44.061   02 Jun 2027 10:16:18.311            34.250              Murmansk2          1070.312
       152   02 Jun 2027 10:16:25.366   02 Jun 2027 10:16:35.702            10.336                Novosib           323.000
       153   02 Jun 2027 10:16:36.921   02 Jun 2027 10:16:59.369            22.448                 Moscow           701.500
       154   02 Jun 2027 10:22:17.262   02 Jun 2027 10:22:28.022            10.760              Murmansk1           336.250
       155   02 Jun 2027 11:51:15.099   02 Jun 2027 11:51:27.316            12.217                 Moscow           381.781
       156   02 Jun 2027 11:52:30.386   02 Jun 2027 11:52:31.976             1.590                 Moscow            49.687
       157   02 Jun 2027 11:52:44.400   02 Jun 2027 11:52:45.308             0.908              Murmansk1            28.375
       158   02 Jun 2027 11:53:53.518   02 Jun 2027 11:54:02.976             9.458              Murmansk1           295.562
       159   02 Jun 2027 12:02:01.831   02 Jun 2027 12:08:02.704           360.873                Anadyr1         11277.281
       160   02 Jun 2027 13:24:54.335   02 Jun 2027 13:25:22.596            28.261              Murmansk1           883.156
       161   02 Jun 2027 13:27:27.705   02 Jun 2027 13:28:01.500            33.795              Murmansk2          1056.094
       162   02 Jun 2027 13:30:42.358   02 Jun 2027 13:30:43.681             1.323              Murmansk1            41.344
       163   02 Jun 2027 13:31:55.342   02 Jun 2027 13:32:40.784            45.442              Murmansk2          1420.063
       164   02 Jun 2027 13:33:42.070   02 Jun 2027 13:33:48.849             6.779              Murmansk2           211.844
       165   02 Jun 2027 13:34:36.178   02 Jun 2027 13:34:57.020            20.842              Murmansk2           651.312
       166   02 Jun 2027 13:36:53.193   02 Jun 2027 13:40:44.966           231.773                Anadyr2          7242.906
       167   02 Jun 2027 13:41:12.577   02 Jun 2027 13:42:56.284           103.707                Anadyr2          3240.844
       168   02 Jun 2027 15:05:58.618   02 Jun 2027 15:06:35.019            36.401              Murmansk1          1137.531
       169   02 Jun 2027 15:09:08.681   02 Jun 2027 15:09:40.297            31.616              Murmansk2           988.000
       170   02 Jun 2027 15:12:41.901   02 Jun 2027 15:13:51.132            69.231                Anadyr2          2163.469
       171   02 Jun 2027 15:14:49.028   02 Jun 2027 15:15:33.120            44.092                Anadyr1          1377.875
       172   02 Jun 2027 15:16:24.973   02 Jun 2027 15:20:58.287           273.314               Magadan2          8541.062
       173   02 Jun 2027 15:23:44.261   02 Jun 2027 15:26:21.421           157.160               Magadan1          4911.250
       174   02 Jun 2027 16:50:53.820   02 Jun 2027 16:50:55.259             1.439               Magadan2            44.969
       175   02 Jun 2027 16:51:09.929   02 Jun 2027 16:53:05.232           115.303               Magadan1          3603.219
       176   02 Jun 2027 17:43:20.457   02 Jun 2027 17:49:35.956           375.499            RioGallegos         11734.344
       177   02 Jun 2027 18:27:50.339   02 Jun 2027 18:30:07.620           137.281                Norilsk          4290.031
       178   02 Jun 2027 18:30:47.561   02 Jun 2027 18:32:09.002            81.441                Irkutsk          2545.031
       179   02 Jun 2027 18:32:56.077   02 Jun 2027 18:34:20.241            84.164                Irkutsk          2630.125
       180   02 Jun 2027 18:34:25.931   02 Jun 2027 18:35:39.599            73.668                Novosib          2302.125
       181   02 Jun 2027 18:44:41.104   02 Jun 2027 18:46:16.308            95.204                Sumatra          2975.125
       182   02 Jun 2027 18:48:32.680   02 Jun 2027 18:50:27.712           115.032                Sumatra          3594.750
       183   02 Jun 2027 18:50:52.984   02 Jun 2027 18:51:09.384            16.400                Sumatra           512.500
       184   02 Jun 2027 20:06:30.436   02 Jun 2027 20:08:27.826           117.390                Novosib          3668.438
       185   02 Jun 2027 20:14:34.928   02 Jun 2027 20:17:58.633           203.705                  Delhi          6365.781
       186   02 Jun 2027 20:18:10.381   02 Jun 2027 20:21:21.138           190.757                  Delhi          5961.156
       187   02 Jun 2027 21:40:51.715   02 Jun 2027 21:48:56.489           484.774              Murmansk2         15149.188
       188   02 Jun 2027 21:49:10.972   02 Jun 2027 21:51:00.451           109.479                 Moscow          3421.219
       189   02 Jun 2027 23:26:39.090   02 Jun 2027 23:28:24.073           104.983                 Moscow          3280.719
       190   02 Jun 2027 23:44:34.807   02 Jun 2027 23:46:09.983            95.176               CapeTown          2974.250
       191   02 Jun 2027 23:48:08.255   02 Jun 2027 23:50:06.196           117.941               CapeTown          3685.656
       192   03 Jun 2027 00:55:42.473   03 Jun 2027 00:56:45.925            63.452                 Moscow          1982.875
       193   03 Jun 2027 01:08:14.268   03 Jun 2027 01:08:21.290             7.022                 Moscow           219.437
       194   03 Jun 2027 01:20:02.416   03 Jun 2027 01:22:30.145           147.729               CapeTown          4616.531
       195   03 Jun 2027 02:16:33.817   03 Jun 2027 02:18:16.606           102.789               Magadan2          3212.156
       196   03 Jun 2027 02:18:41.045   03 Jun 2027 02:19:01.978            20.933               Magadan2           654.156
       197   03 Jun 2027 02:21:36.347   03 Jun 2027 02:21:42.708             6.361               Magadan1           198.781
       198   03 Jun 2027 02:23:15.900   03 Jun 2027 02:23:33.478            17.578               Magadan2           549.313
       199   03 Jun 2027 02:24:47.558   03 Jun 2027 02:25:13.369            25.811                Norilsk           806.594
       200   03 Jun 2027 02:26:21.967   03 Jun 2027 02:26:25.067             3.100                Norilsk            96.875
       201   03 Jun 2027 02:27:04.525   03 Jun 2027 02:27:13.592             9.067                Norilsk           283.344
       202   03 Jun 2027 02:28:16.303   03 Jun 2027 02:28:31.234            14.931               Magadan1           466.594
       203   03 Jun 2027 02:28:45.581   03 Jun 2027 02:29:41.045            55.464              Murmansk1          1733.250
       204   03 Jun 2027 02:29:55.540   03 Jun 2027 02:30:03.464             7.924              Murmansk1           247.625
       205   03 Jun 2027 02:30:51.158   03 Jun 2027 02:31:11.911            20.753              Murmansk2           648.531
       206   03 Jun 2027 02:32:03.600   03 Jun 2027 02:32:20.008            16.408                 Moscow           512.750
       207   03 Jun 2027 02:32:29.184   03 Jun 2027 02:32:34.032             4.848                 Moscow           151.500
       208   03 Jun 2027 02:34:35.345   03 Jun 2027 02:34:40.305             4.960                 Moscow           155.000
       209   03 Jun 2027 02:35:06.738   03 Jun 2027 02:35:16.958            10.220                 Moscow           319.375
       210   03 Jun 2027 02:35:26.587   03 Jun 2027 02:36:51.033            84.446                 Moscow          2638.938
       211   03 Jun 2027 03:11:30.067   03 Jun 2027 03:13:11.264           101.197            RioGallegos          3162.406
       212   03 Jun 2027 03:59:45.887   03 Jun 2027 04:00:34.208            48.321               Magadan2          1510.031
       213   03 Jun 2027 04:00:42.001   03 Jun 2027 04:02:06.143            84.142                Anadyr2          2629.438
       214   03 Jun 2027 04:02:40.123   03 Jun 2027 04:04:14.839            94.716                Anadyr2          2959.875
       215   03 Jun 2027 04:04:14.839   03 Jun 2027 04:04:44.234            29.395                Anadyr1           918.594
       216   03 Jun 2027 04:43:28.849   03 Jun 2027 04:44:53.403            84.554            RioGallegos          2642.313
       217   03 Jun 2027 04:45:52.288   03 Jun 2027 04:50:14.157           261.869            RioGallegos          8183.406
       218   03 Jun 2027 05:36:55.786   03 Jun 2027 05:38:02.778            66.992                Novosib          2093.500
       219   03 Jun 2027 05:38:03.701   03 Jun 2027 05:38:26.390            22.689                Norilsk           709.031
       220   03 Jun 2027 05:38:33.324   03 Jun 2027 05:38:54.291            20.967                Novosib           655.219
       221   03 Jun 2027 05:38:56.562   03 Jun 2027 05:39:25.122            28.560               Magadan1           892.500
       222   03 Jun 2027 05:39:25.122   03 Jun 2027 05:40:03.021            37.899               Magadan2          1184.344
       223   03 Jun 2027 05:41:14.675   03 Jun 2027 05:41:24.684            10.009                Novosib           312.781
       224   03 Jun 2027 05:41:25.863   03 Jun 2027 05:41:53.139            27.276              Murmansk1           852.375
       225   03 Jun 2027 05:41:53.139   03 Jun 2027 05:42:13.390            20.251              Murmansk2           632.844
       226   03 Jun 2027 05:42:38.279   03 Jun 2027 05:43:31.980            53.701                Norilsk          1678.156
       227   03 Jun 2027 05:46:47.050   03 Jun 2027 05:46:48.225             1.175              Murmansk1            36.719
       228   03 Jun 2027 05:47:02.636   03 Jun 2027 05:47:28.314            25.678              Murmansk2           802.437
       229   03 Jun 2027 06:15:14.079   03 Jun 2027 06:16:47.896            93.817            RioGallegos          2931.781
       230   03 Jun 2027 06:17:03.928   03 Jun 2027 06:17:30.192            26.264            RioGallegos           820.750
       231   03 Jun 2027 06:18:16.706   03 Jun 2027 06:19:28.282            71.576            RioGallegos          2236.750
       232   03 Jun 2027 06:20:26.440   03 Jun 2027 06:20:39.886            13.446            RioGallegos           420.187
       233   03 Jun 2027 06:20:53.762   03 Jun 2027 06:21:19.249            25.487            RioGallegos           796.469
       234   03 Jun 2027 06:22:28.367   03 Jun 2027 06:23:48.264            79.897            RioGallegos          2496.781
       235   03 Jun 2027 06:24:48.159   03 Jun 2027 06:24:51.038             2.879            RioGallegos            89.969
       236   03 Jun 2027 06:50:32.443   03 Jun 2027 06:54:31.966           239.523                Sumatra          7485.094
       237   03 Jun 2027 07:01:25.501   03 Jun 2027 07:02:44.387            78.886                Sumatra          2465.187
       238   03 Jun 2027 07:03:06.771   03 Jun 2027 07:08:33.764           326.993                  Delhi         10218.531
       239   03 Jun 2027 07:11:06.357   03 Jun 2027 07:11:56.382            50.025                Irkutsk          1563.281
       240   03 Jun 2027 07:12:16.670   03 Jun 2027 07:13:08.097            51.427                Irkutsk          1607.094
       241   03 Jun 2027 07:13:11.706   03 Jun 2027 07:13:13.315             1.609                Norilsk            50.281
       242   03 Jun 2027 07:13:17.002   03 Jun 2027 07:13:25.866             8.864              Murmansk2           277.000
       243   03 Jun 2027 07:13:25.866   03 Jun 2027 07:14:27.985            62.119              Murmansk1          1941.219
       244   03 Jun 2027 07:14:35.702   03 Jun 2027 07:15:00.955            25.253              Murmansk1           789.156
       245   03 Jun 2027 07:15:00.955   03 Jun 2027 07:15:11.800            10.845              Murmansk2           338.906
       246   03 Jun 2027 07:15:15.667   03 Jun 2027 07:16:23.725            68.058              Murmansk2          2126.813
       247   03 Jun 2027 07:53:18.353   03 Jun 2027 07:53:49.961            31.608            RioGallegos           987.750
       248   03 Jun 2027 07:54:37.225   03 Jun 2027 07:55:30.152            52.927            RioGallegos          1653.969
       249   03 Jun 2027 08:27:31.310   03 Jun 2027 08:28:16.711            45.401                Sumatra          1418.781
       250   03 Jun 2027 08:30:42.738   03 Jun 2027 08:31:45.066            62.328                Sumatra          1947.750
       251   03 Jun 2027 08:34:24.076   03 Jun 2027 08:36:16.738           112.662                  Delhi          3520.687
       252   03 Jun 2027 08:43:50.881   03 Jun 2027 08:43:56.494             5.613                  Delhi           175.406
       253   03 Jun 2027 08:48:28.347   03 Jun 2027 08:48:30.462             2.115                Novosib            66.094
       254   03 Jun 2027 08:48:38.812   03 Jun 2027 08:48:59.434            20.622                Norilsk           644.438
       255   03 Jun 2027 08:49:01.587   03 Jun 2027 08:49:27.620            26.033                Irkutsk           813.531
       256   03 Jun 2027 08:49:44.392   03 Jun 2027 08:49:59.386            14.994                Novosib           468.562
       257   03 Jun 2027 08:50:20.789   03 Jun 2027 08:50:29.711             8.922                Norilsk           278.812
       258   03 Jun 2027 08:50:30.476   03 Jun 2027 08:50:42.470            11.994                Irkutsk           374.812
       259   03 Jun 2027 08:50:52.317   03 Jun 2027 08:51:13.349            21.032              Murmansk1           657.250
       260   03 Jun 2027 08:51:28.436   03 Jun 2027 08:51:47.551            19.115                Norilsk           597.344
       261   03 Jun 2027 08:51:51.544   03 Jun 2027 08:52:23.096            31.552                Novosib           986.000
       262   03 Jun 2027 08:53:00.443   03 Jun 2027 08:53:17.898            17.455              Murmansk2           545.469
       263   03 Jun 2027 08:54:12.038   03 Jun 2027 08:54:50.418            38.380                 Moscow          1199.375
       264   03 Jun 2027 10:12:59.400   03 Jun 2027 10:15:53.142           173.742                  Delhi          5429.437
       265   03 Jun 2027 10:23:40.303   03 Jun 2027 10:24:39.227            58.924              Murmansk1          1841.375
       266   03 Jun 2027 10:24:42.176   03 Jun 2027 10:24:53.825            11.649              Murmansk2           364.031
       267   03 Jun 2027 10:24:59.575   03 Jun 2027 10:25:01.933             2.358                Norilsk            73.687
       268   03 Jun 2027 10:25:27.129   03 Jun 2027 10:26:27.971            60.842                 Moscow          1901.312
       269   03 Jun 2027 10:26:35.143   03 Jun 2027 10:26:58.406            23.263                Norilsk           726.969
       270   03 Jun 2027 10:27:01.418   03 Jun 2027 10:27:05.466             4.048              Murmansk1           126.500
       271   03 Jun 2027 10:27:13.288   03 Jun 2027 10:27:57.122            43.834                 Moscow          1369.813
       272   03 Jun 2027 10:27:58.145   03 Jun 2027 10:28:12.185            14.040                 Moscow           438.750
       273   03 Jun 2027 10:28:17.018   03 Jun 2027 10:28:22.795             5.777                Norilsk           180.531
       274   03 Jun 2027 10:28:25.870   03 Jun 2027 10:29:01.177            35.307              Murmansk2          1103.344
       275   03 Jun 2027 11:35:20.649   03 Jun 2027 11:41:14.715           354.066               CapeTown         11064.563
       276   03 Jun 2027 12:13:45.086   03 Jun 2027 12:20:01.609           376.523                Anadyr1         11766.344
       277   03 Jun 2027 12:20:12.354   03 Jun 2027 12:20:56.014            43.660                Anadyr2          1364.375
       278   03 Jun 2027 13:48:52.379   03 Jun 2027 13:49:42.755            50.376                Anadyr2          1574.250
       279   03 Jun 2027 13:49:42.755   03 Jun 2027 13:50:57.237            74.482                Anadyr1          2327.562
       280   03 Jun 2027 13:53:48.529   03 Jun 2027 13:54:16.140            27.611                Anadyr1           862.844
       281   03 Jun 2027 13:54:34.257   03 Jun 2027 13:56:33.769           119.512               Magadan2          3734.750
       282   03 Jun 2027 15:24:43.197   03 Jun 2027 15:25:51.521            68.324                Anadyr1          2135.125
       283   03 Jun 2027 15:26:12.589   03 Jun 2027 15:26:55.265            42.676                Anadyr2          1333.625
       284   03 Jun 2027 15:27:15.526   03 Jun 2027 15:29:18.403           122.877               Magadan1          3839.906
       285   03 Jun 2027 15:29:34.413   03 Jun 2027 15:31:28.432           114.019               Magadan2          3563.094
       286   03 Jun 2027 15:34:15.004   03 Jun 2027 15:35:46.634            91.630               Magadan1          2863.437
       287   03 Jun 2027 17:02:20.783   03 Jun 2027 17:02:55.736            34.953                Anadyr1          1092.281
       288   03 Jun 2027 17:04:54.135   03 Jun 2027 17:06:14.741            80.606               Magadan1          2518.938
       289   03 Jun 2027 17:06:30.276   03 Jun 2027 17:06:45.571            15.295               Magadan1           477.969
       290   03 Jun 2027 17:07:00.309   03 Jun 2027 17:07:21.945            21.636                Norilsk           676.125
       291   03 Jun 2027 17:11:40.712   03 Jun 2027 17:11:46.006             5.294               Magadan1           165.438
       292   03 Jun 2027 17:11:52.902   03 Jun 2027 17:12:01.872             8.970               Magadan2           280.313
       293   03 Jun 2027 17:15:32.094   03 Jun 2027 17:15:49.465            17.371               Magadan2           542.844
       294   03 Jun 2027 17:55:06.702   03 Jun 2027 17:58:25.084           198.382            RioGallegos          6199.438
       295   03 Jun 2027 17:58:56.399   03 Jun 2027 18:01:07.069           130.670            RioGallegos          4083.437
       296   03 Jun 2027 18:40:07.954   03 Jun 2027 18:42:45.178           157.224                Norilsk          4913.250
       297   03 Jun 2027 18:43:41.470   03 Jun 2027 18:45:12.703            91.233                Irkutsk          2851.031
       298   03 Jun 2027 18:46:21.261   03 Jun 2027 18:49:48.079           206.818                Novosib          6463.062
       299   03 Jun 2027 18:59:05.968   03 Jun 2027 18:59:56.379            50.411                Sumatra          1575.344
       300   03 Jun 2027 19:00:36.183   03 Jun 2027 19:01:02.793            26.610                Sumatra           831.563
       301   03 Jun 2027 19:06:04.923   03 Jun 2027 19:07:04.953            60.030                Sumatra          1875.937
       302   03 Jun 2027 19:08:06.065   03 Jun 2027 19:08:49.627            43.562                Sumatra          1361.312
       303   03 Jun 2027 20:22:36.365   03 Jun 2027 20:25:08.829           152.464                Novosib          4764.500
       304   03 Jun 2027 20:26:14.358   03 Jun 2027 20:27:50.350            95.992                  Delhi          2999.750
       305   03 Jun 2027 20:28:02.218   03 Jun 2027 20:30:02.700           120.482                  Delhi          3765.063
       306   03 Jun 2027 20:31:29.900   03 Jun 2027 20:33:12.307           102.407                  Delhi          3200.219
       307   03 Jun 2027 21:52:48.271   03 Jun 2027 21:58:19.827           331.556              Murmansk1         10361.125
       308   03 Jun 2027 21:58:31.906   03 Jun 2027 22:01:33.582           181.676              Murmansk2          5677.375
       309   03 Jun 2027 22:02:49.314   03 Jun 2027 22:04:17.194            87.880                 Moscow          2746.250
       310   03 Jun 2027 23:33:21.226   03 Jun 2027 23:34:23.634            62.408                 Moscow          1950.250
       311   03 Jun 2027 23:56:14.425   03 Jun 2027 23:57:22.002            67.577               CapeTown          2111.781
       312   03 Jun 2027 23:58:05.720   03 Jun 2027 23:58:36.679            30.959               CapeTown           967.469
       313   04 Jun 2027 00:00:04.872   04 Jun 2027 00:00:42.998            38.126               CapeTown          1191.438
       314   04 Jun 2027 00:04:59.549   04 Jun 2027 00:05:36.641            37.092               CapeTown          1159.125
       315   04 Jun 2027 01:04:31.003   04 Jun 2027 01:05:39.885            68.882              Murmansk2          2152.562
       316   04 Jun 2027 01:06:56.654   04 Jun 2027 01:07:51.856            55.202              Murmansk2          1725.063
       317   04 Jun 2027 01:08:23.462   04 Jun 2027 01:10:38.746           135.284                 Moscow          4227.625
       318   04 Jun 2027 01:36:42.191   04 Jun 2027 01:37:03.141            20.950               CapeTown           654.687
       319   04 Jun 2027 01:41:16.110   04 Jun 2027 01:41:24.496             8.386               CapeTown           262.062
       320   04 Jun 2027 02:28:24.070   04 Jun 2027 02:30:50.804           146.734               Magadan1          4585.438
       321   04 Jun 2027 02:32:27.950   04 Jun 2027 02:32:36.483             8.533               Magadan2           266.656
       322   04 Jun 2027 02:33:04.572   04 Jun 2027 02:33:44.986            40.414               Magadan2          1262.937
       323   04 Jun 2027 02:37:05.393   04 Jun 2027 02:37:12.870             7.477               Magadan2           233.656
       324   04 Jun 2027 02:37:37.452   04 Jun 2027 02:38:09.137            31.685                Norilsk           990.156
       325   04 Jun 2027 02:40:22.675   04 Jun 2027 02:41:05.579            42.904              Murmansk1          1340.750
       326   04 Jun 2027 02:41:29.288   04 Jun 2027 02:41:33.710             4.422              Murmansk2           138.188
       327   04 Jun 2027 02:42:27.816   04 Jun 2027 02:42:45.261            17.445              Murmansk1           545.156
       328   04 Jun 2027 02:43:11.107   04 Jun 2027 02:43:12.825             1.718              Murmansk1            53.688
       329   04 Jun 2027 02:43:15.947   04 Jun 2027 02:43:45.558            29.611              Murmansk2           925.344
       330   04 Jun 2027 02:44:10.720   04 Jun 2027 02:44:30.386            19.666                 Moscow           614.562
       331   04 Jun 2027 02:46:28.796   04 Jun 2027 02:46:56.015            27.219                 Moscow           850.594
       332   04 Jun 2027 02:51:14.155   04 Jun 2027 02:51:57.818            43.663                 Moscow          1364.469
       333   04 Jun 2027 03:21:55.822   04 Jun 2027 03:22:51.986            56.164            RioGallegos          1755.125
       334   04 Jun 2027 03:23:47.786   04 Jun 2027 03:24:12.042            24.256            RioGallegos           758.000
       335   04 Jun 2027 03:24:47.809   04 Jun 2027 03:26:06.372            78.563            RioGallegos          2455.094
       336   04 Jun 2027 04:11:18.873   04 Jun 2027 04:13:53.596           154.723               Magadan2          4835.094
       337   04 Jun 2027 04:13:54.501   04 Jun 2027 04:14:36.716            42.215                Anadyr1          1319.219
       338   04 Jun 2027 04:14:41.118   04 Jun 2027 04:15:30.089            48.971               Magadan2          1530.344
       339   04 Jun 2027 04:15:30.089   04 Jun 2027 04:15:31.308             1.219               Magadan1            38.094
       340   04 Jun 2027 04:16:01.515   04 Jun 2027 04:16:47.553            46.038               Magadan1          1438.688
       341   04 Jun 2027 04:52:35.371   04 Jun 2027 04:53:27.198            51.827            RioGallegos          1619.594
       342   04 Jun 2027 04:54:18.297   04 Jun 2027 04:54:30.041            11.744            RioGallegos           367.000
       343   04 Jun 2027 04:55:03.220   04 Jun 2027 04:56:04.997            61.777            RioGallegos          1930.531
       344   04 Jun 2027 05:47:46.883   04 Jun 2027 05:47:50.629             3.746               Magadan1           117.063
       345   04 Jun 2027 05:48:04.054   04 Jun 2027 05:48:21.382            17.328                Irkutsk           541.500
       346   04 Jun 2027 05:49:06.801   04 Jun 2027 05:50:08.861            62.060                Novosib          1939.375
       347   04 Jun 2027 05:50:11.468   04 Jun 2027 05:50:50.773            39.305                Irkutsk          1228.281
       348   04 Jun 2027 05:50:53.017   04 Jun 2027 05:53:15.786           142.769              Murmansk1          4461.531
       349   04 Jun 2027 05:53:26.587   04 Jun 2027 05:53:35.934             9.347                Norilsk           292.094
       350   04 Jun 2027 05:53:40.962   04 Jun 2027 05:54:03.783            22.821                Norilsk           713.156
       351   04 Jun 2027 05:54:17.517   04 Jun 2027 05:54:32.619            15.102                Norilsk           471.938
       352   04 Jun 2027 05:56:32.658   04 Jun 2027 05:56:37.700             5.042              Murmansk1           157.563
       353   04 Jun 2027 05:56:57.397   04 Jun 2027 05:57:11.167            13.770                Norilsk           430.313
       354   04 Jun 2027 05:57:30.351   04 Jun 2027 05:57:38.511             8.160              Murmansk2           255.000
       355   04 Jun 2027 06:27:17.454   04 Jun 2027 06:30:32.546           195.092            RioGallegos          6096.625
       356   04 Jun 2027 06:32:01.083   04 Jun 2027 06:32:14.090            13.007            RioGallegos           406.469
       357   04 Jun 2027 07:02:20.004   04 Jun 2027 07:03:45.879            85.875                Sumatra          2683.594
       358   04 Jun 2027 07:05:09.639   04 Jun 2027 07:06:21.763            72.124                Sumatra          2253.875
       359   04 Jun 2027 07:13:50.637   04 Jun 2027 07:21:28.507           457.870                  Delhi         14308.438
       360   04 Jun 2027 07:23:14.003   04 Jun 2027 07:23:49.085            35.082                Novosib          1096.313
       361   04 Jun 2027 07:24:15.720   04 Jun 2027 07:25:04.592            48.872                Norilsk          1527.250
       362   04 Jun 2027 07:25:15.012   04 Jun 2027 07:26:22.342            67.330              Murmansk2          2104.062
       363   04 Jun 2027 07:26:26.632   04 Jun 2027 07:26:43.836            17.204                Irkutsk           537.625
       364   04 Jun 2027 07:26:51.881   04 Jun 2027 07:28:05.232            73.351                Irkutsk          2292.219
       365   04 Jun 2027 07:28:23.658   04 Jun 2027 07:28:58.626            34.968                Novosib          1092.750
       366   04 Jun 2027 07:29:41.843   04 Jun 2027 07:29:45.318             3.475              Murmansk2           108.594
       367   04 Jun 2027 07:29:48.874   04 Jun 2027 07:29:55.195             6.321                 Moscow           197.531
       368   04 Jun 2027 07:30:42.103   04 Jun 2027 07:30:42.429             0.326              Murmansk2            10.188
       369   04 Jun 2027 07:31:57.457   04 Jun 2027 07:32:18.664            21.207              Murmansk2           662.719
       370   04 Jun 2027 08:06:00.358   04 Jun 2027 08:06:46.369            46.011            RioGallegos          1437.844
       371   04 Jun 2027 08:07:27.663   04 Jun 2027 08:07:42.068            14.405            RioGallegos           450.156
       372   04 Jun 2027 08:40:23.682   04 Jun 2027 08:41:28.434            64.752                Sumatra          2023.500
       373   04 Jun 2027 08:46:21.953   04 Jun 2027 08:47:28.978            67.025                  Delhi          2094.531
       374   04 Jun 2027 08:47:43.981   04 Jun 2027 08:48:50.326            66.345                  Delhi          2073.281
       375   04 Jun 2027 08:54:20.955   04 Jun 2027 08:55:44.677            83.722                  Delhi          2616.312
       376   04 Jun 2027 09:00:35.612   04 Jun 2027 09:00:47.284            11.672              Murmansk1           364.750
       377   04 Jun 2027 09:00:47.284   04 Jun 2027 09:00:57.284            10.000              Murmansk2           312.500
       378   04 Jun 2027 09:00:59.564   04 Jun 2027 09:01:15.133            15.569                 Moscow           486.531
       379   04 Jun 2027 09:01:16.414   04 Jun 2027 09:01:39.483            23.069              Murmansk2           720.906
       380   04 Jun 2027 09:01:39.483   04 Jun 2027 09:01:44.903             5.420              Murmansk1           169.375
       381   04 Jun 2027 09:01:54.344   04 Jun 2027 09:02:07.856            13.512                 Moscow           422.250
       382   04 Jun 2027 09:02:10.925   04 Jun 2027 09:02:36.486            25.561                Novosib           798.781
       383   04 Jun 2027 09:03:00.191   04 Jun 2027 09:03:45.275            45.084              Murmansk1          1408.875
       384   04 Jun 2027 09:03:47.221   04 Jun 2027 09:04:04.954            17.733                 Moscow           554.156
       385   04 Jun 2027 09:07:06.281   04 Jun 2027 09:07:08.910             2.629              Murmansk2            82.156
       386   04 Jun 2027 10:26:23.960   04 Jun 2027 10:28:43.889           139.929                  Delhi          4372.781
       387   04 Jun 2027 10:28:56.062   04 Jun 2027 10:29:11.179            15.117                  Delhi           472.406
       388   04 Jun 2027 10:34:12.162   04 Jun 2027 10:34:35.519            23.357              Murmansk2           729.906
       389   04 Jun 2027 10:34:42.868   04 Jun 2027 10:35:01.507            18.639              Murmansk2           582.469
       390   04 Jun 2027 10:35:01.507   04 Jun 2027 10:35:22.967            21.460              Murmansk1           670.625
       391   04 Jun 2027 10:35:32.592   04 Jun 2027 10:35:42.584             9.992              Murmansk1           312.250
       392   04 Jun 2027 10:36:03.156   04 Jun 2027 10:36:06.825             3.669                 Moscow           114.656
       393   04 Jun 2027 10:36:29.673   04 Jun 2027 10:36:42.973            13.300                Novosib           415.625
       394   04 Jun 2027 10:36:43.797   04 Jun 2027 10:37:33.430            49.633              Murmansk1          1551.031
       395   04 Jun 2027 10:37:41.951   04 Jun 2027 10:38:28.912            46.961                 Moscow          1467.531
       396   04 Jun 2027 10:38:42.010   04 Jun 2027 10:38:59.500            17.490              Murmansk2           546.563
       397   04 Jun 2027 10:39:17.163   04 Jun 2027 10:40:10.354            53.191                 Moscow          1662.219
       398   04 Jun 2027 10:40:18.891   04 Jun 2027 10:40:53.636            34.745                 Moscow          1085.781
       399   04 Jun 2027 10:41:10.486   04 Jun 2027 10:41:29.267            18.781              Murmansk1           586.906
       400   04 Jun 2027 10:42:26.107   04 Jun 2027 10:42:32.120             6.013              Murmansk2           187.906
       401   04 Jun 2027 10:42:33.538   04 Jun 2027 10:42:53.664            20.126                 Moscow           628.937
       402   04 Jun 2027 11:46:23.150   04 Jun 2027 11:54:28.291           485.141               CapeTown         15160.656
       403   04 Jun 2027 12:25:33.501   04 Jun 2027 12:26:02.157            28.656                Anadyr2           895.500
       404   04 Jun 2027 12:26:02.157   04 Jun 2027 12:33:41.695           459.538                Anadyr1         14360.562
       405   04 Jun 2027 14:03:28.614   04 Jun 2027 14:04:45.828            77.214                Anadyr1          2412.937
       406   04 Jun 2027 14:05:06.059   04 Jun 2027 14:10:15.366           309.307               Magadan2          9665.844
       407   04 Jun 2027 15:39:12.211   04 Jun 2027 15:40:53.160           100.949               Magadan2          3154.656
       408   04 Jun 2027 15:43:27.818   04 Jun 2027 15:44:39.770            71.952               Magadan2          2248.500
       409   04 Jun 2027 17:13:02.716   04 Jun 2027 17:13:47.246            44.530                Anadyr1          1391.562
       410   04 Jun 2027 17:14:56.331   04 Jun 2027 17:16:40.953           104.622               Magadan1          3269.437
       411   04 Jun 2027 17:19:48.639   04 Jun 2027 17:20:16.091            27.452                Norilsk           857.875
       412   04 Jun 2027 17:21:42.166   04 Jun 2027 17:25:10.613           208.447                Irkutsk          6513.969
       413   04 Jun 2027 18:06:56.352   04 Jun 2027 18:08:01.854            65.502            RioGallegos          2046.937
       414   04 Jun 2027 18:17:21.965   04 Jun 2027 18:18:12.854            50.889            RioGallegos          1590.281
       415   04 Jun 2027 18:51:12.850   04 Jun 2027 18:51:17.902             5.052               Magadan2           157.875
       416   04 Jun 2027 18:52:39.919   04 Jun 2027 18:53:30.580            50.661               Magadan2          1583.156
       417   04 Jun 2027 18:54:31.894   04 Jun 2027 18:55:19.659            47.765                Norilsk          1492.656
       418   04 Jun 2027 18:56:03.596   04 Jun 2027 19:02:59.404           415.808                Novosib         12994.000
       419   04 Jun 2027 19:17:47.224   04 Jun 2027 19:18:38.241            51.017                Sumatra          1594.281
       420   04 Jun 2027 19:20:11.986   04 Jun 2027 19:20:43.784            31.798                Sumatra           993.688
       421   04 Jun 2027 20:31:13.688   04 Jun 2027 20:31:59.140            45.452                Novosib          1420.375
       422   04 Jun 2027 20:33:05.797   04 Jun 2027 20:34:18.898            73.101                Novosib          2284.406
       423   04 Jun 2027 20:35:50.510   04 Jun 2027 20:35:52.957             2.447                Novosib            76.469
       424   04 Jun 2027 20:37:59.619   04 Jun 2027 20:42:01.108           241.489                  Delhi          7546.531
       425   04 Jun 2027 22:04:46.053   04 Jun 2027 22:11:27.430           401.377              Murmansk2         12543.031
       426   04 Jun 2027 22:11:36.809   04 Jun 2027 22:14:07.387           150.578              Murmansk2          4705.562
       427   04 Jun 2027 22:14:38.755   04 Jun 2027 22:16:06.984            88.229                 Moscow          2757.156
       428   04 Jun 2027 22:39:13.680   04 Jun 2027 22:39:54.982            41.302               CapeTown          1290.688
       429   04 Jun 2027 23:43:52.855   04 Jun 2027 23:44:27.304            34.449                 Moscow          1076.531
       430   04 Jun 2027 23:47:55.671   04 Jun 2027 23:48:30.785            35.114                 Moscow          1097.312
       431   05 Jun 2027 00:07:59.531   05 Jun 2027 00:11:44.666           225.135               CapeTown          7035.469
       432   05 Jun 2027 01:16:32.437   05 Jun 2027 01:17:00.597            28.160              Murmansk2           880.000
       433   05 Jun 2027 01:17:28.367   05 Jun 2027 01:18:50.830            82.463              Murmansk1          2576.969
       434   05 Jun 2027 01:19:48.447   05 Jun 2027 01:19:58.325             9.878                 Moscow           308.688
       435   05 Jun 2027 01:22:03.269   05 Jun 2027 01:22:35.730            32.461                 Moscow          1014.406
       436   05 Jun 2027 01:24:34.932   05 Jun 2027 01:24:42.222             7.290                 Moscow           227.813
       437   05 Jun 2027 01:26:06.457   05 Jun 2027 01:26:24.527            18.070                 Moscow           564.687
       438   05 Jun 2027 01:29:12.723   05 Jun 2027 01:29:25.899            13.176                 Moscow           411.750
       439   05 Jun 2027 01:44:55.825   05 Jun 2027 01:46:02.492            66.667               CapeTown          2083.344
       440   05 Jun 2027 01:49:17.480   05 Jun 2027 01:50:24.911            67.431               CapeTown          2107.219
       441   05 Jun 2027 02:40:16.497   05 Jun 2027 02:41:50.406            93.909               Magadan1          2934.656
       442   05 Jun 2027 02:42:02.560   05 Jun 2027 02:42:42.377            39.817               Magadan1          1244.281
       443   05 Jun 2027 02:46:14.298   05 Jun 2027 02:46:59.881            45.583               Magadan1          1424.469
       444   05 Jun 2027 02:52:12.626   05 Jun 2027 02:52:15.220             2.594                Norilsk            81.062
       445   05 Jun 2027 02:52:22.274   05 Jun 2027 02:53:34.770            72.496              Murmansk1          2265.500
       446   05 Jun 2027 02:54:34.755   05 Jun 2027 02:55:07.926            33.171              Murmansk2          1036.594
       447   05 Jun 2027 02:56:18.742   05 Jun 2027 02:56:58.805            40.063                 Moscow          1251.969
       448   05 Jun 2027 02:57:42.493   05 Jun 2027 02:57:47.104             4.611                 Moscow           144.094
       449   05 Jun 2027 02:59:12.814   05 Jun 2027 02:59:56.395            43.581                 Moscow          1361.906
       450   05 Jun 2027 03:32:53.814   05 Jun 2027 03:34:16.467            82.653            RioGallegos          2582.906
       451   05 Jun 2027 03:34:34.891   05 Jun 2027 03:34:51.796            16.905            RioGallegos           528.281
       452   05 Jun 2027 03:35:17.760   05 Jun 2027 03:35:58.359            40.599            RioGallegos          1268.719
       453   05 Jun 2027 03:38:43.400   05 Jun 2027 03:38:46.285             2.885            RioGallegos            90.156
       454   05 Jun 2027 04:22:55.532   05 Jun 2027 04:23:15.607            20.075               Magadan2           627.344
       455   05 Jun 2027 04:23:27.183   05 Jun 2027 04:23:38.827            11.644               Magadan1           363.875
       456   05 Jun 2027 04:23:51.644   05 Jun 2027 04:26:35.100           163.456                Anadyr1          5108.000
       457   05 Jun 2027 04:26:41.637   05 Jun 2027 04:27:28.979            47.342               Magadan2          1479.438
       458   05 Jun 2027 04:28:10.350   05 Jun 2027 04:28:47.846            37.496               Magadan2          1171.750
       459   05 Jun 2027 04:30:42.372   05 Jun 2027 04:30:53.262            10.890                Norilsk           340.313
       460   05 Jun 2027 05:04:16.244   05 Jun 2027 05:07:51.531           215.287            RioGallegos          6727.719
       461   05 Jun 2027 05:09:05.648   05 Jun 2027 05:10:26.757            81.109            RioGallegos          2534.656
       462   05 Jun 2027 05:11:26.624   05 Jun 2027 05:12:18.255            51.631            RioGallegos          1613.469
       463   05 Jun 2027 05:56:45.873   05 Jun 2027 05:58:01.722            75.849                Irkutsk          2370.281
       464   05 Jun 2027 06:00:15.467   05 Jun 2027 06:00:43.157            27.690               Magadan1           865.312
       465   05 Jun 2027 06:00:43.157   05 Jun 2027 06:01:42.793            59.636               Magadan2          1863.625
       466   05 Jun 2027 06:01:44.056   05 Jun 2027 06:02:14.709            30.653               Magadan2           957.906
       467   05 Jun 2027 06:02:24.128   05 Jun 2027 06:02:32.208             8.080                Norilsk           252.500
       468   05 Jun 2027 06:02:46.072   05 Jun 2027 06:03:56.985            70.913                Irkutsk          2216.031
       469   05 Jun 2027 06:04:03.914   05 Jun 2027 06:04:55.080            51.166                Novosib          1598.938
       470   05 Jun 2027 06:05:47.671   05 Jun 2027 06:05:51.902             4.231              Murmansk2           132.219
       471   05 Jun 2027 06:12:29.113   05 Jun 2027 06:12:34.061             4.948              Murmansk2           154.625
       472   05 Jun 2027 06:39:24.277   05 Jun 2027 06:40:39.858            75.581            RioGallegos          2361.906
       473   05 Jun 2027 06:44:33.827   05 Jun 2027 06:44:34.662             0.835            RioGallegos            26.094
       474   05 Jun 2027 06:48:53.232   05 Jun 2027 06:49:01.563             8.331            RioGallegos           260.344
       475   05 Jun 2027 07:14:13.524   05 Jun 2027 07:17:22.979           189.455                Sumatra          5920.469
       476   05 Jun 2027 07:24:56.339   05 Jun 2027 07:33:01.377           485.038                  Delhi         15157.437
       477   05 Jun 2027 07:35:35.819   05 Jun 2027 07:36:09.905            34.086                Novosib          1065.187
       478   05 Jun 2027 07:36:17.232   05 Jun 2027 07:37:30.000            72.768                Irkutsk          2274.000
       479   05 Jun 2027 07:37:35.877   05 Jun 2027 07:38:20.069            44.192                Irkutsk          1381.000
       480   05 Jun 2027 07:38:23.833   05 Jun 2027 07:38:45.739            21.906              Murmansk1           684.562
       481   05 Jun 2027 07:38:49.445   05 Jun 2027 07:39:59.063            69.618                Novosib          2175.562
       482   05 Jun 2027 07:40:05.405   05 Jun 2027 07:40:45.779            40.374              Murmansk2          1261.688
