uniorb/output/strategy_2/Drop/Drop_KinoSat_110502.txt

KinoSat_110502
-------------------------
    Access    *     Start Time (UTCG)     *     Stop Time (UTCG)  *   Duration (s)        *       Station  *  Data (Mbytes)
         1   01 Jun 2027 04:14:53.444   01 Jun 2027 04:15:45.680            52.236               Magadan2          2979.500
         2   01 Jun 2027 04:15:47.258   01 Jun 2027 04:16:12.013            24.755               Magadan1           789.000
         3   01 Jun 2027 04:16:19.874   01 Jun 2027 04:16:59.097            39.223               Magadan1          3930.500
         4   01 Jun 2027 04:17:26.964   01 Jun 2027 04:18:53.987            87.023                Norilsk         10877.875
         5   01 Jun 2027 04:18:53.989   01 Jun 2027 04:19:26.672            32.683                Anadyr1          3056.625
         6   01 Jun 2027 04:19:35.892   01 Jun 2027 04:21:20.732           104.840                Novosib          4610.000
         7   01 Jun 2027 04:21:35.416   01 Jun 2027 04:22:37.746            62.330               Magadan1          7342.000
         8   01 Jun 2027 04:22:37.954   01 Jun 2027 04:23:07.882            29.928                Norilsk           104.000
         9   01 Jun 2027 04:23:08.229   01 Jun 2027 04:23:19.896            11.667               Magadan2           173.500
        10   01 Jun 2027 04:23:29.032   01 Jun 2027 04:23:38.704             9.672              Murmansk1           616.000
        11   01 Jun 2027 05:52:22.153   01 Jun 2027 05:53:16.637            54.484                Irkutsk          3740.000
        12   01 Jun 2027 05:53:16.679   01 Jun 2027 05:54:16.232            59.553                Irkutsk            21.000
        13   01 Jun 2027 05:54:19.754   01 Jun 2027 05:54:24.318             4.564                Norilsk           570.500
        14   01 Jun 2027 05:54:34.444   01 Jun 2027 05:55:46.350            71.906               Magadan1          6253.500
        15   01 Jun 2027 05:55:46.571   01 Jun 2027 05:55:53.110             6.539               Magadan1           110.500
        16   01 Jun 2027 05:55:54.552   01 Jun 2027 05:55:57.273             2.721                Norilsk           340.125
        17   01 Jun 2027 05:56:00.148   01 Jun 2027 05:56:19.525            19.377               Magadan2          1818.375
        18   01 Jun 2027 05:56:24.379   01 Jun 2027 05:56:49.776            25.397                Norilsk          2427.000
        19   01 Jun 2027 05:57:00.319   01 Jun 2027 05:57:23.424            23.105              Murmansk2          2888.125
        20   01 Jun 2027 05:57:23.424   01 Jun 2027 05:57:46.758            23.334              Murmansk1          2383.375
        21   01 Jun 2027 05:57:54.489   01 Jun 2027 05:58:22.918            28.429                Irkutsk          3553.625
        22   01 Jun 2027 05:58:32.519   01 Jun 2027 05:59:15.086            42.567                Novosib          5112.375
        23   01 Jun 2027 07:29:20.120   01 Jun 2027 07:29:35.198            15.078                  Delhi          1884.750
        24   01 Jun 2027 07:29:48.284   01 Jun 2027 07:31:02.566            74.282                Norilsk          7366.250
        25   01 Jun 2027 07:31:03.934   01 Jun 2027 07:31:35.363            31.429              Murmansk2           684.000
        26   01 Jun 2027 07:31:38.252   01 Jun 2027 07:31:56.516            18.264                Norilsk          1444.500
        27   01 Jun 2027 07:32:00.126   01 Jun 2027 07:32:11.264            11.138              Murmansk2          1392.250
        28   01 Jun 2027 07:32:11.264   01 Jun 2027 07:32:33.763            22.499              Murmansk1           412.750
        29   01 Jun 2027 07:32:36.467   01 Jun 2027 07:32:51.021            14.554                Norilsk          1352.000
        30   01 Jun 2027 07:32:54.724   01 Jun 2027 07:33:09.772            15.048                 Moscow          1851.500
        31   01 Jun 2027 07:33:19.887   01 Jun 2027 07:34:26.488            66.601                Novosib          5057.500
        32   01 Jun 2027 07:34:27.848   01 Jun 2027 07:34:40.405            12.557                Irkutsk           680.000
        33   01 Jun 2027 07:34:41.235   01 Jun 2027 07:34:49.424             8.189                 Moscow           415.000
        34   01 Jun 2027 07:34:54.309   01 Jun 2027 07:35:27.512            33.203                Novosib          2442.500
        35   01 Jun 2027 09:06:10.837   01 Jun 2027 09:06:54.684            43.847                Novosib          1073.500
        36   01 Jun 2027 09:07:04.745   01 Jun 2027 09:07:55.255            50.510              Murmansk1          5030.500
        37   01 Jun 2027 09:07:58.289   01 Jun 2027 09:08:22.620            24.331              Murmansk1          1517.000
        38   01 Jun 2027 09:08:26.778   01 Jun 2027 09:08:48.215            21.437                Novosib          2079.000
        39   01 Jun 2027 09:08:48.887   01 Jun 2027 09:09:27.393            38.506                Norilsk           336.000
        40   01 Jun 2027 09:09:29.304   01 Jun 2027 09:10:05.038            35.734                Novosib           955.500
        41   01 Jun 2027 09:10:09.623   01 Jun 2027 09:10:42.997            33.374                 Moscow          2292.500
        42   01 Jun 2027 09:10:48.560   01 Jun 2027 09:11:08.315            19.755              Murmansk1          1146.500
        43   01 Jun 2027 10:43:25.464   01 Jun 2027 10:44:17.025            51.561              Murmansk2          3753.500
        44   01 Jun 2027 10:44:25.119   01 Jun 2027 10:45:10.108            44.989              Murmansk2          4047.000
        45   01 Jun 2027 10:45:11.363   01 Jun 2027 10:45:35.932            24.569                 Moscow           627.500
        46   01 Jun 2027 10:45:50.188   01 Jun 2027 10:46:54.471            64.283                 Moscow          5605.500
        47   02 Jun 2027 04:25:44.554   02 Jun 2027 04:26:53.951            69.397               Magadan2          4229.500
        48   02 Jun 2027 04:27:32.142   02 Jun 2027 04:28:04.334            32.192               Magadan2          2906.500
        49   02 Jun 2027 04:28:14.092   02 Jun 2027 04:29:00.083            45.991               Magadan1          4879.000
        50   02 Jun 2027 04:29:27.196   02 Jun 2027 04:30:24.889            57.693                Norilsk          7211.625
        51   02 Jun 2027 04:30:36.848   02 Jun 2027 04:32:19.721           102.873               Magadan1         12324.375
        52   02 Jun 2027 04:32:21.768   02 Jun 2027 04:32:23.096             1.328                Norilsk           166.000
        53   02 Jun 2027 04:32:27.504   02 Jun 2027 04:33:19.445            51.941                Anadyr2          3061.500
        54   02 Jun 2027 04:33:25.097   02 Jun 2027 04:33:48.777            23.680               Magadan1          2826.000
        55   02 Jun 2027 04:33:53.495   02 Jun 2027 04:34:28.606            35.111               Magadan1          2359.000
        56   02 Jun 2027 04:34:33.962   02 Jun 2027 04:35:15.359            41.397               Magadan2          2678.000
        57   02 Jun 2027 06:04:38.299   02 Jun 2027 06:05:52.557            74.258                Novosib          7022.000
        58   02 Jun 2027 06:06:02.255   02 Jun 2027 06:06:57.116            54.861                Irkutsk          4849.000
        59   02 Jun 2027 06:07:03.317   02 Jun 2027 06:07:43.907            40.590                Norilsk          3100.500
        60   02 Jun 2027 06:07:50.108   02 Jun 2027 06:08:28.656            38.548                Norilsk          3100.500
        61   02 Jun 2027 06:08:29.453   02 Jun 2027 06:09:00.798            31.345              Murmansk2           398.500
        62   02 Jun 2027 06:09:10.475   02 Jun 2027 06:09:38.285            27.810                Norilsk          3476.250
        63   02 Jun 2027 06:09:38.504   02 Jun 2027 06:10:03.703            25.199              Murmansk1          1471.750
        64   02 Jun 2027 06:10:26.260   02 Jun 2027 06:11:46.404            80.144                Novosib         10018.000
        65   02 Jun 2027 06:11:57.719   02 Jun 2027 06:12:54.504            56.785                Norilsk          1260.500
        66   02 Jun 2027 07:42:01.132   02 Jun 2027 07:43:51.333           110.201                 Moscow         10068.500
        67   02 Jun 2027 07:43:59.570   02 Jun 2027 07:44:41.939            42.369                Norilsk          4118.500
        68   02 Jun 2027 07:44:43.675   02 Jun 2027 07:45:26.694            43.019              Murmansk2           868.000
        69   02 Jun 2027 07:45:38.555   02 Jun 2027 07:46:23.535            44.980                Norilsk          5622.500
        70   02 Jun 2027 07:46:25.260   02 Jun 2027 07:46:39.963            14.703              Murmansk2          1170.500
        71   02 Jun 2027 09:18:12.320   02 Jun 2027 09:18:28.164            15.844              Murmansk2          1334.000
        72   02 Jun 2027 09:18:38.518   02 Jun 2027 09:20:04.780            86.262                 Moscow          5177.000
        73   02 Jun 2027 09:20:10.467   02 Jun 2027 09:20:48.541            38.074                Norilsk          2843.500
        74   02 Jun 2027 09:20:51.231   02 Jun 2027 09:21:22.359            31.128                Norilsk          1345.000
        75   02 Jun 2027 09:21:24.153   02 Jun 2027 09:21:47.865            23.712              Murmansk2           897.000
        76   02 Jun 2027 09:21:48.886   02 Jun 2027 09:22:40.892            52.006              Murmansk2           510.500
        77   02 Jun 2027 09:22:50.823   02 Jun 2027 09:23:42.926            52.103                Novosib          4965.500
        78   02 Jun 2027 10:56:32.782   02 Jun 2027 10:57:08.392            35.610                 Moscow          3336.000
        79   02 Jun 2027 10:57:11.139   02 Jun 2027 10:58:01.785            50.646              Murmansk2           841.500
        80   03 Jun 2027 03:05:34.466   03 Jun 2027 03:06:18.456            43.990                Anadyr2          2938.000
        81   03 Jun 2027 03:06:20.386   03 Jun 2027 03:06:52.040            31.654                Anadyr2           965.000
        82   03 Jun 2027 03:06:55.701   03 Jun 2027 03:07:30.638            34.937                Anadyr1          1830.500
        83   03 Jun 2027 03:07:34.279   03 Jun 2027 03:08:09.562            35.283                Norilsk          1820.500
        84   03 Jun 2027 03:08:19.404   03 Jun 2027 03:08:58.448            39.044                Anadyr2          4880.500
        85   03 Jun 2027 03:08:58.448   03 Jun 2027 03:09:12.378            13.930                Anadyr1            40.500
        86   03 Jun 2027 04:40:46.627   03 Jun 2027 04:41:42.532            55.905                Novosib          3733.000
        87   03 Jun 2027 04:41:53.896   03 Jun 2027 04:42:44.390            50.494               Magadan1          5682.000
        88   03 Jun 2027 04:42:46.047   03 Jun 2027 04:43:03.636            17.589               Magadan1           828.500
        89   03 Jun 2027 04:43:17.732   03 Jun 2027 04:44:17.097            59.365                Novosib          7048.000
        90   03 Jun 2027 04:44:20.710   03 Jun 2027 04:45:23.515            62.805               Magadan1          1806.500
        91   03 Jun 2027 04:45:29.738   03 Jun 2027 04:46:11.897            42.159               Magadan2          3111.500
        92   03 Jun 2027 04:46:14.641   03 Jun 2027 04:46:32.508            17.867               Magadan2          1372.000
        93   03 Jun 2027 04:46:39.401   03 Jun 2027 04:47:07.143            27.742                Irkutsk          3446.500
        94   03 Jun 2027 04:47:10.837   03 Jun 2027 04:47:38.291            27.454                Norilsk          1847.000
        95   03 Jun 2027 06:17:26.797   03 Jun 2027 06:19:43.621           136.824                Norilsk         14245.500
        96   03 Jun 2027 06:19:53.077   03 Jun 2027 06:20:42.745            49.668                Novosib          4728.000
        97   03 Jun 2027 06:20:46.520   03 Jun 2027 06:21:29.794            43.274              Murmansk1          1887.500
        98   03 Jun 2027 06:21:31.003   03 Jun 2027 06:21:55.291            24.288              Murmansk2           604.500
        99   03 Jun 2027 06:22:08.406   03 Jun 2027 06:23:06.431            58.025                Novosib          6557.500
       100   03 Jun 2027 06:23:10.754   03 Jun 2027 06:23:58.371            47.617                Norilsk          2161.500
       101   03 Jun 2027 07:54:22.939   03 Jun 2027 07:54:59.404            36.465              Murmansk2           459.500
       102   03 Jun 2027 07:55:09.120   03 Jun 2027 07:55:53.332            44.212                Irkutsk          4858.000
       103   03 Jun 2027 07:56:02.925   03 Jun 2027 07:57:11.345            68.420                Irkutsk          4796.500
       104   03 Jun 2027 07:57:16.623   03 Jun 2027 07:57:38.745            22.122                Norilsk          2639.000
       105   03 Jun 2027 07:57:39.893   03 Jun 2027 07:58:31.994            52.101                Norilsk           574.000
       106   03 Jun 2027 07:58:33.963   03 Jun 2027 07:59:07.783            33.820              Murmansk2           984.500
       107   03 Jun 2027 09:30:37.203   03 Jun 2027 09:31:11.547            34.344                Norilsk          1398.500
       108   03 Jun 2027 09:31:15.903   03 Jun 2027 09:31:58.429            42.526              Murmansk2          2178.000
       109   03 Jun 2027 09:31:59.029   03 Jun 2027 09:32:48.555            49.526                Norilsk           300.000
       110   03 Jun 2027 09:32:53.133   03 Jun 2027 09:33:18.436            25.303                Norilsk          2289.000
       111   03 Jun 2027 09:33:23.548   03 Jun 2027 09:34:27.974            64.426                Novosib          2556.000
       112   03 Jun 2027 09:34:30.725   03 Jun 2027 09:34:52.296            21.571                 Moscow          1375.500
       113   04 Jun 2027 03:17:34.495   04 Jun 2027 03:18:19.770            45.275               Magadan2          2436.500
       114   04 Jun 2027 03:18:21.360   04 Jun 2027 03:18:32.188            10.828                Norilsk           795.000
       115   04 Jun 2027 03:18:33.275   04 Jun 2027 03:18:47.903            14.628               Magadan2           543.500
       116   04 Jun 2027 03:18:50.400   04 Jun 2027 03:19:29.498            39.098                Anadyr1          1248.500
       117   04 Jun 2027 03:19:43.382   04 Jun 2027 03:20:37.637            54.255               Magadan2          6781.875
       118   04 Jun 2027 03:20:37.637   04 Jun 2027 03:20:53.726            16.089               Magadan1           160.125
       119   04 Jun 2027 03:20:59.773   04 Jun 2027 03:21:26.430            26.657                Norilsk          2402.500
       120   04 Jun 2027 04:53:09.606   04 Jun 2027 04:55:00.643           111.037               Magadan2         13608.000
       121   04 Jun 2027 04:55:07.812   04 Jun 2027 04:55:48.558            40.746               Magadan2          3584.500
       122   04 Jun 2027 04:55:54.543   04 Jun 2027 04:56:06.569            12.026                Norilsk          1503.250
       123   04 Jun 2027 04:56:21.310   04 Jun 2027 04:56:51.905            30.595               Magadan1          3824.375
       124   04 Jun 2027 04:56:51.905   04 Jun 2027 04:57:45.920            54.015               Magadan2          5035.375
       125   04 Jun 2027 04:57:48.030   04 Jun 2027 04:58:05.172            17.142               Magadan2          1055.000
       126   04 Jun 2027 04:58:08.366   04 Jun 2027 04:58:32.796            24.430              Murmansk1          1597.000
       127   04 Jun 2027 04:58:33.463   04 Jun 2027 04:59:01.195            27.732               Magadan1           333.500
       128   04 Jun 2027 04:59:05.021   04 Jun 2027 04:59:20.464            15.443                Irkutsk          1913.000
       129   04 Jun 2027 04:59:21.697   04 Jun 2027 05:00:06.099            44.402                Novosib           616.500
       130   04 Jun 2027 06:29:08.236   04 Jun 2027 06:31:32.556           144.320                Novosib         15380.000
       131   04 Jun 2027 06:31:37.800   04 Jun 2027 06:32:08.975            31.175                Norilsk          2622.000
       132   04 Jun 2027 06:32:10.150   04 Jun 2027 06:32:23.971            13.821              Murmansk2           587.500
       133   04 Jun 2027 06:32:40.127   04 Jun 2027 06:34:12.868            92.741                Norilsk          8078.000
       134   04 Jun 2027 06:34:14.288   04 Jun 2027 06:35:06.481            52.193              Murmansk1           710.000
       135   04 Jun 2027 08:06:38.954   04 Jun 2027 08:07:04.505            25.551                Novosib          1909.000
       136   04 Jun 2027 08:07:04.637   04 Jun 2027 08:08:02.740            58.103                Irkutsk            66.000
       137   04 Jun 2027 08:08:04.213   04 Jun 2027 08:08:24.473            20.260              Murmansk2           736.500
       138   04 Jun 2027 08:08:30.467   04 Jun 2027 08:09:32.711            62.244                Novosib          2997.000
       139   04 Jun 2027 08:09:33.767   04 Jun 2027 08:09:39.799             6.032                Irkutsk           528.000
       140   04 Jun 2027 08:09:40.308   04 Jun 2027 08:09:47.380             7.072                Norilsk           254.500
       141   04 Jun 2027 08:09:57.029   04 Jun 2027 08:10:55.810            58.781              Murmansk2          4824.500
       142   04 Jun 2027 08:11:00.797   04 Jun 2027 08:11:20.415            19.618                Norilsk          2432.500
       143   04 Jun 2027 09:42:32.296   04 Jun 2027 09:42:49.707            17.411                Novosib          2168.000
       144   04 Jun 2027 09:42:55.024   04 Jun 2027 09:43:44.254            49.230                 Moscow          2658.500
       145   04 Jun 2027 09:43:47.614   04 Jun 2027 09:44:48.901            61.287                Norilsk          1680.000
       146   04 Jun 2027 09:44:49.191   04 Jun 2027 09:45:00.323            11.132                 Moscow           145.000
       147   04 Jun 2027 09:45:13.817   04 Jun 2027 09:46:13.934            60.117              Murmansk2          6747.000
       148   04 Jun 2027 09:46:18.367   04 Jun 2027 09:46:37.052            18.685                Novosib          2216.500
       149   04 Jun 2027 09:46:39.124   04 Jun 2027 09:47:00.130            21.006                 Moscow          1036.000
       150   04 Jun 2027 09:47:01.659   04 Jun 2027 09:47:09.616             7.957                Norilsk           764.500
       151   04 Jun 2027 09:47:15.866   04 Jun 2027 09:47:44.245            28.379                Norilsk          3125.000
       152   05 Jun 2027 03:29:18.912   05 Jun 2027 03:29:52.613            33.701               Magadan2          2905.500
       153   05 Jun 2027 03:29:55.345   05 Jun 2027 03:30:08.210            12.865                Irkutsk          1366.000
       154   05 Jun 2027 03:30:14.266   05 Jun 2027 03:30:45.007            30.741               Magadan1          3028.000
       155   05 Jun 2027 03:30:49.352   05 Jun 2027 03:31:27.650            38.298                Anadyr2          2172.500
       156   05 Jun 2027 03:31:27.958   05 Jun 2027 03:31:28.715             0.757                Norilsk            94.625
       157   05 Jun 2027 03:31:45.333   05 Jun 2027 03:33:04.200            78.867               Magadan2          8368.375
       158   05 Jun 2027 03:33:04.848   05 Jun 2027 03:34:17.772            72.924                Anadyr2           324.000
       159   05 Jun 2027 05:03:58.781   05 Jun 2027 05:04:09.144            10.363                Norilsk           895.500
       160   05 Jun 2027 05:04:12.312   05 Jun 2027 05:04:49.633            37.321               Magadan1          1584.000
       161   05 Jun 2027 05:04:50.527   05 Jun 2027 05:05:54.968            64.441                Novosib           447.000
       162   05 Jun 2027 05:05:58.901   05 Jun 2027 05:06:37.665            38.764               Magadan1          1966.500
       163   05 Jun 2027 05:06:39.847   05 Jun 2027 05:06:56.483            16.636               Magadan1          1091.000
       164   05 Jun 2027 05:07:23.050   05 Jun 2027 05:09:31.860           128.810                Norilsk         13283.500
       165   05 Jun 2027 05:09:39.477   05 Jun 2027 05:10:24.358            44.881              Murmansk1          3808.500
       166   05 Jun 2027 05:10:25.327   05 Jun 2027 05:11:14.151            48.824                Norilsk           484.500
       167   05 Jun 2027 05:11:25.807   05 Jun 2027 05:12:13.691            47.884                Norilsk          5828.000
       168   05 Jun 2027 06:41:20.881   05 Jun 2027 06:43:44.069           143.188                Norilsk         17890.500
       169   05 Jun 2027 06:43:51.294   05 Jun 2027 06:44:21.897            30.603              Murmansk1          3612.500
       170   05 Jun 2027 06:44:26.966   05 Jun 2027 06:44:47.567            20.601                Novosib          2534.500
       171   05 Jun 2027 06:44:50.519   05 Jun 2027 06:45:04.798            14.279                Irkutsk          1476.000
       172   05 Jun 2027 06:45:09.743   05 Jun 2027 06:45:53.238            43.495                Irkutsk          2472.500
       173   05 Jun 2027 06:45:54.144   05 Jun 2027 06:46:58.734            64.590                Irkutsk           453.000
       174   05 Jun 2027 06:47:02.085   05 Jun 2027 06:47:34.904            32.819              Murmansk2          1675.500
       175   05 Jun 2027 08:19:12.973   05 Jun 2027 08:20:06.613            53.640                Norilsk          6449.500
       176   05 Jun 2027 08:20:06.693   05 Jun 2027 08:20:14.626             7.933              Murmansk1            40.000
       177   05 Jun 2027 08:20:30.809   05 Jun 2027 08:21:36.020            65.211                Novosib          8091.500
       178   05 Jun 2027 08:21:43.296   05 Jun 2027 08:22:39.734            56.438                Norilsk          3638.000
       179   05 Jun 2027 08:22:42.917   05 Jun 2027 08:22:58.100            15.183                Norilsk          1591.500
       180   05 Jun 2027 09:52:27.418   05 Jun 2027 09:53:32.705            65.287                 Moscow          5152.500
       181   05 Jun 2027 09:53:34.663   05 Jun 2027 09:53:59.570            24.907              Murmansk1           979.000
       182   05 Jun 2027 09:54:10.126   05 Jun 2027 09:55:18.991            68.865                 Moscow          5278.000
       183   05 Jun 2027 09:55:29.513   05 Jun 2027 09:56:55.252            85.739                 Moscow          5261.000
       184   05 Jun 2027 09:56:57.037   05 Jun 2027 09:57:14.184            17.147                Norilsk           892.500
       185   05 Jun 2027 09:57:23.081   05 Jun 2027 09:58:24.488            61.407              Murmansk1          4448.500
       186   05 Jun 2027 09:58:29.911   05 Jun 2027 09:58:54.826            24.915              Murmansk1          2711.500
       187   05 Jun 2027 09:58:56.800   05 Jun 2027 09:59:26.703            29.903                Norilsk           577.000
       188   05 Jun 2027 09:59:37.155   05 Jun 2027 10:00:59.224            82.069                 Moscow          5226.000
       189   06 Jun 2027 03:39:09.990   06 Jun 2027 03:40:37.954            87.964                Anadyr2          1369.000
       190   06 Jun 2027 03:40:59.024   06 Jun 2027 03:41:18.949            19.925               Magadan2           825.500
       191   06 Jun 2027 03:41:22.469   06 Jun 2027 03:41:37.913            15.444                Anadyr2          1760.000
       192   06 Jun 2027 03:41:41.926   06 Jun 2027 03:42:30.784            48.858                Norilsk          2006.500
       193   06 Jun 2027 03:42:48.836   06 Jun 2027 03:44:14.868            86.032                Anadyr1          9026.000
       194   06 Jun 2027 03:44:22.515   06 Jun 2027 03:44:55.142            32.627                Anadyr1          3823.500
       195   06 Jun 2027 03:44:58.981   06 Jun 2027 03:45:20.995            22.014               Magadan1          1919.500
       196   06 Jun 2027 03:45:28.077   06 Jun 2027 03:46:20.488            52.411                Norilsk          3541.000
       197   06 Jun 2027 05:16:05.498   06 Jun 2027 05:16:12.117             6.619               Magadan2           165.500
       198   06 Jun 2027 05:16:13.324   06 Jun 2027 05:17:00.417            47.093                Irkutsk           603.500
       199   06 Jun 2027 05:17:17.946   06 Jun 2027 05:18:07.252            49.306                Norilsk          6163.250
       200   06 Jun 2027 05:18:11.656   06 Jun 2027 05:18:50.877            39.221               Magadan2          4803.250
       201   06 Jun 2027 05:18:55.485   06 Jun 2027 05:19:14.307            18.822                Irkutsk          2304.000
       202   06 Jun 2027 05:19:23.441   06 Jun 2027 05:19:59.607            36.166                Norilsk          4520.750
       203   06 Jun 2027 05:20:02.966   06 Jun 2027 05:20:21.060            18.094               Magadan1          1725.750
       204   06 Jun 2027 05:20:33.712   06 Jun 2027 05:22:03.283            89.571                Irkutsk          6326.000
       205   06 Jun 2027 05:22:14.739   06 Jun 2027 05:22:35.856            21.117               Magadan2          2639.625
       206   06 Jun 2027 05:22:38.352   06 Jun 2027 05:23:16.475            38.123              Murmansk2          4336.375
       207   06 Jun 2027 05:23:21.344   06 Jun 2027 05:23:39.200            17.856              Murmansk2          2232.000
       208   06 Jun 2027 05:23:39.200   06 Jun 2027 05:23:42.073             2.873              Murmansk1           202.500
       209   06 Jun 2027 06:53:17.790   06 Jun 2027 06:53:56.016            38.226                Novosib          4778.250
       210   06 Jun 2027 06:54:03.402   06 Jun 2027 06:54:51.237            47.835                Norilsk          5979.375
       211   06 Jun 2027 06:55:03.830   06 Jun 2027 06:56:06.095            62.265                Irkutsk          6437.875
       212   06 Jun 2027 06:56:11.533   06 Jun 2027 06:56:48.968            37.435              Murmansk2          2719.000
       213   06 Jun 2027 06:57:06.200   06 Jun 2027 06:58:16.031            69.831                Irkutsk          8616.000
       214   06 Jun 2027 06:58:48.260   06 Jun 2027 07:00:58.259           129.999              Murmansk1         16114.500
       215   06 Jun 2027 08:31:03.059   06 Jun 2027 08:31:33.831            30.772                Norilsk          2445.000
       216   06 Jun 2027 08:31:36.751   06 Jun 2027 08:32:05.490            28.739              Murmansk2          1460.000
       217   06 Jun 2027 08:32:06.011   06 Jun 2027 08:32:08.319             2.308              Murmansk2           260.500
       218   06 Jun 2027 08:32:22.266   06 Jun 2027 08:33:38.850            76.584                Novosib          6973.500
       219   06 Jun 2027 08:33:47.777   06 Jun 2027 08:34:31.282            43.505                Norilsk          4463.500
       220   06 Jun 2027 08:34:32.681   06 Jun 2027 08:34:37.256             4.575                Novosib           571.875
       221   06 Jun 2027 08:34:43.269   06 Jun 2027 08:35:17.087            33.818                Norilsk          3134.125
       222   06 Jun 2027 10:04:25.715   06 Jun 2027 10:05:09.082            43.367                 Moscow          4267.000
       223   06 Jun 2027 10:05:10.455   06 Jun 2027 10:05:16.894             6.439              Murmansk1           686.500
       224   06 Jun 2027 10:05:22.720   06 Jun 2027 10:05:51.500            28.780              Murmansk2          2913.000
       225   06 Jun 2027 10:06:14.443   06 Jun 2027 10:07:47.651            93.208                 Moscow         11471.500
       226   06 Jun 2027 10:07:49.623   06 Jun 2027 10:08:09.538            19.915                Novosib           986.000
       227   06 Jun 2027 10:08:19.459   06 Jun 2027 10:09:19.217            59.758              Murmansk2          4960.500
       228   06 Jun 2027 10:09:23.103   06 Jun 2027 10:09:45.821            22.718              Murmansk2          1943.000
       229   06 Jun 2027 10:10:04.727   06 Jun 2027 10:11:30.303            85.576                 Moscow          9453.000
       230   06 Jun 2027 10:11:33.504   06 Jun 2027 10:11:56.047            22.543                Norilsk          1600.500
       231   06 Jun 2027 10:11:56.693   06 Jun 2027 10:12:04.802             8.109              Murmansk2           323.000
       232   07 Jun 2027 03:50:33.034   07 Jun 2027 03:50:42.858             9.824               Magadan1           407.000
       233   07 Jun 2027 03:51:06.019   07 Jun 2027 03:52:56.372           110.353               Magadan2         11580.500
       234   07 Jun 2027 03:53:02.108   07 Jun 2027 03:54:26.172            84.064                Anadyr2          2868.000
       235   07 Jun 2027 03:54:26.202   07 Jun 2027 03:54:48.767            22.565                Anadyr1            15.000
       236   07 Jun 2027 03:54:52.465   07 Jun 2027 03:55:11.106            18.641                Norilsk          1849.000
       237   07 Jun 2027 03:55:14.374   07 Jun 2027 03:55:24.392            10.018                Norilsk          1252.250
       238   07 Jun 2027 03:55:27.788   07 Jun 2027 03:56:02.751            34.963                Anadyr1          2079.750
       239   07 Jun 2027 03:56:04.844   07 Jun 2027 03:56:23.888            19.044                Anadyr1          1046.500
       240   07 Jun 2027 03:56:29.771   07 Jun 2027 03:57:15.239            45.468               Magadan2          2941.500
       241   07 Jun 2027 03:57:26.243   07 Jun 2027 03:58:55.991            89.748                Irkutsk          5502.000
       242   07 Jun 2027 03:59:01.865   07 Jun 2027 03:59:40.094            38.229               Magadan1          2937.000
       243   07 Jun 2027 05:28:08.528   07 Jun 2027 05:28:12.986             4.458               Magadan2            22.500
       244   07 Jun 2027 05:28:14.817   07 Jun 2027 05:28:23.702             8.885                Norilsk           915.500
       245   07 Jun 2027 05:28:33.001   07 Jun 2027 05:29:38.672            65.671                Novosib          4649.500
       246   07 Jun 2027 05:29:44.367   07 Jun 2027 05:30:08.933            24.566               Magadan1          2847.500
       247   07 Jun 2027 05:30:10.200   07 Jun 2027 05:30:26.208            16.008                Novosib           633.500
       248   07 Jun 2027 05:30:30.823   07 Jun 2027 05:30:58.635            27.812                Irkutsk          2307.500
       249   07 Jun 2027 05:31:14.374   07 Jun 2027 05:32:20.036            65.662               Magadan1          7869.500
       250   07 Jun 2027 05:32:25.913   07 Jun 2027 05:33:41.961            76.048                Irkutsk          2938.500
       251   07 Jun 2027 05:33:42.634   07 Jun 2027 05:34:12.455            29.821                Norilsk           336.500
       252   07 Jun 2027 05:34:19.954   07 Jun 2027 05:34:50.423            30.469              Murmansk2          3749.500
       253   07 Jun 2027 05:35:12.444   07 Jun 2027 05:36:12.128            59.684                Norilsk          7460.500
       254   07 Jun 2027 05:36:25.422   07 Jun 2027 05:36:48.340            22.918                Novosib          2864.750
       255   07 Jun 2027 05:36:58.361   07 Jun 2027 05:37:21.167            22.806              Murmansk2           685.250
       256   07 Jun 2027 07:05:02.177   07 Jun 2027 07:05:47.471            45.294                Novosib          4663.000
       257   07 Jun 2027 07:05:49.866   07 Jun 2027 07:06:23.466            33.600                Novosib          1197.500
       258   07 Jun 2027 07:06:26.527   07 Jun 2027 07:06:49.193            22.666                Norilsk          1530.500
       259   07 Jun 2027 07:07:03.315   07 Jun 2027 07:08:09.982            66.667                Irkutsk          7061.000
       260   07 Jun 2027 07:08:12.558   07 Jun 2027 07:08:42.904            30.346              Murmansk2          1288.000
       261   07 Jun 2027 07:08:52.104   07 Jun 2027 07:09:30.083            37.979                 Moscow          4600.000
       262   07 Jun 2027 07:09:37.209   07 Jun 2027 07:10:43.987            66.778              Murmansk1          3563.000
       263   07 Jun 2027 07:10:44.595   07 Jun 2027 07:11:07.916            23.321              Murmansk1           304.000
       264   07 Jun 2027 07:11:11.952   07 Jun 2027 07:11:31.537            19.585                Norilsk          2018.000
       265   07 Jun 2027 07:11:37.176   07 Jun 2027 07:12:05.662            28.486              Murmansk1          1298.000
       266   07 Jun 2027 08:42:59.677   07 Jun 2027 08:43:21.469            21.792                Novosib          1068.000
       267   07 Jun 2027 08:43:29.992   07 Jun 2027 08:45:00.607            90.615                Norilsk          4261.500
       268   07 Jun 2027 08:45:01.061   07 Jun 2027 08:45:07.028             5.967                Norilsk           227.000
       269   07 Jun 2027 08:45:18.230   07 Jun 2027 08:45:28.254            10.024                 Moscow          1253.000
       270   07 Jun 2027 08:45:37.374   07 Jun 2027 08:47:21.251           103.877              Murmansk2          8908.000
       271   07 Jun 2027 10:16:59.564   07 Jun 2027 10:18:12.847            73.283                 Moscow          8185.000
       272   07 Jun 2027 10:18:15.813   07 Jun 2027 10:19:00.832            45.019              Murmansk2          1483.000
       273   07 Jun 2027 10:19:07.966   07 Jun 2027 10:19:36.698            28.732                 Moscow          3567.000
       274   07 Jun 2027 10:19:37.346   07 Jun 2027 10:20:03.625            26.279              Murmansk2           324.000
       275   07 Jun 2027 10:20:05.066   07 Jun 2027 10:20:20.618            15.552              Murmansk1           720.500
       276   07 Jun 2027 10:20:21.748   07 Jun 2027 10:20:39.327            17.579                 Moscow           565.000
       277   07 Jun 2027 10:21:00.416   07 Jun 2027 10:22:35.715            95.299                Norilsk         10544.500
       278   07 Jun 2027 10:22:40.470   07 Jun 2027 10:23:01.043            20.573                Norilsk          2377.500
       279   07 Jun 2027 10:23:08.135   07 Jun 2027 10:23:48.243            40.108              Murmansk2          3546.000
       280   08 Jun 2027 04:02:05.159   08 Jun 2027 04:02:28.979            23.820               Magadan2          1214.000
       281   08 Jun 2027 04:02:29.359   08 Jun 2027 04:02:43.166            13.807               Magadan2           190.000
       282   08 Jun 2027 04:02:50.082   08 Jun 2027 04:03:06.367            16.285                Irkutsk          2035.625
       283   08 Jun 2027 04:03:07.273   08 Jun 2027 04:04:04.672            57.399               Magadan2          1875.375
       284   08 Jun 2027 04:04:19.216   08 Jun 2027 04:05:37.118            77.902               Magadan2          7272.000
       285   08 Jun 2027 04:05:43.885   08 Jun 2027 04:06:15.469            31.584                Norilsk          3383.500
       286   08 Jun 2027 04:06:18.770   08 Jun 2027 04:07:00.167            41.397               Magadan2          1650.500
       287   08 Jun 2027 04:07:12.168   08 Jun 2027 04:08:12.398            60.230                Irkutsk          6000.500
       288   08 Jun 2027 04:08:13.107   08 Jun 2027 04:08:20.794             7.687                Irkutsk           354.500
       289   08 Jun 2027 04:08:25.372   08 Jun 2027 04:08:44.820            19.448                Anadyr1          2289.000
       290   08 Jun 2027 04:08:48.281   08 Jun 2027 04:09:40.661            52.380                Novosib          1730.500
       291   08 Jun 2027 04:09:54.491   08 Jun 2027 04:10:58.656            64.165               Magadan1          6915.000
       292   08 Jun 2027 04:11:00.150   08 Jun 2027 04:11:26.705            26.555               Magadan1           747.000
       293   08 Jun 2027 04:11:29.584   08 Jun 2027 04:11:40.243            10.659                Norilsk          1332.375
       294   08 Jun 2027 04:11:44.649   08 Jun 2027 04:11:57.295            12.646              Murmansk2           107.125
       295   08 Jun 2027 05:40:12.116   08 Jun 2027 05:40:35.078            22.962                Norilsk          2269.500
       296   08 Jun 2027 05:40:36.698   08 Jun 2027 05:41:13.052            36.354                Novosib           810.000
       297   08 Jun 2027 05:41:19.346   08 Jun 2027 05:41:55.187            35.841                Norilsk          3147.000
       298   08 Jun 2027 05:42:02.015   08 Jun 2027 05:42:33.500            31.485               Magadan2          3414.000
       299   08 Jun 2027 05:42:37.599   08 Jun 2027 05:42:58.402            20.803                Norilsk          2049.500
       300   08 Jun 2027 05:43:03.796   08 Jun 2027 05:43:35.611            31.815                Irkutsk          2697.000
       301   08 Jun 2027 05:43:36.661   08 Jun 2027 05:43:49.723            13.062                Norilsk           525.000
       302   08 Jun 2027 05:43:50.203   08 Jun 2027 05:44:21.167            30.964                Irkutsk           240.000
       303   08 Jun 2027 05:44:25.723   08 Jun 2027 05:45:28.452            62.729                Novosib          2278.000
       304   08 Jun 2027 05:45:28.941   08 Jun 2027 05:46:07.834            38.893                Novosib           244.500
       305   08 Jun 2027 05:46:10.256   08 Jun 2027 05:46:33.205            22.949              Murmansk2          1211.000
       306   08 Jun 2027 05:46:34.763   08 Jun 2027 05:47:15.446            40.683                Novosib           779.000
       307   08 Jun 2027 05:47:20.087   08 Jun 2027 05:47:43.396            23.309              Murmansk1          2320.500
       308   08 Jun 2027 07:17:02.490   08 Jun 2027 07:17:18.110            15.620                Irkutsk           815.000
       309   08 Jun 2027 07:17:30.683   08 Jun 2027 07:18:23.569            52.886                Irkutsk          6286.500
       310   08 Jun 2027 07:18:28.958   08 Jun 2027 07:18:44.525            15.567                Norilsk          1945.875
       311   08 Jun 2027 07:18:54.784   08 Jun 2027 07:19:46.663            51.879                Norilsk          5878.125
       312   08 Jun 2027 07:19:51.722   08 Jun 2027 07:20:13.773            22.051              Murmansk2          2529.500
       313   08 Jun 2027 07:20:18.452   08 Jun 2027 07:21:01.554            43.102              Murmansk2          2339.500
       314   08 Jun 2027 07:21:04.361   08 Jun 2027 07:21:24.758            20.397              Murmansk2          1403.500
       315   08 Jun 2027 07:21:25.620   08 Jun 2027 07:21:40.892            15.272              Murmansk2           431.000
       316   08 Jun 2027 07:21:45.825   08 Jun 2027 07:22:24.098            38.273                Novosib          2466.500
       317   08 Jun 2027 07:22:25.773   08 Jun 2027 07:22:32.844             7.071                Novosib           837.500
       318   08 Jun 2027 07:22:36.042   08 Jun 2027 07:22:59.714            23.672              Murmansk2          1599.000
       319   08 Jun 2027 07:23:01.936   08 Jun 2027 07:23:17.491            15.555                Norilsk          1111.000
       320   08 Jun 2027 07:23:19.460   08 Jun 2027 07:23:35.076            15.616                 Moscow           984.500
       321   08 Jun 2027 08:54:12.545   08 Jun 2027 08:54:26.411            13.866                 Moscow           956.000
       322   08 Jun 2027 08:54:26.912   08 Jun 2027 08:54:53.870            26.958              Murmansk2           250.500
       323   08 Jun 2027 08:54:54.034   08 Jun 2027 08:54:56.212             2.178                Norilsk            82.000
       324   08 Jun 2027 08:55:05.253   08 Jun 2027 08:56:07.184            61.931                Novosib          4520.500
       325   08 Jun 2027 08:56:08.524   08 Jun 2027 08:56:37.042            28.518              Murmansk1           670.000
       326   08 Jun 2027 08:56:41.590   08 Jun 2027 08:57:10.895            29.305                Novosib          2274.000
       327   08 Jun 2027 08:57:23.284   08 Jun 2027 08:58:57.445            94.161                 Moscow          6194.500
       328   08 Jun 2027 08:59:07.911   08 Jun 2027 08:59:48.695            40.784                Novosib          3713.000
       329   08 Jun 2027 10:29:00.987   08 Jun 2027 10:29:46.973            45.986                 Moscow          1587.000
       330   08 Jun 2027 10:30:11.379   08 Jun 2027 10:31:54.207           102.828              Murmansk1         11385.500
       331   08 Jun 2027 10:32:03.136   08 Jun 2027 10:33:08.836            65.700              Murmansk2          4464.500
       332   08 Jun 2027 10:33:20.957   08 Jun 2027 10:34:10.698            49.741                 Moscow          6060.500
       333   08 Jun 2027 10:34:12.004   08 Jun 2027 10:34:28.605            16.601                Norilsk           653.000
       334   09 Jun 2027 04:15:08.171   09 Jun 2027 04:16:00.530            52.359               Magadan2          3051.000
       335   09 Jun 2027 04:16:02.174   09 Jun 2027 04:16:27.067            24.893               Magadan2           822.000
       336   09 Jun 2027 04:16:34.692   09 Jun 2027 04:17:13.929            39.237               Magadan1          3812.500
       337   09 Jun 2027 04:17:42.599   09 Jun 2027 04:19:10.399            87.800                Norilsk         10975.000
       338   09 Jun 2027 04:19:16.366   09 Jun 2027 04:20:35.818            79.452                Norilsk          6343.500
       339   09 Jun 2027 04:20:37.018   09 Jun 2027 04:22:13.079            96.061                Irkutsk           600.000
       340   09 Jun 2027 04:22:22.402   09 Jun 2027 04:22:35.155            12.753                Anadyr1          1594.125
       341   09 Jun 2027 04:22:36.147   09 Jun 2027 04:23:22.990            46.843               Magadan1          3563.375
       342   09 Jun 2027 04:23:24.683   09 Jun 2027 04:23:39.635            14.952                Novosib           846.500
       343   09 Jun 2027 05:52:36.325   09 Jun 2027 05:53:31.285            54.960                Irkutsk          3235.500
       344   09 Jun 2027 05:53:32.154   09 Jun 2027 05:54:30.861            58.707                Irkutsk           434.500
       345   09 Jun 2027 05:54:34.492   09 Jun 2027 05:54:39.349             4.857                Norilsk           607.125
       346   09 Jun 2027 05:54:49.866   09 Jun 2027 05:56:02.455            72.589               Magadan1          6466.875
       347   09 Jun 2027 05:56:09.224   09 Jun 2027 05:56:39.426            30.202                Norilsk          3384.500
       348   09 Jun 2027 05:56:43.117   09 Jun 2027 05:57:26.496            43.379                Novosib          1845.500
       349   09 Jun 2027 05:57:35.180   09 Jun 2027 05:57:56.048            20.868                Norilsk          2608.500
       350   09 Jun 2027 05:58:01.277   09 Jun 2027 05:58:26.803            25.526              Murmansk1          3190.750
       351   09 Jun 2027 05:58:26.803   09 Jun 2027 05:58:58.574            31.771              Murmansk2          1157.250
       352   09 Jun 2027 05:59:08.229   09 Jun 2027 06:00:00.660            52.431              Murmansk1          4827.500
       353   09 Jun 2027 07:29:34.719   09 Jun 2027 07:29:49.988            15.269                  Delhi          1908.625
       354   09 Jun 2027 07:30:03.175   09 Jun 2027 07:31:18.187            75.012                Norilsk          7425.375
       355   09 Jun 2027 07:31:19.843   09 Jun 2027 07:32:15.472            55.629                Irkutsk           828.000
       356   09 Jun 2027 07:32:18.101   09 Jun 2027 07:32:49.197            31.096              Murmansk1          1314.500
       357   09 Jun 2027 07:32:53.006   09 Jun 2027 07:33:10.097            17.091                Norilsk          1904.500
       358   09 Jun 2027 07:33:12.661   09 Jun 2027 07:33:24.447            11.786              Murmansk1          1282.000
       359   09 Jun 2027 07:33:34.829   09 Jun 2027 07:34:41.949            67.120                Novosib          5191.000
       360   09 Jun 2027 07:34:42.670   09 Jun 2027 07:34:54.919            12.249                Irkutsk           360.500
       361   09 Jun 2027 07:34:55.369   09 Jun 2027 07:35:04.374             9.005                 Moscow           225.000
       362   09 Jun 2027 07:35:14.111   09 Jun 2027 07:35:17.944             3.833                Norilsk           479.125
       363   09 Jun 2027 07:35:22.961   09 Jun 2027 07:35:44.119            21.158                Novosib          2644.750
       364   09 Jun 2027 07:35:46.076   09 Jun 2027 07:36:38.254            52.178              Murmansk1          3197.125
       365   09 Jun 2027 09:06:25.726   09 Jun 2027 09:07:10.292            44.566                Novosib          1250.500
       366   09 Jun 2027 09:07:19.299   09 Jun 2027 09:08:09.987            50.688              Murmansk1          4503.500
       367   09 Jun 2027 09:08:13.311   09 Jun 2027 09:08:37.239            23.928              Murmansk2          1662.000
       368   09 Jun 2027 09:08:37.956   09 Jun 2027 09:09:33.727            55.771              Murmansk2           358.500
       369   09 Jun 2027 09:09:35.243   09 Jun 2027 09:09:55.957            20.714                 Moscow           758.000
       370   09 Jun 2027 09:10:09.932   09 Jun 2027 09:11:19.023            69.091                Norilsk          6987.500
       371   09 Jun 2027 10:43:41.943   09 Jun 2027 10:44:31.663            49.720              Murmansk1          4629.500
       372   09 Jun 2027 10:44:33.074   09 Jun 2027 10:45:02.849            29.775                 Moscow           705.500
       373   09 Jun 2027 10:45:04.680   09 Jun 2027 10:45:24.842            20.162              Murmansk2           915.500
       374   09 Jun 2027 10:45:25.973   09 Jun 2027 10:45:51.670            25.697                 Moscow           565.500
       375   09 Jun 2027 10:46:00.534   09 Jun 2027 10:46:49.746            49.212              Murmansk2          4432.000
       376   10 Jun 2027 04:25:59.119   10 Jun 2027 04:27:08.670            69.551               Magadan1          4481.500
       377   10 Jun 2027 04:27:47.119   10 Jun 2027 04:28:19.218            32.099               Magadan1          3070.000
       378   10 Jun 2027 04:28:29.143   10 Jun 2027 04:29:14.965            45.822               Magadan2          4962.500
       379   10 Jun 2027 04:29:55.278   10 Jun 2027 04:33:13.876           198.598               Magadan2         20156.500
       380   10 Jun 2027 04:33:27.318   10 Jun 2027 04:34:27.212            59.894                Norilsk          6721.000
       381   10 Jun 2027 04:34:39.356   10 Jun 2027 04:35:24.140            44.784                Norilsk          4540.000
       382   10 Jun 2027 04:35:26.915   10 Jun 2027 04:35:48.228            21.313              Murmansk2          1387.500
       383   10 Jun 2027 06:04:53.318   10 Jun 2027 06:05:03.529            10.211                Novosib          1276.375
       384   10 Jun 2027 06:05:13.013   10 Jun 2027 06:06:35.136            82.123                Norilsk         10265.375
       385   10 Jun 2027 06:06:40.952   10 Jun 2027 06:07:21.073            40.121                Norilsk          3229.250
       386   10 Jun 2027 06:07:22.946   10 Jun 2027 06:07:51.693            28.747                Novosib           936.500
       387   10 Jun 2027 06:07:57.383   10 Jun 2027 06:08:21.053            23.670                Irkutsk          2845.000
       388   10 Jun 2027 06:08:26.413   10 Jun 2027 06:08:56.491            30.078                Novosib          2680.000
       389   10 Jun 2027 06:09:05.505   10 Jun 2027 06:09:45.697            40.192              Murmansk2          4507.000
       390   10 Jun 2027 06:09:53.030   10 Jun 2027 06:10:47.930            54.900              Murmansk2          3666.500
       391   10 Jun 2027 06:10:48.292   10 Jun 2027 06:11:06.193            17.901                Norilsk           181.000
       392   10 Jun 2027 06:11:12.789   10 Jun 2027 06:11:47.311            34.522              Murmansk1          3298.000
       393   10 Jun 2027 07:42:06.824   10 Jun 2027 07:42:58.537            51.713                Norilsk          4857.000
       394   10 Jun 2027 07:43:05.121   10 Jun 2027 07:43:50.687            45.566                Irkutsk          3292.000
       395   10 Jun 2027 07:43:53.782   10 Jun 2027 07:44:16.633            22.851              Murmansk1          1547.500
       396   10 Jun 2027 07:44:17.041   10 Jun 2027 07:45:40.824            83.783                Irkutsk           204.000
       397   10 Jun 2027 07:45:42.176   10 Jun 2027 07:46:22.410            40.234              Murmansk1           676.000
       398   10 Jun 2027 07:46:26.394   10 Jun 2027 07:46:47.326            20.932                Irkutsk          1992.000
       399   10 Jun 2027 09:18:28.353   10 Jun 2027 09:19:08.908            40.555              Murmansk1          2012.500
       400   10 Jun 2027 09:19:14.819   10 Jun 2027 09:20:12.816            57.997                Novosib          2955.500
       401   10 Jun 2027 09:20:14.793   10 Jun 2027 09:20:37.713            22.920              Murmansk2           988.500
       402   10 Jun 2027 09:20:55.104   10 Jun 2027 09:21:38.552            43.448                Norilsk          5431.000
       403   10 Jun 2027 09:21:39.848   10 Jun 2027 09:22:55.438            75.590              Murmansk1          3912.500
       404   10 Jun 2027 09:23:05.786   10 Jun 2027 09:23:57.924            52.138                Novosib          5174.000
       405   10 Jun 2027 10:56:47.369   10 Jun 2027 10:57:15.768            28.399                 Moscow          3256.500
       406   10 Jun 2027 10:57:17.188   10 Jun 2027 10:57:25.875             8.687              Murmansk2           710.000
       407   11 Jun 2027 03:05:49.451   11 Jun 2027 03:06:34.522            45.071                Anadyr1          3057.000
       408   11 Jun 2027 03:06:35.872   11 Jun 2027 03:07:08.815            32.943                Anadyr2           675.000
       409   11 Jun 2027 03:07:10.875   11 Jun 2027 03:07:45.265            34.390                Anadyr2          1030.000
       410   11 Jun 2027 03:07:49.844   11 Jun 2027 03:08:24.471            34.627                Norilsk          2289.500
       411   11 Jun 2027 03:08:34.591   11 Jun 2027 03:09:16.490            41.899                Norilsk          5060.000
       412   11 Jun 2027 03:09:26.682   11 Jun 2027 03:10:00.506            33.824               Magadan1          2727.500
       413   11 Jun 2027 04:41:01.303   11 Jun 2027 04:42:00.696            59.393                Novosib          3628.000
       414   11 Jun 2027 04:42:09.430   11 Jun 2027 04:42:59.961            50.531               Magadan1          4367.000
       415   11 Jun 2027 04:43:01.076   11 Jun 2027 04:43:18.242            17.166               Magadan2           557.500
       416   11 Jun 2027 04:43:29.974   11 Jun 2027 04:44:17.214            47.240               Magadan1          5866.000
       417   11 Jun 2027 04:44:27.075   11 Jun 2027 04:45:02.653            35.578                Norilsk          4447.250
       418   11 Jun 2027 04:45:22.646   11 Jun 2027 04:46:54.238            91.592                Irkutsk         10479.750
       419   11 Jun 2027 04:46:56.255   11 Jun 2027 04:47:23.806            27.551               Magadan1          1008.500
       420   11 Jun 2027 04:47:25.691   11 Jun 2027 04:47:39.447            13.756                Norilsk           942.500
       421   11 Jun 2027 06:17:41.918   11 Jun 2027 06:19:58.360           136.442                Norilsk         14443.500
       422   11 Jun 2027 06:19:59.104   11 Jun 2027 06:20:17.348            18.244                Norilsk           372.000
       423   11 Jun 2027 06:20:31.405   11 Jun 2027 06:21:42.168            70.763              Murmansk1          7028.500
       424   11 Jun 2027 06:21:45.540   11 Jun 2027 06:22:10.878            25.338              Murmansk1          1686.000
       425   11 Jun 2027 06:22:22.923   11 Jun 2027 06:23:22.072            59.149                Novosib          6022.500
       426   11 Jun 2027 06:23:25.616   11 Jun 2027 06:24:13.025            47.409                Norilsk          1772.000
       427   11 Jun 2027 07:54:37.422   11 Jun 2027 07:54:53.797            16.375              Murmansk1           466.000
       428   11 Jun 2027 07:55:00.418   11 Jun 2027 07:55:50.965            50.547                Norilsk          3310.500
       429   11 Jun 2027 07:55:51.044   11 Jun 2027 07:56:06.918            15.874                Norilsk            39.500
       430   11 Jun 2027 07:56:08.537   11 Jun 2027 07:56:18.223             9.686              Murmansk1           809.500
       431   11 Jun 2027 07:56:18.371   11 Jun 2027 07:56:23.756             5.385              Murmansk1            74.000
       432   11 Jun 2027 07:56:27.612   11 Jun 2027 07:57:01.498            33.886                 Moscow          1928.000
       433   11 Jun 2027 07:57:04.749   11 Jun 2027 07:57:11.196             6.447                Norilsk           805.875
       434   11 Jun 2027 07:57:16.291   11 Jun 2027 07:57:21.738             5.447                 Moscow           680.875
       435   11 Jun 2027 07:57:27.670   11 Jun 2027 07:58:32.201            64.531                Irkutsk          5652.250
       436   11 Jun 2027 07:58:47.496   11 Jun 2027 08:00:03.245            75.749                Norilsk          7647.500
       437   11 Jun 2027 09:30:52.184   11 Jun 2027 09:31:27.046            34.862                Norilsk          2038.500
       438   11 Jun 2027 09:31:27.147   11 Jun 2027 09:31:30.989             3.842              Murmansk2            50.500
       439   11 Jun 2027 09:31:41.704   11 Jun 2027 09:32:45.672            63.968                Norilsk          5357.500
       440   11 Jun 2027 09:33:02.914   11 Jun 2027 09:34:45.181           102.267                Novosib          8621.000
       441   11 Jun 2027 09:34:45.745   11 Jun 2027 09:35:07.114            21.369                 Moscow           282.000
       442   12 Jun 2027 03:17:49.111   12 Jun 2027 03:18:27.544            38.433               Magadan2          2602.500
       443   12 Jun 2027 03:18:27.901   12 Jun 2027 03:19:33.367            65.466                Irkutsk           178.500
       444   12 Jun 2027 03:19:33.404   12 Jun 2027 03:19:40.106             6.702                Norilsk            18.500
       445   12 Jun 2027 03:19:44.114   12 Jun 2027 03:20:36.266            52.152                Anadyr2          2004.000
       446   12 Jun 2027 03:20:37.899   12 Jun 2027 03:20:50.208            12.309               Magadan2           816.500
       447   12 Jun 2027 03:20:52.279   12 Jun 2027 03:21:09.094            16.815               Magadan2          1035.500
       448   12 Jun 2027 03:21:16.374   12 Jun 2027 03:22:31.595            75.221                Anadyr2          2107.500
       449   12 Jun 2027 04:53:24.573   12 Jun 2027 04:55:22.717           118.144               Magadan1         13909.000
       450   12 Jun 2027 04:55:26.439   12 Jun 2027 04:55:48.445            22.006                Novosib          1861.000
       451   12 Jun 2027 04:55:53.514   12 Jun 2027 04:56:00.974             7.460                Novosib           932.500
       452   12 Jun 2027 04:56:03.058   12 Jun 2027 04:57:12.872            69.814                Irkutsk          2644.000
       453   12 Jun 2027 04:57:13.130   12 Jun 2027 04:57:24.382            11.252                Norilsk           129.000
       454   12 Jun 2027 04:57:30.458   12 Jun 2027 04:58:00.957            30.499               Magadan1          3038.000
       455   12 Jun 2027 04:58:03.205   12 Jun 2027 04:58:27.172            23.967              Murmansk1          1124.000
       456   12 Jun 2027 04:58:47.729   12 Jun 2027 05:00:29.719           101.990                Norilsk         10278.500
       457   12 Jun 2027 06:28:53.515   12 Jun 2027 06:29:23.376            29.861                Novosib           770.500
       458   12 Jun 2027 06:29:38.700   12 Jun 2027 06:30:40.136            61.436                Norilsk          7662.000
       459   12 Jun 2027 06:30:41.447   12 Jun 2027 06:31:16.542            35.095                Novosib           655.500
       460   12 Jun 2027 06:31:16.758   12 Jun 2027 06:31:25.066             8.308                Irkutsk           108.000
       461   12 Jun 2027 06:31:47.331   12 Jun 2027 06:33:16.810            89.479                Novosib         11132.500
       462   12 Jun 2027 06:33:26.386   12 Jun 2027 06:33:27.620             1.234                Norilsk           154.250
       463   12 Jun 2027 06:33:28.113   12 Jun 2027 06:33:30.320             2.207                Norilsk           275.875
       464   12 Jun 2027 06:33:30.953   12 Jun 2027 06:34:24.914            53.961                Irkutsk          4920.875
       465   12 Jun 2027 06:34:28.033   12 Jun 2027 06:35:37.877            69.844                Irkutsk          1559.500
       466   12 Jun 2027 08:06:53.656   12 Jun 2027 08:07:21.096            27.440                Irkutsk          1370.000
       467   12 Jun 2027 08:07:42.306   12 Jun 2027 08:09:28.826           106.520                 Moscow         10605.000
       468   12 Jun 2027 08:09:29.553   12 Jun 2027 08:09:55.185            25.632                Norilsk           363.500
       469   12 Jun 2027 08:09:55.972   12 Jun 2027 08:10:11.660            15.688                Irkutsk           393.500
       470   12 Jun 2027 08:10:11.689   12 Jun 2027 08:10:15.827             4.138              Murmansk1            14.500
       471   12 Jun 2027 08:10:23.372   12 Jun 2027 08:11:11.671            48.299              Murmansk2          3772.500
       472   12 Jun 2027 08:11:15.610   12 Jun 2027 08:11:35.071            19.461                Norilsk          1792.000
       473   12 Jun 2027 09:42:47.924   12 Jun 2027 09:43:16.684            28.760                Novosib          2667.500
       474   12 Jun 2027 09:43:22.431   12 Jun 2027 09:44:03.251            40.820                Novosib          2873.500
       475   12 Jun 2027 09:44:04.282   12 Jun 2027 09:44:36.934            32.652                Norilsk           515.500
       476   12 Jun 2027 09:44:39.371   12 Jun 2027 09:45:01.345            21.974              Murmansk1          1218.500
       477   12 Jun 2027 09:45:05.211   12 Jun 2027 09:45:31.569            26.358                Norilsk          1933.000
       478   12 Jun 2027 09:45:31.579   12 Jun 2027 09:45:38.103             6.524              Murmansk1             5.000
       479   12 Jun 2027 09:45:43.648   12 Jun 2027 09:46:33.536            49.888                Novosib          2772.500
       480   12 Jun 2027 09:46:41.367   12 Jun 2027 09:47:14.423            33.056                 Moscow          3915.500
       481   12 Jun 2027 09:47:16.445   12 Jun 2027 09:47:35.658            19.213                 Moscow          1011.000
       482   12 Jun 2027 09:47:47.981   12 Jun 2027 09:48:38.096            50.115              Murmansk2          6161.500
