uniorb/output/strategy_2/Drop/Drop_KinoSat_110201.txt

KinoSat_110201
-------------------------
    Access    *     Start Time (UTCG)     *     Stop Time (UTCG)  *   Duration (s)        *       Station  *  Data (Mbytes)
         1   01 Jun 2027 03:03:51.308   01 Jun 2027 03:04:06.675            15.367                Norilsk          1920.875
         2   01 Jun 2027 03:04:17.469   01 Jun 2027 03:05:37.230            79.761               Magadan1          7471.125
         3   01 Jun 2027 03:05:39.879   01 Jun 2027 03:06:06.057            26.178                Norilsk          1324.500
         4   01 Jun 2027 03:06:07.258   01 Jun 2027 03:06:28.006            20.748                Norilsk           600.500
         5   01 Jun 2027 03:06:28.484   01 Jun 2027 03:06:48.051            19.567                Norilsk           239.000
         6   01 Jun 2027 03:06:51.088   01 Jun 2027 03:07:03.528            12.440               Magadan1          1518.500
         7   01 Jun 2027 03:07:17.143   01 Jun 2027 03:07:58.223            41.080               Magadan2          5135.000
         8   01 Jun 2027 03:07:58.939   01 Jun 2027 03:08:17.963            19.024                Norilsk          2030.500
         9   01 Jun 2027 03:08:18.437   01 Jun 2027 03:08:52.449            34.012                Norilsk           237.000
        10   01 Jun 2027 03:08:56.296   01 Jun 2027 03:09:22.146            25.850               Magadan1          1923.500
        11   01 Jun 2027 03:09:22.474   01 Jun 2027 03:09:35.336            12.862              Murmansk1           164.000
        12   01 Jun 2027 03:09:45.256   01 Jun 2027 03:11:15.142            89.886                Norilsk          4960.000
        13   01 Jun 2027 04:40:27.388   01 Jun 2027 04:41:21.434            54.046                Novosib          6755.750
        14   01 Jun 2027 04:41:21.550   01 Jun 2027 04:41:51.288            29.738                Irkutsk           874.250
        15   01 Jun 2027 04:42:12.639   01 Jun 2027 04:43:56.336           103.697                Irkutsk         10675.500
        16   01 Jun 2027 04:44:06.881   01 Jun 2027 04:44:53.959            47.078                Norilsk          5272.500
        17   01 Jun 2027 04:44:56.536   01 Jun 2027 04:45:26.882            30.346                Novosib          1288.500
        18   01 Jun 2027 04:45:38.035   01 Jun 2027 04:46:27.664            49.629              Murmansk2          5576.500
        19   01 Jun 2027 04:46:45.440   01 Jun 2027 04:46:52.521             7.081                Irkutsk           885.125
        20   01 Jun 2027 04:46:53.942   01 Jun 2027 04:47:43.386            49.444              Murmansk1          3362.375
        21   01 Jun 2027 06:18:33.198   01 Jun 2027 06:19:20.342            47.144                Irkutsk          1589.000
        22   01 Jun 2027 06:19:28.685   01 Jun 2027 06:20:09.030            40.345              Murmansk1          4171.500
        23   01 Jun 2027 06:20:09.172   01 Jun 2027 06:20:11.484             2.312                Norilsk            71.000
        24   01 Jun 2027 06:20:12.322   01 Jun 2027 06:20:23.563            11.241                Irkutsk           419.000
        25   01 Jun 2027 06:20:23.892   01 Jun 2027 06:20:56.452            32.560                Norilsk           164.500
        26   01 Jun 2027 06:21:03.230   01 Jun 2027 06:21:41.210            37.980                Novosib          3389.000
        27   01 Jun 2027 06:21:51.031   01 Jun 2027 06:23:11.992            80.961              Murmansk2          4910.500
        28   01 Jun 2027 07:54:21.257   01 Jun 2027 07:56:13.750           112.493              Murmansk2         12154.500
        29   01 Jun 2027 07:56:17.008   01 Jun 2027 07:57:02.779            45.771                 Moscow          1629.000
        30   01 Jun 2027 07:57:05.401   01 Jun 2027 07:57:35.067            29.666                Norilsk          1311.000
        31   01 Jun 2027 07:57:38.438   01 Jun 2027 07:57:52.237            13.799              Murmansk1          1685.500
        32   01 Jun 2027 07:57:56.141   01 Jun 2027 07:58:16.201            20.060                 Moscow          1952.000
        33   01 Jun 2027 07:58:22.954   01 Jun 2027 07:58:46.242            23.288                Norilsk          1942.000
        34   01 Jun 2027 07:58:52.300   01 Jun 2027 07:59:40.334            48.034                 Moscow          3029.000
        35   02 Jun 2027 03:15:31.030   02 Jun 2027 03:15:41.195            10.165               Magadan2          1270.625
        36   02 Jun 2027 03:15:46.641   02 Jun 2027 03:16:34.440            47.799                Novosib          4111.375
        37   02 Jun 2027 03:16:34.520   02 Jun 2027 03:17:21.075            46.555                Norilsk            40.000
        38   02 Jun 2027 03:17:43.680   02 Jun 2027 03:19:39.142           115.462                Novosib         11302.500
        39   02 Jun 2027 03:19:39.615   02 Jun 2027 03:20:07.767            28.152                Irkutsk           236.500
        40   02 Jun 2027 03:20:11.603   02 Jun 2027 03:20:41.014            29.411                Norilsk          1918.000
        41   02 Jun 2027 03:20:41.743   02 Jun 2027 03:20:49.469             7.726               Magadan2           364.500
        42   02 Jun 2027 03:20:51.648   02 Jun 2027 03:21:29.641            37.993                Irkutsk          1089.500
        43   02 Jun 2027 03:21:32.139   02 Jun 2027 03:22:00.407            28.268              Murmansk2          1249.000
        44   02 Jun 2027 03:22:04.544   02 Jun 2027 03:22:32.712            28.168              Murmansk2          2068.500
        45   02 Jun 2027 03:22:39.644   02 Jun 2027 03:23:44.882            65.238              Murmansk2          3466.000
        46   02 Jun 2027 04:52:53.729   02 Jun 2027 04:54:20.858            87.129                Norilsk         10583.000
        47   02 Jun 2027 04:54:22.812   02 Jun 2027 04:54:34.066            11.254                Norilsk           977.000
        48   02 Jun 2027 04:54:38.546   02 Jun 2027 04:55:39.393            60.847                Irkutsk          2240.000
        49   02 Jun 2027 04:55:47.346   02 Jun 2027 04:56:18.678            31.332                Novosib          3916.500
        50   02 Jun 2027 04:56:24.915   02 Jun 2027 04:57:30.657            65.742              Murmansk2          3178.500
        51   02 Jun 2027 04:57:35.277   02 Jun 2027 04:57:55.688            20.411              Murmansk1          2310.000
        52   02 Jun 2027 04:57:58.333   02 Jun 2027 04:59:06.957            68.624                 Moscow          1322.500
        53   02 Jun 2027 06:30:29.215   02 Jun 2027 06:31:07.949            38.734                Norilsk           684.000
        54   02 Jun 2027 06:31:19.480   02 Jun 2027 06:32:10.959            51.479                Norilsk          5765.500
        55   02 Jun 2027 06:32:11.650   02 Jun 2027 06:32:31.121            19.471                 Moscow           345.500
        56   02 Jun 2027 06:32:36.322   02 Jun 2027 06:33:43.686            67.364              Murmansk2          2600.500
        57   02 Jun 2027 06:33:45.590   02 Jun 2027 06:34:01.563            15.973              Murmansk2           952.000
        58   02 Jun 2027 06:34:02.143   02 Jun 2027 06:34:47.408            45.265                 Moscow           290.000
        59   02 Jun 2027 08:03:41.519   02 Jun 2027 08:04:18.649            37.130                 Moscow          4307.000
        60   02 Jun 2027 08:04:20.936   02 Jun 2027 08:05:09.419            48.483                 Moscow          1143.500
        61   02 Jun 2027 08:05:20.892   02 Jun 2027 08:06:09.477            48.585              Murmansk1          5736.500
        62   02 Jun 2027 08:06:23.146   02 Jun 2027 08:07:54.376            91.230              Murmansk1          6834.500
        63   02 Jun 2027 08:07:56.882   02 Jun 2027 08:08:13.305            16.423              Murmansk2          1253.000
        64   02 Jun 2027 08:08:28.350   02 Jun 2027 08:09:43.146            74.796                Norilsk          7522.500
        65   02 Jun 2027 08:09:45.383   02 Jun 2027 08:10:00.002            14.619                 Moscow          1118.500
        66   02 Jun 2027 08:10:38.033   02 Jun 2027 08:10:51.556            13.523                Norilsk          1337.000
        67   02 Jun 2027 08:10:51.835   02 Jun 2027 08:11:35.981            44.146              Murmansk2           139.500
        68   03 Jun 2027 03:27:45.068   03 Jun 2027 03:28:08.149            23.081                Norilsk           540.000
        69   03 Jun 2027 03:28:13.232   03 Jun 2027 03:28:35.600            22.368                Norilsk          2541.500
        70   03 Jun 2027 03:28:45.491   03 Jun 2027 03:28:47.060             1.569                Irkutsk           196.125
        71   03 Jun 2027 03:28:58.629   03 Jun 2027 03:30:23.819            85.190               Magadan1         10533.875
        72   03 Jun 2027 03:30:26.055   03 Jun 2027 03:30:54.534            28.479                Norilsk          1118.000
        73   03 Jun 2027 03:30:55.851   03 Jun 2027 03:31:10.752            14.901               Magadan1           658.500
        74   03 Jun 2027 03:31:20.764   03 Jun 2027 03:32:05.428            44.664                Norilsk          5006.000
        75   03 Jun 2027 03:32:16.866   03 Jun 2027 03:33:11.812            54.946               Magadan1          5719.000
        76   03 Jun 2027 03:33:20.494   03 Jun 2027 03:33:59.579            39.085                Novosib          4341.000
        77   03 Jun 2027 03:34:14.680   03 Jun 2027 03:35:01.982            47.302                Irkutsk          5912.750
        78   03 Jun 2027 03:35:06.774   03 Jun 2027 03:35:32.919            26.145              Murmansk2          1818.750
        79   03 Jun 2027 05:04:29.335   03 Jun 2027 05:04:30.674             1.339                  Delhi           167.375
        80   03 Jun 2027 05:04:44.462   03 Jun 2027 05:06:22.597            98.135                Norilsk          7098.625
        81   03 Jun 2027 05:06:22.750   03 Jun 2027 05:06:31.139             8.389                Norilsk            76.500
        82   03 Jun 2027 05:06:32.583   03 Jun 2027 05:06:50.795            18.212                Irkutsk           722.000
        83   03 Jun 2027 05:06:51.753   03 Jun 2027 05:07:23.274            31.521                Norilsk           479.000
        84   03 Jun 2027 05:07:24.297   03 Jun 2027 05:07:49.840            25.543                Norilsk           511.500
        85   03 Jun 2027 05:07:50.465   03 Jun 2027 05:08:28.154            37.689                Norilsk           312.500
        86   03 Jun 2027 05:08:28.614   03 Jun 2027 05:09:56.303            87.689                Irkutsk           230.000
        87   03 Jun 2027 05:09:58.831   03 Jun 2027 05:10:13.216            14.385                 Moscow          1264.000
        88   03 Jun 2027 05:10:31.817   03 Jun 2027 05:11:47.871            76.054              Murmansk1          9300.500
        89   03 Jun 2027 06:42:31.365   03 Jun 2027 06:42:56.921            25.556                Irkutsk          2137.500
        90   03 Jun 2027 06:43:14.032   03 Jun 2027 06:44:43.261            89.229                Novosib          8555.500
        91   03 Jun 2027 06:44:45.862   03 Jun 2027 06:44:59.019            13.157                 Moscow          1300.500
        92   03 Jun 2027 06:45:14.390   03 Jun 2027 06:46:03.407            49.017                Norilsk          6127.125
        93   03 Jun 2027 06:46:06.347   03 Jun 2027 06:47:04.187            57.840                 Moscow          3028.375
        94   03 Jun 2027 08:16:26.379   03 Jun 2027 08:17:27.229            60.850                 Moscow          7606.250
        95   03 Jun 2027 08:17:30.750   03 Jun 2027 08:18:10.829            40.079              Murmansk2          4866.250
        96   03 Jun 2027 08:18:11.916   03 Jun 2027 08:18:20.194             8.278                 Moscow           543.500
        97   03 Jun 2027 08:18:26.285   03 Jun 2027 08:20:08.341           102.056                 Moscow          3045.500
        98   03 Jun 2027 08:20:12.088   03 Jun 2027 08:20:56.563            44.475                 Moscow          1873.500
        99   03 Jun 2027 08:21:06.690   03 Jun 2027 08:22:41.576            94.886              Murmansk1          5063.500
       100   03 Jun 2027 08:22:42.211   03 Jun 2027 08:23:07.239            25.028              Murmansk2           317.500
       101   03 Jun 2027 08:23:30.106   03 Jun 2027 08:25:21.694           111.588              Murmansk2         11016.000
       102   04 Jun 2027 03:39:41.063   04 Jun 2027 03:40:05.666            24.603                Norilsk          1921.500
       103   04 Jun 2027 03:40:06.003   04 Jun 2027 03:40:30.361            24.358               Magadan2           168.500
       104   04 Jun 2027 03:40:41.673   04 Jun 2027 03:41:15.349            33.676                Novosib          4209.500
       105   04 Jun 2027 03:41:23.114   04 Jun 2027 03:42:06.455            43.341                Irkutsk          5329.000
       106   04 Jun 2027 03:42:09.711   04 Jun 2027 03:42:49.582            39.871                Irkutsk          1628.000
       107   04 Jun 2027 03:42:49.646   04 Jun 2027 03:42:57.887             8.241                Novosib            32.000
       108   04 Jun 2027 03:43:07.551   04 Jun 2027 03:43:52.915            45.364                Irkutsk          4832.000
       109   04 Jun 2027 03:44:13.554   04 Jun 2027 03:45:48.240            94.686                Irkutsk         10319.500
       110   04 Jun 2027 03:45:50.193   04 Jun 2027 03:45:55.359             5.166                Norilsk           645.750
       111   04 Jun 2027 03:46:11.326   04 Jun 2027 03:47:04.959            53.633                Irkutsk          6704.125
       112   04 Jun 2027 03:47:11.080   04 Jun 2027 03:47:18.606             7.526                Norilsk           940.750
       113   04 Jun 2027 03:47:20.063   04 Jun 2027 03:47:45.733            25.670              Murmansk2           669.375
       114   04 Jun 2027 05:16:35.915   04 Jun 2027 05:16:58.323            22.408                Norilsk          2801.000
       115   04 Jun 2027 05:17:14.955   04 Jun 2027 05:19:20.261           125.306                Novosib         12853.500
       116   04 Jun 2027 05:19:22.129   04 Jun 2027 05:19:52.635            30.506                Norilsk           934.000
       117   04 Jun 2027 05:19:55.693   04 Jun 2027 05:20:51.204            55.511                Irkutsk          1529.000
       118   04 Jun 2027 05:21:02.888   04 Jun 2027 05:21:14.138            11.250                Norilsk          1406.250
       119   04 Jun 2027 05:21:15.739   04 Jun 2027 05:21:26.526            10.787                Novosib          1348.375
       120   04 Jun 2027 05:21:32.744   04 Jun 2027 05:22:40.322            67.578                Irkutsk          6996.875
       121   04 Jun 2027 05:22:41.195   04 Jun 2027 05:22:55.281            14.086                 Moscow           436.500
       122   04 Jun 2027 05:23:02.492   04 Jun 2027 05:23:47.872            45.380              Murmansk1          3605.500
       123   04 Jun 2027 06:54:34.197   04 Jun 2027 06:55:57.080            82.883                 Moscow          3522.000
       124   04 Jun 2027 06:55:58.130   04 Jun 2027 06:56:07.289             9.159              Murmansk1           525.000
       125   04 Jun 2027 06:56:09.489   04 Jun 2027 06:56:48.753            39.264                Novosib          1100.000
       126   04 Jun 2027 06:56:51.940   04 Jun 2027 06:57:11.486            19.546                Norilsk          1593.500
       127   04 Jun 2027 06:57:21.621   04 Jun 2027 06:58:11.752            50.131                 Moscow          5067.500
       128   04 Jun 2027 06:58:12.763   04 Jun 2027 06:58:41.986            29.223                Norilsk           505.500
       129   04 Jun 2027 08:30:17.215   04 Jun 2027 08:30:53.516            36.301                 Moscow          2531.000
       130   04 Jun 2027 08:31:29.520   04 Jun 2027 08:34:47.788           198.268                 Moscow         18002.000
       131   05 Jun 2027 03:51:51.255   05 Jun 2027 03:51:52.132             0.877                Novosib           109.625
       132   05 Jun 2027 03:51:58.760   05 Jun 2027 03:52:57.071            58.311                Norilsk          6297.375
       133   05 Jun 2027 03:52:58.523   05 Jun 2027 03:53:00.886             2.363               Magadan1           295.375
       134   05 Jun 2027 03:53:01.283   05 Jun 2027 03:53:30.163            28.880                Novosib           629.125
       135   05 Jun 2027 03:53:42.315   05 Jun 2027 03:54:34.813            52.498               Magadan2          6076.000
       136   05 Jun 2027 03:54:36.095   05 Jun 2027 03:54:50.841            14.746                Norilsk           641.000
       137   05 Jun 2027 03:54:57.695   05 Jun 2027 03:55:51.591            53.896                Novosib          3427.000
       138   05 Jun 2027 03:55:55.051   05 Jun 2027 03:56:15.093            20.042                Norilsk          1730.000
       139   05 Jun 2027 03:56:18.570   05 Jun 2027 03:56:41.031            22.461                Norilsk          1738.500
       140   05 Jun 2027 03:56:42.396   05 Jun 2027 03:56:49.812             7.416                Novosib           682.500
       141   05 Jun 2027 03:56:52.169   05 Jun 2027 03:57:32.392            40.223              Murmansk2          1178.500
       142   05 Jun 2027 03:57:34.767   05 Jun 2027 03:57:50.783            16.016              Murmansk1          1187.500
       143   05 Jun 2027 03:57:54.998   05 Jun 2027 03:58:26.167            31.169                Norilsk          2107.500
       144   05 Jun 2027 03:58:28.761   05 Jun 2027 03:58:33.935             5.174                Novosib           646.750
       145   05 Jun 2027 03:58:36.025   05 Jun 2027 03:58:59.209            23.184                Irkutsk          1695.250
       146   05 Jun 2027 03:59:03.515   05 Jun 2027 03:59:20.120            16.605                Norilsk          1703.500
       147   05 Jun 2027 05:29:00.432   05 Jun 2027 05:30:08.604            68.172                Irkutsk           402.500
       148   05 Jun 2027 05:30:11.814   05 Jun 2027 05:30:40.011            28.197                Irkutsk          1605.000
       149   05 Jun 2027 05:30:40.357   05 Jun 2027 05:31:01.873            21.516                 Moscow           173.000
       150   05 Jun 2027 05:31:08.073   05 Jun 2027 05:31:41.340            33.267                Norilsk          3100.000
       151   05 Jun 2027 05:31:43.964   05 Jun 2027 05:31:46.236             2.272                Novosib           284.000
       152   05 Jun 2027 05:31:48.511   05 Jun 2027 05:31:55.059             6.548                Novosib           818.500
       153   05 Jun 2027 05:31:56.250   05 Jun 2027 05:32:29.822            33.572                Norilsk          1942.500
       154   05 Jun 2027 05:32:32.425   05 Jun 2027 05:32:43.228            10.803              Murmansk1          1301.500
       155   05 Jun 2027 05:32:44.008   05 Jun 2027 05:32:54.165            10.157                Norilsk           390.000
       156   05 Jun 2027 05:32:56.558   05 Jun 2027 05:33:25.138            28.580                Norilsk          1196.500
       157   05 Jun 2027 05:33:28.582   05 Jun 2027 05:34:01.840            33.258                 Moscow          1722.000
       158   05 Jun 2027 05:34:08.652   05 Jun 2027 05:34:45.348            36.696                 Moscow          3406.000
       159   05 Jun 2027 05:34:53.417   05 Jun 2027 05:36:35.658           102.241                Novosib          3214.000
       160   05 Jun 2027 07:05:56.453   05 Jun 2027 07:07:17.962            81.509              Murmansk2          7638.000
       161   05 Jun 2027 07:07:33.848   05 Jun 2027 07:09:00.790            86.942                 Moscow          7943.000
       162   05 Jun 2027 07:09:08.048   05 Jun 2027 07:09:59.940            51.892                Norilsk          3629.000
       163   05 Jun 2027 07:10:17.718   05 Jun 2027 07:11:31.723            74.005                 Moscow          8889.000
       164   05 Jun 2027 08:40:56.129   05 Jun 2027 08:41:12.523            16.394              Murmansk2          1419.000
       165   05 Jun 2027 08:42:34.384   05 Jun 2027 08:43:27.858            53.474              Murmansk2          2871.500
       166   05 Jun 2027 08:43:42.539   05 Jun 2027 08:44:43.371            60.832              Murmansk2          7340.500
       167   05 Jun 2027 08:45:02.868   05 Jun 2027 08:46:25.680            82.812              Murmansk2          9748.500
       168   06 Jun 2027 04:04:11.657   06 Jun 2027 04:04:50.892            39.235                Novosib           685.000
       169   06 Jun 2027 04:05:09.651   06 Jun 2027 04:07:08.417           118.766                Irkutsk          9379.500
       170   06 Jun 2027 04:07:22.054   06 Jun 2027 04:07:50.432            28.378                Irkutsk          3547.250
       171   06 Jun 2027 04:07:50.804   06 Jun 2027 04:08:29.774            38.970                Norilsk          3457.250
       172   06 Jun 2027 04:08:33.779   06 Jun 2027 04:08:51.796            18.017              Murmansk1          2002.500
       173   06 Jun 2027 04:08:58.535   06 Jun 2027 04:09:26.261            27.726              Murmansk1          3369.500
       174   06 Jun 2027 04:09:30.008   06 Jun 2027 04:09:34.227             4.219                Norilsk           527.375
       175   06 Jun 2027 04:09:39.880   06 Jun 2027 04:09:58.234            18.354                Novosib          2294.250
       176   06 Jun 2027 04:10:16.882   06 Jun 2027 04:12:10.679           113.797                Novosib         11202.375
       177   06 Jun 2027 05:41:29.943   06 Jun 2027 05:41:58.376            28.433                Norilsk          3554.125
       178   06 Jun 2027 05:42:00.176   06 Jun 2027 05:43:07.084            66.908                 Moscow          7753.375
       179   06 Jun 2027 05:43:16.922   06 Jun 2027 05:44:06.479            49.557                 Moscow          4919.000
       180   06 Jun 2027 05:44:07.153   06 Jun 2027 05:44:29.480            22.327              Murmansk1           337.000
       181   06 Jun 2027 05:44:40.579   06 Jun 2027 05:45:33.664            53.085                 Moscow          5549.500
       182   06 Jun 2027 05:45:43.561   06 Jun 2027 05:46:22.537            38.976                Irkutsk          4872.000
       183   06 Jun 2027 05:46:28.649   06 Jun 2027 05:47:03.317            34.668              Murmansk2          3132.500
       184   06 Jun 2027 07:18:08.888   06 Jun 2027 07:19:19.545            70.657                Novosib          6452.500
       185   06 Jun 2027 07:19:29.445   06 Jun 2027 07:20:09.050            39.605              Murmansk1          4950.000
       186   06 Jun 2027 07:20:12.287   06 Jun 2027 07:20:32.132            19.845              Murmansk2          1618.500
       187   06 Jun 2027 07:20:43.863   06 Jun 2027 07:21:05.696            21.833                 Moscow          2729.125
       188   06 Jun 2027 07:21:09.427   06 Jun 2027 07:21:50.598            41.171                Norilsk          5001.875
       189   06 Jun 2027 07:21:56.613   06 Jun 2027 07:22:59.067            62.454                Novosib          3007.500
       190   06 Jun 2027 08:56:14.642   06 Jun 2027 08:56:59.529            44.887              Murmansk2          4103.000
       191   06 Jun 2027 08:57:01.659   06 Jun 2027 08:57:56.166            54.507              Murmansk1          1065.000
       192   07 Jun 2027 04:16:46.343   07 Jun 2027 04:18:22.388            96.045                Novosib          5006.500
       193   07 Jun 2027 04:18:22.602   07 Jun 2027 04:18:50.833            28.231                Irkutsk           107.000
       194   07 Jun 2027 04:18:58.132   07 Jun 2027 04:19:53.999            55.867                Irkutsk          3649.500
       195   07 Jun 2027 04:19:54.180   07 Jun 2027 04:20:07.368            13.188                Norilsk            90.500
       196   07 Jun 2027 04:20:16.543   07 Jun 2027 04:20:18.812             2.269                Norilsk           283.625
       197   07 Jun 2027 04:20:35.742   07 Jun 2027 04:22:40.619           124.877              Murmansk2         12768.875
       198   07 Jun 2027 04:22:43.007   07 Jun 2027 04:23:26.572            43.565              Murmansk2          1194.000
       199   07 Jun 2027 05:54:12.094   07 Jun 2027 05:54:22.051             9.957              Murmansk1           867.000
       200   07 Jun 2027 05:54:22.182   07 Jun 2027 05:54:41.362            19.180                 Moscow            65.500
       201   07 Jun 2027 05:54:45.901   07 Jun 2027 05:55:04.933            19.032                Irkutsk          2269.500
       202   07 Jun 2027 05:55:07.874   07 Jun 2027 05:56:11.056            63.182                 Moscow          1470.500
       203   07 Jun 2027 05:56:11.199   07 Jun 2027 05:56:12.325             1.126                 Moscow            71.500
       204   07 Jun 2027 05:56:15.319   07 Jun 2027 05:57:12.231            56.912                 Moscow          1497.000
       205   07 Jun 2027 05:57:12.881   07 Jun 2027 05:57:32.956            20.075                 Moscow           325.000
       206   07 Jun 2027 05:57:35.748   07 Jun 2027 05:58:07.162            31.414                 Moscow          1396.000
       207   07 Jun 2027 05:58:13.098   07 Jun 2027 05:58:39.407            26.309              Murmansk2          2968.000
       208   07 Jun 2027 07:30:14.191   07 Jun 2027 07:30:20.874             6.683                 Moscow           313.000
       209   07 Jun 2027 07:30:22.598   07 Jun 2027 07:30:43.651            21.053                Novosib           862.000
       210   07 Jun 2027 07:30:46.786   07 Jun 2027 07:31:16.634            29.848              Murmansk1          1567.500
       211   07 Jun 2027 07:31:28.004   07 Jun 2027 07:32:21.535            53.531                Norilsk          5685.000
       212   07 Jun 2027 07:32:23.579   07 Jun 2027 07:32:42.550            18.971                Norilsk          1022.000
       213   07 Jun 2027 07:32:45.941   07 Jun 2027 07:33:35.671            49.730              Murmansk2          1695.500
       214   07 Jun 2027 07:33:40.093   07 Jun 2027 07:33:58.231            18.138                Norilsk          2211.000
       215   07 Jun 2027 07:34:03.452   07 Jun 2027 07:35:12.462            69.010                Novosib          2610.500
       216   08 Jun 2027 04:29:02.192   08 Jun 2027 04:30:08.401            66.209                Novosib          6976.000
       217   08 Jun 2027 04:30:11.955   08 Jun 2027 04:30:15.525             3.570                Irkutsk           446.250
       218   08 Jun 2027 04:30:19.852   08 Jun 2027 04:31:34.097            74.245                Irkutsk          3494.250
       219   08 Jun 2027 04:31:41.925   08 Jun 2027 04:32:13.897            31.972                Norilsk          3914.000
       220   08 Jun 2027 04:32:14.825   08 Jun 2027 04:33:16.802            61.977                Norilsk           464.000
       221   08 Jun 2027 04:33:19.085   08 Jun 2027 04:33:55.121            36.036              Murmansk2          1141.500
       222   08 Jun 2027 04:33:55.913   08 Jun 2027 04:34:24.618            28.705              Murmansk2           396.000
       223   08 Jun 2027 04:34:31.494   08 Jun 2027 04:35:18.110            46.616              Murmansk2          3420.500
       224   08 Jun 2027 06:06:15.825   08 Jun 2027 06:06:32.063            16.238                Norilsk          1016.500
       225   08 Jun 2027 06:06:40.486   08 Jun 2027 06:07:21.257            40.771                Norilsk          4211.500
       226   08 Jun 2027 06:07:30.174   08 Jun 2027 06:08:17.151            46.977                Irkutsk          4458.500
       227   08 Jun 2027 06:08:22.617   08 Jun 2027 06:08:31.391             8.774                Irkutsk          1096.750
       228   08 Jun 2027 06:08:32.097   08 Jun 2027 06:08:49.787            17.690              Murmansk1          1989.250
       229   08 Jun 2027 06:08:51.014   08 Jun 2027 06:09:19.894            28.880                Norilsk           613.500
       230   08 Jun 2027 06:09:31.487   08 Jun 2027 06:10:41.002            69.515              Murmansk2          5796.500
       231   08 Jun 2027 06:10:42.103   08 Jun 2027 06:11:34.341            52.238              Murmansk2           550.500
       232   08 Jun 2027 07:42:37.839   08 Jun 2027 07:44:11.012            93.173                 Moscow         10080.500
       233   08 Jun 2027 07:44:13.542   08 Jun 2027 07:44:29.200            15.658              Murmansk1          1265.000
       234   08 Jun 2027 07:44:41.797   08 Jun 2027 07:45:17.894            36.097                 Moscow          4512.125
       235   08 Jun 2027 07:45:30.108   08 Jun 2027 07:46:40.761            70.653                Norilsk          7893.375
       236   08 Jun 2027 07:46:44.513   08 Jun 2027 07:46:46.472             1.959                 Moscow           244.875
       237   08 Jun 2027 07:46:47.773   08 Jun 2027 07:47:06.469            18.696                Norilsk          2281.625
       238   08 Jun 2027 07:47:16.892   08 Jun 2027 07:48:01.538            44.646              Murmansk1          1380.500
       239   09 Jun 2027 03:04:06.820   09 Jun 2027 03:04:54.610            47.790                Irkutsk          4687.000
       240   09 Jun 2027 03:04:59.082   09 Jun 2027 03:05:21.533            22.451               Magadan2          2236.000
       241   09 Jun 2027 03:05:22.694   09 Jun 2027 03:06:17.654            54.960                Novosib           580.500
       242   09 Jun 2027 03:06:22.285   09 Jun 2027 03:06:42.817            20.532                Norilsk          2315.500
       243   09 Jun 2027 03:06:46.370   09 Jun 2027 03:07:02.826            16.456                Norilsk          1776.500
       244   09 Jun 2027 03:07:05.709   09 Jun 2027 03:07:20.967            15.258               Magadan1          1441.500
       245   09 Jun 2027 03:07:31.742   09 Jun 2027 03:08:21.676            49.934               Magadan2          5387.500
       246   09 Jun 2027 03:08:24.700   09 Jun 2027 03:08:40.819            16.119                Novosib          1512.000
       247   09 Jun 2027 03:08:50.567   09 Jun 2027 03:09:37.082            46.515               Magadan1          4874.000
       248   09 Jun 2027 03:09:38.574   09 Jun 2027 03:09:59.828            21.254              Murmansk1           746.000
       249   09 Jun 2027 03:10:01.146   09 Jun 2027 03:10:33.351            32.205                Norilsk           659.000
       250   09 Jun 2027 03:10:33.674   09 Jun 2027 03:10:48.896            15.222              Murmansk1           161.500
       251   09 Jun 2027 03:10:51.270   09 Jun 2027 03:11:36.683            45.413              Murmansk2          1187.000
       252   09 Jun 2027 04:40:42.385   09 Jun 2027 04:41:49.344            66.959                Novosib          7456.500
       253   09 Jun 2027 04:41:57.885   09 Jun 2027 04:42:41.473            43.588                Novosib          4270.500
       254   09 Jun 2027 04:42:48.452   09 Jun 2027 04:43:30.437            41.985                Norilsk          3489.500
       255   09 Jun 2027 04:43:31.050   09 Jun 2027 04:43:41.524            10.474                Norilsk           306.500
       256   09 Jun 2027 04:43:45.573   09 Jun 2027 04:44:35.461            49.888                Novosib          2024.500
       257   09 Jun 2027 04:44:45.562   09 Jun 2027 04:45:34.932            49.370              Murmansk1          5050.500
       258   09 Jun 2027 04:45:41.202   09 Jun 2027 04:46:25.919            44.717                Norilsk          3135.000
       259   09 Jun 2027 04:46:44.697   09 Jun 2027 04:47:59.860            75.163              Murmansk1          9389.000
       260   09 Jun 2027 06:18:47.816   09 Jun 2027 06:19:35.134            47.318                Irkutsk          1398.500
       261   09 Jun 2027 06:19:46.061   09 Jun 2027 06:20:36.258            50.197                Norilsk          5463.500
       262   09 Jun 2027 06:20:37.347   09 Jun 2027 06:20:45.232             7.885                Novosib           544.500
       263   09 Jun 2027 06:20:52.008   09 Jun 2027 06:21:03.451            11.443              Murmansk2          1430.375
       264   09 Jun 2027 06:21:03.451   09 Jun 2027 06:22:05.896            62.445              Murmansk1          1957.625
       265   09 Jun 2027 06:22:14.531   09 Jun 2027 06:22:48.205            33.674                 Moscow          4209.250
       266   09 Jun 2027 06:23:27.914   09 Jun 2027 06:23:35.867             7.953              Murmansk1           108.250
       267   09 Jun 2027 07:54:14.718   09 Jun 2027 07:54:44.918            30.200                 Moscow          1775.000
       268   09 Jun 2027 07:54:46.919   09 Jun 2027 07:54:50.984             4.065              Murmansk2           508.125
       269   09 Jun 2027 07:54:50.984   09 Jun 2027 07:55:31.519            40.535              Murmansk1           492.375
       270   09 Jun 2027 07:55:34.803   09 Jun 2027 07:56:10.467            35.664              Murmansk2          1642.000
       271   09 Jun 2027 07:56:13.532   09 Jun 2027 07:56:28.381            14.849              Murmansk1          1532.500
       272   09 Jun 2027 07:56:32.834   09 Jun 2027 07:57:17.505            44.671                 Moscow          2226.500
       273   09 Jun 2027 07:57:22.503   09 Jun 2027 07:58:10.368            47.865                 Moscow          2499.000
       274   09 Jun 2027 07:58:15.147   09 Jun 2027 07:58:29.219            14.072                Novosib          1507.500
       275   09 Jun 2027 07:58:37.905   09 Jun 2027 07:59:01.135            23.230                Norilsk          1915.500
       276   09 Jun 2027 07:59:07.030   09 Jun 2027 07:59:54.433            47.403                 Moscow          2947.500
       277   10 Jun 2027 03:15:45.922   10 Jun 2027 03:16:02.353            16.431               Magadan1          2053.875
       278   10 Jun 2027 03:16:02.353   10 Jun 2027 03:16:09.763             7.410               Magadan2           480.625
       279   10 Jun 2027 03:16:17.990   10 Jun 2027 03:16:52.129            34.139                Novosib          4113.500
       280   10 Jun 2027 03:16:52.142   10 Jun 2027 03:17:00.620             8.478               Magadan2             6.500
       281   10 Jun 2027 03:17:07.683   10 Jun 2027 03:17:58.292            50.609                Novosib          3531.500
       282   10 Jun 2027 03:18:06.404   10 Jun 2027 03:18:42.658            36.254                Norilsk          4056.000
       283   10 Jun 2027 03:18:48.492   10 Jun 2027 03:19:41.009            52.517                Norilsk          2917.000
       284   10 Jun 2027 03:19:52.865   10 Jun 2027 03:20:58.123            65.258               Magadan2          5928.000
       285   10 Jun 2027 03:20:58.715   10 Jun 2027 03:21:04.398             5.683               Magadan1           296.000
       286   10 Jun 2027 03:21:06.999   10 Jun 2027 03:21:14.118             7.119               Magadan2           889.875
       287   10 Jun 2027 03:21:18.470   10 Jun 2027 03:21:48.170            29.700              Murmansk2          2586.625
       288   10 Jun 2027 03:21:54.323   10 Jun 2027 03:22:34.899            40.576                Novosib          3076.500
       289   10 Jun 2027 03:22:39.937   10 Jun 2027 03:23:31.101            51.164                Norilsk          2519.000
       290   10 Jun 2027 04:52:49.144   10 Jun 2027 04:53:43.789            54.645                Irkutsk           974.000
       291   10 Jun 2027 04:53:55.931   10 Jun 2027 04:54:53.477            57.546                Irkutsk          6071.000
       292   10 Jun 2027 04:54:57.664   10 Jun 2027 04:55:18.907            21.243                Norilsk          2093.500
       293   10 Jun 2027 04:55:19.444   10 Jun 2027 04:55:39.477            20.033                Norilsk           268.500
       294   10 Jun 2027 04:55:48.490   10 Jun 2027 04:56:32.909            44.419                Novosib          4506.500
       295   10 Jun 2027 04:56:41.284   10 Jun 2027 04:57:48.787            67.503              Murmansk2          4187.500
       296   10 Jun 2027 04:57:50.848   10 Jun 2027 04:58:10.201            19.353              Murmansk1          1030.500
       297   10 Jun 2027 04:58:14.197   10 Jun 2027 04:59:04.408            50.211                 Moscow          1998.000
       298   10 Jun 2027 04:59:17.341   10 Jun 2027 04:59:25.582             8.241                Norilsk           948.000
       299   10 Jun 2027 06:30:43.878   10 Jun 2027 06:31:08.435            24.557                Norilsk           650.500
       300   10 Jun 2027 06:31:14.302   10 Jun 2027 06:32:11.440            57.138                 Moscow          2933.500
       301   10 Jun 2027 06:32:18.273   10 Jun 2027 06:32:51.996            33.723                Novosib          3416.500
       302   10 Jun 2027 06:32:54.208   10 Jun 2027 06:33:05.749            11.541              Murmansk1          1106.000
       303   10 Jun 2027 06:33:15.406   10 Jun 2027 06:34:16.363            60.957                 Moscow          4828.500
       304   10 Jun 2027 06:34:18.712   10 Jun 2027 06:34:43.613            24.901              Murmansk2          1174.500
       305   10 Jun 2027 08:03:57.152   10 Jun 2027 08:04:33.471            36.319                 Moscow          4539.875
       306   10 Jun 2027 08:04:50.369   10 Jun 2027 08:06:25.346            94.977              Murmansk1          8579.125
       307   10 Jun 2027 08:06:38.387   10 Jun 2027 08:08:11.725            93.338              Murmansk2          6520.500
       308   10 Jun 2027 08:08:12.097   10 Jun 2027 08:08:27.940            15.843              Murmansk1           186.000
       309   10 Jun 2027 08:08:49.581   10 Jun 2027 08:10:25.063            95.482              Murmansk1         10820.500
       310   10 Jun 2027 08:10:58.737   10 Jun 2027 08:11:21.045            22.308                Norilsk          2788.500
       311   10 Jun 2027 08:11:46.603   10 Jun 2027 08:13:56.052           129.449                Norilsk         14278.500
       312   11 Jun 2027 03:28:00.607   11 Jun 2027 03:28:25.535            24.928                Norilsk           990.500
       313   11 Jun 2027 03:28:36.262   11 Jun 2027 03:29:19.814            43.552                Novosib          5363.500
       314   11 Jun 2027 03:29:30.039   11 Jun 2027 03:30:12.596            42.557                Norilsk          5112.500
       315   11 Jun 2027 03:30:14.981   11 Jun 2027 03:30:38.508            23.527               Magadan2          1192.500
       316   11 Jun 2027 03:30:40.844   11 Jun 2027 03:30:50.478             9.634                Norilsk          1168.000
       317   11 Jun 2027 03:30:56.986   11 Jun 2027 03:31:39.518            42.532                Novosib          3254.000
       318   11 Jun 2027 03:31:44.568   11 Jun 2027 03:32:31.837            47.269               Magadan1          2525.000
       319   11 Jun 2027 03:32:34.938   11 Jun 2027 03:32:50.349            15.411                Irkutsk          1550.500
       320   11 Jun 2027 03:32:50.870   11 Jun 2027 03:33:19.144            28.274                Norilsk           260.500
       321   11 Jun 2027 03:33:26.719   11 Jun 2027 03:34:09.182            42.463               Magadan2          3787.500
       322   11 Jun 2027 03:34:12.196   11 Jun 2027 03:34:41.419            29.223                Norilsk          1507.000
       323   11 Jun 2027 03:34:50.828   11 Jun 2027 03:35:33.818            42.990              Murmansk2          4704.500
       324   11 Jun 2027 05:04:58.990   11 Jun 2027 05:05:53.368            54.378                Norilsk          6797.250
       325   11 Jun 2027 05:06:28.866   11 Jun 2027 05:10:10.673           221.807                Irkutsk         18829.750
       326   11 Jun 2027 05:10:11.188   11 Jun 2027 05:10:16.067             4.879                 Moscow           257.500
       327   11 Jun 2027 05:10:25.687   11 Jun 2027 05:11:53.618            87.931              Murmansk2          4810.000
       328   11 Jun 2027 06:42:45.957   11 Jun 2027 06:43:11.449            25.492                Irkutsk          2049.000
       329   11 Jun 2027 06:43:29.884   11 Jun 2027 06:44:58.074            88.190                Novosib          9217.500
       330   11 Jun 2027 06:44:58.571   11 Jun 2027 06:45:29.055            30.484                Norilsk           248.500
       331   11 Jun 2027 06:45:32.910   11 Jun 2027 06:46:23.880            50.970                 Moscow          1927.500
       332   11 Jun 2027 06:46:36.944   11 Jun 2027 06:47:02.337            25.393                Novosib          3174.125
       333   11 Jun 2027 06:47:11.943   11 Jun 2027 06:48:11.066            59.123              Murmansk1          3357.875
       334   11 Jun 2027 08:16:41.082   11 Jun 2027 08:17:45.426            64.344                 Moscow          8043.000
       335   11 Jun 2027 08:17:47.526   11 Jun 2027 08:18:26.083            38.557              Murmansk1          3794.500
       336   11 Jun 2027 08:18:27.091   11 Jun 2027 08:18:34.364             7.273                 Moscow           504.000
       337   11 Jun 2027 08:18:45.455   11 Jun 2027 08:19:55.304            69.849              Murmansk1          5545.500
       338   11 Jun 2027 08:20:09.302   11 Jun 2027 08:21:09.138            59.836              Murmansk2          6999.000
       339   11 Jun 2027 08:21:10.853   11 Jun 2027 08:21:30.273            19.420                 Moscow           857.500
       340   11 Jun 2027 08:21:32.834   11 Jun 2027 08:21:57.103            24.269                 Moscow          1280.500
       341   11 Jun 2027 08:21:58.462   11 Jun 2027 08:22:56.327            57.865              Murmansk2           679.500
       342   11 Jun 2027 08:22:56.716   11 Jun 2027 08:23:47.231            50.515              Murmansk1           194.500
       343   12 Jun 2027 03:39:52.712   12 Jun 2027 03:40:17.169            24.457               Magadan2           277.500
       344   12 Jun 2027 03:40:20.288   12 Jun 2027 03:40:24.163             3.875                Norilsk           484.375
       345   12 Jun 2027 03:40:25.119   12 Jun 2027 03:41:36.944            71.825                Irkutsk          1553.125
       346   12 Jun 2027 03:41:49.302   12 Jun 2027 03:42:43.269            53.967                Norilsk          6179.000
       347   12 Jun 2027 03:42:45.813   12 Jun 2027 03:42:59.393            13.580               Magadan1          1272.000
       348   12 Jun 2027 03:43:01.658   12 Jun 2027 03:43:36.255            34.597               Magadan1          1132.500
       349   12 Jun 2027 03:43:42.764   12 Jun 2027 03:44:54.413            71.649                Novosib          3254.500
       350   12 Jun 2027 03:44:57.187   12 Jun 2027 03:45:10.952            13.765              Murmansk2          1387.000
       351   12 Jun 2027 03:45:19.412   12 Jun 2027 03:45:42.889            23.477               Magadan2          2934.625
       352   12 Jun 2027 03:45:53.629   12 Jun 2027 03:47:03.269            69.640                Norilsk          6665.375
       353   12 Jun 2027 03:47:06.340   12 Jun 2027 03:47:19.828            13.488                Irkutsk          1535.500
       354   12 Jun 2027 05:16:50.452   12 Jun 2027 05:17:13.226            22.774                Norilsk          2846.750
       355   12 Jun 2027 05:17:33.134   12 Jun 2027 05:19:34.557           121.423                Novosib         14209.250
       356   12 Jun 2027 05:19:36.764   12 Jun 2027 05:20:02.479            25.715                Norilsk          1103.500
       357   12 Jun 2027 05:20:03.442   12 Jun 2027 05:20:07.449             4.007                Novosib           481.500
       358   12 Jun 2027 05:20:10.333   12 Jun 2027 05:21:06.452            56.119                Irkutsk          1442.000
       359   12 Jun 2027 05:21:19.851   12 Jun 2027 05:22:12.637            52.786                Norilsk          6598.250
       360   12 Jun 2027 05:22:15.817   12 Jun 2027 05:22:34.389            18.572                Irkutsk          1691.250
       361   12 Jun 2027 05:22:36.173   12 Jun 2027 05:22:50.856            14.683              Murmansk1           892.000
       362   12 Jun 2027 05:22:55.931   12 Jun 2027 05:23:11.342            15.411                 Moscow          1926.375
       363   12 Jun 2027 05:23:21.673   12 Jun 2027 05:24:04.110            42.437              Murmansk1          4869.625
       364   12 Jun 2027 06:54:31.919   12 Jun 2027 06:54:47.566            15.647                Norilsk          1085.500
       365   12 Jun 2027 06:54:48.961   12 Jun 2027 06:55:14.050            25.089                 Moscow           697.500
       366   12 Jun 2027 06:55:24.842   12 Jun 2027 06:56:09.698            44.856                Norilsk          5396.000
       367   12 Jun 2027 06:56:09.714   12 Jun 2027 06:56:16.694             6.980              Murmansk1             8.000
       368   12 Jun 2027 06:56:20.329   12 Jun 2027 06:56:43.579            23.250                 Moscow          1817.500
       369   12 Jun 2027 06:56:51.656   12 Jun 2027 06:57:53.313            61.657              Murmansk2          4038.500
       370   12 Jun 2027 06:57:55.482   12 Jun 2027 06:58:32.863            37.381                Novosib          1084.500
       371   12 Jun 2027 06:58:42.733   12 Jun 2027 06:59:31.839            49.106                 Moscow          4935.000
       372   12 Jun 2027 08:30:31.815   12 Jun 2027 08:30:38.029             6.214                 Moscow           776.750
       373   12 Jun 2027 08:30:44.025   12 Jun 2027 08:31:06.942            22.917              Murmansk2          2864.625
       374   12 Jun 2027 08:31:06.942   12 Jun 2027 08:32:05.218            58.276              Murmansk1          1512.125
       375   12 Jun 2027 08:32:14.649   12 Jun 2027 08:32:58.451            43.802              Murmansk1          4715.500
       376   12 Jun 2027 08:33:11.741   12 Jun 2027 08:34:07.886            56.145              Murmansk1          6645.000
       377   12 Jun 2027 08:34:14.494   12 Jun 2027 08:35:20.681            66.187                Norilsk          3304.000
       378   13 Jun 2027 03:52:06.503   13 Jun 2027 03:53:03.834            57.331                Novosib          3052.500
       379   13 Jun 2027 03:53:13.106   13 Jun 2027 03:54:16.122            63.016                Norilsk          4636.000
       380   13 Jun 2027 03:54:29.552   13 Jun 2027 03:56:04.907            95.355                Irkutsk          6715.000
       381   13 Jun 2027 03:56:05.058   13 Jun 2027 03:57:39.497            94.439                Irkutsk            75.500
       382   13 Jun 2027 03:57:46.962   13 Jun 2027 03:58:53.898            66.936              Murmansk1          3732.500
       383   13 Jun 2027 03:59:04.925   13 Jun 2027 04:00:09.442            64.517                Novosib          5513.500
       384   13 Jun 2027 05:29:14.976   13 Jun 2027 05:30:22.952            67.976                Irkutsk            48.000
       385   13 Jun 2027 05:30:25.960   13 Jun 2027 05:30:38.985            13.025                Norilsk          1504.000
       386   13 Jun 2027 05:30:41.166   13 Jun 2027 05:30:51.038             9.872                Norilsk          1090.500
       387   13 Jun 2027 05:30:54.483   13 Jun 2027 05:31:17.865            23.382                 Moscow          1722.500
       388   13 Jun 2027 05:31:23.289   13 Jun 2027 05:31:57.860            34.571                Norilsk          2712.000
       389   13 Jun 2027 05:31:59.672   13 Jun 2027 05:32:09.752            10.080                Novosib           906.000
       390   13 Jun 2027 05:32:12.040   13 Jun 2027 05:33:29.230            77.190                Irkutsk          1144.000
       391   13 Jun 2027 05:33:32.542   13 Jun 2027 05:34:01.377            28.835                Novosib          1656.000
       392   13 Jun 2027 05:34:02.526   13 Jun 2027 05:34:21.317            18.791                Norilsk           574.500
       393   13 Jun 2027 05:34:22.902   13 Jun 2027 05:34:57.071            34.169                Norilsk           792.500
       394   13 Jun 2027 05:35:01.248   13 Jun 2027 05:36:09.995            68.747                 Moscow          2088.500
       395   13 Jun 2027 07:06:10.562   13 Jun 2027 07:07:34.030            83.468              Murmansk1          7347.000
       396   13 Jun 2027 07:07:36.476   13 Jun 2027 07:08:00.637            24.161                Norilsk          1223.000
       397   13 Jun 2027 07:08:17.972   13 Jun 2027 07:09:39.950            81.978                 Moscow          8667.500
       398   13 Jun 2027 07:09:46.072   13 Jun 2027 07:10:32.896            46.824                Novosib          3061.000
       399   13 Jun 2027 07:10:35.329   13 Jun 2027 07:11:28.847            53.518                 Moscow          1216.500
       400   13 Jun 2027 08:41:10.810   13 Jun 2027 08:41:29.157            18.347              Murmansk1          1227.500
       401   13 Jun 2027 08:43:00.251   13 Jun 2027 08:43:59.907            59.656              Murmansk2          3220.000
       402   13 Jun 2027 08:44:16.254   13 Jun 2027 08:45:17.498            61.244              Murmansk1          7655.500
       403   13 Jun 2027 08:45:17.498   13 Jun 2027 08:45:23.920             6.422              Murmansk2           518.000
       404   13 Jun 2027 08:45:45.088   13 Jun 2027 08:46:02.502            17.414                 Moscow          2176.750
       405   13 Jun 2027 08:46:17.765   13 Jun 2027 08:47:29.497            71.732                Norilsk          8407.250
