uniorb/output/strategy_2/Drop/Drop_KinoSat_111709.txt

KinoSat_111709
-------------------------
    Access    *     Start Time (UTCG)     *     Stop Time (UTCG)  *   Duration (s)        *       Station  *  Data (Mbytes)
         1   01 Jun 2027 04:11:42.457   01 Jun 2027 04:11:49.777             7.320              Murmansk2           228.750
         2   01 Jun 2027 04:12:01.657   01 Jun 2027 04:12:17.293            15.636              Murmansk2           488.625
         3   01 Jun 2027 04:12:17.293   01 Jun 2027 04:12:40.670            23.377              Murmansk1           730.531
         4   01 Jun 2027 04:12:59.182   01 Jun 2027 04:13:48.281            49.099                 Moscow          1534.344
         5   01 Jun 2027 04:13:53.393   01 Jun 2027 04:15:52.372           118.979              Murmansk2          3718.094
         6   01 Jun 2027 04:16:23.747   01 Jun 2027 04:16:36.407            12.660                Novosib           395.625
         7   01 Jun 2027 04:17:20.342   01 Jun 2027 04:19:35.972           135.630                 Moscow          4238.438
         8   01 Jun 2027 04:19:36.433   01 Jun 2027 04:19:37.017             0.584                 Moscow            18.250
         9   01 Jun 2027 04:34:48.216   01 Jun 2027 04:35:38.764            50.548               CapeTown          1579.625
        10   01 Jun 2027 04:37:23.519   01 Jun 2027 04:38:12.335            48.816               CapeTown          1525.500
        11   01 Jun 2027 05:38:34.203   01 Jun 2027 05:39:31.668            57.465               Magadan2          1795.781
        12   01 Jun 2027 05:46:39.963   01 Jun 2027 05:47:29.728            49.765                Novosib          1555.156
        13   01 Jun 2027 05:49:10.108   01 Jun 2027 05:49:11.975             1.867              Murmansk1            58.344
        14   01 Jun 2027 05:49:28.339   01 Jun 2027 05:49:52.216            23.877              Murmansk1           746.156
        15   01 Jun 2027 05:50:10.677   01 Jun 2027 05:51:08.024            57.347              Murmansk1          1792.094
        16   01 Jun 2027 05:51:29.643   01 Jun 2027 05:52:51.113            81.470              Murmansk2          2545.937
        17   01 Jun 2027 05:52:51.113   01 Jun 2027 05:53:11.016            19.903              Murmansk1           621.969
        18   01 Jun 2027 07:11:35.295   01 Jun 2027 07:16:16.153           280.858               Magadan2          8776.812
        19   01 Jun 2027 08:48:12.554   01 Jun 2027 08:49:21.418            68.864                Anadyr1          2152.000
        20   01 Jun 2027 08:49:57.313   01 Jun 2027 08:50:57.544            60.231                Anadyr2          1882.219
        21   01 Jun 2027 08:50:57.544   01 Jun 2027 08:51:39.188            41.644                Anadyr1          1301.375
        22   01 Jun 2027 08:52:32.787   01 Jun 2027 08:52:39.954             7.167                Anadyr2           223.969
        23   01 Jun 2027 10:24:31.562   01 Jun 2027 10:28:02.711           211.149               Magadan1          6598.406
        24   01 Jun 2027 11:38:37.927   01 Jun 2027 11:39:00.767            22.840                Sumatra           713.750
        25   01 Jun 2027 11:47:57.205   01 Jun 2027 11:48:33.075            35.870                Sumatra          1120.938
        26   01 Jun 2027 11:59:01.305   01 Jun 2027 12:01:11.091           129.786                Irkutsk          4055.813
        27   01 Jun 2027 12:01:54.144   01 Jun 2027 12:02:47.092            52.948                Novosib          1654.625
        28   01 Jun 2027 12:03:05.946   01 Jun 2027 12:04:19.858            73.912                Irkutsk          2309.750
        29   01 Jun 2027 12:04:20.750   01 Jun 2027 12:05:49.457            88.707                Novosib          2772.094
        30   01 Jun 2027 12:07:15.977   01 Jun 2027 12:09:18.998           123.021                Norilsk          3844.406
        31   01 Jun 2027 12:09:22.444   01 Jun 2027 12:11:50.337           147.893              Murmansk2          4621.656
        32   01 Jun 2027 12:47:45.442   01 Jun 2027 12:51:09.483           204.041            RioGallegos          6376.281
        33   01 Jun 2027 13:22:27.026   01 Jun 2027 13:25:13.291           166.265                Sumatra          5195.781
        34   01 Jun 2027 13:32:37.816   01 Jun 2027 13:34:38.679           120.863                  Delhi          3776.969
        35   01 Jun 2027 13:35:55.083   01 Jun 2027 13:39:04.987           189.904                Irkutsk          5934.500
        36   01 Jun 2027 15:06:27.741   01 Jun 2027 15:09:11.513           163.772                  Delhi          5117.875
        37   01 Jun 2027 15:13:18.503   01 Jun 2027 15:16:26.040           187.537                Novosib          5860.531
        38   01 Jun 2027 15:18:54.398   01 Jun 2027 15:21:03.974           129.576                Norilsk          4049.250
        39   01 Jun 2027 16:52:46.385   01 Jun 2027 16:53:21.394            35.009                 Moscow          1094.031
        40   01 Jun 2027 16:53:59.628   01 Jun 2027 16:55:15.543            75.915                 Moscow          2372.344
        41   01 Jun 2027 16:58:22.674   01 Jun 2027 16:58:53.720            31.046              Murmansk2           970.188
        42   01 Jun 2027 18:06:21.057   01 Jun 2027 18:08:45.645           144.588               CapeTown          4518.375
        43   01 Jun 2027 18:26:39.968   01 Jun 2027 18:29:36.416           176.448                 Moscow          5514.000
        44   01 Jun 2027 18:32:30.507   01 Jun 2027 18:34:34.013           123.506              Murmansk1          3859.563
        45   01 Jun 2027 18:47:50.145   01 Jun 2027 18:48:06.948            16.803                Anadyr2           525.094
        46   01 Jun 2027 19:39:30.515   01 Jun 2027 19:42:31.267           180.752               CapeTown          5648.500
        47   01 Jun 2027 20:05:45.426   01 Jun 2027 20:09:43.281           237.855              Murmansk1          7432.969
        48   01 Jun 2027 20:24:02.533   01 Jun 2027 20:24:08.070             5.537                Anadyr1           173.031
        49   01 Jun 2027 20:24:08.912   01 Jun 2027 20:24:34.468            25.556               Magadan2           798.625
        50   01 Jun 2027 20:24:59.703   01 Jun 2027 20:25:25.482            25.779                Anadyr1           805.594
        51   01 Jun 2027 20:25:42.397   01 Jun 2027 20:26:13.556            31.159               Magadan1           973.719
        52   01 Jun 2027 21:48:26.606   01 Jun 2027 21:51:05.169           158.563                Anadyr2          4955.094
        53   01 Jun 2027 21:51:05.169   01 Jun 2027 21:51:07.944             2.775                Anadyr1            86.719
        54   01 Jun 2027 21:51:46.323   01 Jun 2027 21:52:26.018            39.695               Magadan1          1240.469
        55   01 Jun 2027 21:52:44.763   01 Jun 2027 21:53:03.363            18.600               Magadan1           581.250
        56   01 Jun 2027 21:53:42.742   01 Jun 2027 21:54:01.582            18.840               Magadan2           588.750
        57   01 Jun 2027 21:54:18.946   01 Jun 2027 21:54:36.705            17.759                Anadyr2           554.969
        58   01 Jun 2027 21:54:55.645   01 Jun 2027 21:55:08.139            12.494               Magadan2           390.437
        59   01 Jun 2027 21:55:11.343   01 Jun 2027 21:55:54.315            42.972                Anadyr2          1342.875
        60   01 Jun 2027 21:57:05.511   01 Jun 2027 21:57:31.767            26.256               Magadan2           820.500
        61   01 Jun 2027 21:57:59.627   01 Jun 2027 21:58:01.741             2.114                Anadyr2            66.062
        62   01 Jun 2027 21:58:15.420   01 Jun 2027 21:59:02.777            47.357               Magadan1          1479.906
        63   01 Jun 2027 21:59:58.904   01 Jun 2027 22:00:28.847            29.943                Anadyr1           935.719
        64   01 Jun 2027 22:01:15.452   01 Jun 2027 22:01:19.675             4.223               Magadan2           131.969
        65   01 Jun 2027 22:01:37.107   01 Jun 2027 22:02:02.609            25.502               Magadan1           796.938
        66   01 Jun 2027 22:02:28.802   01 Jun 2027 22:02:51.738            22.936               Magadan2           716.750
        67   01 Jun 2027 22:47:24.582   01 Jun 2027 22:47:37.888            13.306            RioGallegos           415.812
        68   01 Jun 2027 22:47:55.045   01 Jun 2027 22:48:01.711             6.666            RioGallegos           208.312
        69   01 Jun 2027 22:48:33.202   01 Jun 2027 22:49:44.317            71.115            RioGallegos          2222.344
        70   01 Jun 2027 22:50:55.864   01 Jun 2027 22:51:27.304            31.440            RioGallegos           982.500
        71   01 Jun 2027 22:52:29.515   01 Jun 2027 22:52:32.879             3.364            RioGallegos           105.125
        72   01 Jun 2027 23:24:07.204   01 Jun 2027 23:27:28.164           200.960                Anadyr1          6280.000
        73   01 Jun 2027 23:28:03.612   01 Jun 2027 23:28:12.746             9.134               Magadan2           285.437
        74   01 Jun 2027 23:28:59.411   01 Jun 2027 23:29:20.956            21.545               Magadan2           673.281
        75   01 Jun 2027 23:30:29.270   01 Jun 2027 23:31:00.463            31.193               Magadan2           974.781
        76   01 Jun 2027 23:31:47.849   01 Jun 2027 23:32:01.372            13.523                Irkutsk           422.594
        77   01 Jun 2027 23:32:27.558   01 Jun 2027 23:32:45.862            18.304                Irkutsk           572.000
        78   01 Jun 2027 23:33:01.583   01 Jun 2027 23:33:36.281            34.698                Norilsk          1084.313
        79   01 Jun 2027 23:35:09.040   01 Jun 2027 23:35:23.467            14.427                Norilsk           450.844
        80   01 Jun 2027 23:36:12.315   01 Jun 2027 23:36:40.170            27.855               Magadan2           870.469
        81   01 Jun 2027 23:37:40.882   01 Jun 2027 23:38:46.655            65.773                Irkutsk          2055.406
        82   01 Jun 2027 23:49:15.313   01 Jun 2027 23:50:51.352            96.039                Sumatra          3001.219
        83   01 Jun 2027 23:56:01.723   01 Jun 2027 23:56:27.508            25.785                Sumatra           805.781
        84   02 Jun 2027 00:26:10.978   02 Jun 2027 00:26:48.051            37.073            RioGallegos          1158.531
        85   02 Jun 2027 00:27:40.970   02 Jun 2027 00:27:44.141             3.171            RioGallegos            99.094
        86   02 Jun 2027 00:27:48.288   02 Jun 2027 00:27:52.535             4.247            RioGallegos           132.719
        87   02 Jun 2027 00:28:31.979   02 Jun 2027 00:29:40.462            68.483            RioGallegos          2140.094
        88   02 Jun 2027 00:59:48.391   02 Jun 2027 01:00:28.388            39.997                Anadyr1          1249.906
        89   02 Jun 2027 01:01:15.583   02 Jun 2027 01:01:23.099             7.516                Anadyr2           234.875
        90   02 Jun 2027 01:01:34.165   02 Jun 2027 01:01:37.633             3.468                Anadyr2           108.375
        91   02 Jun 2027 01:02:12.057   02 Jun 2027 01:03:53.421           101.364                Norilsk          3167.625
        92   02 Jun 2027 01:06:04.319   02 Jun 2027 01:06:28.794            24.475                Irkutsk           764.844
        93   02 Jun 2027 01:06:32.475   02 Jun 2027 01:06:48.113            15.638               Magadan2           488.687
        94   02 Jun 2027 01:08:19.546   02 Jun 2027 01:08:26.491             6.945                Novosib           217.031
        95   02 Jun 2027 01:08:52.365   02 Jun 2027 01:09:21.269            28.904                Norilsk           903.250
        96   02 Jun 2027 01:10:20.650   02 Jun 2027 01:10:28.077             7.427               Magadan1           232.094
        97   02 Jun 2027 01:10:36.338   02 Jun 2027 01:10:59.740            23.402               Magadan2           731.312
        98   02 Jun 2027 01:12:06.684   02 Jun 2027 01:12:16.229             9.545                Novosib           298.281
        99   02 Jun 2027 01:12:35.955   02 Jun 2027 01:13:00.628            24.673                Norilsk           771.031
       100   02 Jun 2027 01:13:30.670   02 Jun 2027 01:13:47.418            16.748                Irkutsk           523.375
       101   02 Jun 2027 01:16:00.023   02 Jun 2027 01:16:19.440            19.417                Irkutsk           606.781
       102   02 Jun 2027 01:17:33.474   02 Jun 2027 01:17:58.467            24.993                Novosib           781.031
       103   02 Jun 2027 01:19:57.053   02 Jun 2027 01:20:54.421            57.368                  Delhi          1792.750
       104   02 Jun 2027 01:24:41.671   02 Jun 2027 01:25:10.618            28.947                  Delhi           904.594
       105   02 Jun 2027 01:26:08.833   02 Jun 2027 01:27:21.138            72.305                Sumatra          2259.531
       106   02 Jun 2027 01:59:02.471   02 Jun 2027 01:59:51.113            48.642            RioGallegos          1520.063
       107   02 Jun 2027 02:02:18.777   02 Jun 2027 02:02:42.454            23.677            RioGallegos           739.906
       108   02 Jun 2027 02:04:24.485   02 Jun 2027 02:04:55.638            31.153            RioGallegos           973.531
       109   02 Jun 2027 02:35:08.445   02 Jun 2027 02:35:18.012             9.567                Anadyr1           298.969
       110   02 Jun 2027 02:35:51.035   02 Jun 2027 02:35:53.977             2.942                Anadyr2            91.938
       111   02 Jun 2027 02:37:09.857   02 Jun 2027 02:37:31.074            21.217                Anadyr2           663.031
       112   02 Jun 2027 02:38:12.490   02 Jun 2027 02:39:00.007            47.517                Norilsk          1484.906
       113   02 Jun 2027 02:40:36.729   02 Jun 2027 02:41:25.957            49.228              Murmansk1          1538.375
       114   02 Jun 2027 02:42:33.238   02 Jun 2027 02:42:38.749             5.511                Irkutsk           172.219
       115   02 Jun 2027 02:43:08.603   02 Jun 2027 02:43:24.863            16.260                Irkutsk           508.125
       116   02 Jun 2027 02:44:22.955   02 Jun 2027 02:45:36.463            73.508                Irkutsk          2297.125
       117   02 Jun 2027 02:49:40.108   02 Jun 2027 02:51:07.276            87.168                Irkutsk          2724.000
       118   02 Jun 2027 02:57:14.674   02 Jun 2027 02:57:52.926            38.252                  Delhi          1195.375
       119   02 Jun 2027 04:23:42.965   02 Jun 2027 04:23:51.791             8.826              Murmansk2           275.813
       120   02 Jun 2027 04:24:07.226   02 Jun 2027 04:25:08.416            61.190              Murmansk2          1912.188
       121   02 Jun 2027 04:25:34.744   02 Jun 2027 04:27:00.338            85.594                Novosib          2674.812
       122   02 Jun 2027 04:27:37.432   02 Jun 2027 04:28:04.649            27.217              Murmansk1           850.531
       123   02 Jun 2027 04:28:23.937   02 Jun 2027 04:30:23.146           119.209                 Moscow          3725.281
       124   02 Jun 2027 06:00:35.293   02 Jun 2027 06:01:07.208            31.915              Murmansk2           997.344
       125   02 Jun 2027 06:01:18.298   02 Jun 2027 06:02:26.964            68.666              Murmansk2          2145.813
       126   02 Jun 2027 06:02:26.964   02 Jun 2027 06:02:48.450            21.486              Murmansk1           671.437
       127   02 Jun 2027 06:03:05.470   02 Jun 2027 06:03:32.467            26.997              Murmansk2           843.656
       128   02 Jun 2027 06:03:32.467   02 Jun 2027 06:03:48.367            15.900              Murmansk1           496.875
       129   02 Jun 2027 07:24:29.104   02 Jun 2027 07:27:40.859           191.755                Anadyr2          5992.344
       130   02 Jun 2027 07:28:15.013   02 Jun 2027 07:28:42.277            27.264               Magadan1           852.000
       131   02 Jun 2027 07:30:07.668   02 Jun 2027 07:30:37.238            29.570                Norilsk           924.063
       132   02 Jun 2027 08:57:15.532   02 Jun 2027 08:58:32.063            76.531                Anadyr1          2391.594
       133   02 Jun 2027 09:00:08.808   02 Jun 2027 09:04:35.487           266.679                Anadyr1          8333.719
       134   02 Jun 2027 10:33:40.365   02 Jun 2027 10:35:25.097           104.732               Magadan2          3272.875
       135   02 Jun 2027 10:35:47.625   02 Jun 2027 10:36:11.609            23.984               Magadan1           749.500
       136   02 Jun 2027 10:36:11.609   02 Jun 2027 10:38:33.573           141.964               Magadan2          4436.375
       137   02 Jun 2027 10:38:52.189   02 Jun 2027 10:39:43.146            50.957                Irkutsk          1592.406
       138   02 Jun 2027 10:39:49.224   02 Jun 2027 10:40:18.601            29.377                Irkutsk           918.031
       139   02 Jun 2027 10:40:23.702   02 Jun 2027 10:41:21.160            57.458              Murmansk2          1795.562
       140   02 Jun 2027 11:15:03.297   02 Jun 2027 11:15:31.513            28.216            RioGallegos           881.750
       141   02 Jun 2027 11:16:07.101   02 Jun 2027 11:16:28.762            21.661            RioGallegos           676.906
       142   02 Jun 2027 11:50:19.733   02 Jun 2027 11:52:03.363           103.630                Sumatra          3238.438
       143   02 Jun 2027 12:04:21.748   02 Jun 2027 12:04:41.047            19.299                Irkutsk           603.094
       144   02 Jun 2027 12:07:40.984   02 Jun 2027 12:07:53.592            12.608                Irkutsk           394.000
       145   02 Jun 2027 12:08:31.375   02 Jun 2027 12:09:58.518            87.143                Novosib          2723.219
       146   02 Jun 2027 12:15:41.619   02 Jun 2027 12:16:05.868            24.249              Murmansk1           757.781
       147   02 Jun 2027 12:17:18.571   02 Jun 2027 12:17:32.210            13.639                Norilsk           426.219
       148   02 Jun 2027 12:19:49.379   02 Jun 2027 12:20:14.732            25.353              Murmansk1           792.281
       149   02 Jun 2027 12:53:09.795   02 Jun 2027 12:53:24.048            14.253            RioGallegos           445.406
       150   02 Jun 2027 12:53:32.677   02 Jun 2027 12:55:25.905           113.228            RioGallegos          3538.375
       151   02 Jun 2027 13:27:25.340   02 Jun 2027 13:27:53.331            27.991                Sumatra           874.719
       152   02 Jun 2027 13:28:49.705   02 Jun 2027 13:30:54.783           125.078                Sumatra          3908.687
       153   02 Jun 2027 13:34:08.677   02 Jun 2027 13:36:31.322           142.645                Sumatra          4457.656
       154   02 Jun 2027 13:50:10.679   02 Jun 2027 13:50:40.794            30.115                Irkutsk           941.094
       155   02 Jun 2027 15:12:54.140   02 Jun 2027 15:17:20.464           266.324                  Delhi          8322.625
       156   02 Jun 2027 15:21:24.543   02 Jun 2027 15:25:06.576           222.033                Novosib          6938.531
       157   02 Jun 2027 16:40:43.034   02 Jun 2027 16:41:14.076            31.042               CapeTown           970.062
       158   02 Jun 2027 16:55:02.597   02 Jun 2027 16:55:34.529            31.932                 Moscow           997.875
       159   02 Jun 2027 16:57:40.850   02 Jun 2027 16:59:34.588           113.738                 Moscow          3554.313
       160   02 Jun 2027 17:05:32.136   02 Jun 2027 17:06:40.721            68.585              Murmansk1          2143.281
       161   02 Jun 2027 17:13:28.780   02 Jun 2027 17:14:26.433            57.653                Anadyr2          1801.656
       162   02 Jun 2027 17:16:08.113   02 Jun 2027 17:16:08.434             0.321                Anadyr1            10.031
       163   02 Jun 2027 17:16:26.682   02 Jun 2027 17:16:51.592            24.910                Anadyr2           778.437
       164   02 Jun 2027 17:19:33.275   02 Jun 2027 17:19:45.758            12.483                Anadyr1           390.094
       165   02 Jun 2027 18:08:01.210   02 Jun 2027 18:08:43.848            42.638               CapeTown          1332.437
       166   02 Jun 2027 18:13:49.356   02 Jun 2027 18:13:56.491             7.135               CapeTown           222.969
       167   02 Jun 2027 18:14:53.159   02 Jun 2027 18:15:07.951            14.792               CapeTown           462.250
       168   02 Jun 2027 18:16:35.014   02 Jun 2027 18:16:47.179            12.165               CapeTown           380.156
       169   02 Jun 2027 18:19:58.194   02 Jun 2027 18:20:13.046            14.852               CapeTown           464.125
       170   02 Jun 2027 18:35:54.211   02 Jun 2027 18:39:56.383           242.172                 Moscow          7567.875
       171   02 Jun 2027 18:41:20.661   02 Jun 2027 18:42:27.774            67.113              Murmansk1          2097.281
       172   02 Jun 2027 18:53:37.642   02 Jun 2027 18:54:06.150            28.508               Magadan1           890.875
       173   02 Jun 2027 19:45:19.374   02 Jun 2027 19:46:04.493            45.119               CapeTown          1409.969
       174   02 Jun 2027 19:48:41.057   02 Jun 2027 19:49:02.965            21.908               CapeTown           684.625
       175   02 Jun 2027 20:19:13.746   02 Jun 2027 20:21:00.368           106.622              Murmansk1          3331.938
       176   02 Jun 2027 20:25:34.793   02 Jun 2027 20:27:50.782           135.989                Anadyr2          4249.656
       177   02 Jun 2027 20:28:07.971   02 Jun 2027 20:28:44.530            36.559               Magadan1          1142.469
       178   02 Jun 2027 20:28:44.530   02 Jun 2027 20:28:54.720            10.190               Magadan2           318.437
       179   02 Jun 2027 20:29:32.369   02 Jun 2027 20:30:47.548            75.179               Magadan2          2349.344
       180   02 Jun 2027 20:33:15.037   02 Jun 2027 20:33:49.450            34.413               Magadan1          1075.406
       181   02 Jun 2027 20:37:05.184   02 Jun 2027 20:37:21.333            16.149               Magadan2           504.656
       182   02 Jun 2027 22:00:27.653   02 Jun 2027 22:02:25.043           117.390                Anadyr1          3668.438
       183   02 Jun 2027 22:02:29.975   02 Jun 2027 22:04:10.851           100.876                Anadyr2          3152.375
       184   02 Jun 2027 22:04:46.289   02 Jun 2027 22:06:12.332            86.043               Magadan1          2688.844
       185   02 Jun 2027 22:06:12.332   02 Jun 2027 22:08:47.716           155.384               Magadan2          4855.750
       186   02 Jun 2027 22:13:06.889   02 Jun 2027 22:13:38.418            31.529               Magadan1           985.281
       187   02 Jun 2027 22:54:52.887   02 Jun 2027 22:56:38.793           105.906            RioGallegos          3309.563
       188   02 Jun 2027 22:57:51.583   02 Jun 2027 22:58:16.695            25.112            RioGallegos           784.750
       189   02 Jun 2027 23:03:31.030   02 Jun 2027 23:04:19.427            48.397            RioGallegos          1512.406
       190   02 Jun 2027 23:36:04.399   02 Jun 2027 23:36:59.504            55.105                Anadyr2          1722.031
       191   02 Jun 2027 23:37:12.643   02 Jun 2027 23:37:55.068            42.425                Anadyr2          1325.781
       192   02 Jun 2027 23:38:16.475   02 Jun 2027 23:39:57.269           100.794                Norilsk          3149.812
       193   02 Jun 2027 23:39:57.965   02 Jun 2027 23:40:24.669            26.704               Magadan2           834.500
       194   02 Jun 2027 23:41:39.284   02 Jun 2027 23:42:16.808            37.524               Magadan1          1172.625
       195   02 Jun 2027 23:42:27.676   02 Jun 2027 23:43:49.169            81.493                Irkutsk          2546.656
       196   02 Jun 2027 23:44:21.005   02 Jun 2027 23:44:50.243            29.238                Novosib           913.687
       197   02 Jun 2027 23:56:13.206   02 Jun 2027 23:58:42.430           149.224                Sumatra          4663.250
       198   03 Jun 2027 00:35:08.211   03 Jun 2027 00:35:54.952            46.741            RioGallegos          1460.656
       199   03 Jun 2027 01:10:48.214   03 Jun 2027 01:11:49.129            60.915                Anadyr1          1903.594
       200   03 Jun 2027 01:11:49.129   03 Jun 2027 01:12:29.730            40.601                Anadyr2          1268.781
       201   03 Jun 2027 01:13:02.669   03 Jun 2027 01:13:37.129            34.460                Anadyr2          1076.875
       202   03 Jun 2027 01:14:14.403   03 Jun 2027 01:15:52.079            97.676                Norilsk          3052.375
       203   03 Jun 2027 01:16:10.342   03 Jun 2027 01:16:30.042            19.700               Magadan1           615.625
       204   03 Jun 2027 01:18:07.256   03 Jun 2027 01:20:03.295           116.039                Irkutsk          3626.219
       205   03 Jun 2027 01:21:14.711   03 Jun 2027 01:22:45.202            90.491                Irkutsk          2827.844
       206   03 Jun 2027 01:33:50.194   03 Jun 2027 01:36:51.194           181.000                Sumatra          5656.250
       207   03 Jun 2027 02:45:27.482   03 Jun 2027 02:46:14.858            47.376                Anadyr1          1480.500
       208   03 Jun 2027 02:50:14.249   03 Jun 2027 02:51:07.314            53.065                Norilsk          1658.281
       209   03 Jun 2027 02:51:11.677   03 Jun 2027 02:51:15.922             4.245                Norilsk           132.656
       210   03 Jun 2027 02:52:01.669   03 Jun 2027 02:52:08.927             7.258                Norilsk           226.812
       211   03 Jun 2027 02:52:34.161   03 Jun 2027 02:53:31.992            57.831              Murmansk2          1807.219
       212   03 Jun 2027 02:53:31.992   03 Jun 2027 02:54:09.282            37.290              Murmansk1          1165.313
       213   03 Jun 2027 02:54:13.272   03 Jun 2027 02:54:56.132            42.860                Novosib          1339.375
       214   03 Jun 2027 02:55:01.740   03 Jun 2027 02:55:44.429            42.689                Irkutsk          1334.031
       215   03 Jun 2027 02:58:45.276   03 Jun 2027 02:58:58.654            13.378                Irkutsk           418.063
       216   03 Jun 2027 03:00:19.113   03 Jun 2027 03:01:02.149            43.036                Irkutsk          1344.875
       217   03 Jun 2027 03:01:41.028   03 Jun 2027 03:03:16.898            95.870                  Delhi          2995.937
       218   03 Jun 2027 03:03:39.924   03 Jun 2027 03:03:41.787             1.863                Irkutsk            58.219
       219   03 Jun 2027 04:37:11.133   03 Jun 2027 04:40:28.005           196.872              Murmansk1          6152.250
       220   03 Jun 2027 04:40:59.222   03 Jun 2027 04:42:09.514            70.292                 Moscow          2196.625
       221   03 Jun 2027 04:43:32.931   03 Jun 2027 04:44:10.434            37.503                 Moscow          1171.969
       222   03 Jun 2027 04:56:02.221   03 Jun 2027 04:59:19.106           196.885               CapeTown          6152.656
       223   03 Jun 2027 05:59:49.650   03 Jun 2027 06:01:50.375           120.725                Anadyr1          3772.656
       224   03 Jun 2027 06:10:53.209   03 Jun 2027 06:11:10.111            16.902                Norilsk           528.188
       225   03 Jun 2027 06:11:12.394   03 Jun 2027 06:11:27.046            14.652                 Moscow           457.875
       226   03 Jun 2027 06:11:33.346   03 Jun 2027 06:12:46.537            73.191                 Moscow          2287.219
       227   03 Jun 2027 06:13:20.477   03 Jun 2027 06:13:35.373            14.896                 Moscow           465.500
       228   03 Jun 2027 06:14:58.323   03 Jun 2027 06:15:02.408             4.085              Murmansk2           127.656
       229   03 Jun 2027 06:32:16.956   03 Jun 2027 06:33:21.341            64.385               CapeTown          2012.031
       230   03 Jun 2027 06:36:34.800   03 Jun 2027 06:37:31.215            56.415               CapeTown          1762.969
       231   03 Jun 2027 07:33:26.011   03 Jun 2027 07:34:13.655            47.644                Anadyr1          1488.875
       232   03 Jun 2027 07:34:19.266   03 Jun 2027 07:34:56.542            37.276               Magadan1          1164.875
       233   03 Jun 2027 07:34:56.542   03 Jun 2027 07:35:22.245            25.703               Magadan2           803.219
       234   03 Jun 2027 07:35:45.117   03 Jun 2027 07:36:22.866            37.749                Anadyr1          1179.656
       235   03 Jun 2027 07:36:32.530   03 Jun 2027 07:36:53.964            21.434               Magadan1           669.813
       236   03 Jun 2027 07:37:17.033   03 Jun 2027 07:37:40.731            23.698                Anadyr2           740.562
       237   03 Jun 2027 07:37:40.731   03 Jun 2027 07:38:29.325            48.594                Anadyr1          1518.563
       238   03 Jun 2027 07:49:15.175   03 Jun 2027 07:49:38.414            23.239                 Moscow           726.219
       239   03 Jun 2027 08:25:52.696   03 Jun 2027 08:26:02.377             9.681            RioGallegos           302.531
       240   03 Jun 2027 09:04:05.025   03 Jun 2027 09:04:48.232            43.207               Magadan2          1350.219
       241   03 Jun 2027 09:08:54.009   03 Jun 2027 09:09:03.270             9.261               Magadan1           289.406
       242   03 Jun 2027 09:09:15.039   03 Jun 2027 09:10:21.242            66.203                Anadyr1          2068.844
       243   03 Jun 2027 09:10:25.146   03 Jun 2027 09:10:54.991            29.845                Irkutsk           932.656
       244   03 Jun 2027 09:11:09.485   03 Jun 2027 09:12:15.761            66.276                Irkutsk          2071.125
       245   03 Jun 2027 09:12:39.910   03 Jun 2027 09:12:46.312             6.402                Anadyr2           200.062
       246   03 Jun 2027 09:12:46.312   03 Jun 2027 09:14:53.865           127.553                Anadyr1          3986.031
       247   03 Jun 2027 10:44:46.025   03 Jun 2027 10:45:41.571            55.546               Magadan2          1735.812
       248   03 Jun 2027 10:46:38.320   03 Jun 2027 10:46:41.383             3.063                Novosib            95.719
       249   03 Jun 2027 10:47:54.778   03 Jun 2027 10:48:18.757            23.979                Norilsk           749.344
       250   03 Jun 2027 10:48:21.614   03 Jun 2027 10:49:33.669            72.055               Magadan2          2251.719
       251   03 Jun 2027 10:49:41.046   03 Jun 2027 10:49:57.541            16.495                Norilsk           515.469
       252   03 Jun 2027 10:49:58.816   03 Jun 2027 10:50:52.281            53.465                Norilsk          1670.781
       253   03 Jun 2027 10:50:54.557   03 Jun 2027 10:50:57.800             3.243              Murmansk1           101.344
       254   03 Jun 2027 10:51:00.057   03 Jun 2027 10:51:43.397            43.340                Irkutsk          1354.375
       255   03 Jun 2027 10:52:06.288   03 Jun 2027 10:52:18.346            12.058              Murmansk2           376.813
       256   03 Jun 2027 10:52:27.476   03 Jun 2027 10:52:58.403            30.927                Norilsk           966.469
       257   03 Jun 2027 10:55:27.127   03 Jun 2027 10:55:34.952             7.825              Murmansk2           244.531
       258   03 Jun 2027 11:00:24.914   03 Jun 2027 11:00:32.588             7.674              Murmansk1           239.812
       259   03 Jun 2027 11:27:07.258   03 Jun 2027 11:27:57.266            50.008            RioGallegos          1562.750
       260   03 Jun 2027 11:32:52.667   03 Jun 2027 11:34:02.015            69.348            RioGallegos          2167.125
       261   03 Jun 2027 12:05:42.504   03 Jun 2027 12:05:45.174             2.670                Sumatra            83.437
       262   03 Jun 2027 12:13:22.287   03 Jun 2027 12:14:43.242            80.955                Sumatra          2529.844
       263   03 Jun 2027 12:15:50.079   03 Jun 2027 12:16:14.287            24.208                Irkutsk           756.500
       264   03 Jun 2027 12:16:45.861   03 Jun 2027 12:17:28.469            42.608                Irkutsk          1331.500
       265   03 Jun 2027 12:17:57.031   03 Jun 2027 12:18:01.383             4.352                Novosib           136.000
       266   03 Jun 2027 12:20:27.634   03 Jun 2027 12:21:34.938            67.304                Norilsk          2103.250
       267   03 Jun 2027 12:27:18.391   03 Jun 2027 12:27:34.307            15.916                Norilsk           497.375
       268   03 Jun 2027 12:28:59.349   03 Jun 2027 12:29:28.810            29.461              Murmansk2           920.656
       269   03 Jun 2027 13:07:58.255   03 Jun 2027 13:10:37.664           159.409            RioGallegos          4981.531
       270   03 Jun 2027 13:40:21.020   03 Jun 2027 13:42:46.102           145.082                Sumatra          4533.812
       271   03 Jun 2027 13:56:09.819   03 Jun 2027 13:56:47.722            37.903                Novosib          1184.469
       272   03 Jun 2027 13:57:39.196   03 Jun 2027 13:57:48.631             9.435                Norilsk           294.844
       273   03 Jun 2027 13:59:09.295   03 Jun 2027 13:59:48.123            38.828                Norilsk          1213.375
       274   03 Jun 2027 14:01:25.666   03 Jun 2027 14:01:41.708            16.042                Norilsk           501.313
       275   03 Jun 2027 14:03:03.978   03 Jun 2027 14:03:08.559             4.581                Novosib           143.156
       276   03 Jun 2027 14:04:47.169   03 Jun 2027 14:05:05.284            18.115                Norilsk           566.094
       277   03 Jun 2027 15:26:23.591   03 Jun 2027 15:30:07.270           223.679                  Delhi          6989.969
       278   03 Jun 2027 15:34:01.695   03 Jun 2027 15:34:40.958            39.263              Murmansk2          1226.969
       279   03 Jun 2027 15:34:42.948   03 Jun 2027 15:36:50.321           127.373                Novosib          3980.406
       280   03 Jun 2027 15:36:58.617   03 Jun 2027 15:37:45.038            46.421                Norilsk          1450.656
       281   03 Jun 2027 15:40:12.293   03 Jun 2027 15:40:31.894            19.601                Norilsk           612.531
       282   03 Jun 2027 15:40:56.761   03 Jun 2027 15:41:30.604            33.843                Norilsk          1057.594
       283   03 Jun 2027 16:46:41.018   03 Jun 2027 16:48:05.772            84.754               CapeTown          2648.562
       284   03 Jun 2027 17:07:50.520   03 Jun 2027 17:08:30.791            40.271                 Moscow          1258.469
       285   03 Jun 2027 17:10:42.573   03 Jun 2027 17:11:16.828            34.255              Murmansk2          1070.469
       286   03 Jun 2027 17:12:45.121   03 Jun 2027 17:14:29.739           104.618              Murmansk1          3269.313
       287   03 Jun 2027 17:25:18.510   03 Jun 2027 17:25:26.043             7.533                Anadyr1           235.406
       288   03 Jun 2027 17:25:48.968   03 Jun 2027 17:26:27.831            38.863                Anadyr2          1214.469
       289   03 Jun 2027 17:27:53.834   03 Jun 2027 17:28:09.648            15.814                Anadyr2           494.188
       290   03 Jun 2027 18:20:01.736   03 Jun 2027 18:22:21.537           139.801               CapeTown          4368.781
       291   03 Jun 2027 18:49:29.620   03 Jun 2027 18:49:54.717            25.097              Murmansk2           784.281
       292   03 Jun 2027 18:49:57.549   03 Jun 2027 18:53:56.357           238.808              Murmansk1          7462.750
       293   03 Jun 2027 19:01:29.681   03 Jun 2027 19:01:44.306            14.625                Anadyr2           457.031
       294   03 Jun 2027 19:04:45.604   03 Jun 2027 19:05:02.390            16.786               Magadan2           524.563
       295   03 Jun 2027 19:05:36.964   03 Jun 2027 19:05:58.257            21.293               Magadan2           665.406
       296   03 Jun 2027 19:06:11.013   03 Jun 2027 19:06:45.378            34.365               Magadan2          1073.906
       297   03 Jun 2027 19:57:58.317   03 Jun 2027 19:58:16.543            18.226               CapeTown           569.563
       298   03 Jun 2027 20:00:23.999   03 Jun 2027 20:01:41.222            77.223               CapeTown          2413.219
       299   03 Jun 2027 20:36:34.267   03 Jun 2027 20:38:12.977            98.710                Anadyr2          3084.688
       300   03 Jun 2027 20:38:17.551   03 Jun 2027 20:39:49.221            91.670                Anadyr1          2864.687
       301   03 Jun 2027 20:39:54.036   03 Jun 2027 20:41:56.446           122.410               Magadan1          3825.312
       302   03 Jun 2027 20:43:42.147   03 Jun 2027 20:43:48.788             6.641               Magadan2           207.531
       303   03 Jun 2027 22:12:28.435   03 Jun 2027 22:16:10.725           222.290                Anadyr2          6946.563
       304   03 Jun 2027 22:16:11.633   03 Jun 2027 22:19:10.817           179.184                Norilsk          5599.500
       305   03 Jun 2027 22:20:39.432   03 Jun 2027 22:21:02.712            23.280               Magadan2           727.500
       306   03 Jun 2027 22:21:14.519   03 Jun 2027 22:21:54.841            40.322                Irkutsk          1260.062
       307   03 Jun 2027 22:22:50.212   03 Jun 2027 22:23:22.515            32.303                Irkutsk          1009.469
       308   03 Jun 2027 22:23:42.190   03 Jun 2027 22:23:49.497             7.307                Irkutsk           228.344
       309   03 Jun 2027 23:06:43.406   03 Jun 2027 23:08:50.748           127.342            RioGallegos          3979.438
       310   03 Jun 2027 23:12:46.447   03 Jun 2027 23:12:50.031             3.584            RioGallegos           112.000
       311   03 Jun 2027 23:15:35.608   03 Jun 2027 23:16:11.982            36.374            RioGallegos          1136.687
       312   03 Jun 2027 23:48:00.758   03 Jun 2027 23:48:42.400            41.642                Anadyr1          1301.313
       313   03 Jun 2027 23:49:53.087   03 Jun 2027 23:50:32.373            39.286                Anadyr1          1227.688
       314   03 Jun 2027 23:50:42.820   03 Jun 2027 23:51:59.414            76.594                Norilsk          2393.563
       315   03 Jun 2027 23:52:16.708   03 Jun 2027 23:52:23.439             6.731               Magadan2           210.344
       316   03 Jun 2027 23:53:10.991   03 Jun 2027 23:53:59.948            48.957               Magadan2          1529.906
       317   03 Jun 2027 23:54:37.973   03 Jun 2027 23:54:51.919            13.946                Norilsk           435.813
       318   03 Jun 2027 23:55:16.593   03 Jun 2027 23:56:21.842            65.249                Irkutsk          2039.031
       319   03 Jun 2027 23:56:59.425   03 Jun 2027 23:58:40.919           101.494                Novosib          3171.687
       320   04 Jun 2027 00:02:33.634   04 Jun 2027 00:02:44.214            10.580                Novosib           330.625
       321   04 Jun 2027 00:08:04.781   04 Jun 2027 00:10:19.049           134.268                Sumatra          4195.875
       322   04 Jun 2027 00:45:27.233   04 Jun 2027 00:45:38.799            11.566            RioGallegos           361.437
       323   04 Jun 2027 00:47:12.390   04 Jun 2027 00:47:37.553            25.163            RioGallegos           786.344
       324   04 Jun 2027 00:51:43.090   04 Jun 2027 00:51:49.244             6.154            RioGallegos           192.313
       325   04 Jun 2027 00:53:45.662   04 Jun 2027 00:53:56.929            11.267            RioGallegos           352.094
       326   04 Jun 2027 01:22:35.166   04 Jun 2027 01:23:19.573            44.407                Anadyr2          1387.719
       327   04 Jun 2027 01:23:19.573   04 Jun 2027 01:23:49.602            30.029                Anadyr1           938.406
       328   04 Jun 2027 01:24:31.071   04 Jun 2027 01:25:10.690            39.619                Anadyr1          1238.094
       329   04 Jun 2027 01:26:16.771   04 Jun 2027 01:27:59.357           102.586                Norilsk          3205.812
       330   04 Jun 2027 01:28:03.001   04 Jun 2027 01:28:32.623            29.622               Magadan1           925.688
       331   04 Jun 2027 01:30:10.975   04 Jun 2027 01:32:03.689           112.714                Irkutsk          3522.312
       332   04 Jun 2027 01:32:26.287   04 Jun 2027 01:32:57.395            31.108                Novosib           972.125
       333   04 Jun 2027 01:33:58.397   04 Jun 2027 01:35:13.771            75.374                Irkutsk          2355.437
       334   04 Jun 2027 01:46:51.998   04 Jun 2027 01:47:13.819            21.821                  Delhi           681.906
       335   04 Jun 2027 01:48:39.419   04 Jun 2027 01:51:11.023           151.604                Sumatra          4737.625
       336   04 Jun 2027 02:22:38.951   04 Jun 2027 02:23:01.506            22.555            RioGallegos           704.844
       337   04 Jun 2027 02:25:38.898   04 Jun 2027 02:25:49.126            10.228            RioGallegos           319.625
       338   04 Jun 2027 02:58:38.916   04 Jun 2027 02:58:59.263            20.347                Anadyr1           635.844
       339   04 Jun 2027 02:59:20.383   04 Jun 2027 02:59:44.695            24.312                Anadyr1           759.750
       340   04 Jun 2027 03:08:56.979   04 Jun 2027 03:09:07.352            10.373                Norilsk           324.156
       341   04 Jun 2027 03:09:31.429   04 Jun 2027 03:11:58.068           146.639                 Moscow          4582.469
       342   04 Jun 2027 03:12:06.539   04 Jun 2027 03:13:07.507            60.968                Novosib          1905.250
       343   04 Jun 2027 03:13:26.521   04 Jun 2027 03:13:35.472             8.951              Murmansk1           279.719
       344   04 Jun 2027 03:13:44.310   04 Jun 2027 03:13:57.750            13.440                Norilsk           420.000
       345   04 Jun 2027 03:14:09.736   04 Jun 2027 03:14:53.670            43.934                Novosib          1372.937
       346   04 Jun 2027 03:15:42.961   04 Jun 2027 03:16:15.646            32.685                Novosib          1021.406
       347   04 Jun 2027 04:48:08.878   04 Jun 2027 04:48:19.985            11.107              Murmansk2           347.094
       348   04 Jun 2027 04:48:25.137   04 Jun 2027 04:48:27.889             2.752                 Moscow            86.000
       349   04 Jun 2027 04:48:36.666   04 Jun 2027 04:49:56.419            79.753              Murmansk2          2492.281
       350   04 Jun 2027 04:49:56.419   04 Jun 2027 04:50:33.203            36.784              Murmansk1          1149.500
       351   04 Jun 2027 04:50:40.781   04 Jun 2027 04:51:42.625            61.844                 Moscow          1932.625
       352   04 Jun 2027 04:51:44.876   04 Jun 2027 04:53:04.195            79.319                 Moscow          2478.719
       353   04 Jun 2027 04:55:56.260   04 Jun 2027 04:56:21.826            25.566                 Moscow           798.937
       354   04 Jun 2027 05:08:25.888   04 Jun 2027 05:09:45.005            79.117               CapeTown          2472.406
       355   04 Jun 2027 06:05:26.835   04 Jun 2027 06:05:30.370             3.535                Anadyr2           110.469
       356   04 Jun 2027 06:10:48.167   04 Jun 2027 06:11:16.041            27.874                Anadyr2           871.063
       357   04 Jun 2027 06:11:21.393   04 Jun 2027 06:12:35.342            73.949                Anadyr1          2310.906
       358   04 Jun 2027 06:22:51.473   04 Jun 2027 06:23:25.156            33.683              Murmansk1          1052.594
       359   04 Jun 2027 06:23:40.086   04 Jun 2027 06:23:49.924             9.838                Norilsk           307.437
       360   04 Jun 2027 06:23:51.370   04 Jun 2027 06:23:55.047             3.677              Murmansk1           114.906
       361   04 Jun 2027 06:24:19.051   04 Jun 2027 06:24:46.942            27.891              Murmansk1           871.594
       362   04 Jun 2027 06:25:20.927   04 Jun 2027 06:25:29.567             8.640              Murmansk1           270.000
       363   04 Jun 2027 06:25:44.634   04 Jun 2027 06:26:23.919            39.285                 Moscow          1227.656
       364   04 Jun 2027 06:44:48.917   04 Jun 2027 06:45:26.885            37.968               CapeTown          1186.500
       365   04 Jun 2027 06:48:25.684   04 Jun 2027 06:49:51.798            86.114               CapeTown          2691.062
       366   04 Jun 2027 07:45:06.982   04 Jun 2027 07:45:26.699            19.717                Anadyr2           616.156
       367   04 Jun 2027 07:45:26.699   04 Jun 2027 07:46:25.150            58.451                Anadyr1          1826.594
       368   04 Jun 2027 07:46:58.624   04 Jun 2027 07:47:06.629             8.005               Magadan2           250.156
       369   04 Jun 2027 07:47:11.218   04 Jun 2027 07:47:47.600            36.382                Anadyr2          1136.938
       370   04 Jun 2027 07:47:54.164   04 Jun 2027 07:48:13.372            19.208                Norilsk           600.250
       371   04 Jun 2027 07:48:31.732   04 Jun 2027 07:49:04.598            32.866               Magadan1          1027.062
       372   04 Jun 2027 07:49:18.270   04 Jun 2027 07:50:28.560            70.290                Anadyr1          2196.562
       373   04 Jun 2027 07:56:12.332   04 Jun 2027 07:56:35.377            23.045                 Moscow           720.156
       374   04 Jun 2027 08:32:41.531   04 Jun 2027 08:33:08.587            27.056            RioGallegos           845.500
       375   04 Jun 2027 09:20:10.044   04 Jun 2027 09:20:27.013            16.969               Magadan2           530.281
       376   04 Jun 2027 09:20:30.694   04 Jun 2027 09:21:13.853            43.159                Anadyr1          1348.719
       377   04 Jun 2027 09:21:40.474   04 Jun 2027 09:22:10.962            30.488                Irkutsk           952.750
       378   04 Jun 2027 09:22:23.443   04 Jun 2027 09:22:43.246            19.803               Magadan2           618.844
       379   04 Jun 2027 09:23:14.037   04 Jun 2027 09:24:53.569            99.532                Anadyr2          3110.375
       380   04 Jun 2027 09:24:54.859   04 Jun 2027 09:25:25.969            31.110               Magadan2           972.188
       381   04 Jun 2027 09:25:34.134   04 Jun 2027 09:26:20.899            46.765                Novosib          1461.406
       382   04 Jun 2027 09:26:44.899   04 Jun 2027 09:27:23.246            38.347               Magadan1          1198.344
       383   04 Jun 2027 09:27:53.463   04 Jun 2027 09:28:38.711            45.248              Murmansk2          1414.000
       384   04 Jun 2027 10:04:04.683   04 Jun 2027 10:04:50.358            45.675            RioGallegos          1427.344
       385   04 Jun 2027 10:06:11.817   04 Jun 2027 10:07:15.530            63.713            RioGallegos          1991.031
       386   04 Jun 2027 10:57:21.083   04 Jun 2027 10:57:42.648            21.565                Norilsk           673.906
       387   04 Jun 2027 10:57:44.354   04 Jun 2027 10:58:07.645            23.291                Irkutsk           727.844
       388   04 Jun 2027 10:58:08.846   04 Jun 2027 10:58:11.047             2.201                Norilsk            68.781
       389   04 Jun 2027 10:58:17.439   04 Jun 2027 10:58:21.022             3.583                Novosib           111.969
       390   04 Jun 2027 10:58:40.679   04 Jun 2027 10:59:09.453            28.774                Irkutsk           899.188
       391   04 Jun 2027 10:59:31.061   04 Jun 2027 10:59:53.899            22.838                Norilsk           713.687
       392   04 Jun 2027 11:00:07.248   04 Jun 2027 11:00:32.144            24.896                Irkutsk           778.000
       393   04 Jun 2027 11:00:35.532   04 Jun 2027 11:03:24.706           169.174               Magadan1          5286.688
       394   04 Jun 2027 11:03:35.472   04 Jun 2027 11:04:11.912            36.440                Irkutsk          1138.750
       395   04 Jun 2027 11:04:14.197   04 Jun 2027 11:05:01.332            47.135              Murmansk1          1472.969
       396   04 Jun 2027 11:05:40.018   04 Jun 2027 11:05:40.875             0.857                Novosib            26.781
       397   04 Jun 2027 11:39:14.741   04 Jun 2027 11:39:57.251            42.510            RioGallegos          1328.438
       398   04 Jun 2027 11:45:58.870   04 Jun 2027 11:47:05.175            66.305            RioGallegos          2072.031
       399   04 Jun 2027 12:14:02.767   04 Jun 2027 12:14:33.356            30.589                Sumatra           955.906
       400   04 Jun 2027 12:28:05.285   04 Jun 2027 12:29:29.323            84.038                Irkutsk          2626.188
       401   04 Jun 2027 12:30:03.864   04 Jun 2027 12:30:30.238            26.374                Novosib           824.188
       402   04 Jun 2027 12:30:41.939   04 Jun 2027 12:31:05.669            23.730                Irkutsk           741.562
       403   04 Jun 2027 12:32:32.968   04 Jun 2027 12:34:23.478           110.510                Norilsk          3453.438
       404   04 Jun 2027 12:45:52.626   04 Jun 2027 12:45:52.931             0.305              Murmansk2             9.531
       405   04 Jun 2027 12:47:24.187   04 Jun 2027 12:47:36.032            11.845              Murmansk1           370.156
       406   04 Jun 2027 13:18:46.594   04 Jun 2027 13:19:55.208            68.614            RioGallegos          2144.188
       407   04 Jun 2027 13:23:11.189   04 Jun 2027 13:23:15.880             4.691            RioGallegos           146.594
       408   04 Jun 2027 13:25:47.114   04 Jun 2027 13:26:10.815            23.701            RioGallegos           740.656
       409   04 Jun 2027 13:54:01.397   04 Jun 2027 13:57:34.940           213.543                Sumatra          6673.219
       410   04 Jun 2027 14:08:06.905   04 Jun 2027 14:10:15.273           128.368                Novosib          4011.500
       411   04 Jun 2027 14:11:07.615   04 Jun 2027 14:12:19.354            71.739                Irkutsk          2241.844
       412   04 Jun 2027 15:42:39.468   04 Jun 2027 15:43:39.292            59.824                 Moscow          1869.500
       413   04 Jun 2027 15:44:27.581   04 Jun 2027 15:45:14.262            46.681                 Moscow          1458.781
       414   04 Jun 2027 15:45:55.378   04 Jun 2027 15:46:24.329            28.951                 Moscow           904.719
       415   04 Jun 2027 15:47:08.392   04 Jun 2027 15:47:21.034            12.642              Murmansk1           395.062
       416   04 Jun 2027 15:47:27.886   04 Jun 2027 15:48:08.890            41.004              Murmansk1          1281.375
       417   04 Jun 2027 15:49:37.961   04 Jun 2027 15:50:48.234            70.273                Norilsk          2196.031
       418   04 Jun 2027 15:52:12.250   04 Jun 2027 15:53:22.237            69.987                Norilsk          2187.094
       419   04 Jun 2027 15:54:14.296   04 Jun 2027 15:55:08.875            54.579                Norilsk          1705.594
       420   04 Jun 2027 16:57:30.306   04 Jun 2027 16:58:27.435            57.129               CapeTown          1785.281
       421   04 Jun 2027 17:00:24.451   04 Jun 2027 17:00:24.697             0.246               CapeTown             7.688
       422   04 Jun 2027 17:03:16.064   04 Jun 2027 17:03:44.770            28.706               CapeTown           897.063
       423   04 Jun 2027 17:19:43.643   04 Jun 2027 17:19:49.362             5.719                 Moscow           178.719
       424   04 Jun 2027 17:20:38.679   04 Jun 2027 17:21:31.108            52.429                 Moscow          1638.406
       425   04 Jun 2027 17:22:58.040   04 Jun 2027 17:24:40.913           102.873              Murmansk1          3214.781
       426   04 Jun 2027 17:31:10.939   04 Jun 2027 17:31:57.151            46.212              Murmansk2          1444.125
       427   04 Jun 2027 17:37:11.229   04 Jun 2027 17:37:50.516            39.287                Anadyr1          1227.719
       428   04 Jun 2027 17:38:13.930   04 Jun 2027 17:39:03.916            49.986                Anadyr2          1562.062
       429   04 Jun 2027 17:43:58.415   04 Jun 2027 17:44:20.927            22.512                Anadyr2           703.500
       430   04 Jun 2027 18:32:05.046   04 Jun 2027 18:34:12.352           127.306               CapeTown          3978.312
       431   04 Jun 2027 19:02:04.486   04 Jun 2027 19:06:26.670           262.184              Murmansk2          8193.250
       432   04 Jun 2027 19:16:47.973   04 Jun 2027 19:17:06.709            18.736               Magadan1           585.500
       433   04 Jun 2027 19:17:22.636   04 Jun 2027 19:17:35.508            12.872               Magadan1           402.250
       434   04 Jun 2027 19:18:44.936   04 Jun 2027 19:19:15.417            30.481               Magadan2           952.531
       435   04 Jun 2027 20:12:01.082   04 Jun 2027 20:13:34.737            93.655               CapeTown          2926.719
       436   04 Jun 2027 20:14:20.623   04 Jun 2027 20:15:18.005            57.382               CapeTown          1793.187
       437   04 Jun 2027 20:48:36.073   04 Jun 2027 20:50:13.802            97.729                Anadyr1          3054.031
       438   04 Jun 2027 20:50:51.620   04 Jun 2027 20:51:47.040            55.420                Anadyr2          1731.875
       439   04 Jun 2027 20:52:01.799   04 Jun 2027 20:52:47.916            46.117               Magadan2          1441.156
       440   04 Jun 2027 20:53:15.039   04 Jun 2027 20:53:47.076            32.037               Magadan2          1001.156
       441   04 Jun 2027 20:53:48.461   04 Jun 2027 20:53:55.735             7.274                Anadyr2           227.312
       442   04 Jun 2027 20:55:11.381   04 Jun 2027 20:55:48.812            37.431               Magadan2          1169.719
       443   04 Jun 2027 21:02:50.942   04 Jun 2027 21:03:03.501            12.559               Magadan2           392.469
       444   04 Jun 2027 22:24:28.888   04 Jun 2027 22:28:10.146           221.258                Anadyr2          6914.313
       445   04 Jun 2027 22:28:13.542   04 Jun 2027 22:30:16.147           122.605                Norilsk          3831.406
       446   04 Jun 2027 22:30:26.279   04 Jun 2027 22:31:59.088            92.809               Magadan1          2900.281
       447   04 Jun 2027 22:33:07.427   04 Jun 2027 22:33:31.109            23.682                Irkutsk           740.062
       448   04 Jun 2027 22:33:38.676   04 Jun 2027 22:34:19.758            41.082                Irkutsk          1283.813
       449   04 Jun 2027 22:49:04.816   04 Jun 2027 22:51:27.452           142.636                Sumatra          4457.375
       450   04 Jun 2027 23:30:23.196   04 Jun 2027 23:30:28.306             5.110            RioGallegos           159.687
       451   04 Jun 2027 23:59:56.186   05 Jun 2027 00:00:30.236            34.050                Anadyr2          1064.063
       452   05 Jun 2027 00:00:37.526   05 Jun 2027 00:02:46.461           128.935                Anadyr1          4029.219
       453   05 Jun 2027 00:02:54.529   05 Jun 2027 00:03:16.075            21.546               Magadan2           673.312
       454   05 Jun 2027 00:03:25.562   05 Jun 2027 00:04:01.602            36.040                Norilsk          1126.250
       455   05 Jun 2027 00:04:07.037   05 Jun 2027 00:04:11.661             4.624               Magadan1           144.500
       456   05 Jun 2027 00:04:18.322   05 Jun 2027 00:04:29.000            10.678               Magadan1           333.687
       457   05 Jun 2027 00:05:21.540   05 Jun 2027 00:05:57.655            36.115               Magadan2          1128.594
       458   05 Jun 2027 00:06:20.028   05 Jun 2027 00:07:26.017            65.989                Irkutsk          2062.156
       459   05 Jun 2027 00:09:31.897   05 Jun 2027 00:10:27.545            55.648                Novosib          1739.000
       460   05 Jun 2027 00:11:47.016   05 Jun 2027 00:12:19.984            32.968                Novosib          1030.250
       461   05 Jun 2027 00:20:02.178   05 Jun 2027 00:20:52.276            50.098                Sumatra          1565.563
       462   05 Jun 2027 00:23:51.050   05 Jun 2027 00:24:00.572             9.522                Sumatra           297.563
       463   05 Jun 2027 00:24:14.128   05 Jun 2027 00:25:59.265           105.137                Sumatra          3285.531
       464   05 Jun 2027 01:02:04.776   05 Jun 2027 01:02:40.025            35.249            RioGallegos          1101.531
       465   05 Jun 2027 01:06:07.233   05 Jun 2027 01:06:26.331            19.098            RioGallegos           596.812
       466   05 Jun 2027 01:35:14.480   05 Jun 2027 01:35:58.814            44.334                Anadyr2          1385.437
       467   05 Jun 2027 01:36:28.589   05 Jun 2027 01:36:57.206            28.617                Anadyr1           894.281
       468   05 Jun 2027 01:38:19.119   05 Jun 2027 01:40:00.915           101.796                Norilsk          3181.125
       469   05 Jun 2027 01:40:13.108   05 Jun 2027 01:40:32.088            18.980               Magadan2           593.125
       470   05 Jun 2027 01:41:58.326   05 Jun 2027 01:43:13.425            75.099              Murmansk2          2346.844
       471   05 Jun 2027 01:43:17.422   05 Jun 2027 01:44:05.018            47.596                Irkutsk          1487.375
       472   05 Jun 2027 01:45:17.410   05 Jun 2027 01:46:33.947            76.537                Irkutsk          2391.781
       473   05 Jun 2027 01:52:20.712   05 Jun 2027 01:52:52.366            31.654                  Delhi           989.187
       474   05 Jun 2027 01:56:26.198   05 Jun 2027 01:57:06.087            39.889                  Delhi          1246.531
       475   05 Jun 2027 02:30:59.245   05 Jun 2027 02:32:45.947           106.702            RioGallegos          3334.437
       476   05 Jun 2027 02:33:42.636   05 Jun 2027 02:34:14.948            32.312            RioGallegos          1009.750
       477   05 Jun 2027 02:34:22.282   05 Jun 2027 02:35:21.396            59.114            RioGallegos          1847.313
       478   05 Jun 2027 03:23:11.546   05 Jun 2027 03:24:26.949            75.403                 Moscow          2356.344
       479   05 Jun 2027 03:24:39.669   05 Jun 2027 03:26:33.261           113.592              Murmansk2          3549.750
       480   05 Jun 2027 03:26:34.561   05 Jun 2027 03:29:01.182           146.621                  Delhi          4581.906
       481   05 Jun 2027 04:48:51.190   05 Jun 2027 04:49:11.970            20.780               Magadan2           649.375
       482   05 Jun 2027 04:58:01.805   05 Jun 2027 04:58:12.113            10.308                Novosib           322.125
