uniorb/output/strategy_2/Drop/Drop_KinoSat_110203.txt

KinoSat_110203
-------------------------
    Access    *     Start Time (UTCG)     *     Stop Time (UTCG)  *   Duration (s)        *       Station  *  Data (Mbytes)
         1   01 Jun 2027 04:21:32.252   01 Jun 2027 04:22:57.587            85.335                Novosib          6336.500
         2   01 Jun 2027 04:22:59.999   01 Jun 2027 04:23:13.469            13.470                Irkutsk          1206.000
         3   01 Jun 2027 04:23:19.911   01 Jun 2027 04:23:56.277            36.366                Novosib          3221.000
         4   01 Jun 2027 04:23:57.716   01 Jun 2027 04:24:16.006            18.290                Novosib           719.500
         5   01 Jun 2027 04:24:22.166   01 Jun 2027 04:24:50.438            28.272                Norilsk          3080.000
         6   01 Jun 2027 04:24:50.514   01 Jun 2027 04:25:58.463            67.949                Norilsk            38.000
         7   01 Jun 2027 04:26:00.820   01 Jun 2027 04:26:23.069            22.249                Norilsk          1178.500
         8   01 Jun 2027 04:26:30.757   01 Jun 2027 04:27:14.744            43.987              Murmansk2          3844.000
         9   01 Jun 2027 04:27:15.797   01 Jun 2027 04:27:59.436            43.639              Murmansk1           526.500
        10   01 Jun 2027 05:58:43.930   01 Jun 2027 05:58:50.997             7.067              Murmansk2           466.500
        11   01 Jun 2027 05:58:51.345   01 Jun 2027 05:59:07.032            15.687                Norilsk           174.000
        12   01 Jun 2027 05:59:15.086   01 Jun 2027 06:00:15.253            60.167                Novosib          4027.000
        13   01 Jun 2027 06:00:30.055   01 Jun 2027 06:01:38.553            68.498                Novosib          7401.000
        14   01 Jun 2027 06:01:48.560   01 Jun 2027 06:02:41.693            53.133              Murmansk2          5003.500
        15   01 Jun 2027 06:02:42.545   01 Jun 2027 06:02:46.125             3.580                 Moscow           426.000
        16   01 Jun 2027 06:02:48.702   01 Jun 2027 06:03:14.478            25.776              Murmansk2          1288.500
        17   01 Jun 2027 06:03:24.584   01 Jun 2027 06:04:12.839            48.255              Murmansk2           332.500
        18   01 Jun 2027 07:35:07.581   01 Jun 2027 07:36:11.742            64.161                 Moscow          6648.500
        19   01 Jun 2027 07:36:22.877   01 Jun 2027 07:37:37.299            74.422                 Moscow          5567.500
        20   01 Jun 2027 07:37:38.041   01 Jun 2027 07:37:50.039            11.998                 Moscow           371.000
        21   01 Jun 2027 07:38:06.758   01 Jun 2027 07:39:27.876            81.118                 Moscow          8359.500
        22   02 Jun 2027 03:00:19.390   02 Jun 2027 03:01:45.651            86.261               Magadan2          9695.000
        23   02 Jun 2027 03:01:48.221   02 Jun 2027 03:02:24.910            36.689                Norilsk          1285.000
        24   02 Jun 2027 03:02:32.596   02 Jun 2027 03:03:03.478            30.882               Magadan1          3843.000
        25   02 Jun 2027 03:03:04.934   02 Jun 2027 03:03:12.605             7.671              Murmansk2           728.000
        26   02 Jun 2027 03:03:12.671   02 Jun 2027 03:03:29.098            16.427                Novosib            33.000
        27   02 Jun 2027 03:03:41.146   02 Jun 2027 03:03:41.650             0.504                Irkutsk            63.000
        28   02 Jun 2027 03:03:43.813   02 Jun 2027 03:04:45.170            61.357              Murmansk1          7042.500
        29   02 Jun 2027 04:33:01.803   02 Jun 2027 04:33:18.424            16.621                Novosib          1655.500
        30   02 Jun 2027 04:33:35.476   02 Jun 2027 04:34:36.719            61.243                Irkutsk          7655.375
        31   02 Jun 2027 04:34:36.911   02 Jun 2027 04:34:47.585            10.674                Novosib           966.625
        32   02 Jun 2027 04:35:02.476   02 Jun 2027 04:36:12.959            70.483                Irkutsk          7445.500
        33   02 Jun 2027 04:36:14.323   02 Jun 2027 04:36:40.020            25.697                Norilsk           682.000
        34   02 Jun 2027 04:36:40.673   02 Jun 2027 04:37:06.469            25.796                Irkutsk           326.500
        35   02 Jun 2027 04:37:13.312   02 Jun 2027 04:37:45.145            31.833              Murmansk2          3421.500
        36   02 Jun 2027 04:37:49.767   02 Jun 2027 04:38:18.624            28.857                Norilsk          2311.000
        37   02 Jun 2027 04:38:30.177   02 Jun 2027 04:39:17.829            47.652              Murmansk2          5776.500
        38   02 Jun 2027 06:10:57.819   02 Jun 2027 06:11:30.006            32.187              Murmansk1            62.000
        39   02 Jun 2027 06:11:34.269   02 Jun 2027 06:12:12.627            38.358              Murmansk1          2131.500
        40   02 Jun 2027 06:12:20.812   02 Jun 2027 06:12:57.957            37.145                 Moscow          4092.500
        41   02 Jun 2027 06:12:59.582   02 Jun 2027 06:13:13.088            13.506                Norilsk           812.500
        42   02 Jun 2027 06:13:16.918   02 Jun 2027 06:13:43.019            26.101                Novosib          1915.000
        43   02 Jun 2027 06:13:52.186   02 Jun 2027 06:14:38.281            46.095                Norilsk          4583.500
        44   02 Jun 2027 06:14:45.816   02 Jun 2027 06:15:16.012            30.196              Murmansk2          3767.500
        45   02 Jun 2027 06:15:45.272   02 Jun 2027 06:15:57.633            12.361                Norilsk          1545.125
        46   02 Jun 2027 06:16:01.570   02 Jun 2027 06:16:14.173            12.603                Norilsk          1367.375
        47   02 Jun 2027 07:46:49.343   02 Jun 2027 07:47:14.202            24.859                 Moscow            98.000
        48   02 Jun 2027 07:47:19.250   02 Jun 2027 07:48:13.378            54.128              Murmansk2          2524.000
        49   02 Jun 2027 07:48:18.741   02 Jun 2027 07:48:41.220            22.479              Murmansk2          2681.500
        50   02 Jun 2027 07:48:45.913   02 Jun 2027 07:49:05.122            19.209              Murmansk1          2346.500
        51   02 Jun 2027 07:49:25.890   02 Jun 2027 07:50:52.887            86.997                Novosib         10384.000
        52   02 Jun 2027 07:51:07.125   02 Jun 2027 07:51:47.128            40.003                 Moscow          4682.500
        53   02 Jun 2027 07:51:49.985   02 Jun 2027 07:51:59.709             9.724              Murmansk1          1215.500
        54   02 Jun 2027 07:52:13.481   02 Jun 2027 07:52:34.357            20.876              Murmansk2           213.000
        55   03 Jun 2027 03:08:19.872   03 Jun 2027 03:08:41.354            21.482                Norilsk           835.500
        56   03 Jun 2027 03:08:48.595   03 Jun 2027 03:09:33.361            44.766                Irkutsk          3620.500
        57   03 Jun 2027 03:09:39.149   03 Jun 2027 03:10:45.928            66.779                Novosib          2894.000
        58   03 Jun 2027 03:10:54.069   03 Jun 2027 03:11:34.504            40.435                Norilsk          4070.500
        59   03 Jun 2027 03:11:41.824   03 Jun 2027 03:12:27.134            45.310                Novosib          3660.000
        60   03 Jun 2027 03:12:34.736   03 Jun 2027 03:13:32.848            58.112               Magadan1          3801.000
        61   03 Jun 2027 03:13:32.892   03 Jun 2027 03:13:34.552             1.660               Magadan2            22.000
        62   03 Jun 2027 03:13:40.393   03 Jun 2027 03:14:13.550            33.157                Norilsk          2920.500
        63   03 Jun 2027 03:14:17.771   03 Jun 2027 03:14:55.627            37.856              Murmansk2          2110.500
        64   03 Jun 2027 03:14:55.944   03 Jun 2027 03:15:02.120             6.176              Murmansk1           158.500
        65   03 Jun 2027 03:15:05.536   03 Jun 2027 03:15:12.888             7.352                Norilsk           919.000
        66   03 Jun 2027 03:15:16.543   03 Jun 2027 03:15:31.806            15.263                Irkutsk          1907.875
        67   03 Jun 2027 03:15:32.678   03 Jun 2027 03:16:21.179            48.501              Murmansk1          1144.625
        68   03 Jun 2027 04:45:15.397   03 Jun 2027 04:45:55.019            39.622                Irkutsk          4042.000
        69   03 Jun 2027 04:46:05.089   03 Jun 2027 04:46:18.514            13.425                Norilsk          1678.125
        70   03 Jun 2027 04:46:18.881   03 Jun 2027 04:47:16.681            57.800                Novosib          3540.375
        71   03 Jun 2027 04:47:20.999   03 Jun 2027 04:48:31.443            70.444                Irkutsk          2159.000
        72   03 Jun 2027 04:48:37.790   03 Jun 2027 04:49:29.288            51.498                Novosib          3173.500
        73   03 Jun 2027 04:49:39.166   03 Jun 2027 04:50:28.212            49.046              Murmansk2          4939.000
        74   03 Jun 2027 04:50:52.715   03 Jun 2027 04:52:36.067           103.352              Murmansk2         12251.500
        75   03 Jun 2027 06:23:22.940   03 Jun 2027 06:24:25.370            62.430              Murmansk1          1356.500
        76   03 Jun 2027 06:24:26.694   03 Jun 2027 06:25:07.114            40.420                Irkutsk           662.000
        77   03 Jun 2027 06:25:10.832   03 Jun 2027 06:25:44.651            33.819                Norilsk          1859.000
        78   03 Jun 2027 06:25:49.643   03 Jun 2027 06:26:39.691            50.048              Murmansk1          2496.000
        79   03 Jun 2027 06:26:50.258   03 Jun 2027 06:27:14.515            24.257                 Moscow          3032.125
        80   03 Jun 2027 06:27:59.237   03 Jun 2027 06:28:39.549            40.312                 Moscow          3086.375
        81   03 Jun 2027 07:56:45.634   03 Jun 2027 07:57:01.441            15.807                 Moscow          1975.875
        82   03 Jun 2027 07:57:08.270   03 Jun 2027 07:57:16.306             8.036                 Moscow          1004.500
        83   03 Jun 2027 07:57:22.003   03 Jun 2027 07:58:37.431            75.428                Novosib          7118.125
        84   03 Jun 2027 07:58:41.632   03 Jun 2027 07:59:39.360            57.728                Novosib          2100.500
        85   03 Jun 2027 07:59:45.531   03 Jun 2027 08:00:50.454            64.923                Novosib          3085.500
        86   03 Jun 2027 08:00:51.088   03 Jun 2027 08:01:29.096            38.008                 Moscow           317.000
        87   03 Jun 2027 08:01:45.874   03 Jun 2027 08:02:53.112            67.238                Novosib          8389.000
        88   03 Jun 2027 08:03:00.710   03 Jun 2027 08:03:42.677            41.967              Murmansk2          3104.500
        89   03 Jun 2027 08:03:48.884   03 Jun 2027 08:04:30.399            41.515              Murmansk1          3103.500
        90   04 Jun 2027 03:20:26.626   04 Jun 2027 03:20:48.520            21.894                Novosib           160.500
        91   04 Jun 2027 03:20:52.130   04 Jun 2027 03:21:27.264            35.134                Novosib          1805.000
        92   04 Jun 2027 03:21:36.353   04 Jun 2027 03:22:27.580            51.227                Novosib          4544.500
        93   04 Jun 2027 03:22:37.777   04 Jun 2027 03:23:29.867            52.090                Novosib          5098.500
        94   04 Jun 2027 03:23:32.797   04 Jun 2027 03:23:44.334            11.537               Magadan2          1442.125
        95   04 Jun 2027 03:23:44.334   04 Jun 2027 03:23:50.662             6.328               Magadan1            22.875
        96   04 Jun 2027 03:23:53.094   04 Jun 2027 03:24:18.036            24.942                Novosib          1216.000
        97   04 Jun 2027 03:24:26.406   04 Jun 2027 03:25:27.380            60.974               Magadan2          4185.000
        98   04 Jun 2027 03:25:28.588   04 Jun 2027 03:26:02.027            33.439                Norilsk           604.000
        99   04 Jun 2027 03:26:26.710   04 Jun 2027 03:28:11.350           104.640              Murmansk1         12341.500
       100   04 Jun 2027 04:57:37.517   04 Jun 2027 04:58:12.018            34.501                Irkutsk          4312.625
       101   04 Jun 2027 04:58:30.227   04 Jun 2027 05:00:15.092           104.865                Norilsk         11341.875
       102   04 Jun 2027 05:00:16.158   04 Jun 2027 05:00:50.525            34.367                Irkutsk           533.000
       103   04 Jun 2027 05:00:52.089   04 Jun 2027 05:01:27.354            35.265                Novosib           782.000
       104   04 Jun 2027 05:01:29.830   04 Jun 2027 05:02:24.921            55.091              Murmansk2          1238.000
       105   04 Jun 2027 05:02:27.331   04 Jun 2027 05:02:42.641            15.310              Murmansk1          1205.000
       106   04 Jun 2027 05:02:42.956   04 Jun 2027 05:02:49.883             6.927                 Moscow           157.500
       107   04 Jun 2027 05:03:00.058   04 Jun 2027 05:03:05.319             5.261                Norilsk           657.625
       108   04 Jun 2027 05:03:21.980   04 Jun 2027 05:05:21.693           119.713              Murmansk1         10573.375
       109   04 Jun 2027 06:35:20.868   04 Jun 2027 06:35:59.266            38.398                Norilsk           643.000
       110   04 Jun 2027 06:36:01.410   04 Jun 2027 06:36:16.961            15.551                Irkutsk          1072.000
       111   04 Jun 2027 06:36:28.114   04 Jun 2027 06:37:28.766            60.652              Murmansk1          5576.500
       112   04 Jun 2027 06:37:31.567   04 Jun 2027 06:37:56.074            24.507                 Moscow          1400.500
       113   04 Jun 2027 06:38:06.377   04 Jun 2027 06:38:54.858            48.481                 Moscow          5151.500
       114   04 Jun 2027 06:38:55.856   04 Jun 2027 06:39:22.195            26.339                Norilsk           499.000
       115   04 Jun 2027 08:09:14.123   04 Jun 2027 08:11:29.718           135.595                 Moscow         16949.375
       116   04 Jun 2027 08:11:32.629   04 Jun 2027 08:12:10.805            38.176                Novosib          2029.625
       117   04 Jun 2027 08:12:21.778   04 Jun 2027 08:13:07.996            46.218                Novosib          5486.500
       118   04 Jun 2027 08:13:14.994   04 Jun 2027 08:13:44.529            29.535                Norilsk          3499.000
       119   04 Jun 2027 08:13:47.818   04 Jun 2027 08:14:01.183            13.365                Novosib          1644.500
       120   04 Jun 2027 08:14:04.106   04 Jun 2027 08:14:09.488             5.382                 Moscow           672.750
       121   04 Jun 2027 08:14:14.789   04 Jun 2027 08:15:11.842            57.053                Norilsk          3439.250
       122   04 Jun 2027 08:15:12.001   04 Jun 2027 08:15:24.480            12.479                Norilsk            79.500
       123   04 Jun 2027 08:15:27.865   04 Jun 2027 08:16:38.781            70.916                 Moscow          1692.500
       124   05 Jun 2027 03:32:34.646   05 Jun 2027 03:32:59.271            24.625                Norilsk          3078.125
       125   05 Jun 2027 03:33:04.200   05 Jun 2027 03:33:50.810            46.610               Magadan2          2498.375
       126   05 Jun 2027 03:33:51.379   05 Jun 2027 03:34:31.167            39.788               Magadan1           284.500
       127   05 Jun 2027 03:34:31.926   05 Jun 2027 03:34:47.945            16.019                Norilsk           379.500
       128   05 Jun 2027 03:34:48.449   05 Jun 2027 03:35:02.310            13.861               Magadan2           252.000
       129   05 Jun 2027 03:35:11.610   05 Jun 2027 03:36:21.829            70.219                Irkutsk          4650.000
       130   05 Jun 2027 03:36:23.611   05 Jun 2027 03:36:36.504            12.893                Novosib           891.000
       131   05 Jun 2027 03:36:37.007   05 Jun 2027 03:36:47.352            10.345                Norilsk           251.500
       132   05 Jun 2027 03:36:54.061   05 Jun 2027 03:37:20.817            26.756                Norilsk          3344.500
       133   05 Jun 2027 03:37:25.320   05 Jun 2027 03:38:19.830            54.510                Novosib          2261.500
       134   05 Jun 2027 03:38:30.862   05 Jun 2027 03:39:15.918            45.056                Norilsk          5516.000
       135   05 Jun 2027 03:39:25.775   05 Jun 2027 03:40:09.214            43.439              Murmansk1          4928.500
       136   05 Jun 2027 05:09:25.198   05 Jun 2027 05:10:14.334            49.136                Irkutsk          5578.500
       137   05 Jun 2027 05:10:18.899   05 Jun 2027 05:11:04.965            46.066                Irkutsk          2282.500
       138   05 Jun 2027 05:11:14.151   05 Jun 2027 05:11:25.807            11.656                Norilsk          1457.000
       139   05 Jun 2027 05:11:27.231   05 Jun 2027 05:12:27.467            60.236                Novosib          3848.000
       140   05 Jun 2027 05:12:32.310   05 Jun 2027 05:13:09.441            37.131                Novosib          2421.500
       141   05 Jun 2027 05:13:14.593   05 Jun 2027 05:13:36.755            22.162                 Moscow          2576.000
       142   05 Jun 2027 05:13:40.146   05 Jun 2027 05:14:05.577            25.431                 Moscow          1695.500
       143   05 Jun 2027 05:14:11.954   05 Jun 2027 05:14:34.641            22.687                Norilsk          2835.875
       144   05 Jun 2027 05:14:36.873   05 Jun 2027 05:15:33.937            57.064                Novosib          1468.625
       145   05 Jun 2027 05:15:43.636   05 Jun 2027 05:16:25.042            41.406              Murmansk1          4849.500
       146   05 Jun 2027 06:47:22.710   05 Jun 2027 06:47:54.611            31.901                Norilsk          1905.500
       147   05 Jun 2027 06:48:00.363   05 Jun 2027 06:48:50.414            50.051                Norilsk          2876.000
       148   05 Jun 2027 06:48:52.768   05 Jun 2027 06:49:06.863            14.095              Murmansk2          1177.000
       149   05 Jun 2027 06:49:13.124   05 Jun 2027 06:49:40.105            26.981                 Moscow          3130.500
       150   05 Jun 2027 06:49:45.973   05 Jun 2027 06:50:07.073            21.100                 Moscow          2637.500
       151   05 Jun 2027 06:50:10.425   05 Jun 2027 06:50:59.953            49.528                 Moscow          1972.500
       152   05 Jun 2027 06:51:10.668   05 Jun 2027 06:51:57.299            46.631                Norilsk          5357.500
       153   05 Jun 2027 08:21:19.343   05 Jun 2027 08:22:27.917            68.574                 Moscow          6920.500
       154   05 Jun 2027 08:22:43.457   05 Jun 2027 08:23:47.430            63.973              Murmansk1          7770.000
       155   05 Jun 2027 08:24:28.458   05 Jun 2027 08:27:29.505           181.047              Murmansk1         20514.000
       156   05 Jun 2027 08:27:30.283   05 Jun 2027 08:28:18.861            48.578              Murmansk2           389.000
       157   06 Jun 2027 03:44:30.389   06 Jun 2027 03:44:53.745            23.356                Norilsk           765.000
       158   06 Jun 2027 03:44:56.874   06 Jun 2027 03:44:58.981             2.107               Magadan1           263.375
       159   06 Jun 2027 03:44:58.981   06 Jun 2027 03:45:20.995            22.014               Magadan2          1301.125
       160   06 Jun 2027 03:45:34.914   06 Jun 2027 03:46:12.169            37.255                Novosib          4656.875
       161   06 Jun 2027 03:46:20.488   06 Jun 2027 03:47:19.653            59.165                Norilsk          6462.125
       162   06 Jun 2027 03:47:25.656   06 Jun 2027 03:48:08.385            42.729               Magadan2          3001.500
       163   06 Jun 2027 03:48:10.957   06 Jun 2027 03:48:30.005            19.048                Novosib          1286.000
       164   06 Jun 2027 03:48:32.353   06 Jun 2027 03:48:48.538            16.185                Norilsk          1174.000
       165   06 Jun 2027 03:48:48.811   06 Jun 2027 03:49:10.214            21.403                Norilsk           136.500
       166   06 Jun 2027 03:49:12.467   06 Jun 2027 03:49:38.907            26.440                Norilsk          1126.500
       167   06 Jun 2027 03:49:44.297   06 Jun 2027 03:50:29.504            45.207              Murmansk1          2695.000
       168   06 Jun 2027 03:50:31.155   06 Jun 2027 03:50:39.430             8.275              Murmansk1           825.500
       169   06 Jun 2027 03:50:47.891   06 Jun 2027 03:51:36.333            48.442                Novosib          4230.500
       170   06 Jun 2027 03:51:45.720   06 Jun 2027 03:51:56.914            11.194                Irkutsk          1399.250
       171   06 Jun 2027 03:51:59.436   06 Jun 2027 03:52:29.156            29.720                Norilsk          3294.250
       172   06 Jun 2027 05:21:38.412   06 Jun 2027 05:23:06.813            88.401                Novosib          7948.500
       173   06 Jun 2027 05:23:07.499   06 Jun 2027 05:23:13.517             6.018                Norilsk           343.000
       174   06 Jun 2027 05:23:15.040   06 Jun 2027 05:23:29.558            14.518                Irkutsk           761.500
       175   06 Jun 2027 05:23:33.333   06 Jun 2027 05:24:00.772            27.439                Novosib          1887.500
       176   06 Jun 2027 05:24:03.709   06 Jun 2027 05:24:35.474            31.765                Norilsk          1468.500
       177   06 Jun 2027 05:24:37.678   06 Jun 2027 05:24:48.802            11.124                Novosib          1102.000
       178   06 Jun 2027 05:24:51.302   06 Jun 2027 05:25:09.416            18.114                 Moscow          1250.000
       179   06 Jun 2027 05:25:23.306   06 Jun 2027 05:26:00.520            37.214                Norilsk          4651.750
       180   06 Jun 2027 05:26:07.130   06 Jun 2027 05:27:16.417            69.287                Novosib          5598.250
       181   06 Jun 2027 05:27:21.745   06 Jun 2027 05:28:41.827            80.082                 Moscow          2664.000
       182   06 Jun 2027 06:58:48.260   06 Jun 2027 07:00:14.157            85.897              Murmansk2          8153.000
       183   06 Jun 2027 07:00:29.458   06 Jun 2027 07:01:41.755            72.297                Novosib          7650.500
       184   06 Jun 2027 07:01:47.629   06 Jun 2027 07:02:14.004            26.375                 Moscow          2937.000
       185   06 Jun 2027 07:02:18.230   06 Jun 2027 07:02:34.920            16.690                Novosib          2086.250
       186   06 Jun 2027 07:02:41.639   06 Jun 2027 07:03:17.294            35.655              Murmansk1          3386.250
       187   06 Jun 2027 07:03:19.264   06 Jun 2027 07:03:28.517             9.253                Novosib           985.000
       188   06 Jun 2027 08:33:22.289   06 Jun 2027 08:33:34.439            12.150                 Moscow           845.500
       189   06 Jun 2027 08:33:48.992   06 Jun 2027 08:35:17.706            88.714              Murmansk2          7276.500
       190   06 Jun 2027 08:35:31.559   06 Jun 2027 08:36:37.291            65.732              Murmansk1          6926.500
       191   06 Jun 2027 08:36:51.399   06 Jun 2027 08:37:49.053            57.654              Murmansk2          7054.000
       192   06 Jun 2027 08:37:54.735   06 Jun 2027 08:38:47.990            53.255              Murmansk2          2841.000
       193   07 Jun 2027 03:56:57.961   07 Jun 2027 03:57:26.243            28.282                Irkutsk          2938.000
       194   07 Jun 2027 03:57:28.446   07 Jun 2027 03:57:44.556            16.110                Norilsk          1101.500
       195   07 Jun 2027 03:57:48.393   07 Jun 2027 03:58:28.652            40.259                Novosib          1918.500
       196   07 Jun 2027 03:58:39.379   07 Jun 2027 03:59:01.865            22.486               Magadan1          2810.750
       197   07 Jun 2027 03:59:06.871   07 Jun 2027 03:59:52.616            45.745                Novosib          5055.750
       198   07 Jun 2027 03:59:53.581   07 Jun 2027 04:00:04.208            10.627               Magadan2           482.500
       199   07 Jun 2027 04:00:18.305   07 Jun 2027 04:01:25.091            66.786                Novosib          7048.500
       200   07 Jun 2027 04:01:27.518   07 Jun 2027 04:02:23.766            56.248                Norilsk          1213.500
       201   07 Jun 2027 04:02:29.685   07 Jun 2027 04:03:17.991            48.306                Norilsk          2959.500
       202   07 Jun 2027 04:03:19.388   07 Jun 2027 04:03:57.787            38.399                Novosib           698.500
       203   07 Jun 2027 05:34:12.455   07 Jun 2027 05:35:12.444            59.989                Norilsk          7498.625
       204   07 Jun 2027 05:35:14.653   07 Jun 2027 05:35:59.091            44.438                 Moscow          4585.375
       205   07 Jun 2027 05:36:12.128   07 Jun 2027 05:37:19.248            67.120                Norilsk          6518.500
       206   07 Jun 2027 05:37:21.167   07 Jun 2027 05:37:35.647            14.480              Murmansk1           959.500
       207   07 Jun 2027 05:37:41.848   07 Jun 2027 05:38:11.766            29.918                Norilsk          3100.500
       208   07 Jun 2027 05:38:16.692   07 Jun 2027 05:38:55.447            38.755              Murmansk2          2463.000
       209   07 Jun 2027 05:38:55.800   07 Jun 2027 05:38:58.267             2.467              Murmansk1           176.500
       210   07 Jun 2027 05:38:59.673   07 Jun 2027 05:39:19.909            20.236                Irkutsk           703.000
       211   07 Jun 2027 05:39:25.192   07 Jun 2027 05:40:01.042            35.850              Murmansk1          2641.500
       212   07 Jun 2027 07:11:01.218   07 Jun 2027 07:12:26.708            85.490                Novosib          8339.500
       213   07 Jun 2027 07:12:28.114   07 Jun 2027 07:12:58.137            30.023              Murmansk2           703.000
       214   07 Jun 2027 07:12:58.496   07 Jun 2027 07:13:00.264             1.768              Murmansk2           179.500
       215   07 Jun 2027 07:13:03.330   07 Jun 2027 07:13:21.435            18.105                Novosib          1533.000
       216   07 Jun 2027 07:13:24.307   07 Jun 2027 07:14:35.272            70.965              Murmansk2          1436.000
       217   07 Jun 2027 07:14:43.166   07 Jun 2027 07:15:40.528            57.362                Novosib          3947.000
       218   07 Jun 2027 08:48:02.283   07 Jun 2027 08:48:50.417            48.134                 Moscow          3961.000
       219   07 Jun 2027 08:48:53.031   07 Jun 2027 08:49:05.108            12.077              Murmansk2          1307.000
       220   07 Jun 2027 08:49:16.363   07 Jun 2027 08:50:05.311            48.948                 Moscow          5627.500
       221   07 Jun 2027 08:50:49.959   07 Jun 2027 08:52:03.021            73.062              Murmansk1          8708.500
       222   08 Jun 2027 04:09:28.463   08 Jun 2027 04:11:21.500           113.037                Norilsk         13835.500
       223   08 Jun 2027 04:11:22.849   08 Jun 2027 04:11:35.277            12.428                Novosib           674.500
       224   08 Jun 2027 04:11:40.243   08 Jun 2027 04:12:19.948            39.705                Norilsk          2483.000
       225   08 Jun 2027 04:12:24.876   08 Jun 2027 04:12:46.928            22.052                Novosib          2464.000
       226   08 Jun 2027 04:13:03.163   08 Jun 2027 04:13:08.698             5.535                Norilsk           691.875
       227   08 Jun 2027 04:13:16.367   08 Jun 2027 04:15:18.594           122.227                Norilsk         11260.125
       228   08 Jun 2027 04:15:23.675   08 Jun 2027 04:16:12.279            48.604                Novosib          2540.500
       229   08 Jun 2027 05:46:27.774   08 Jun 2027 05:46:58.249            30.475                Irkutsk          3427.500
       230   08 Jun 2027 05:47:05.691   08 Jun 2027 05:47:10.886             5.195                Norilsk           649.375
       231   08 Jun 2027 05:47:15.446   08 Jun 2027 05:47:59.237            43.791                Novosib          5351.625
       232   08 Jun 2027 05:48:00.761   08 Jun 2027 05:48:12.918            12.157              Murmansk2           762.000
       233   08 Jun 2027 05:48:28.201   08 Jun 2027 05:49:52.803            84.602                Irkutsk          7641.500
       234   08 Jun 2027 05:49:59.893   08 Jun 2027 05:50:42.921            43.028              Murmansk2          3545.000
       235   08 Jun 2027 05:50:47.165   08 Jun 2027 05:51:25.585            38.420                Norilsk          2122.000
       236   08 Jun 2027 07:22:59.714   08 Jun 2027 07:23:48.183            48.469              Murmansk1          6058.625
       237   08 Jun 2027 07:23:48.183   08 Jun 2027 07:23:56.271             8.088              Murmansk2           806.875
       238   08 Jun 2027 07:24:04.683   08 Jun 2027 07:25:12.019            67.336                Norilsk          4206.000
       239   08 Jun 2027 07:25:16.987   08 Jun 2027 07:25:27.586            10.599                Norilsk          1324.875
       240   08 Jun 2027 07:25:36.541   08 Jun 2027 07:26:29.633            53.092              Murmansk2          5636.625
       241   08 Jun 2027 07:26:36.191   08 Jun 2027 07:27:50.293            74.102                Novosib          3279.000
       242   08 Jun 2027 07:27:54.241   08 Jun 2027 07:28:21.672            27.431                 Moscow           892.500
       243   08 Jun 2027 09:01:05.420   08 Jun 2027 09:01:23.842            18.422              Murmansk2          1495.000
       244   08 Jun 2027 09:01:24.470   08 Jun 2027 09:02:01.797            37.327                 Moscow           314.000
       245   09 Jun 2027 04:21:35.641   09 Jun 2027 04:21:50.146            14.505                Novosib           546.000
       246   09 Jun 2027 04:21:56.413   09 Jun 2027 04:23:11.983            75.570                Novosib          3133.500
       247   09 Jun 2027 04:23:14.752   09 Jun 2027 04:23:28.164            13.412                Irkutsk          1384.500
       248   09 Jun 2027 04:23:30.660   09 Jun 2027 04:24:12.341            41.681                Norilsk          1248.000
       249   09 Jun 2027 04:24:12.496   09 Jun 2027 04:24:13.533             1.037                Novosib            77.500
       250   09 Jun 2027 04:24:14.323   09 Jun 2027 04:24:47.344            33.021                Irkutsk           395.000
       251   09 Jun 2027 04:24:49.421   09 Jun 2027 04:25:01.777            12.356                Novosib          1038.500
       252   09 Jun 2027 04:25:05.555   09 Jun 2027 04:26:15.555            70.000                Norilsk          1889.000
       253   09 Jun 2027 04:26:21.952   09 Jun 2027 04:26:48.361            26.409                Novosib          3198.500
       254   09 Jun 2027 04:27:09.466   09 Jun 2027 04:27:54.822            45.356                Norilsk          5669.500
       255   09 Jun 2027 04:28:14.265   09 Jun 2027 04:29:13.775            59.510              Murmansk1          4883.000
       256   09 Jun 2027 05:58:58.574   09 Jun 2027 05:59:08.229             9.655              Murmansk2           465.000
       257   09 Jun 2027 05:59:08.813   09 Jun 2027 05:59:21.895            13.082                Norilsk           292.000
       258   09 Jun 2027 05:59:30.187   09 Jun 2027 06:00:30.153            59.966                Novosib          4146.000
       259   09 Jun 2027 06:00:44.786   09 Jun 2027 06:01:52.884            68.098                Novosib          7316.500
       260   09 Jun 2027 06:02:03.122   09 Jun 2027 06:03:06.137            63.015              Murmansk1          5119.000
       261   09 Jun 2027 06:03:07.864   09 Jun 2027 06:03:31.464            23.600              Murmansk1           863.500
       262   09 Jun 2027 07:35:17.944   09 Jun 2027 07:36:06.378            48.434                Norilsk          4776.000
       263   09 Jun 2027 07:36:16.340   09 Jun 2027 07:37:12.877            56.537                Norilsk          4981.000
       264   09 Jun 2027 07:37:13.372   09 Jun 2027 07:37:37.785            24.413                Norilsk           247.500
       265   09 Jun 2027 07:37:38.105   09 Jun 2027 07:38:24.696            46.591              Murmansk2           160.000
       266   09 Jun 2027 07:38:27.091   09 Jun 2027 07:38:49.110            22.019                Norilsk          1197.500
       267   09 Jun 2027 07:38:49.728   09 Jun 2027 07:38:57.850             8.122                Norilsk           309.000
       268   09 Jun 2027 07:39:00.720   09 Jun 2027 07:39:17.932            17.212              Murmansk1          1435.000
       269   09 Jun 2027 07:39:21.461   09 Jun 2027 07:39:26.296             4.835                 Moscow           604.375
       270   09 Jun 2027 07:40:12.757   09 Jun 2027 07:40:54.534            41.777              Murmansk1          1160.125
       271   10 Jun 2027 03:00:00.483   10 Jun 2027 03:00:00.599             0.116                Norilsk            14.500
       272   10 Jun 2027 03:00:07.901   10 Jun 2027 03:01:01.019            53.118                Norilsk          3878.000
       273   10 Jun 2027 03:01:06.612   10 Jun 2027 03:02:04.116            57.504                Norilsk          2796.500
       274   10 Jun 2027 03:02:17.445   10 Jun 2027 03:03:08.703            51.258                Irkutsk          6407.250
       275   10 Jun 2027 03:03:17.432   10 Jun 2027 03:04:04.602            47.170              Murmansk2          4621.750
       276   10 Jun 2027 04:33:13.754   10 Jun 2027 04:33:27.318            13.564                Norilsk           280.000
       277   10 Jun 2027 04:33:33.385   10 Jun 2027 04:34:51.350            77.965                Novosib          3033.500
       278   10 Jun 2027 04:35:00.827   10 Jun 2027 04:35:17.214            16.387                Irkutsk          2048.375
       279   10 Jun 2027 04:35:24.140   10 Jun 2027 04:36:28.479            64.339                Norilsk          6153.125
       280   10 Jun 2027 04:36:28.948   10 Jun 2027 04:36:33.909             4.961                Norilsk           234.500
       281   10 Jun 2027 04:36:36.124   10 Jun 2027 04:36:51.390            15.266                Novosib          1107.500
       282   10 Jun 2027 04:36:52.682   10 Jun 2027 04:37:27.274            34.592              Murmansk1           646.000
       283   10 Jun 2027 04:37:29.692   10 Jun 2027 04:37:43.960            14.268              Murmansk2          1209.000
       284   10 Jun 2027 04:37:44.812   10 Jun 2027 04:37:59.850            15.038              Murmansk1           426.000
       285   10 Jun 2027 04:38:11.924   10 Jun 2027 04:38:37.657            25.733                Novosib          3216.625
       286   10 Jun 2027 04:38:45.829   10 Jun 2027 04:39:49.741            63.912              Murmansk1          6906.375
       287   10 Jun 2027 06:11:12.789   10 Jun 2027 06:11:15.733             2.944              Murmansk2           334.000
       288   10 Jun 2027 06:11:23.786   10 Jun 2027 06:12:12.076            48.290                Norilsk          4026.500
       289   10 Jun 2027 06:12:23.209   10 Jun 2027 06:13:09.770            46.561                Irkutsk          5566.500
       290   10 Jun 2027 06:13:10.054   10 Jun 2027 06:13:12.213             2.159                 Moscow           142.000
       291   10 Jun 2027 06:13:14.315   10 Jun 2027 06:13:27.911            13.596                Norilsk          1051.000
       292   10 Jun 2027 06:13:31.764   10 Jun 2027 06:13:58.532            26.768                Novosib          1926.500
       293   10 Jun 2027 06:14:07.835   10 Jun 2027 06:14:43.929            36.094                Norilsk          4511.750
       294   10 Jun 2027 06:14:53.733   10 Jun 2027 06:15:17.118            23.385                Norilsk          2923.125
       295   10 Jun 2027 06:15:29.081   10 Jun 2027 06:16:50.926            81.845              Murmansk2          8100.125
       296   10 Jun 2027 07:47:04.355   10 Jun 2027 07:47:32.179            27.824                 Moscow           347.500
       297   10 Jun 2027 07:47:35.170   10 Jun 2027 07:47:49.685            14.515              Murmansk1          1495.500
       298   10 Jun 2027 07:48:01.980   10 Jun 2027 07:49:05.688            63.708                Novosib          6147.500
       299   10 Jun 2027 07:49:10.341   10 Jun 2027 07:49:49.725            39.384                Norilsk          2326.500
       300   10 Jun 2027 07:49:53.735   10 Jun 2027 07:50:17.345            23.610                Norilsk          2005.000
       301   10 Jun 2027 07:50:20.430   10 Jun 2027 07:50:47.053            26.623              Murmansk1          1542.500
       302   10 Jun 2027 07:50:48.499   10 Jun 2027 07:51:14.017            25.518                Norilsk           723.000
       303   10 Jun 2027 07:51:18.816   10 Jun 2027 07:52:04.704            45.888              Murmansk2          1491.000
       304   10 Jun 2027 07:52:10.878   10 Jun 2027 07:52:48.998            38.120                Norilsk          3087.000
       305   11 Jun 2027 03:08:35.364   11 Jun 2027 03:08:42.614             7.250               Magadan1           906.250
       306   11 Jun 2027 03:08:42.614   11 Jun 2027 03:09:13.840            31.226               Magadan2           273.250
       307   11 Jun 2027 03:09:16.490   11 Jun 2027 03:09:32.199            15.709                Norilsk          1325.000
       308   11 Jun 2027 03:09:41.862   11 Jun 2027 03:09:55.486            13.624                Novosib          1703.000
       309   11 Jun 2027 03:09:59.524   11 Jun 2027 03:10:42.777            43.253                Irkutsk          5147.500
       310   11 Jun 2027 03:10:53.643   11 Jun 2027 03:11:09.369            15.726                Norilsk          1965.750
       311   11 Jun 2027 03:11:14.518   11 Jun 2027 03:12:11.570            57.052               Magadan2          6041.750
       312   11 Jun 2027 03:12:15.509   11 Jun 2027 03:12:49.488            33.979               Magadan2          1969.500
       313   11 Jun 2027 03:12:53.877   11 Jun 2027 03:13:29.206            35.329                Novosib          2194.500
       314   11 Jun 2027 03:13:33.864   11 Jun 2027 03:14:03.605            29.741                Novosib          2329.000
       315   11 Jun 2027 03:14:08.785   11 Jun 2027 03:14:30.423            21.638                Irkutsk          2590.000
       316   11 Jun 2027 03:14:33.842   11 Jun 2027 03:15:10.558            36.716              Murmansk1          1709.500
       317   11 Jun 2027 03:15:16.743   11 Jun 2027 03:15:49.869            33.126              Murmansk1          3092.500
       318   11 Jun 2027 03:15:52.499   11 Jun 2027 03:16:04.378            11.879                Novosib          1315.000
       319   11 Jun 2027 03:16:20.268   11 Jun 2027 03:17:02.550            42.282                Novosib           865.000
       320   11 Jun 2027 04:45:26.094   11 Jun 2027 04:46:05.019            38.925                Norilsk          1683.000
       321   11 Jun 2027 04:46:19.955   11 Jun 2027 04:47:25.691            65.736                Norilsk          7468.000
       322   11 Jun 2027 04:47:29.399   11 Jun 2027 04:48:51.272            81.873                Irkutsk          1854.000
       323   11 Jun 2027 04:48:52.797   11 Jun 2027 04:49:13.651            20.854                Novosib           762.500
       324   11 Jun 2027 04:49:16.805   11 Jun 2027 04:49:56.290            39.485                Norilsk          1577.000
       325   11 Jun 2027 04:50:04.082   11 Jun 2027 04:50:30.269            26.187                Norilsk          3273.375
       326   11 Jun 2027 04:50:32.349   11 Jun 2027 04:51:07.223            34.874              Murmansk1          1662.625
       327   11 Jun 2027 04:51:08.444   11 Jun 2027 04:51:28.720            20.276                 Moscow           610.500
       328   11 Jun 2027 04:51:36.932   11 Jun 2027 04:52:52.507            75.575              Murmansk2          4106.000
       329   11 Jun 2027 06:23:37.509   11 Jun 2027 06:23:49.090            11.581              Murmansk2          1416.000
       330   11 Jun 2027 06:23:59.770   11 Jun 2027 06:24:46.724            46.954                Novosib          5340.000
       331   11 Jun 2027 06:24:49.710   11 Jun 2027 06:25:14.359            24.649              Murmansk1          1493.000
       332   11 Jun 2027 06:25:17.201   11 Jun 2027 06:25:34.577            17.376                Novosib          1421.000
       333   11 Jun 2027 06:25:36.551   11 Jun 2027 06:26:15.328            38.777                 Moscow           987.000
       334   11 Jun 2027 06:26:16.139   11 Jun 2027 06:26:28.562            12.423                Novosib           405.500
       335   11 Jun 2027 06:26:54.201   11 Jun 2027 06:28:19.681            85.480                Novosib         10685.000
       336   11 Jun 2027 06:28:49.130   11 Jun 2027 06:29:30.065            40.935              Murmansk1          2134.500
       337   11 Jun 2027 07:57:01.498   11 Jun 2027 07:57:16.291            14.793                 Moscow          1849.125
       338   11 Jun 2027 07:57:21.738   11 Jun 2027 07:57:31.175             9.437                 Moscow          1179.625
       339   11 Jun 2027 07:57:38.099   11 Jun 2027 07:58:52.064            73.965                Novosib          7679.750
       340   11 Jun 2027 07:58:57.036   11 Jun 2027 07:59:54.612            57.576                Novosib          2486.000
       341   11 Jun 2027 08:00:00.088   11 Jun 2027 08:01:05.057            64.969                Novosib          2738.000
       342   11 Jun 2027 08:01:07.861   11 Jun 2027 08:01:15.222             7.361                Norilsk           920.125
       343   11 Jun 2027 08:01:19.090   11 Jun 2027 08:01:40.589            21.499              Murmansk1          2415.875
       344   11 Jun 2027 08:01:44.480   11 Jun 2027 08:02:11.827            27.347                 Moscow          1945.500
       345   11 Jun 2027 08:02:15.163   11 Jun 2027 08:02:34.556            19.393                 Moscow          1668.000
       346   11 Jun 2027 08:02:36.089   11 Jun 2027 08:02:42.225             6.136              Murmansk2           766.500
       347   11 Jun 2027 08:02:48.395   11 Jun 2027 08:03:17.747            29.352                 Moscow          3085.000
       348   11 Jun 2027 08:03:32.271   11 Jun 2027 08:03:40.601             8.330                Norilsk           152.500
       349   11 Jun 2027 08:03:44.614   11 Jun 2027 08:04:28.052            43.438                 Moscow          2006.500
       350   11 Jun 2027 08:04:36.438   11 Jun 2027 08:04:47.655            11.217                Norilsk          1402.125
       351   11 Jun 2027 08:04:47.685   11 Jun 2027 08:05:28.904            41.219              Murmansk2          2790.875
       352   12 Jun 2027 03:20:41.063   12 Jun 2027 03:21:04.800            23.737                Novosib            33.000
       353   12 Jun 2027 03:21:09.094   12 Jun 2027 03:21:40.921            31.827               Magadan2          2147.000
       354   12 Jun 2027 03:21:41.847   12 Jun 2027 03:21:59.009            17.162               Magadan2           463.000
       355   12 Jun 2027 03:22:03.293   12 Jun 2027 03:23:09.613            66.320               Magadan1          2142.000
       356   12 Jun 2027 03:23:12.219   12 Jun 2027 03:23:33.646            21.427                Norilsk          1303.000
       357   12 Jun 2027 03:23:37.759   12 Jun 2027 03:24:01.550            23.791                Norilsk          2056.500
       358   12 Jun 2027 03:24:07.802   12 Jun 2027 03:24:42.742            34.940               Magadan2          3126.000
       359   12 Jun 2027 03:24:45.250   12 Jun 2027 03:25:38.104            52.854                Novosib          1254.000
       360   12 Jun 2027 03:25:42.319   12 Jun 2027 03:26:05.459            23.140               Magadan2          2107.500
       361   12 Jun 2027 03:26:06.215   12 Jun 2027 03:26:14.976             8.761               Magadan1           378.000
       362   12 Jun 2027 03:26:17.109   12 Jun 2027 03:26:49.405            32.296                Norilsk          1066.500
       363   12 Jun 2027 03:27:02.568   12 Jun 2027 03:28:22.546            79.978                Norilsk          6581.500
       364   12 Jun 2027 04:57:53.193   12 Jun 2027 04:58:25.947            32.754                Irkutsk          4094.250
       365   12 Jun 2027 04:58:45.385   12 Jun 2027 05:00:30.365           104.980                Irkutsk         12698.750
       366   12 Jun 2027 05:00:35.853   12 Jun 2027 05:00:59.865            24.012                Norilsk          2744.000
       367   12 Jun 2027 05:01:05.102   12 Jun 2027 05:03:14.872           129.770                Irkutsk          2618.500
       368   12 Jun 2027 05:03:16.775   12 Jun 2027 05:03:37.191            20.416              Murmansk1           951.500
       369   12 Jun 2027 06:35:37.877   12 Jun 2027 06:36:15.894            38.017                Irkutsk          1545.000
       370   12 Jun 2027 06:36:28.844   12 Jun 2027 06:37:45.470            76.626                Novosib          6475.000
       371   12 Jun 2027 06:37:46.397   12 Jun 2027 06:37:56.297             9.900                 Moscow           463.500
       372   12 Jun 2027 06:38:12.795   12 Jun 2027 06:40:02.559           109.764                 Moscow          8249.000
       373   12 Jun 2027 08:09:28.826   12 Jun 2027 08:11:47.825           138.999                 Moscow         17104.000
       374   12 Jun 2027 08:12:08.664   12 Jun 2027 08:13:41.436            92.772              Murmansk1         10419.500
       375   12 Jun 2027 08:13:59.911   12 Jun 2027 08:15:26.990            87.079                Norilsk          9237.500
       376   12 Jun 2027 08:15:28.212   12 Jun 2027 08:15:39.255            11.043                Norilsk           611.000
       377   12 Jun 2027 08:15:41.479   12 Jun 2027 08:15:52.800            11.321                 Moscow          1112.000
       378   12 Jun 2027 08:15:53.286   12 Jun 2027 08:16:42.389            49.103              Murmansk1           243.000
       379   13 Jun 2027 03:32:50.172   13 Jun 2027 03:33:44.618            54.446                Norilsk          3647.500
       380   13 Jun 2027 03:33:48.585   13 Jun 2027 03:34:05.661            17.076                Novosib          1983.500
       381   13 Jun 2027 03:34:06.103   13 Jun 2027 03:34:08.023             1.920               Magadan2           221.000
       382   13 Jun 2027 03:34:15.658   13 Jun 2027 03:35:04.534            48.876                Novosib          3817.500
       383   13 Jun 2027 03:35:06.298   13 Jun 2027 03:35:10.739             4.441                Norilsk           555.125
       384   13 Jun 2027 03:35:16.966   13 Jun 2027 03:35:51.204            34.238               Magadan1          3440.375
       385   13 Jun 2027 03:35:53.604   13 Jun 2027 03:36:17.481            23.877                Novosib          1200.000
       386   13 Jun 2027 03:36:20.169   13 Jun 2027 03:36:40.285            20.116                Novosib          1344.000
       387   13 Jun 2027 03:36:48.478   13 Jun 2027 03:37:33.552            45.074                Irkutsk          4096.500
       388   13 Jun 2027 03:37:42.593   13 Jun 2027 03:38:26.575            43.982               Magadan2          4520.500
       389   13 Jun 2027 03:38:36.270   13 Jun 2027 03:39:30.258            53.988                Novosib          4847.500
       390   13 Jun 2027 03:39:33.460   13 Jun 2027 03:40:22.912            49.452                Norilsk          1601.000
       391   13 Jun 2027 05:09:39.249   13 Jun 2027 05:10:30.155            50.906                Irkutsk          5214.500
       392   13 Jun 2027 05:10:33.618   13 Jun 2027 05:11:19.668            46.050                Irkutsk          1731.500
       393   13 Jun 2027 05:11:29.148   13 Jun 2027 05:12:27.068            57.920                Norilsk          4740.000
       394   13 Jun 2027 05:12:28.323   13 Jun 2027 05:12:56.256            27.933                Norilsk           627.500
       395   13 Jun 2027 05:12:56.849   13 Jun 2027 05:13:39.557            42.708                Norilsk           296.500
       396   13 Jun 2027 05:13:40.967   13 Jun 2027 05:13:51.910            10.943                 Moscow           705.000
       397   13 Jun 2027 05:13:56.912   13 Jun 2027 05:14:23.956            27.044                 Moscow          2501.000
       398   13 Jun 2027 05:14:35.879   13 Jun 2027 05:15:34.095            58.216              Murmansk2          5961.500
       399   13 Jun 2027 05:15:41.055   13 Jun 2027 05:16:00.622            19.567              Murmansk1           353.500
       400   13 Jun 2027 05:16:01.712   13 Jun 2027 05:16:07.323             5.611                 Moscow           545.000
       401   13 Jun 2027 05:16:17.541   13 Jun 2027 05:17:37.827            80.286                Novosib          1523.500
       402   13 Jun 2027 06:47:37.373   13 Jun 2027 06:48:10.047            32.674                Norilsk          1753.000
       403   13 Jun 2027 06:48:15.021   13 Jun 2027 06:48:37.535            22.514                Norilsk          2487.000
       404   13 Jun 2027 06:48:37.831   13 Jun 2027 06:49:03.928            26.097              Murmansk1           148.000
       405   13 Jun 2027 06:49:05.455   13 Jun 2027 06:49:29.018            23.563                 Moscow           763.500
       406   13 Jun 2027 06:49:30.129   13 Jun 2027 06:49:54.921            24.792                 Moscow           555.500
       407   13 Jun 2027 06:50:02.473   13 Jun 2027 06:51:17.498            75.025                 Moscow          3776.000
       408   13 Jun 2027 06:51:25.907   13 Jun 2027 06:51:56.527            30.620                Norilsk          3827.500
       409   13 Jun 2027 06:51:59.453   13 Jun 2027 06:52:24.131            24.678              Murmansk1           377.000
       410   13 Jun 2027 08:21:34.044   13 Jun 2027 08:22:46.356            72.312                 Moscow          6329.000
       411   13 Jun 2027 08:22:46.839   13 Jun 2027 08:23:10.814            23.975                 Moscow           241.500
       412   13 Jun 2027 08:23:12.319   13 Jun 2027 08:23:36.351            24.032              Murmansk1           752.500
       413   13 Jun 2027 08:23:57.066   13 Jun 2027 08:25:41.983           104.917              Murmansk1         10357.500
       414   13 Jun 2027 08:25:51.146   13 Jun 2027 08:26:32.370            41.224                 Moscow          4581.500
       415   13 Jun 2027 08:26:36.350   13 Jun 2027 08:26:53.051            16.701              Murmansk1          1990.000
       416   13 Jun 2027 08:27:22.520   13 Jun 2027 08:29:24.488           121.968                Norilsk         14734.500
