uniorb/output/strategy_2/Drop/Drop_KinoSat_111207.txt

KinoSat_111207
-------------------------
    Access    *     Start Time (UTCG)     *     Stop Time (UTCG)  *   Duration (s)        *       Station  *  Data (Mbytes)
         1   01 Jun 2027 03:14:56.778   01 Jun 2027 03:15:33.160            36.382                Norilsk          1136.938
         2   01 Jun 2027 03:15:47.676   01 Jun 2027 03:16:45.287            57.611              Murmansk1          1800.344
         3   01 Jun 2027 03:17:25.468   01 Jun 2027 03:20:15.707           170.239                 Moscow          5319.969
         4   01 Jun 2027 03:33:29.735   01 Jun 2027 03:36:16.379           166.644               CapeTown          5207.625
         5   01 Jun 2027 04:30:14.773   01 Jun 2027 04:31:42.230            87.457                Anadyr1          2733.031
         6   01 Jun 2027 04:37:01.722   01 Jun 2027 04:37:57.811            56.089               Magadan1          1752.781
         7   01 Jun 2027 04:37:57.811   01 Jun 2027 04:38:02.266             4.455               Magadan2           139.219
         8   01 Jun 2027 04:38:13.295   01 Jun 2027 04:40:40.623           147.328               Magadan1          4604.000
         9   01 Jun 2027 04:41:01.122   01 Jun 2027 04:41:05.519             4.397                Anadyr1           137.406
        10   01 Jun 2027 06:15:09.599   01 Jun 2027 06:15:33.884            24.285                Norilsk           758.906
        11   01 Jun 2027 06:16:07.617   01 Jun 2027 06:18:56.808           169.191                Anadyr1          5287.219
        12   01 Jun 2027 07:48:16.008   01 Jun 2027 07:49:38.711            82.703               Magadan1          2584.469
        13   01 Jun 2027 07:49:44.492   01 Jun 2027 07:51:52.422           127.930               Magadan2          3997.813
        14   01 Jun 2027 07:51:58.036   01 Jun 2027 07:52:50.104            52.068               Magadan1          1627.125
        15   01 Jun 2027 07:52:55.273   01 Jun 2027 07:53:25.008            29.735                Anadyr2           929.219
        16   01 Jun 2027 07:53:30.456   01 Jun 2027 07:54:58.836            88.380                Novosib          2761.875
        17   01 Jun 2027 09:25:05.410   01 Jun 2027 09:27:11.965           126.555               Magadan1          3954.844
        18   01 Jun 2027 09:27:41.896   01 Jun 2027 09:27:57.246            15.350                Norilsk           479.688
        19   01 Jun 2027 09:28:11.046   01 Jun 2027 09:29:45.872            94.826              Murmansk1          2963.313
        20   01 Jun 2027 09:30:04.738   01 Jun 2027 09:30:29.695            24.957                Irkutsk           779.906
        21   01 Jun 2027 09:30:31.285   01 Jun 2027 09:32:06.927            95.642                Norilsk          2988.812
        22   01 Jun 2027 09:33:15.706   01 Jun 2027 09:33:36.702            20.996                Norilsk           656.125
        23   01 Jun 2027 10:05:42.930   01 Jun 2027 10:07:08.443            85.513            RioGallegos          2672.281
        24   01 Jun 2027 10:10:25.566   01 Jun 2027 10:10:30.890             5.324            RioGallegos           166.375
        25   01 Jun 2027 10:40:07.399   01 Jun 2027 10:42:17.862           130.463                Sumatra          4076.969
        26   01 Jun 2027 10:49:14.226   01 Jun 2027 10:50:39.610            85.384                  Delhi          2668.250
        27   01 Jun 2027 11:02:11.152   01 Jun 2027 11:02:36.112            24.960                Norilsk           780.000
        28   01 Jun 2027 11:02:44.592   01 Jun 2027 11:05:02.799           138.207              Murmansk2          4318.969
        29   01 Jun 2027 11:05:09.780   01 Jun 2027 11:06:10.246            60.466                 Moscow          1889.562
        30   01 Jun 2027 11:06:16.888   01 Jun 2027 11:07:33.928            77.040              Murmansk1          2407.500
        31   01 Jun 2027 12:24:43.810   01 Jun 2027 12:26:04.453            80.643                  Delhi          2520.094
        32   01 Jun 2027 12:32:53.846   01 Jun 2027 12:36:14.447           200.601                Novosib          6268.781
        33   01 Jun 2027 12:36:24.076   01 Jun 2027 12:37:36.923            72.847              Murmansk1          2276.469
        34   01 Jun 2027 12:37:59.596   01 Jun 2027 12:38:40.256            40.660              Murmansk1          1270.625
        35   01 Jun 2027 14:08:37.328   01 Jun 2027 14:10:49.971           132.643                 Moscow          4145.094
        36   01 Jun 2027 14:12:08.200   01 Jun 2027 14:16:10.050           241.850              Murmansk2          7557.812
        37   01 Jun 2027 15:22:37.299   01 Jun 2027 15:24:22.864           105.565               CapeTown          3298.906
        38   01 Jun 2027 15:46:52.053   01 Jun 2027 15:47:14.189            22.136                 Moscow           691.750
        39   01 Jun 2027 15:47:29.027   01 Jun 2027 15:48:12.915            43.888                 Moscow          1371.500
        40   01 Jun 2027 15:49:38.609   01 Jun 2027 15:52:13.418           154.809              Murmansk1          4837.781
        41   01 Jun 2027 15:53:15.797   01 Jun 2027 15:53:24.254             8.457              Murmansk2           264.281
        42   01 Jun 2027 15:53:38.404   01 Jun 2027 15:54:08.668            30.264              Murmansk2           945.750
        43   01 Jun 2027 16:02:57.329   01 Jun 2027 16:05:28.663           151.334                Anadyr2          4729.187
        44   01 Jun 2027 16:58:18.777   01 Jun 2027 17:00:04.923           106.146               CapeTown          3317.063
        45   01 Jun 2027 17:02:39.412   01 Jun 2027 17:02:46.683             7.271               CapeTown           227.219
        46   01 Jun 2027 17:29:38.787   01 Jun 2027 17:32:54.919           196.132              Murmansk1          6129.125
        47   01 Jun 2027 17:33:28.322   01 Jun 2027 17:34:06.827            38.505              Murmansk1          1203.281
        48   01 Jun 2027 17:38:38.865   01 Jun 2027 17:40:44.471           125.606                Anadyr1          3925.187
        49   01 Jun 2027 17:41:37.953   01 Jun 2027 17:43:55.732           137.779               Magadan1          4305.594
        50   01 Jun 2027 19:14:34.573   01 Jun 2027 19:16:36.952           122.379                Anadyr1          3824.344
        51   01 Jun 2027 19:16:52.530   01 Jun 2027 19:20:52.961           240.431               Magadan1          7513.469
        52   01 Jun 2027 20:10:19.156   01 Jun 2027 20:13:06.943           167.787            RioGallegos          5243.344
        53   01 Jun 2027 20:50:22.101   01 Jun 2027 20:50:53.515            31.414                Anadyr1           981.687
        54   01 Jun 2027 20:51:36.663   01 Jun 2027 20:52:16.958            40.295                Anadyr1          1259.219
        55   01 Jun 2027 20:52:31.052   01 Jun 2027 20:55:03.930           152.878                Norilsk          4777.437
        56   01 Jun 2027 20:55:23.572   01 Jun 2027 20:55:45.190            21.618                Norilsk           675.562
        57   01 Jun 2027 20:56:04.786   01 Jun 2027 20:56:08.065             3.279                Norilsk           102.469
        58   01 Jun 2027 20:57:16.489   01 Jun 2027 20:58:27.749            71.260                Irkutsk          2226.875
        59   01 Jun 2027 21:00:13.422   01 Jun 2027 21:00:34.292            20.870                Irkutsk           652.187
        60   01 Jun 2027 21:11:54.922   01 Jun 2027 21:13:09.989            75.067                Sumatra          2345.844
        61   01 Jun 2027 21:15:18.320   01 Jun 2027 21:16:35.679            77.359                Sumatra          2417.469
        62   01 Jun 2027 22:25:34.200   01 Jun 2027 22:27:41.222           127.022                Anadyr1          3969.437
        63   01 Jun 2027 22:28:00.906   01 Jun 2027 22:28:05.896             4.990                Anadyr1           155.938
        64   01 Jun 2027 22:28:19.067   01 Jun 2027 22:30:21.465           122.398                Norilsk          3824.938
        65   01 Jun 2027 22:30:24.548   01 Jun 2027 22:30:52.733            28.185               Magadan1           880.781
        66   01 Jun 2027 22:30:57.404   01 Jun 2027 22:31:05.465             8.061               Magadan2           251.906
        67   01 Jun 2027 22:32:12.660   01 Jun 2027 22:34:29.639           136.979                Irkutsk          4280.594
        68   01 Jun 2027 22:36:04.995   01 Jun 2027 22:36:09.081             4.086                Novosib           127.687
        69   01 Jun 2027 22:42:08.378   01 Jun 2027 22:42:48.076            39.698                  Delhi          1240.562
        70   01 Jun 2027 22:46:40.087   01 Jun 2027 22:48:12.641            92.554                Sumatra          2892.312
        71   02 Jun 2027 00:00:13.152   02 Jun 2027 00:01:50.787            97.635                Anadyr2          3051.094
        72   02 Jun 2027 00:04:51.648   02 Jun 2027 00:05:29.427            37.779               Magadan1          1180.594
        73   02 Jun 2027 00:06:12.572   02 Jun 2027 00:06:20.672             8.100               Magadan2           253.125
        74   02 Jun 2027 00:07:07.175   02 Jun 2027 00:08:43.465            96.290              Murmansk1          3009.062
        75   02 Jun 2027 00:09:18.262   02 Jun 2027 00:11:23.965           125.703                Novosib          3928.219
        76   02 Jun 2027 00:16:01.690   02 Jun 2027 00:17:58.326           116.636                  Delhi          3644.875
        77   02 Jun 2027 01:32:52.755   02 Jun 2027 01:35:31.663           158.908                Anadyr1          4965.875
        78   02 Jun 2027 01:35:53.483   02 Jun 2027 01:35:59.981             6.498                Anadyr1           203.062
        79   02 Jun 2027 01:38:49.690   02 Jun 2027 01:40:11.772            82.082               Magadan2          2565.062
        80   02 Jun 2027 01:42:28.930   02 Jun 2027 01:44:08.416            99.486              Murmansk1          3108.938
        81   02 Jun 2027 01:44:37.855   02 Jun 2027 01:44:38.209             0.354              Murmansk2            11.063
        82   02 Jun 2027 01:45:58.090   02 Jun 2027 01:46:22.240            24.150                Irkutsk           754.688
        83   02 Jun 2027 01:46:25.473   02 Jun 2027 01:47:51.328            85.855                 Moscow          2682.969
        84   02 Jun 2027 02:12:59.840   02 Jun 2027 02:14:22.111            82.271               CapeTown          2570.969
        85   02 Jun 2027 03:07:34.777   02 Jun 2027 03:07:47.733            12.956                Anadyr1           404.875
        86   02 Jun 2027 03:27:42.613   02 Jun 2027 03:31:13.005           210.392              Murmansk1          6574.750
        87   02 Jun 2027 03:45:50.077   02 Jun 2027 03:46:10.609            20.532               CapeTown           641.625
        88   02 Jun 2027 03:46:20.419   02 Jun 2027 03:47:59.047            98.628               CapeTown          3082.125
        89   02 Jun 2027 04:48:33.218   02 Jun 2027 04:49:51.558            78.340               Magadan2          2448.125
        90   02 Jun 2027 04:50:11.043   02 Jun 2027 04:52:13.729           122.686               Magadan2          3833.937
        91   02 Jun 2027 04:52:13.729   02 Jun 2027 04:52:53.785            40.056               Magadan1          1251.750
        92   02 Jun 2027 04:52:53.785   02 Jun 2027 04:53:41.781            47.996               Magadan2          1499.875
        93   02 Jun 2027 04:54:11.401   02 Jun 2027 04:54:13.806             2.405               Magadan2            75.156
        94   02 Jun 2027 04:55:24.852   02 Jun 2027 04:55:33.346             8.494                Norilsk           265.438
        95   02 Jun 2027 06:26:51.509   02 Jun 2027 06:27:02.578            11.069                Irkutsk           345.906
        96   02 Jun 2027 06:27:14.356   02 Jun 2027 06:28:09.797            55.441                Anadyr1          1732.531
        97   02 Jun 2027 06:28:09.797   02 Jun 2027 06:29:24.595            74.798                Anadyr2          2337.438
        98   02 Jun 2027 06:29:29.018   02 Jun 2027 06:29:42.360            13.342               Magadan2           416.938
        99   02 Jun 2027 08:00:34.416   02 Jun 2027 08:01:17.953            43.537               Magadan2          1360.531
       100   02 Jun 2027 08:01:44.465   02 Jun 2027 08:02:26.106            41.641                Novosib          1301.281
       101   02 Jun 2027 08:02:47.427   02 Jun 2027 08:03:17.235            29.808               Magadan2           931.500
       102   02 Jun 2027 08:03:24.506   02 Jun 2027 08:04:04.660            40.154                Norilsk          1254.813
       103   02 Jun 2027 08:04:41.437   02 Jun 2027 08:04:42.073             0.636                Irkutsk            19.875
       104   02 Jun 2027 08:05:00.129   02 Jun 2027 08:06:22.885            82.756               Magadan2          2586.125
       105   02 Jun 2027 08:08:13.305   02 Jun 2027 08:08:31.826            18.521              Murmansk2           578.781
       106   02 Jun 2027 08:09:21.727   02 Jun 2027 08:09:29.062             7.335              Murmansk2           229.219
       107   02 Jun 2027 08:12:20.036   02 Jun 2027 08:12:33.740            13.704              Murmansk2           428.250
       108   02 Jun 2027 08:41:20.033   02 Jun 2027 08:42:36.171            76.138            RioGallegos          2379.312
       109   02 Jun 2027 08:42:49.640   02 Jun 2027 08:43:25.835            36.195            RioGallegos          1131.094
       110   02 Jun 2027 09:17:34.853   02 Jun 2027 09:18:21.336            46.483                Sumatra          1452.594
       111   02 Jun 2027 09:36:38.901   02 Jun 2027 09:36:43.434             4.533                Irkutsk           141.656
       112   02 Jun 2027 09:36:45.649   02 Jun 2027 09:36:52.719             7.070                Norilsk           220.937
       113   02 Jun 2027 09:37:35.683   02 Jun 2027 09:37:37.273             1.590                Novosib            49.688
       114   02 Jun 2027 09:37:50.856   02 Jun 2027 09:37:52.472             1.616                Norilsk            50.500
       115   02 Jun 2027 09:38:13.547   02 Jun 2027 09:38:14.392             0.845                Novosib            26.406
       116   02 Jun 2027 09:38:22.094   02 Jun 2027 09:38:42.527            20.433                Irkutsk           638.531
       117   02 Jun 2027 09:38:53.403   02 Jun 2027 09:39:13.435            20.032                Irkutsk           626.000
       118   02 Jun 2027 09:39:57.463   02 Jun 2027 09:40:03.288             5.825                Norilsk           182.031
       119   02 Jun 2027 09:40:22.768   02 Jun 2027 09:40:32.664             9.896              Murmansk1           309.250
       120   02 Jun 2027 09:40:36.714   02 Jun 2027 09:40:37.881             1.167                Irkutsk            36.469
       121   02 Jun 2027 09:40:38.349   02 Jun 2027 09:41:32.982            54.633                Novosib          1707.281
       122   02 Jun 2027 09:41:36.729   02 Jun 2027 09:41:43.105             6.376                Norilsk           199.250
       123   02 Jun 2027 09:41:58.785   02 Jun 2027 09:42:08.231             9.446                Norilsk           295.187
       124   02 Jun 2027 09:42:10.643   02 Jun 2027 09:42:12.664             2.021                Norilsk            63.156
       125   02 Jun 2027 09:42:16.209   02 Jun 2027 09:42:30.949            14.740                Irkutsk           460.625
       126   02 Jun 2027 09:42:43.913   02 Jun 2027 09:43:12.530            28.617              Murmansk2           894.281
       127   02 Jun 2027 09:45:49.276   02 Jun 2027 09:46:02.331            13.055              Murmansk2           407.969
       128   02 Jun 2027 10:18:03.844   02 Jun 2027 10:18:42.645            38.801            RioGallegos          1212.531
       129   02 Jun 2027 10:22:25.862   02 Jun 2027 10:23:05.408            39.546            RioGallegos          1235.813
       130   02 Jun 2027 10:52:21.529   02 Jun 2027 10:53:31.893            70.364                Sumatra          2198.875
       131   02 Jun 2027 11:01:38.295   02 Jun 2027 11:02:57.445            79.150                  Delhi          2473.438
       132   02 Jun 2027 11:13:35.156   02 Jun 2027 11:14:18.703            43.547                Irkutsk          1360.844
       133   02 Jun 2027 11:14:36.915   02 Jun 2027 11:15:02.878            25.963                Norilsk           811.344
       134   02 Jun 2027 11:15:05.100   02 Jun 2027 11:15:30.403            25.303              Murmansk2           790.719
       135   02 Jun 2027 11:15:32.559   02 Jun 2027 11:16:09.949            37.390                 Moscow          1168.438
       136   02 Jun 2027 11:16:14.138   02 Jun 2027 11:16:31.904            17.766                Norilsk           555.188
       137   02 Jun 2027 11:16:47.279   02 Jun 2027 11:17:16.736            29.457                Novosib           920.531
       138   02 Jun 2027 11:17:24.485   02 Jun 2027 11:18:11.852            47.367              Murmansk1          1480.219
       139   02 Jun 2027 12:37:09.361   02 Jun 2027 12:40:54.710           225.349                  Delhi          7042.156
       140   02 Jun 2027 12:45:29.276   02 Jun 2027 12:45:47.439            18.163                Novosib           567.594
       141   02 Jun 2027 12:46:42.829   02 Jun 2027 12:47:13.003            30.174                Novosib           942.938
       142   02 Jun 2027 12:48:19.278   02 Jun 2027 12:49:38.348            79.070              Murmansk1          2470.937
       143   02 Jun 2027 12:49:38.348   02 Jun 2027 12:49:58.045            19.697              Murmansk2           615.531
       144   02 Jun 2027 12:53:38.274   02 Jun 2027 12:53:44.693             6.419              Murmansk2           200.594
       145   02 Jun 2027 14:20:43.503   02 Jun 2027 14:23:54.470           190.967                 Moscow          5967.719
       146   02 Jun 2027 14:24:15.052   02 Jun 2027 14:27:25.911           190.859              Murmansk1          5964.344
       147   02 Jun 2027 14:27:32.150   02 Jun 2027 14:27:50.558            18.408              Murmansk1           575.250
       148   02 Jun 2027 14:30:23.853   02 Jun 2027 14:30:47.147            23.294                Norilsk           727.938
       149   02 Jun 2027 14:30:50.592   02 Jun 2027 14:31:14.973            24.381                Norilsk           761.906
       150   02 Jun 2027 14:31:56.707   02 Jun 2027 14:33:36.805           100.098                Norilsk          3128.063
       151   02 Jun 2027 14:40:44.444   02 Jun 2027 14:41:12.377            27.933                Anadyr1           872.906
       152   02 Jun 2027 14:41:43.897   02 Jun 2027 14:42:03.817            19.920                Anadyr2           622.500
       153   02 Jun 2027 14:43:15.810   02 Jun 2027 14:44:21.191            65.381                Anadyr2          2043.156
       154   02 Jun 2027 16:02:01.158   02 Jun 2027 16:02:08.754             7.596              Murmansk2           237.375
       155   02 Jun 2027 16:02:22.737   02 Jun 2027 16:03:22.835            60.098              Murmansk1          1878.062
       156   02 Jun 2027 16:05:39.803   02 Jun 2027 16:07:10.413            90.610              Murmansk1          2831.563
       157   02 Jun 2027 16:14:54.907   02 Jun 2027 16:17:19.145           144.238                Anadyr2          4507.438
       158   02 Jun 2027 17:10:32.164   02 Jun 2027 17:10:46.963            14.799               CapeTown           462.469
       159   02 Jun 2027 17:11:28.722   02 Jun 2027 17:12:06.469            37.747               CapeTown          1179.594
       160   02 Jun 2027 17:42:27.849   02 Jun 2027 17:45:30.381           182.532              Murmansk1          5704.125
       161   02 Jun 2027 17:50:40.078   02 Jun 2027 17:51:22.442            42.364                Anadyr1          1323.875
       162   02 Jun 2027 17:52:07.825   02 Jun 2027 17:53:06.327            58.502                Anadyr1          1828.187
       163   02 Jun 2027 17:53:28.927   02 Jun 2027 17:53:45.246            16.319               Magadan2           509.969
       164   02 Jun 2027 17:55:13.508   02 Jun 2027 17:57:02.047           108.539               Magadan2          3391.844
       165   02 Jun 2027 18:02:13.231   02 Jun 2027 18:02:16.282             3.051               Magadan2            95.344
       166   02 Jun 2027 18:02:28.807   02 Jun 2027 18:02:49.338            20.531               Magadan1           641.594
       167   02 Jun 2027 19:26:35.845   02 Jun 2027 19:30:21.663           225.818                Anadyr1          7056.812
       168   02 Jun 2027 19:30:47.589   02 Jun 2027 19:32:33.754           106.165               Magadan1          3317.656
       169   02 Jun 2027 19:32:33.754   02 Jun 2027 19:33:19.876            46.122               Magadan2          1441.313
       170   02 Jun 2027 20:21:48.846   02 Jun 2027 20:24:53.396           184.550            RioGallegos          5767.187
       171   02 Jun 2027 20:28:10.612   02 Jun 2027 20:28:35.191            24.579            RioGallegos           768.094
       172   02 Jun 2027 21:02:20.757   02 Jun 2027 21:02:55.274            34.517                Anadyr2          1078.656
       173   02 Jun 2027 21:04:29.482   02 Jun 2027 21:07:47.436           197.954                Norilsk          6186.063
       174   02 Jun 2027 21:08:07.736   02 Jun 2027 21:08:16.153             8.417                Norilsk           263.031
       175   02 Jun 2027 21:09:02.090   02 Jun 2027 21:10:14.644            72.554                Irkutsk          2267.313
       176   02 Jun 2027 21:11:54.423   02 Jun 2027 21:12:27.243            32.820                Irkutsk          1025.625
       177   02 Jun 2027 21:18:26.551   02 Jun 2027 21:18:27.692             1.141                Irkutsk            35.656
       178   02 Jun 2027 21:23:17.797   02 Jun 2027 21:26:12.634           174.837                Sumatra          5463.656
       179   02 Jun 2027 21:28:53.285   02 Jun 2027 21:29:38.849            45.564                Sumatra          1423.875
       180   02 Jun 2027 22:40:20.937   02 Jun 2027 22:40:54.397            33.460                Norilsk          1045.625
       181   02 Jun 2027 22:41:20.841   02 Jun 2027 22:41:49.599            28.758               Magadan1           898.688
       182   02 Jun 2027 22:42:36.399   02 Jun 2027 22:42:54.938            18.539               Magadan2           579.344
       183   02 Jun 2027 22:43:50.073   02 Jun 2027 22:44:12.924            22.851                Norilsk           714.094
       184   02 Jun 2027 22:44:13.133   02 Jun 2027 22:44:27.417            14.284                Irkutsk           446.375
       185   02 Jun 2027 22:44:38.725   02 Jun 2027 22:45:44.446            65.721                Novosib          2053.781
       186   02 Jun 2027 22:49:23.829   02 Jun 2027 22:49:30.985             7.156                Novosib           223.625
       187   02 Jun 2027 22:49:38.123   02 Jun 2027 22:50:09.544            31.421                Novosib           981.906
       188   02 Jun 2027 22:50:44.431   02 Jun 2027 22:51:26.200            41.769                Novosib          1305.281
       189   02 Jun 2027 22:53:19.932   02 Jun 2027 22:54:23.648            63.716                  Delhi          1991.125
       190   02 Jun 2027 22:54:29.901   02 Jun 2027 22:56:01.285            91.384                  Delhi          2855.750
       191   03 Jun 2027 00:11:17.921   03 Jun 2027 00:11:20.903             2.982                Anadyr2            93.188
       192   03 Jun 2027 00:11:32.711   03 Jun 2027 00:12:03.977            31.266                Anadyr2           977.062
       193   03 Jun 2027 00:13:36.680   03 Jun 2027 00:13:49.097            12.417                Anadyr2           388.031
       194   03 Jun 2027 00:16:05.261   03 Jun 2027 00:16:48.714            43.453                Anadyr1          1357.906
       195   03 Jun 2027 00:16:49.410   03 Jun 2027 00:17:03.034            13.624               Magadan2           425.750
       196   03 Jun 2027 00:17:12.491   03 Jun 2027 00:18:13.022            60.531                Norilsk          1891.594
       197   03 Jun 2027 00:18:31.986   03 Jun 2027 00:18:50.102            18.116               Magadan1           566.125
       198   03 Jun 2027 00:18:58.403   03 Jun 2027 00:21:15.163           136.760              Murmansk2          4273.750
       199   03 Jun 2027 00:21:15.163   03 Jun 2027 00:23:41.943           146.780              Murmansk1          4586.875
       200   03 Jun 2027 00:32:13.697   03 Jun 2027 00:32:20.232             6.535                  Delhi           204.219
       201   03 Jun 2027 00:37:37.071   03 Jun 2027 00:38:07.520            30.449                  Delhi           951.531
       202   03 Jun 2027 01:09:59.260   03 Jun 2027 01:10:28.862            29.602            RioGallegos           925.063
       203   03 Jun 2027 01:13:46.042   03 Jun 2027 01:14:21.470            35.428            RioGallegos          1107.125
       204   03 Jun 2027 01:44:35.460   03 Jun 2027 01:45:40.019            64.559                Anadyr1          2017.469
       205   03 Jun 2027 01:45:54.615   03 Jun 2027 01:46:34.366            39.751                Anadyr1          1242.219
       206   03 Jun 2027 01:47:19.040   03 Jun 2027 01:47:36.591            17.551                Anadyr2           548.469
       207   03 Jun 2027 01:50:20.442   03 Jun 2027 01:51:27.265            66.823               Magadan1          2088.219
       208   03 Jun 2027 01:52:13.960   03 Jun 2027 01:52:38.949            24.989                Norilsk           780.906
       209   03 Jun 2027 01:54:29.761   03 Jun 2027 01:55:21.215            51.454              Murmansk2          1607.938
       210   03 Jun 2027 01:56:19.243   03 Jun 2027 01:56:39.587            20.344              Murmansk2           635.750
       211   03 Jun 2027 01:57:11.512   03 Jun 2027 01:58:57.312           105.800                Novosib          3306.250
       212   03 Jun 2027 02:07:05.647   03 Jun 2027 02:07:23.714            18.067                 Moscow           564.594
       213   03 Jun 2027 02:07:27.374   03 Jun 2027 02:07:34.405             7.031                  Delhi           219.719
       214   03 Jun 2027 02:09:37.208   03 Jun 2027 02:09:45.670             8.462                  Delhi           264.437
       215   03 Jun 2027 02:23:16.615   03 Jun 2027 02:23:46.703            30.088               CapeTown           940.250
       216   03 Jun 2027 02:26:57.792   03 Jun 2027 02:28:23.838            86.046               CapeTown          2688.938
       217   03 Jun 2027 03:40:35.988   03 Jun 2027 03:43:19.051           163.063              Murmansk1          5095.719
       218   03 Jun 2027 05:01:11.009   03 Jun 2027 05:02:59.107           108.098               Magadan2          3378.062
       219   03 Jun 2027 05:03:09.049   03 Jun 2027 05:03:41.549            32.500               Magadan2          1015.625
       220   03 Jun 2027 05:03:46.393   03 Jun 2027 05:04:08.119            21.726                Anadyr1           678.937
       221   03 Jun 2027 05:05:09.789   03 Jun 2027 05:05:44.210            34.421               Magadan1          1075.656
       222   03 Jun 2027 06:37:40.469   03 Jun 2027 06:37:44.056             3.587                Anadyr1           112.094
       223   03 Jun 2027 06:38:10.818   03 Jun 2027 06:38:31.343            20.525               Magadan1           641.406
       224   03 Jun 2027 06:38:33.444   03 Jun 2027 06:38:39.140             5.696                Anadyr1           178.000
       225   03 Jun 2027 06:38:49.109   03 Jun 2027 06:39:06.126            17.017               Magadan1           531.781
       226   03 Jun 2027 06:39:08.371   03 Jun 2027 06:39:34.981            26.610                Irkutsk           831.563
       227   03 Jun 2027 06:39:35.151   03 Jun 2027 06:40:50.601            75.450               Magadan1          2357.813
       228   03 Jun 2027 07:19:55.526   03 Jun 2027 07:20:55.261            59.735            RioGallegos          1866.719
       229   03 Jun 2027 08:12:09.971   03 Jun 2027 08:12:14.420             4.449               Magadan1           139.031
       230   03 Jun 2027 08:12:44.845   03 Jun 2027 08:13:29.728            44.883                Irkutsk          1402.594
       231   03 Jun 2027 08:13:35.090   03 Jun 2027 08:14:19.027            43.937                Irkutsk          1373.031
       232   03 Jun 2027 08:14:44.797   03 Jun 2027 08:15:19.560            34.763               Magadan2          1086.344
       233   03 Jun 2027 08:15:49.492   03 Jun 2027 08:17:01.854            72.362               Magadan2          2261.313
       234   03 Jun 2027 08:17:04.687   03 Jun 2027 08:17:30.750            26.063              Murmansk2           814.469
       235   03 Jun 2027 08:17:48.957   03 Jun 2027 08:18:08.247            19.290               Magadan2           602.812
       236   03 Jun 2027 08:18:10.829   03 Jun 2027 08:18:56.249            45.420              Murmansk2          1419.375
       237   03 Jun 2027 08:19:51.705   03 Jun 2027 08:19:58.281             6.576              Murmansk2           205.500
       238   03 Jun 2027 08:53:15.380   03 Jun 2027 08:54:22.860            67.480            RioGallegos          2108.750
       239   03 Jun 2027 09:00:20.013   03 Jun 2027 09:01:00.258            40.245            RioGallegos          1257.656
       240   03 Jun 2027 09:29:03.293   03 Jun 2027 09:30:23.736            80.443                Sumatra          2513.844
       241   03 Jun 2027 09:48:37.761   03 Jun 2027 09:49:47.673            69.912                Novosib          2184.750
       242   03 Jun 2027 09:50:07.399   03 Jun 2027 09:50:15.162             7.763                Irkutsk           242.594
       243   03 Jun 2027 09:50:16.504   03 Jun 2027 09:50:23.839             7.335                Irkutsk           229.219
       244   03 Jun 2027 09:50:25.334   03 Jun 2027 09:50:30.151             4.817                Norilsk           150.531
       245   03 Jun 2027 09:50:38.026   03 Jun 2027 09:50:49.368            11.342                Novosib           354.437
       246   03 Jun 2027 09:50:52.643   03 Jun 2027 09:50:56.316             3.673                Novosib           114.781
       247   03 Jun 2027 09:51:01.452   03 Jun 2027 09:51:18.429            16.977                Irkutsk           530.531
       248   03 Jun 2027 09:51:24.211   03 Jun 2027 09:51:34.471            10.260              Murmansk1           320.625
       249   03 Jun 2027 09:51:46.030   03 Jun 2027 09:52:21.354            35.324              Murmansk2          1103.875
       250   03 Jun 2027 09:52:37.132   03 Jun 2027 09:53:32.258            55.126              Murmansk2          1722.688
       251   03 Jun 2027 09:53:44.823   03 Jun 2027 09:53:52.358             7.535                Norilsk           235.469
       252   03 Jun 2027 09:53:55.609   03 Jun 2027 09:54:07.938            12.329                Novosib           385.281
       253   03 Jun 2027 09:54:14.653   03 Jun 2027 09:54:55.750            41.097                Novosib          1284.281
       254   03 Jun 2027 10:30:29.674   03 Jun 2027 10:31:22.786            53.112            RioGallegos          1659.750
       255   03 Jun 2027 10:33:03.550   03 Jun 2027 10:33:19.768            16.218            RioGallegos           506.813
       256   03 Jun 2027 11:04:42.912   03 Jun 2027 11:06:05.785            82.873                Sumatra          2589.781
       257   03 Jun 2027 11:19:22.059   03 Jun 2027 11:19:44.979            22.920                  Delhi           716.250
       258   03 Jun 2027 11:25:47.801   03 Jun 2027 11:26:33.625            45.824              Murmansk1          1432.000
       259   03 Jun 2027 11:26:37.249   03 Jun 2027 11:27:29.322            52.073                Norilsk          1627.281
       260   03 Jun 2027 11:27:32.038   03 Jun 2027 11:27:48.020            15.982              Murmansk1           499.438
       261   03 Jun 2027 11:27:53.718   03 Jun 2027 11:28:02.889             9.171                Norilsk           286.594
       262   03 Jun 2027 11:28:03.031   03 Jun 2027 11:28:54.376            51.345                 Moscow          1604.531
       263   03 Jun 2027 11:29:10.600   03 Jun 2027 11:29:55.537            44.937                 Moscow          1404.281
       264   03 Jun 2027 11:29:58.802   03 Jun 2027 11:30:22.458            23.656                Norilsk           739.250
       265   03 Jun 2027 11:30:27.737   03 Jun 2027 11:31:32.025            64.288              Murmansk1          2009.000
       266   03 Jun 2027 12:49:44.042   03 Jun 2027 12:51:12.258            88.216                  Delhi          2756.750
       267   03 Jun 2027 12:52:40.118   03 Jun 2027 12:53:25.859            45.741                  Delhi          1429.406
       268   03 Jun 2027 12:57:15.977   03 Jun 2027 12:57:46.791            30.814                 Moscow           962.938
       269   03 Jun 2027 12:58:04.365   03 Jun 2027 12:58:57.543            53.178                 Moscow          1661.813
       270   03 Jun 2027 13:00:15.724   03 Jun 2027 13:01:39.897            84.173              Murmansk1          2630.406
       271   03 Jun 2027 13:01:44.630   03 Jun 2027 13:02:23.160            38.530                Norilsk          1204.062
       272   03 Jun 2027 13:05:58.836   03 Jun 2027 13:06:23.805            24.969                Norilsk           780.281
       273   03 Jun 2027 14:32:52.829   03 Jun 2027 14:34:42.344           109.515                 Moscow          3422.344
       274   03 Jun 2027 14:36:23.635   03 Jun 2027 14:39:51.131           207.496              Murmansk1          6484.250
       275   03 Jun 2027 14:40:07.144   03 Jun 2027 14:40:14.888             7.744              Murmansk1           242.000
       276   03 Jun 2027 14:43:38.670   03 Jun 2027 14:45:36.166           117.496                Norilsk          3671.750
       277   03 Jun 2027 14:52:10.377   03 Jun 2027 14:53:09.763            59.386                Anadyr2          1855.813
       278   03 Jun 2027 14:54:06.287   03 Jun 2027 14:54:26.274            19.987                Anadyr1           624.594
       279   03 Jun 2027 14:55:01.195   03 Jun 2027 14:55:19.776            18.581                Anadyr2           580.656
       280   03 Jun 2027 15:46:18.117   03 Jun 2027 15:47:15.330            57.213               CapeTown          1787.906
       281   03 Jun 2027 15:54:02.692   03 Jun 2027 15:54:29.804            27.112               CapeTown           847.250
       282   03 Jun 2027 16:12:22.078   03 Jun 2027 16:12:59.102            37.024                 Moscow          1157.000
       283   03 Jun 2027 16:14:26.075   03 Jun 2027 16:15:23.518            57.443              Murmansk1          1795.094
       284   03 Jun 2027 16:17:04.096   03 Jun 2027 16:17:18.484            14.388              Murmansk1           449.625
       285   03 Jun 2027 16:23:18.662   03 Jun 2027 16:23:55.904            37.242              Murmansk1          1163.812
       286   03 Jun 2027 16:26:53.346   03 Jun 2027 16:28:54.406           121.060                Anadyr1          3783.125
       287   03 Jun 2027 16:37:30.172   03 Jun 2027 16:37:52.308            22.136                Anadyr2           691.750
       288   03 Jun 2027 17:22:49.756   03 Jun 2027 17:23:55.806            66.050               CapeTown          2064.063
       289   03 Jun 2027 17:27:49.645   03 Jun 2027 17:28:14.217            24.572               CapeTown           767.875
       290   03 Jun 2027 17:55:24.565   03 Jun 2027 17:59:47.517           262.952              Murmansk2          8217.250
       291   03 Jun 2027 18:03:04.131   03 Jun 2027 18:03:14.060             9.929                Anadyr1           310.281
       292   03 Jun 2027 18:04:05.326   03 Jun 2027 18:04:45.338            40.012                Anadyr2          1250.375
       293   03 Jun 2027 18:05:22.180   03 Jun 2027 18:06:54.705            92.525               Magadan1          2891.406
       294   03 Jun 2027 18:12:46.983   03 Jun 2027 18:13:17.999            31.016               Magadan2           969.250
       295   03 Jun 2027 19:38:36.959   03 Jun 2027 19:40:40.289           123.330                Anadyr1          3854.063
       296   03 Jun 2027 19:40:53.544   03 Jun 2027 19:45:25.240           271.696               Magadan2          8490.500
       297   03 Jun 2027 19:53:40.634   03 Jun 2027 19:53:48.161             7.527               Magadan1           235.219
       298   03 Jun 2027 20:33:27.694   03 Jun 2027 20:36:19.189           171.495            RioGallegos          5359.219
       299   03 Jun 2027 20:37:40.372   03 Jun 2027 20:37:56.432            16.060            RioGallegos           501.875
       300   03 Jun 2027 20:38:04.347   03 Jun 2027 20:38:36.795            32.448            RioGallegos          1014.000
       301   03 Jun 2027 20:39:55.195   03 Jun 2027 20:39:55.752             0.557            RioGallegos            17.406
       302   03 Jun 2027 21:14:18.811   03 Jun 2027 21:15:03.431            44.620                Anadyr2          1394.375
       303   03 Jun 2027 21:16:28.809   03 Jun 2027 21:17:18.641            49.832                Norilsk          1557.250
       304   03 Jun 2027 21:17:42.629   03 Jun 2027 21:19:22.218            99.589               Magadan2          3112.156
       305   03 Jun 2027 21:19:56.562   03 Jun 2027 21:20:15.555            18.993               Magadan2           593.531
       306   03 Jun 2027 21:20:51.317   03 Jun 2027 21:21:55.209            63.892                Irkutsk          1996.625
       307   03 Jun 2027 21:22:27.384   03 Jun 2027 21:23:10.573            43.189                Irkutsk          1349.656
       308   03 Jun 2027 21:23:54.469   03 Jun 2027 21:24:09.850            15.381                Irkutsk           480.656
       309   03 Jun 2027 21:34:51.008   03 Jun 2027 21:38:03.387           192.379                Sumatra          6011.844
       310   03 Jun 2027 22:51:11.449   03 Jun 2027 22:51:39.191            27.742                Anadyr2           866.937
       311   03 Jun 2027 22:51:47.106   03 Jun 2027 22:51:48.964             1.858                Anadyr2            58.063
       312   03 Jun 2027 22:51:50.240   03 Jun 2027 22:51:55.002             4.762                Anadyr2           148.812
       313   03 Jun 2027 22:53:00.817   03 Jun 2027 22:53:21.815            20.998               Magadan2           656.188
       314   03 Jun 2027 22:53:21.815   03 Jun 2027 22:54:22.202            60.387               Magadan1          1887.094
       315   03 Jun 2027 22:55:31.680   03 Jun 2027 22:56:02.118            30.438               Magadan2           951.188
       316   03 Jun 2027 22:56:14.491   03 Jun 2027 22:56:50.533            36.042                Irkutsk          1126.313
       317   03 Jun 2027 22:57:06.130   03 Jun 2027 22:57:40.868            34.738                Irkutsk          1085.562
       318   03 Jun 2027 22:58:01.778   03 Jun 2027 22:59:28.030            86.252                Novosib          2695.375
       319   03 Jun 2027 23:02:53.489   03 Jun 2027 23:03:06.724            13.235                Novosib           413.594
       320   03 Jun 2027 23:04:46.825   03 Jun 2027 23:05:42.964            56.139                  Delhi          1754.344
       321   03 Jun 2027 23:08:51.590   03 Jun 2027 23:09:03.508            11.918                  Delhi           372.438
       322   03 Jun 2027 23:10:03.694   03 Jun 2027 23:11:20.016            76.322                  Delhi          2385.062
       323   04 Jun 2027 00:22:59.606   04 Jun 2027 00:23:50.264            50.658                Anadyr2          1583.063
       324   04 Jun 2027 00:25:23.820   04 Jun 2027 00:25:30.531             6.711                Anadyr1           209.719
       325   04 Jun 2027 00:25:45.050   04 Jun 2027 00:25:59.625            14.575                Anadyr1           455.469
       326   04 Jun 2027 00:28:22.978   04 Jun 2027 00:29:18.317            55.339                Norilsk          1729.344
       327   04 Jun 2027 00:29:35.661   04 Jun 2027 00:30:08.482            32.821               Magadan2          1025.656
       328   04 Jun 2027 00:30:35.308   04 Jun 2027 00:30:52.698            17.390               Magadan2           543.438
       329   04 Jun 2027 00:31:24.819   04 Jun 2027 00:35:04.665           219.846              Murmansk2          6870.188
       330   04 Jun 2027 00:37:15.821   04 Jun 2027 00:37:50.404            34.583                 Moscow          1080.719
       331   04 Jun 2027 00:38:27.974   04 Jun 2027 00:38:52.616            24.642                 Moscow           770.063
       332   04 Jun 2027 00:48:53.577   04 Jun 2027 00:49:16.730            23.153                  Delhi           723.531
       333   04 Jun 2027 01:22:42.617   04 Jun 2027 01:23:07.766            25.149            RioGallegos           785.906
       334   04 Jun 2027 01:23:19.986   04 Jun 2027 01:24:30.100            70.114            RioGallegos          2191.062
       335   04 Jun 2027 01:56:18.978   04 Jun 2027 01:56:40.405            21.427                Anadyr1           669.594
       336   04 Jun 2027 01:56:41.505   04 Jun 2027 01:56:57.474            15.969                Anadyr2           499.031
       337   04 Jun 2027 01:57:40.560   04 Jun 2027 01:57:53.598            13.038                Anadyr1           407.438
       338   04 Jun 2027 01:57:53.598   04 Jun 2027 01:58:35.718            42.120                Anadyr2          1316.250
       339   04 Jun 2027 01:59:17.303   04 Jun 2027 01:59:29.332            12.029                Anadyr1           375.906
       340   04 Jun 2027 02:01:49.505   04 Jun 2027 02:03:00.837            71.332               Magadan1          2229.125
       341   04 Jun 2027 02:04:13.819   04 Jun 2027 02:04:30.310            16.491                Norilsk           515.344
       342   04 Jun 2027 02:05:35.823   04 Jun 2027 02:06:05.555            29.732               Magadan1           929.125
       343   04 Jun 2027 02:06:30.897   04 Jun 2027 02:07:22.465            51.568              Murmansk1          1611.500
       344   04 Jun 2027 02:08:21.772   04 Jun 2027 02:08:44.001            22.229              Murmansk2           694.656
       345   04 Jun 2027 02:08:47.940   04 Jun 2027 02:09:29.770            41.830                Novosib          1307.187
       346   04 Jun 2027 02:11:20.836   04 Jun 2027 02:11:32.355            11.519                Novosib           359.969
       347   04 Jun 2027 02:13:02.378   04 Jun 2027 02:14:07.410            65.032                Novosib          2032.250
       348   04 Jun 2027 02:34:46.940   04 Jun 2027 02:35:54.439            67.499               CapeTown          2109.344
       349   04 Jun 2027 02:45:22.185   04 Jun 2027 02:45:39.049            16.864               CapeTown           527.000
       350   04 Jun 2027 03:52:04.699   04 Jun 2027 03:52:52.444            47.745              Murmansk1          1492.031
       351   04 Jun 2027 03:52:52.444   04 Jun 2027 03:53:48.190            55.746              Murmansk2          1742.062
       352   04 Jun 2027 03:53:48.190   04 Jun 2027 03:54:26.566            38.376              Murmansk1          1199.250
       353   04 Jun 2027 03:54:26.566   04 Jun 2027 03:55:09.029            42.463              Murmansk2          1326.969
       354   04 Jun 2027 05:13:45.925   04 Jun 2027 05:15:08.914            82.989               Magadan1          2593.406
       355   04 Jun 2027 05:15:10.636   04 Jun 2027 05:16:05.421            54.785               Magadan2          1712.031
       356   04 Jun 2027 05:16:13.609   04 Jun 2027 05:16:19.031             5.422                Anadyr1           169.437
       357   04 Jun 2027 05:16:24.740   04 Jun 2027 05:16:40.900            16.160                Anadyr2           505.000
       358   04 Jun 2027 05:17:01.537   04 Jun 2027 05:17:04.990             3.453               Magadan2           107.906
       359   04 Jun 2027 05:17:29.499   04 Jun 2027 05:18:52.606            83.107               Magadan1          2597.094
       360   04 Jun 2027 05:18:55.140   04 Jun 2027 05:19:13.159            18.019                Anadyr1           563.094
       361   04 Jun 2027 06:49:20.934   04 Jun 2027 06:49:52.515            31.581               Magadan1           986.906
       362   04 Jun 2027 06:50:03.386   04 Jun 2027 06:50:38.339            34.953               Magadan2          1092.281
       363   04 Jun 2027 06:50:51.972   04 Jun 2027 06:51:04.181            12.209               Magadan2           381.531
       364   04 Jun 2027 06:51:04.181   04 Jun 2027 06:51:42.937            38.756               Magadan1          1211.125
       365   04 Jun 2027 06:51:45.338   04 Jun 2027 06:52:20.223            34.885                Anadyr1          1090.156
       366   04 Jun 2027 06:52:20.223   04 Jun 2027 06:53:26.166            65.943                Anadyr2          2060.719
       367   04 Jun 2027 07:31:10.403   04 Jun 2027 07:31:29.673            19.270            RioGallegos           602.187
       368   04 Jun 2027 07:32:06.530   04 Jun 2027 07:33:17.339            70.809            RioGallegos          2212.781
       369   04 Jun 2027 08:23:24.188   04 Jun 2027 08:24:31.454            67.266                Novosib          2102.062
       370   04 Jun 2027 08:25:17.344   04 Jun 2027 08:25:31.303            13.959                Irkutsk           436.219
       371   04 Jun 2027 08:25:54.870   04 Jun 2027 08:26:13.861            18.991               Magadan2           593.469
       372   04 Jun 2027 08:26:33.292   04 Jun 2027 08:26:41.038             7.746               Magadan2           242.063
       373   04 Jun 2027 08:26:43.402   04 Jun 2027 08:27:22.232            38.830               Magadan1          1213.438
       374   04 Jun 2027 08:27:26.295   04 Jun 2027 08:27:39.741            13.446                Novosib           420.187
       375   04 Jun 2027 08:27:51.701   04 Jun 2027 08:30:00.843           129.142               Magadan2          4035.688
       376   04 Jun 2027 08:30:26.697   04 Jun 2027 08:30:31.389             4.692                Norilsk           146.625
       377   04 Jun 2027 08:30:44.983   04 Jun 2027 08:30:52.076             7.093              Murmansk2           221.656
       378   04 Jun 2027 08:31:47.739   04 Jun 2027 08:32:13.418            25.679              Murmansk2           802.469
       379   04 Jun 2027 08:32:13.418   04 Jun 2027 08:32:42.094            28.676              Murmansk1           896.125
       380   04 Jun 2027 09:05:13.972   04 Jun 2027 09:06:31.022            77.050            RioGallegos          2407.813
       381   04 Jun 2027 09:41:36.372   04 Jun 2027 09:42:49.258            72.886                Sumatra          2277.688
       382   04 Jun 2027 09:54:01.229   04 Jun 2027 09:54:37.893            36.664                  Delhi          1145.750
       383   04 Jun 2027 10:00:39.421   04 Jun 2027 10:00:53.603            14.182                Irkutsk           443.187
       384   04 Jun 2027 10:01:55.193   04 Jun 2027 10:02:20.487            25.294                Novosib           790.438
       385   04 Jun 2027 10:02:27.497   04 Jun 2027 10:02:46.629            19.132                Irkutsk           597.875
       386   04 Jun 2027 10:02:49.163   04 Jun 2027 10:03:16.958            27.795                Norilsk           868.594
       387   04 Jun 2027 10:03:26.862   04 Jun 2027 10:04:16.239            49.377                Irkutsk          1543.031
       388   04 Jun 2027 10:04:22.705   04 Jun 2027 10:04:40.070            17.365                Norilsk           542.656
       389   04 Jun 2027 10:04:47.138   04 Jun 2027 10:05:00.370            13.232                Irkutsk           413.500
       390   04 Jun 2027 10:05:09.579   04 Jun 2027 10:05:21.632            12.053                Irkutsk           376.656
       391   04 Jun 2027 10:05:28.024   04 Jun 2027 10:05:58.051            30.027                Novosib           938.344
       392   04 Jun 2027 10:06:01.466   04 Jun 2027 10:06:09.534             8.068                Norilsk           252.125
       393   04 Jun 2027 10:06:21.733   04 Jun 2027 10:06:26.496             4.763              Murmansk1           148.844
       394   04 Jun 2027 10:06:47.233   04 Jun 2027 10:07:09.122            21.889              Murmansk1           684.031
       395   04 Jun 2027 10:07:57.794   04 Jun 2027 10:08:04.404             6.610              Murmansk1           206.563
       396   04 Jun 2027 10:12:47.142   04 Jun 2027 10:12:47.682             0.540              Murmansk2            16.875
       397   04 Jun 2027 10:43:01.172   04 Jun 2027 10:43:35.521            34.349            RioGallegos          1073.406
       398   04 Jun 2027 10:44:41.683   04 Jun 2027 10:45:18.943            37.260            RioGallegos          1164.375
       399   04 Jun 2027 11:17:13.487   04 Jun 2027 11:18:00.255            46.768                Sumatra          1461.500
       400   04 Jun 2027 11:21:56.504   04 Jun 2027 11:22:19.615            23.111                Sumatra           722.219
       401   04 Jun 2027 11:27:29.876   04 Jun 2027 11:27:49.823            19.947                  Delhi           623.344
       402   04 Jun 2027 11:30:36.289   04 Jun 2027 11:30:50.211            13.922                  Delhi           435.062
       403   04 Jun 2027 11:38:09.998   04 Jun 2027 11:38:39.121            29.123                 Moscow           910.094
       404   04 Jun 2027 11:38:58.931   04 Jun 2027 11:39:08.949            10.018                Novosib           313.062
       405   04 Jun 2027 11:39:33.614   04 Jun 2027 11:39:46.488            12.874              Murmansk2           402.312
       406   04 Jun 2027 11:39:53.856   04 Jun 2027 11:41:05.866            72.010                 Moscow          2250.312
       407   04 Jun 2027 11:41:09.289   04 Jun 2027 11:41:39.791            30.502                Novosib           953.188
       408   04 Jun 2027 11:41:45.062   04 Jun 2027 11:42:03.836            18.774              Murmansk2           586.688
       409   04 Jun 2027 11:42:03.836   04 Jun 2027 11:42:23.462            19.626              Murmansk1           613.312
       410   04 Jun 2027 11:48:29.595   04 Jun 2027 11:48:40.064            10.469              Murmansk1           327.156
       411   04 Jun 2027 13:02:31.188   04 Jun 2027 13:05:20.108           168.920                  Delhi          5278.750
       412   04 Jun 2027 13:09:54.295   04 Jun 2027 13:11:06.664            72.369                 Moscow          2261.531
       413   04 Jun 2027 13:11:26.908   04 Jun 2027 13:12:03.190            36.282                Novosib          1133.812
       414   04 Jun 2027 13:12:13.482   04 Jun 2027 13:13:41.537            88.055              Murmansk2          2751.719
       415   04 Jun 2027 13:13:56.333   04 Jun 2027 13:14:07.423            11.090              Murmansk1           346.563
       416   04 Jun 2027 13:14:16.209   04 Jun 2027 13:15:05.750            49.541                Norilsk          1548.156
       417   04 Jun 2027 14:26:01.846   04 Jun 2027 14:27:32.484            90.638               CapeTown          2832.437
       418   04 Jun 2027 14:28:28.130   04 Jun 2027 14:29:09.876            41.746               CapeTown          1304.563
       419   04 Jun 2027 14:45:05.480   04 Jun 2027 14:46:42.770            97.290                 Moscow          3040.312
       420   04 Jun 2027 14:48:34.015   04 Jun 2027 14:50:26.778           112.763              Murmansk2          3523.844
       421   04 Jun 2027 14:51:29.625   04 Jun 2027 14:51:51.991            22.366              Murmansk2           698.938
       422   04 Jun 2027 15:03:50.583   04 Jun 2027 15:05:08.020            77.437                Anadyr2          2419.906
       423   04 Jun 2027 15:06:04.262   04 Jun 2027 15:07:00.855            56.593                Anadyr2          1768.531
       424   04 Jun 2027 15:07:00.855   04 Jun 2027 15:07:18.294            17.439                Anadyr1           544.969
       425   04 Jun 2027 15:10:17.801   04 Jun 2027 15:10:33.907            16.106                Anadyr1           503.312
       426   04 Jun 2027 15:58:13.745   04 Jun 2027 15:58:24.280            10.535               CapeTown           329.219
       427   04 Jun 2027 16:01:00.838   04 Jun 2027 16:02:02.182            61.344               CapeTown          1917.000
       428   04 Jun 2027 16:25:24.003   04 Jun 2027 16:26:12.949            48.946                 Moscow          1529.562
       429   04 Jun 2027 16:26:53.494   04 Jun 2027 16:28:53.515           120.021              Murmansk1          3750.656
       430   04 Jun 2027 16:38:52.471   04 Jun 2027 16:41:08.630           136.159                Anadyr1          4254.969
       431   04 Jun 2027 16:43:05.322   04 Jun 2027 16:43:52.858            47.536                Anadyr2          1485.500
       432   04 Jun 2027 17:35:12.873   04 Jun 2027 17:36:17.912            65.039               CapeTown          2032.469
       433   04 Jun 2027 17:42:17.122   04 Jun 2027 17:44:17.361           120.239               CapeTown          3757.469
       434   04 Jun 2027 18:08:36.053   04 Jun 2027 18:11:09.017           152.964              Murmansk1          4780.125
       435   04 Jun 2027 18:14:42.886   04 Jun 2027 18:15:16.736            33.850                Anadyr2          1057.812
       436   04 Jun 2027 18:16:01.087   04 Jun 2027 18:16:17.783            16.696                Anadyr2           521.750
       437   04 Jun 2027 18:17:17.176   04 Jun 2027 18:18:23.069            65.893               Magadan2          2059.156
       438   04 Jun 2027 18:20:52.837   04 Jun 2027 18:21:06.108            13.271               Magadan2           414.719
       439   04 Jun 2027 18:22:24.477   04 Jun 2027 18:22:47.165            22.688               Magadan2           709.000
       440   04 Jun 2027 18:25:46.412   04 Jun 2027 18:26:04.089            17.677               Magadan1           552.406
       441   04 Jun 2027 19:50:37.867   04 Jun 2027 19:52:41.869           124.002                Anadyr1          3875.062
       442   04 Jun 2027 19:52:54.680   04 Jun 2027 19:57:01.091           246.411               Magadan1          7700.344
       443   04 Jun 2027 20:01:46.543   04 Jun 2027 20:02:30.259            43.716               Magadan1          1366.125
       444   04 Jun 2027 20:45:12.195   04 Jun 2027 20:47:42.703           150.508            RioGallegos          4703.375
       445   04 Jun 2027 20:48:10.501   04 Jun 2027 20:48:35.675            25.174            RioGallegos           786.688
       446   04 Jun 2027 20:54:03.050   04 Jun 2027 20:54:31.372            28.322            RioGallegos           885.062
       447   04 Jun 2027 21:26:40.776   04 Jun 2027 21:27:03.686            22.910                Anadyr2           715.938
       448   04 Jun 2027 21:28:28.826   04 Jun 2027 21:30:44.494           135.668                Norilsk          4239.625
       449   04 Jun 2027 21:31:04.734   04 Jun 2027 21:31:19.762            15.028               Magadan2           469.625
       450   04 Jun 2027 21:32:06.218   04 Jun 2027 21:32:25.319            19.101               Magadan2           596.906
       451   04 Jun 2027 21:32:43.251   04 Jun 2027 21:33:30.636            47.385                Irkutsk          1480.781
       452   04 Jun 2027 21:34:19.886   04 Jun 2027 21:35:40.419            80.533                Irkutsk          2516.656
       453   04 Jun 2027 21:36:21.145   04 Jun 2027 21:36:58.173            37.028                Novosib          1157.125
       454   04 Jun 2027 21:37:23.989   04 Jun 2027 21:38:54.812            90.823                Novosib          2838.219
       455   04 Jun 2027 21:47:20.531   04 Jun 2027 21:48:28.757            68.226                Sumatra          2132.062
       456   04 Jun 2027 23:02:11.775   04 Jun 2027 23:02:44.666            32.891                Anadyr2          1027.844
       457   04 Jun 2027 23:03:10.283   04 Jun 2027 23:03:55.908            45.625                Anadyr1          1425.781
       458   04 Jun 2027 23:04:24.957   04 Jun 2027 23:04:50.422            25.465                Norilsk           795.781
       459   04 Jun 2027 23:05:03.154   04 Jun 2027 23:06:06.715            63.561               Magadan1          1986.281
       460   04 Jun 2027 23:07:40.054   04 Jun 2027 23:08:14.902            34.848               Magadan2          1089.000
       461   04 Jun 2027 23:08:28.012   04 Jun 2027 23:08:44.306            16.294                Novosib           509.187
       462   04 Jun 2027 23:08:51.141   04 Jun 2027 23:09:14.016            22.875                Irkutsk           714.844
       463   04 Jun 2027 23:09:39.081   04 Jun 2027 23:10:40.085            61.004                Novosib          1906.375
       464   04 Jun 2027 23:16:23.081   04 Jun 2027 23:17:35.723            72.642                  Delhi          2270.062
       465   04 Jun 2027 23:17:58.458   04 Jun 2027 23:19:36.844            98.386                  Delhi          3074.562
       466   05 Jun 2027 00:34:40.873   05 Jun 2027 00:35:03.708            22.835                Anadyr2           713.594
       467   05 Jun 2027 00:35:03.708   05 Jun 2027 00:35:50.274            46.566                Anadyr1          1455.187
       468   05 Jun 2027 00:36:08.201   05 Jun 2027 00:37:12.269            64.068                Anadyr1          2002.125
       469   05 Jun 2027 00:40:24.576   05 Jun 2027 00:40:53.896            29.320                Norilsk           916.250
       470   05 Jun 2027 00:41:10.568   05 Jun 2027 00:42:03.945            53.377               Magadan2          1668.031
       471   05 Jun 2027 00:42:34.313   05 Jun 2027 00:42:55.355            21.042               Magadan2           657.563
       472   05 Jun 2027 00:43:26.473   05 Jun 2027 00:45:54.406           147.933              Murmansk2          4622.906
       473   05 Jun 2027 00:47:45.192   05 Jun 2027 00:49:27.404           102.212                Novosib          3194.125
       474   05 Jun 2027 01:00:25.511   05 Jun 2027 01:01:21.090            55.579                  Delhi          1736.844
       475   05 Jun 2027 02:08:03.446   05 Jun 2027 02:09:40.792            97.346                Anadyr2          3042.062
       476   05 Jun 2027 02:09:40.792   05 Jun 2027 02:09:53.069            12.277                Anadyr1           383.656
       477   05 Jun 2027 02:10:37.022   05 Jun 2027 02:11:16.622            39.600                Anadyr1          1237.500
       478   05 Jun 2027 02:13:17.638   05 Jun 2027 02:14:32.756            75.118               Magadan1          2347.437
       479   05 Jun 2027 02:16:13.301   05 Jun 2027 02:16:20.141             6.840                Norilsk           213.750
       480   05 Jun 2027 02:16:23.275   05 Jun 2027 02:16:43.331            20.056                Norilsk           626.750
       481   05 Jun 2027 02:18:32.261   05 Jun 2027 02:19:23.543            51.282              Murmansk2          1602.563
       482   05 Jun 2027 02:19:44.039   05 Jun 2027 02:20:18.017            33.978              Murmansk2          1061.812
