uniorb/output/strategy_2/Drop/Drop_KinoSat_111605.txt

KinoSat_111605
-------------------------
    Access    *     Start Time (UTCG)     *     Stop Time (UTCG)  *   Duration (s)        *       Station  *  Data (Mbytes)
         1   01 Jun 2027 03:14:07.679   01 Jun 2027 03:14:39.544            31.865                Irkutsk           765.000
         2   01 Jun 2027 03:17:22.172   01 Jun 2027 03:18:17.766            55.594                Irkutsk          1737.312
         3   01 Jun 2027 03:18:34.697   01 Jun 2027 03:19:04.748            30.051              Murmansk1           939.094
         4   01 Jun 2027 03:19:36.527   01 Jun 2027 03:21:13.979            97.452              Murmansk2          3045.375
         5   01 Jun 2027 04:53:49.048   01 Jun 2027 04:54:22.449            33.401                Norilsk          1043.781
         6   01 Jun 2027 04:54:30.903   01 Jun 2027 04:54:53.477            22.574                Norilsk           705.437
         7   01 Jun 2027 04:57:14.154   01 Jun 2027 04:59:24.621           130.467                 Moscow          4077.094
         8   01 Jun 2027 05:13:34.234   01 Jun 2027 05:16:17.308           163.074               CapeTown          5096.063
         9   01 Jun 2027 06:10:19.687   01 Jun 2027 06:12:25.886           126.199                Anadyr2          3943.719
        10   01 Jun 2027 06:12:41.550   01 Jun 2027 06:13:01.737            20.187               Magadan2           630.844
        11   01 Jun 2027 06:16:43.561   01 Jun 2027 06:21:06.628           263.067                Anadyr2          8220.844
        12   01 Jun 2027 07:54:52.210   01 Jun 2027 07:55:32.070            39.860               Magadan1          1245.625
        13   01 Jun 2027 07:55:32.070   01 Jun 2027 07:56:42.725            70.655               Magadan2          2207.969
        14   01 Jun 2027 07:57:20.410   01 Jun 2027 07:57:36.436            16.026                Anadyr1           500.813
        15   01 Jun 2027 07:58:00.238   01 Jun 2027 07:58:51.927            51.689               Magadan2          1615.281
        16   01 Jun 2027 09:28:24.781   01 Jun 2027 09:34:31.888           367.107               Magadan2         11472.094
        17   01 Jun 2027 11:05:25.908   01 Jun 2027 11:07:31.222           125.314               Magadan2          3916.063
        18   01 Jun 2027 11:07:52.339   01 Jun 2027 11:08:01.379             9.040              Murmansk2           282.500
        19   01 Jun 2027 11:08:04.284   01 Jun 2027 11:09:36.818            92.534                Norilsk          2891.687
        20   01 Jun 2027 11:09:46.007   01 Jun 2027 11:10:03.767            17.760              Murmansk1           555.000
        21   01 Jun 2027 11:10:15.756   01 Jun 2027 11:12:09.479           113.723                Norilsk          3553.844
        22   01 Jun 2027 11:45:49.783   01 Jun 2027 11:47:12.273            82.490            RioGallegos          2577.812
        23   01 Jun 2027 11:49:20.383   01 Jun 2027 11:50:29.117            68.734            RioGallegos          2147.938
        24   01 Jun 2027 12:20:13.551   01 Jun 2027 12:22:19.613           126.062                Sumatra          3939.438
        25   01 Jun 2027 12:29:03.415   01 Jun 2027 12:29:59.468            56.053                Sumatra          1751.656
        26   01 Jun 2027 12:35:02.214   01 Jun 2027 12:35:51.824            49.610                Irkutsk          1550.313
        27   01 Jun 2027 12:36:14.447   01 Jun 2027 12:37:58.707           104.260                Novosib          3258.125
        28   01 Jun 2027 12:38:52.797   01 Jun 2027 12:40:32.948           100.151                Norilsk          3129.719
        29   01 Jun 2027 12:41:56.362   01 Jun 2027 12:42:27.653            31.291              Murmansk2           977.844
        30   01 Jun 2027 14:04:51.323   01 Jun 2027 14:06:18.537            87.214                  Delhi          2725.437
        31   01 Jun 2027 14:07:05.327   01 Jun 2027 14:09:30.528           145.201                  Delhi          4537.531
        32   01 Jun 2027 14:13:02.331   01 Jun 2027 14:14:00.501            58.170                Novosib          1817.812
        33   01 Jun 2027 14:16:17.991   01 Jun 2027 14:18:08.861           110.870                Novosib          3464.687
        34   01 Jun 2027 14:18:36.386   01 Jun 2027 14:21:36.733           180.347                Norilsk          5635.844
        35   01 Jun 2027 15:48:42.429   01 Jun 2027 15:50:20.296            97.867                 Moscow          3058.344
        36   01 Jun 2027 15:50:52.664   01 Jun 2027 15:51:50.188            57.524                 Moscow          1797.625
        37   01 Jun 2027 15:52:13.418   01 Jun 2027 15:54:08.668           115.250              Murmansk1          3601.562
        38   01 Jun 2027 15:54:08.668   01 Jun 2027 15:54:25.850            17.182              Murmansk2           536.937
        39   01 Jun 2027 15:57:35.301   01 Jun 2027 16:02:10.712           275.411                Norilsk          8606.594
        40   01 Jun 2027 17:27:01.131   01 Jun 2027 17:28:27.607            86.476                 Moscow          2702.375
        41   01 Jun 2027 17:29:45.572   01 Jun 2027 17:30:19.860            34.288              Murmansk2          1071.500
        42   01 Jun 2027 17:31:27.198   01 Jun 2027 17:32:54.919            87.721              Murmansk2          2741.281
        43   01 Jun 2027 17:34:06.827   01 Jun 2027 17:34:23.918            17.091              Murmansk1           534.094
        44   01 Jun 2027 18:38:25.345   01 Jun 2027 18:40:08.330           102.985               CapeTown          3218.281
        45   01 Jun 2027 18:42:29.126   01 Jun 2027 18:42:46.288            17.162               CapeTown           536.313
        46   01 Jun 2027 19:09:47.919   01 Jun 2027 19:14:32.603           284.684              Murmansk2          8896.375
        47   01 Jun 2027 19:15:08.011   01 Jun 2027 19:15:38.422            30.411              Murmansk1           950.344
        48   01 Jun 2027 19:21:39.773   01 Jun 2027 19:21:58.187            18.414               Magadan2           575.437
        49   01 Jun 2027 19:21:58.187   01 Jun 2027 19:22:48.127            49.940               Magadan1          1560.625
        50   01 Jun 2027 19:23:59.567   01 Jun 2027 19:24:25.420            25.853               Magadan1           807.906
        51   01 Jun 2027 20:54:39.531   01 Jun 2027 20:56:13.743            94.212                Anadyr1          2944.125
        52   01 Jun 2027 20:56:28.422   01 Jun 2027 20:58:03.320            94.898                Anadyr2          2965.563
        53   01 Jun 2027 20:58:06.854   01 Jun 2027 21:00:24.489           137.635               Magadan1          4301.094
        54   01 Jun 2027 21:01:43.639   01 Jun 2027 21:02:07.149            23.510               Magadan1           734.687
        55   01 Jun 2027 21:07:41.769   01 Jun 2027 21:07:51.456             9.687               Magadan2           302.719
        56   01 Jun 2027 21:50:16.729   01 Jun 2027 21:53:04.845           168.116            RioGallegos          5253.625
        57   01 Jun 2027 21:56:08.283   01 Jun 2027 21:56:20.188            11.905            RioGallegos           372.031
        58   01 Jun 2027 22:30:27.253   01 Jun 2027 22:33:28.828           181.575                Anadyr1          5674.219
        59   01 Jun 2027 22:33:29.677   01 Jun 2027 22:34:06.621            36.944                Norilsk          1154.500
        60   01 Jun 2027 22:34:17.056   01 Jun 2027 22:36:27.437           130.381               Magadan1          4074.406
        61   01 Jun 2027 22:37:17.540   01 Jun 2027 22:38:04.301            46.761                Irkutsk          1461.281
        62   01 Jun 2027 22:39:56.665   01 Jun 2027 22:40:32.505            35.840                Irkutsk          1120.000
        63   01 Jun 2027 22:53:30.610   01 Jun 2027 22:54:26.964            56.354                Sumatra          1761.062
        64   01 Jun 2027 22:56:01.467   01 Jun 2027 22:56:34.336            32.869                Sumatra          1027.156
        65   01 Jun 2027 23:26:16.425   01 Jun 2027 23:26:54.172            37.747            RioGallegos          1179.594
        66   02 Jun 2027 00:05:38.853   02 Jun 2027 00:07:19.520           100.667                Anadyr1          3145.844
        67   02 Jun 2027 00:08:07.626   02 Jun 2027 00:08:09.889             2.263                Anadyr1            70.719
        68   02 Jun 2027 00:08:15.590   02 Jun 2027 00:08:21.596             6.006                Anadyr2           187.687
        69   02 Jun 2027 00:08:23.194   02 Jun 2027 00:10:06.568           103.374                Norilsk          3230.438
        70   02 Jun 2027 00:10:07.500   02 Jun 2027 00:11:19.438            71.938               Magadan1          2248.062
        71   02 Jun 2027 00:11:19.438   02 Jun 2027 00:11:48.872            29.434               Magadan2           919.812
        72   02 Jun 2027 00:12:17.053   02 Jun 2027 00:14:31.922           134.869                Irkutsk          4214.656
        73   02 Jun 2027 00:15:50.500   02 Jun 2027 00:16:05.802            15.302                Novosib           478.188
        74   02 Jun 2027 00:22:03.494   02 Jun 2027 00:23:54.837           111.343                  Delhi          3479.469
        75   02 Jun 2027 01:00:26.659   02 Jun 2027 01:01:40.422            73.763            RioGallegos          2305.094
        76   02 Jun 2027 01:39:38.931   02 Jun 2027 01:39:57.557            18.626                Anadyr1           582.063
        77   02 Jun 2027 01:40:16.050   02 Jun 2027 01:41:26.001            69.951                Anadyr1          2185.969
        78   02 Jun 2027 01:44:24.047   02 Jun 2027 01:46:22.842           118.795                Norilsk          3712.344
        79   02 Jun 2027 01:47:07.730   02 Jun 2027 01:48:43.806            96.076              Murmansk2          3002.375
        80   02 Jun 2027 01:49:05.499   02 Jun 2027 01:51:44.295           158.796                Novosib          4962.375
        81   02 Jun 2027 01:55:30.969   02 Jun 2027 01:57:59.536           148.567                  Delhi          4642.719
        82   02 Jun 2027 02:37:42.713   02 Jun 2027 02:38:49.571            66.858            RioGallegos          2089.313
        83   02 Jun 2027 02:40:12.058   02 Jun 2027 02:41:37.167            85.109            RioGallegos          2659.656
        84   02 Jun 2027 03:27:37.048   02 Jun 2027 03:27:54.604            17.556                Irkutsk           548.625
        85   02 Jun 2027 03:28:35.753   02 Jun 2027 03:29:26.954            51.201              Murmansk2          1600.031
        86   02 Jun 2027 03:29:30.800   02 Jun 2027 03:29:41.152            10.352                Norilsk           323.500
        87   02 Jun 2027 03:29:53.226   02 Jun 2027 03:30:08.997            15.771                Norilsk           492.844
        88   02 Jun 2027 03:30:51.234   02 Jun 2027 03:31:14.565            23.331                Novosib           729.094
        89   02 Jun 2027 03:31:15.787   02 Jun 2027 03:31:28.208            12.421                Norilsk           388.156
        90   02 Jun 2027 03:31:44.383   02 Jun 2027 03:31:52.452             8.069              Murmansk1           252.156
        91   02 Jun 2027 03:32:19.409   02 Jun 2027 03:32:43.849            24.440                 Moscow           763.750
        92   02 Jun 2027 03:32:56.950   02 Jun 2027 03:33:38.254            41.304              Murmansk1          1290.750
        93   02 Jun 2027 03:36:56.321   02 Jun 2027 03:37:01.853             5.532                 Moscow           172.875
        94   02 Jun 2027 03:38:29.874   02 Jun 2027 03:39:22.027            52.153                  Delhi          1629.781
        95   02 Jun 2027 03:51:53.143   02 Jun 2027 03:52:17.632            24.489               CapeTown           765.281
        96   02 Jun 2027 05:06:00.194   02 Jun 2027 05:06:15.685            15.491                Norilsk           484.094
        97   02 Jun 2027 05:06:26.378   02 Jun 2027 05:07:24.545            58.167                Norilsk          1817.719
        98   02 Jun 2027 05:07:44.734   02 Jun 2027 05:09:22.063            97.329              Murmansk1          3041.531
        99   02 Jun 2027 05:09:45.845   02 Jun 2027 05:10:05.230            19.385              Murmansk2           605.781
       100   02 Jun 2027 06:29:02.935   02 Jun 2027 06:29:29.018            26.083               Magadan2           815.094
       101   02 Jun 2027 06:29:42.360   02 Jun 2027 06:31:34.531           112.171               Magadan2          3505.344
       102   02 Jun 2027 08:07:05.534   02 Jun 2027 08:07:59.532            53.998                Norilsk          1687.437
       103   02 Jun 2027 08:08:28.214   02 Jun 2027 08:09:21.812            53.598                Anadyr2          1674.937
       104   02 Jun 2027 08:09:21.812   02 Jun 2027 08:11:00.112            98.300                Anadyr1          3071.875
       105   02 Jun 2027 08:15:35.242   02 Jun 2027 08:15:44.617             9.375                 Moscow           292.969
       106   02 Jun 2027 08:48:24.770   02 Jun 2027 08:49:08.216            43.446            RioGallegos          1357.688
       107   02 Jun 2027 09:37:44.255   02 Jun 2027 09:39:12.111            87.856               Magadan1          2745.500
       108   02 Jun 2027 09:39:12.111   02 Jun 2027 09:40:24.061            71.950               Magadan2          2248.438
       109   02 Jun 2027 09:40:43.961   02 Jun 2027 09:41:48.140            64.179               Magadan2          2005.594
       110   02 Jun 2027 09:42:08.231   02 Jun 2027 09:42:10.643             2.412                Norilsk            75.375
       111   02 Jun 2027 09:42:25.205   02 Jun 2027 09:43:45.493            80.288                Anadyr2          2509.000
       112   02 Jun 2027 09:43:45.493   02 Jun 2027 09:44:42.641            57.148                Anadyr1          1785.875
       113   02 Jun 2027 09:44:51.772   02 Jun 2027 09:45:00.498             8.726                Novosib           272.687
       114   02 Jun 2027 09:45:02.711   02 Jun 2027 09:46:16.863            74.152                Irkutsk          2317.250
       115   02 Jun 2027 09:46:25.193   02 Jun 2027 09:46:48.089            22.896              Murmansk1           715.500
       116   02 Jun 2027 09:46:48.089   02 Jun 2027 09:47:14.146            26.057              Murmansk2           814.281
       117   02 Jun 2027 10:21:23.866   02 Jun 2027 10:22:25.862            61.996            RioGallegos          1937.375
       118   02 Jun 2027 10:26:32.032   02 Jun 2027 10:27:28.847            56.815            RioGallegos          1775.469
       119   02 Jun 2027 11:06:33.506   02 Jun 2027 11:06:43.718            10.212                Sumatra           319.125
       120   02 Jun 2027 11:16:12.284   02 Jun 2027 11:16:47.279            34.995                Novosib          1093.594
       121   02 Jun 2027 11:16:55.965   02 Jun 2027 11:17:43.140            47.175                Norilsk          1474.219
       122   02 Jun 2027 11:17:47.452   02 Jun 2027 11:18:19.690            32.238                Irkutsk          1007.438
       123   02 Jun 2027 11:18:33.436   02 Jun 2027 11:19:38.412            64.976                Norilsk          2030.500
       124   02 Jun 2027 11:19:44.975   02 Jun 2027 11:19:50.972             5.997              Murmansk1           187.406
       125   02 Jun 2027 11:19:57.815   02 Jun 2027 11:20:00.772             2.957                Norilsk            92.406
       126   02 Jun 2027 11:20:02.811   02 Jun 2027 11:20:10.038             7.227              Murmansk1           225.844
       127   02 Jun 2027 11:20:18.848   02 Jun 2027 11:20:33.021            14.173                Irkutsk           442.906
       128   02 Jun 2027 11:20:39.081   02 Jun 2027 11:21:36.098            57.017                Irkutsk          1781.781
       129   02 Jun 2027 11:21:42.159   02 Jun 2027 11:21:57.146            14.987                Norilsk           468.344
       130   02 Jun 2027 11:22:01.449   02 Jun 2027 11:22:29.247            27.798                Novosib           868.687
       131   02 Jun 2027 11:23:06.683   02 Jun 2027 11:23:22.300            15.617              Murmansk1           488.031
       132   02 Jun 2027 11:58:11.510   02 Jun 2027 11:58:39.504            27.994            RioGallegos           874.812
       133   02 Jun 2027 12:00:10.344   02 Jun 2027 12:01:12.245            61.901            RioGallegos          1934.406
       134   02 Jun 2027 12:32:28.899   02 Jun 2027 12:32:58.438            29.539                Sumatra           923.094
       135   02 Jun 2027 12:34:50.230   02 Jun 2027 12:37:14.659           144.429                Sumatra          4513.406
       136   02 Jun 2027 12:47:13.003   02 Jun 2027 12:48:12.021            59.018                Novosib          1844.312
       137   02 Jun 2027 12:51:03.902   02 Jun 2027 12:52:03.316            59.414                Norilsk          1856.688
       138   02 Jun 2027 13:00:00.353   02 Jun 2027 13:00:21.286            20.933              Murmansk2           654.156
       139   02 Jun 2027 14:17:18.251   02 Jun 2027 14:19:39.357           141.106                  Delhi          4409.562
       140   02 Jun 2027 14:22:08.726   02 Jun 2027 14:22:31.921            23.195                  Delhi           724.844
       141   02 Jun 2027 14:25:32.154   02 Jun 2027 14:26:25.499            53.345                 Moscow          1667.031
       142   02 Jun 2027 14:26:58.123   02 Jun 2027 14:30:36.741           218.618                Novosib          6831.812
       143   02 Jun 2027 14:33:36.805   02 Jun 2027 14:34:17.151            40.346                Norilsk          1260.812
       144   02 Jun 2027 16:00:49.172   02 Jun 2027 16:02:47.906           118.734                 Moscow          3710.438
       145   02 Jun 2027 16:03:59.294   02 Jun 2027 16:04:20.996            21.702                 Moscow           678.187
       146   02 Jun 2027 16:05:11.097   02 Jun 2027 16:06:09.609            58.512              Murmansk2          1828.500
       147   02 Jun 2027 16:07:10.413   02 Jun 2027 16:07:31.040            20.627              Murmansk1           644.594
       148   02 Jun 2027 16:09:31.186   02 Jun 2027 16:10:02.303            31.117              Murmansk2           972.406
       149   02 Jun 2027 16:10:33.911   02 Jun 2027 16:13:35.045           181.134                Norilsk          5660.437
       150   02 Jun 2027 17:14:28.718   02 Jun 2027 17:16:02.914            94.196               CapeTown          2943.625
       151   02 Jun 2027 17:39:43.033   02 Jun 2027 17:40:33.617            50.584                 Moscow          1580.750
       152   02 Jun 2027 17:41:43.483   02 Jun 2027 17:43:46.049           122.566                 Moscow          3830.187
       153   02 Jun 2027 17:47:17.321   02 Jun 2027 17:47:25.856             8.535              Murmansk1           266.719
       154   02 Jun 2027 17:50:21.382   02 Jun 2027 17:50:49.016            27.634              Murmansk2           863.563
       155   02 Jun 2027 17:51:14.019   02 Jun 2027 17:51:51.697            37.678              Murmansk2          1177.438
       156   02 Jun 2027 17:54:58.413   02 Jun 2027 17:55:37.753            39.340                Anadyr1          1229.375
       157   02 Jun 2027 18:00:44.343   02 Jun 2027 18:00:53.911             9.568                Anadyr1           299.000
       158   02 Jun 2027 18:01:37.916   02 Jun 2027 18:02:19.556            41.640                Anadyr1          1301.250
       159   02 Jun 2027 18:50:39.624   02 Jun 2027 18:51:25.534            45.910               CapeTown          1434.687
       160   02 Jun 2027 18:54:17.498   02 Jun 2027 18:54:49.640            32.142               CapeTown          1004.437
       161   02 Jun 2027 18:55:21.881   02 Jun 2027 18:56:11.282            49.401               CapeTown          1543.781
       162   02 Jun 2027 19:22:37.708   02 Jun 2027 19:27:14.529           276.821              Murmansk2          8650.656
       163   02 Jun 2027 19:27:16.558   02 Jun 2027 19:27:55.550            38.992              Murmansk1          1218.500
       164   02 Jun 2027 19:33:31.419   02 Jun 2027 19:33:48.167            16.748               Magadan2           523.375
       165   02 Jun 2027 19:41:43.903   02 Jun 2027 19:42:01.227            17.324               Magadan2           541.375
       166   02 Jun 2027 21:06:41.000   02 Jun 2027 21:10:48.589           247.589                Anadyr1          7737.156
       167   02 Jun 2027 21:11:14.736   02 Jun 2027 21:13:46.859           152.123               Magadan2          4753.844
       168   02 Jun 2027 21:13:57.672   02 Jun 2027 21:14:08.028            10.356               Magadan2           323.625
       169   02 Jun 2027 21:15:23.495   02 Jun 2027 21:15:27.910             4.415               Magadan1           137.969
       170   02 Jun 2027 21:16:01.128   02 Jun 2027 21:16:39.419            38.291               Magadan1          1196.594
       171   02 Jun 2027 22:01:48.545   02 Jun 2027 22:04:20.500           151.955            RioGallegos          4748.594
       172   02 Jun 2027 22:07:08.623   02 Jun 2027 22:07:31.475            22.852            RioGallegos           714.125
       173   02 Jun 2027 22:08:13.525   02 Jun 2027 22:08:29.998            16.473            RioGallegos           514.781
       174   02 Jun 2027 22:42:26.034   02 Jun 2027 22:44:00.064            94.030                Anadyr1          2938.438
       175   02 Jun 2027 22:44:10.433   02 Jun 2027 22:44:23.971            13.538                Anadyr1           423.063
       176   02 Jun 2027 22:44:32.558   02 Jun 2027 22:46:08.289            95.731                Norilsk          2991.594
       177   02 Jun 2027 22:46:21.880   02 Jun 2027 22:46:52.703            30.823               Magadan2           963.219
       178   02 Jun 2027 22:47:22.290   02 Jun 2027 22:47:34.112            11.822               Magadan2           369.438
       179   02 Jun 2027 22:49:04.034   02 Jun 2027 22:50:03.230            59.196                Irkutsk          1849.875
       180   02 Jun 2027 22:51:14.529   02 Jun 2027 22:52:46.025            91.496                Irkutsk          2859.250
       181   02 Jun 2027 23:03:17.766   02 Jun 2027 23:04:16.629            58.863                Sumatra          1839.469
       182   02 Jun 2027 23:08:52.230   02 Jun 2027 23:09:40.304            48.074                Sumatra          1502.312
       183   02 Jun 2027 23:48:15.822   02 Jun 2027 23:49:13.078            57.256            RioGallegos          1789.250
       184   03 Jun 2027 00:17:30.246   03 Jun 2027 00:17:36.692             6.446                Anadyr1           201.438
       185   03 Jun 2027 00:17:48.424   03 Jun 2027 00:17:54.842             6.418                Anadyr1           200.562
       186   03 Jun 2027 00:18:44.741   03 Jun 2027 00:19:51.792            67.051                Anadyr2          2095.344
       187   03 Jun 2027 00:20:09.281   03 Jun 2027 00:20:27.921            18.640                Anadyr2           582.500
       188   03 Jun 2027 00:21:04.092   03 Jun 2027 00:22:08.619            64.527                Norilsk          2016.469
       189   03 Jun 2027 00:22:10.846   03 Jun 2027 00:23:58.455           107.609               Magadan1          3362.781
       190   03 Jun 2027 00:24:17.909   03 Jun 2027 00:24:24.250             6.341                Irkutsk           198.156
       191   03 Jun 2027 00:24:41.539   03 Jun 2027 00:25:09.775            28.236                Irkutsk           882.375
       192   03 Jun 2027 00:25:17.598   03 Jun 2027 00:25:58.904            41.306                Novosib          1290.812
       193   03 Jun 2027 00:32:18.191   03 Jun 2027 00:33:00.772            42.581                Novosib          1330.656
       194   03 Jun 2027 00:33:18.149   03 Jun 2027 00:33:56.435            38.286                  Delhi          1196.437
       195   03 Jun 2027 00:35:30.210   03 Jun 2027 00:35:59.840            29.630                  Delhi           925.937
       196   03 Jun 2027 00:38:07.520   03 Jun 2027 00:39:14.607            67.087                  Delhi          2096.469
       197   03 Jun 2027 01:14:57.418   03 Jun 2027 01:15:11.361            13.943            RioGallegos           435.719
       198   03 Jun 2027 01:17:33.925   03 Jun 2027 01:18:15.889            41.964            RioGallegos          1311.375
       199   03 Jun 2027 01:51:21.155   03 Jun 2027 01:52:28.122            66.967                Anadyr2          2092.719
       200   03 Jun 2027 01:52:48.566   03 Jun 2027 01:53:31.632            43.066                Anadyr1          1345.812
       201   03 Jun 2027 01:56:26.099   03 Jun 2027 01:58:04.013            97.914                Norilsk          3059.813
       202   03 Jun 2027 01:59:00.010   03 Jun 2027 02:00:18.846            78.836              Murmansk1          2463.625
       203   03 Jun 2027 02:00:36.856   03 Jun 2027 02:01:39.805            62.949                Irkutsk          1967.156
       204   03 Jun 2027 02:05:12.661   03 Jun 2027 02:05:20.941             8.280                Novosib           258.750
       205   03 Jun 2027 02:05:37.947   03 Jun 2027 02:06:02.549            24.602                Novosib           768.813
       206   03 Jun 2027 02:07:34.405   03 Jun 2027 02:09:37.208           122.803                  Delhi          3837.594
       207   03 Jun 2027 02:50:11.707   03 Jun 2027 02:53:12.002           180.295            RioGallegos          5634.219
       208   03 Jun 2027 02:54:23.093   03 Jun 2027 02:54:32.856             9.763            RioGallegos           305.094
       209   03 Jun 2027 03:39:55.272   03 Jun 2027 03:40:22.100            26.828                Irkutsk           838.375
       210   03 Jun 2027 03:42:03.846   03 Jun 2027 03:43:19.051            75.205              Murmansk2          2350.156
       211   03 Jun 2027 03:43:29.495   03 Jun 2027 03:43:59.157            29.662                Norilsk           926.937
       212   03 Jun 2027 03:44:24.315   03 Jun 2027 03:44:46.844            22.529                Norilsk           704.031
       213   03 Jun 2027 03:44:51.938   03 Jun 2027 03:45:45.408            53.470              Murmansk2          1670.938
       214   03 Jun 2027 03:48:29.279   03 Jun 2027 03:49:03.064            33.785                 Moscow          1055.781
       215   03 Jun 2027 05:17:44.705   03 Jun 2027 05:18:09.854            25.149                Novosib           785.906
       216   03 Jun 2027 05:19:25.272   03 Jun 2027 05:19:44.528            19.256              Murmansk2           601.750
       217   03 Jun 2027 05:19:58.280   03 Jun 2027 05:20:07.742             9.462              Murmansk1           295.687
       218   03 Jun 2027 05:20:20.749   03 Jun 2027 05:20:31.327            10.578                 Moscow           330.562
       219   03 Jun 2027 05:20:33.080   03 Jun 2027 05:21:03.761            30.681              Murmansk1           958.781
       220   03 Jun 2027 05:21:03.761   03 Jun 2027 05:21:46.899            43.138              Murmansk2          1348.062
       221   03 Jun 2027 05:37:46.898   03 Jun 2027 05:39:49.522           122.624               CapeTown          3832.000
       222   03 Jun 2027 06:40:23.097   03 Jun 2027 06:41:25.534            62.437                Anadyr2          1951.156
       223   03 Jun 2027 06:41:31.796   03 Jun 2027 06:42:31.681            59.885                Anadyr2          1871.406
       224   03 Jun 2027 06:42:49.498   03 Jun 2027 06:43:05.238            15.740               Magadan1           491.875
       225   03 Jun 2027 06:43:05.238   03 Jun 2027 06:43:30.864            25.626               Magadan2           800.813
       226   03 Jun 2027 06:43:31.895   03 Jun 2027 06:43:36.338             4.443                Anadyr1           138.844
       227   03 Jun 2027 06:45:07.154   03 Jun 2027 06:45:58.345            51.191                Anadyr2          1599.719
       228   03 Jun 2027 08:16:57.093   03 Jun 2027 08:17:28.551            31.458                Anadyr2           983.062
       229   03 Jun 2027 08:17:42.214   03 Jun 2027 08:19:20.335            98.121                Anadyr2          3066.281
       230   03 Jun 2027 08:19:40.753   03 Jun 2027 08:20:41.040            60.287               Magadan2          1883.969
       231   03 Jun 2027 08:21:22.973   03 Jun 2027 08:22:40.325            77.352                Anadyr1          2417.250
       232   03 Jun 2027 09:51:11.631   03 Jun 2027 09:52:14.796            63.165               Magadan1          1973.906
       233   03 Jun 2027 09:52:42.328   03 Jun 2027 09:53:26.072            43.744                Irkutsk          1367.000
       234   03 Jun 2027 09:53:52.358   03 Jun 2027 09:54:08.254            15.896                Norilsk           496.750
       235   03 Jun 2027 09:54:26.061   03 Jun 2027 09:54:31.303             5.242                Irkutsk           163.812
       236   03 Jun 2027 09:54:34.907   03 Jun 2027 09:54:49.346            14.439                Norilsk           451.219
       237   03 Jun 2027 09:54:51.119   03 Jun 2027 09:56:59.217           128.098               Magadan1          4003.063
       238   03 Jun 2027 09:56:59.217   03 Jun 2027 09:57:58.015            58.798               Magadan2          1837.438
       239   03 Jun 2027 09:58:13.003   03 Jun 2027 09:58:39.560            26.557              Murmansk2           829.906
       240   03 Jun 2027 09:59:08.965   03 Jun 2027 09:59:37.770            28.805              Murmansk2           900.156
       241   03 Jun 2027 10:33:19.768   03 Jun 2027 10:34:19.021            59.253            RioGallegos          1851.656
       242   03 Jun 2027 11:09:03.983   03 Jun 2027 11:10:02.704            58.721                Sumatra          1835.031
       243   03 Jun 2027 11:28:30.873   03 Jun 2027 11:28:41.481            10.608                Irkutsk           331.500
       244   03 Jun 2027 11:29:25.323   03 Jun 2027 11:30:04.958            39.635                Irkutsk          1238.594
       245   03 Jun 2027 11:30:07.675   03 Jun 2027 11:30:12.988             5.313                Irkutsk           166.031
       246   03 Jun 2027 11:30:15.415   03 Jun 2027 11:30:16.596             1.181                Novosib            36.906
       247   03 Jun 2027 11:30:22.458   03 Jun 2027 11:31:40.539            78.081                Norilsk          2440.031
       248   03 Jun 2027 11:31:57.772   03 Jun 2027 11:32:10.949            13.177                Novosib           411.781
       249   03 Jun 2027 11:32:14.487   03 Jun 2027 11:32:38.915            24.428                Irkutsk           763.375
       250   03 Jun 2027 11:32:40.062   03 Jun 2027 11:32:42.172             2.110              Murmansk2            65.937
       251   03 Jun 2027 11:32:56.009   03 Jun 2027 11:33:39.933            43.924                Norilsk          1372.625
       252   03 Jun 2027 11:33:41.875   03 Jun 2027 11:33:48.069             6.194              Murmansk1           193.562
       253   03 Jun 2027 11:33:49.859   03 Jun 2027 11:33:54.017             4.158                Novosib           129.938
       254   03 Jun 2027 11:33:56.439   03 Jun 2027 11:34:19.653            23.214                Norilsk           725.438
       255   03 Jun 2027 11:34:27.424   03 Jun 2027 11:34:55.949            28.525              Murmansk1           891.406
       256   03 Jun 2027 11:35:22.313   03 Jun 2027 11:36:00.680            38.367              Murmansk1          1198.969
       257   03 Jun 2027 12:10:38.264   03 Jun 2027 12:11:18.986            40.722            RioGallegos          1272.562
       258   03 Jun 2027 12:15:16.213   03 Jun 2027 12:15:46.067            29.854            RioGallegos           932.937
       259   03 Jun 2027 12:44:51.783   03 Jun 2027 12:45:10.008            18.225                Sumatra           569.531
       260   03 Jun 2027 12:46:09.442   03 Jun 2027 12:46:30.386            20.944                Sumatra           654.500
       261   03 Jun 2027 12:48:48.231   03 Jun 2027 12:49:19.087            30.856                Sumatra           964.250
       262   03 Jun 2027 12:50:10.864   03 Jun 2027 12:50:11.809             0.945                Sumatra            29.531
       263   03 Jun 2027 12:53:25.859   03 Jun 2027 12:54:43.432            77.573                  Delhi          2424.156
       264   03 Jun 2027 12:59:20.406   03 Jun 2027 13:00:08.357            47.951                Novosib          1498.469
       265   03 Jun 2027 13:00:13.051   03 Jun 2027 13:00:22.903             9.852                Irkutsk           307.875
       266   03 Jun 2027 13:02:28.703   03 Jun 2027 13:03:31.315            62.612                Novosib          1956.625
       267   03 Jun 2027 13:03:54.141   03 Jun 2027 13:04:43.903            49.762                Norilsk          1555.063
       268   03 Jun 2027 14:29:54.701   03 Jun 2027 14:32:30.239           155.538                  Delhi          4860.563
       269   03 Jun 2027 14:37:19.241   03 Jun 2027 14:37:42.630            23.389                 Moscow           730.906
       270   03 Jun 2027 14:37:59.992   03 Jun 2027 14:38:29.868            29.876                 Moscow           933.625
       271   03 Jun 2027 14:39:04.797   03 Jun 2027 14:42:15.634           190.837                Novosib          5963.656
       272   03 Jun 2027 14:42:47.424   03 Jun 2027 14:43:07.626            20.202                Norilsk           631.313
       273   03 Jun 2027 14:43:13.318   03 Jun 2027 14:43:38.670            25.352                Norilsk           792.250
       274   03 Jun 2027 16:12:59.102   03 Jun 2027 16:14:45.957           106.855                 Moscow          3339.219
       275   03 Jun 2027 16:15:58.982   03 Jun 2027 16:16:57.461            58.479                 Moscow          1827.469
       276   03 Jun 2027 16:17:04.096   03 Jun 2027 16:19:09.782           125.686              Murmansk2          3927.687
       277   03 Jun 2027 16:23:50.485   03 Jun 2027 16:25:34.719           104.234                Norilsk          3257.313
       278   03 Jun 2027 16:32:08.897   03 Jun 2027 16:32:46.511            37.614                Anadyr1          1175.438
       279   03 Jun 2027 16:32:47.896   03 Jun 2027 16:33:03.407            15.511                Anadyr2           484.719
       280   03 Jun 2027 17:26:21.796   03 Jun 2027 17:27:49.645            87.849               CapeTown          2745.281
       281   03 Jun 2027 17:29:16.012   03 Jun 2027 17:29:22.208             6.196               CapeTown           193.625
       282   03 Jun 2027 17:32:26.233   03 Jun 2027 17:32:42.050            15.817               CapeTown           494.281
       283   03 Jun 2027 17:33:42.642   03 Jun 2027 17:33:50.578             7.936               CapeTown           248.000
       284   03 Jun 2027 17:34:51.442   03 Jun 2027 17:35:52.951            61.509               CapeTown          1922.156
       285   03 Jun 2027 17:52:42.802   03 Jun 2027 17:53:12.828            30.026                 Moscow           938.313
       286   03 Jun 2027 17:54:34.024   03 Jun 2027 17:55:29.301            55.277              Murmansk1          1727.406
       287   03 Jun 2027 17:55:46.166   03 Jun 2027 17:57:02.634            76.468                 Moscow          2389.625
       288   03 Jun 2027 17:59:10.136   03 Jun 2027 17:59:19.592             9.456              Murmansk1           295.500
       289   03 Jun 2027 18:02:46.433   03 Jun 2027 18:05:03.805           137.372              Murmansk2          4292.875
       290   03 Jun 2027 19:02:58.319   03 Jun 2027 19:03:54.265            55.946               CapeTown          1748.312
       291   03 Jun 2027 19:06:02.579   03 Jun 2027 19:06:09.835             7.256               CapeTown           226.750
       292   03 Jun 2027 19:06:20.761   03 Jun 2027 19:07:16.770            56.009               CapeTown          1750.281
       293   03 Jun 2027 19:35:35.380   03 Jun 2027 19:39:19.803           224.423              Murmansk1          7013.219
       294   03 Jun 2027 19:40:04.447   03 Jun 2027 19:40:07.787             3.340              Murmansk2           104.375
       295   03 Jun 2027 19:45:25.240   03 Jun 2027 19:46:21.418            56.178               Magadan2          1755.563
       296   03 Jun 2027 19:47:27.537   03 Jun 2027 19:48:02.128            34.591               Magadan1          1080.969
       297   03 Jun 2027 19:49:19.622   03 Jun 2027 19:49:49.621            29.999               Magadan1           937.469
       298   03 Jun 2027 21:18:42.308   03 Jun 2027 21:22:25.236           222.928                Anadyr1          6966.500
       299   03 Jun 2027 21:22:26.920   03 Jun 2027 21:25:55.976           209.056               Magadan2          6533.000
       300   03 Jun 2027 21:26:00.416   03 Jun 2027 21:26:52.406            51.990               Magadan2          1624.687
       301   03 Jun 2027 22:13:28.735   03 Jun 2027 22:16:09.489           160.754            RioGallegos          5023.563
       302   03 Jun 2027 22:17:54.969   03 Jun 2027 22:18:28.557            33.588            RioGallegos          1049.625
       303   03 Jun 2027 22:54:24.201   03 Jun 2027 22:56:25.577           121.376                Anadyr2          3793.000
       304   03 Jun 2027 22:56:32.311   03 Jun 2027 22:58:10.131            97.820                Norilsk          3056.875
       305   03 Jun 2027 23:00:13.430   03 Jun 2027 23:00:44.754            31.324               Magadan2           978.875
       306   03 Jun 2027 23:00:53.979   03 Jun 2027 23:01:15.959            21.980                Irkutsk           686.875
       307   03 Jun 2027 23:03:00.758   03 Jun 2027 23:04:06.100            65.342                Irkutsk          2041.937
       308   03 Jun 2027 23:14:52.361   03 Jun 2027 23:15:15.536            23.175                Sumatra           724.219
       309   03 Jun 2027 23:16:10.278   03 Jun 2027 23:16:45.878            35.600                Sumatra          1112.500
       310   03 Jun 2027 23:16:49.342   03 Jun 2027 23:18:02.492            73.150                Sumatra          2285.937
       311   03 Jun 2027 23:52:56.670   03 Jun 2027 23:53:07.315            10.645            RioGallegos           332.656
       312   03 Jun 2027 23:58:15.481   03 Jun 2027 23:58:25.704            10.223            RioGallegos           319.469
       313   03 Jun 2027 23:58:51.482   03 Jun 2027 23:59:53.036            61.554            RioGallegos          1923.563
       314   04 Jun 2027 00:29:37.361   04 Jun 2027 00:29:51.882            14.521                Anadyr1           453.781
       315   04 Jun 2027 00:30:12.307   04 Jun 2027 00:30:55.601            43.294                Anadyr1          1352.937
       316   04 Jun 2027 00:31:22.124   04 Jun 2027 00:31:50.333            28.209                Anadyr1           881.531
       317   04 Jun 2027 00:32:06.575   04 Jun 2027 00:32:16.494             9.919                Anadyr2           309.969
       318   04 Jun 2027 00:32:27.531   04 Jun 2027 00:34:10.591           103.060                Norilsk          3220.625
       319   04 Jun 2027 00:34:49.762   04 Jun 2027 00:35:23.301            33.539               Magadan1          1048.094
       320   04 Jun 2027 00:36:19.632   04 Jun 2027 00:38:16.621           116.989                Irkutsk          3655.906
       321   04 Jun 2027 00:38:59.794   04 Jun 2027 00:41:15.788           135.994                Novosib          4249.812
       322   04 Jun 2027 01:01:00.363   04 Jun 2027 01:01:10.609            10.246                Sumatra           320.187
       323   04 Jun 2027 01:24:47.154   04 Jun 2027 01:25:41.213            54.059            RioGallegos          1689.344
       324   04 Jun 2027 01:31:25.267   04 Jun 2027 01:31:29.701             4.434            RioGallegos           138.563
       325   04 Jun 2027 01:32:24.737   04 Jun 2027 01:32:43.098            18.361            RioGallegos           573.781
       326   04 Jun 2027 01:34:21.061   04 Jun 2027 01:35:05.826            44.765            RioGallegos          1398.906
       327   04 Jun 2027 02:03:02.784   04 Jun 2027 02:03:45.794            43.010                Anadyr2          1344.063
       328   04 Jun 2027 02:05:24.558   04 Jun 2027 02:05:59.681            35.123                Anadyr1          1097.594
       329   04 Jun 2027 02:08:28.023   04 Jun 2027 02:09:46.947            78.924                Norilsk          2466.375
       330   04 Jun 2027 02:09:57.246   04 Jun 2027 02:10:27.638            30.392                Norilsk           949.750
       331   04 Jun 2027 02:10:54.964   04 Jun 2027 02:12:52.787           117.823              Murmansk2          3681.969
       332   04 Jun 2027 02:17:24.132   04 Jun 2027 02:17:42.999            18.867                Novosib           589.594
       333   04 Jun 2027 02:19:41.231   04 Jun 2027 02:20:05.537            24.306                  Delhi           759.562
       334   04 Jun 2027 02:25:24.334   04 Jun 2027 02:25:34.071             9.737                  Delhi           304.281
       335   04 Jun 2027 02:27:42.498   04 Jun 2027 02:27:56.336            13.838                  Delhi           432.437
       336   04 Jun 2027 02:28:35.048   04 Jun 2027 02:29:02.618            27.570                  Delhi           861.562
       337   04 Jun 2027 02:31:13.385   04 Jun 2027 02:31:57.528            44.143                  Delhi          1379.469
       338   04 Jun 2027 03:03:03.595   04 Jun 2027 03:03:14.884            11.289            RioGallegos           352.781
       339   04 Jun 2027 03:04:25.271   04 Jun 2027 03:05:13.110            47.839            RioGallegos          1494.969
       340   04 Jun 2027 03:53:01.885   04 Jun 2027 03:53:25.390            23.505                Novosib           734.531
       341   04 Jun 2027 03:55:09.029   04 Jun 2027 03:55:55.521            46.492              Murmansk2          1452.875
       342   04 Jun 2027 03:55:55.521   04 Jun 2027 03:56:44.456            48.935              Murmansk1          1529.219
       343   04 Jun 2027 03:57:03.806   04 Jun 2027 03:58:13.715            69.909              Murmansk2          2184.656
       344   04 Jun 2027 03:59:35.044   04 Jun 2027 04:01:16.801           101.757                 Moscow          3179.906
       345   04 Jun 2027 05:19:32.955   04 Jun 2027 05:19:34.086             1.131               Magadan1            35.344
       346   04 Jun 2027 05:19:38.480   04 Jun 2027 05:20:08.000            29.520               Magadan1           922.500
       347   04 Jun 2027 05:30:05.177   04 Jun 2027 05:30:39.437            34.260                Norilsk          1070.625
       348   04 Jun 2027 05:30:55.390   04 Jun 2027 05:31:34.063            38.673              Murmansk1          1208.531
       349   04 Jun 2027 05:31:34.063   04 Jun 2027 05:31:43.955             9.892              Murmansk2           309.125
       350   04 Jun 2027 05:32:09.719   04 Jun 2027 05:32:14.647             4.928              Murmansk1           154.000
       351   04 Jun 2027 05:32:21.957   04 Jun 2027 05:33:26.817            64.860                 Moscow          2026.875
       352   04 Jun 2027 05:34:09.497   04 Jun 2027 05:34:22.560            13.063              Murmansk2           408.219
       353   04 Jun 2027 05:34:22.560   04 Jun 2027 05:34:44.821            22.261              Murmansk1           695.656
       354   04 Jun 2027 05:35:18.568   04 Jun 2027 05:35:30.784            12.216                 Moscow           381.750
       355   04 Jun 2027 05:35:49.060   04 Jun 2027 05:36:31.800            42.740                 Moscow          1335.625
       356   04 Jun 2027 05:50:01.534   04 Jun 2027 05:50:47.261            45.727               CapeTown          1428.969
       357   04 Jun 2027 06:53:08.219   04 Jun 2027 06:53:27.508            19.289               Magadan2           602.781
       358   04 Jun 2027 06:53:33.538   04 Jun 2027 06:54:48.101            74.563                Anadyr2          2330.094
       359   04 Jun 2027 06:55:05.825   04 Jun 2027 06:55:19.954            14.129                Anadyr1           441.531
       360   04 Jun 2027 06:55:33.500   04 Jun 2027 06:56:25.495            51.995                Anadyr2          1624.844
       361   04 Jun 2027 06:58:28.369   04 Jun 2027 06:58:30.241             1.872              Murmansk1            58.500
       362   04 Jun 2027 06:58:30.241   04 Jun 2027 06:59:10.402            40.161              Murmansk2          1255.031
       363   04 Jun 2027 08:28:47.141   04 Jun 2027 08:29:14.427            27.286                Irkutsk           852.688
       364   04 Jun 2027 08:29:16.234   04 Jun 2027 08:29:34.124            17.890                Norilsk           559.062
       365   04 Jun 2027 08:29:43.192   04 Jun 2027 08:29:52.002             8.810                Norilsk           275.312
       366   04 Jun 2027 08:30:00.843   04 Jun 2027 08:30:09.067             8.224               Magadan1           257.000
       367   04 Jun 2027 08:30:09.067   04 Jun 2027 08:30:25.710            16.643               Magadan2           520.094
       368   04 Jun 2027 08:30:36.133   04 Jun 2027 08:31:10.882            34.749               Magadan2          1085.906
       369   04 Jun 2027 08:31:18.947   04 Jun 2027 08:33:34.939           135.992                Anadyr1          4249.750
       370   04 Jun 2027 08:33:34.939   04 Jun 2027 08:34:25.063            50.124                Anadyr2          1566.375
       371   04 Jun 2027 10:03:58.796   04 Jun 2027 10:04:07.199             8.403                Norilsk           262.594
       372   04 Jun 2027 10:04:09.277   04 Jun 2027 10:04:34.438            25.161                Novosib           786.281
       373   04 Jun 2027 10:04:40.070   04 Jun 2027 10:05:46.659            66.589                Norilsk          2080.906
       374   04 Jun 2027 10:05:53.174   04 Jun 2027 10:06:47.372            54.198               Magadan1          1693.687
       375   04 Jun 2027 10:07:10.470   04 Jun 2027 10:07:24.233            13.763                Novosib           430.094
       376   04 Jun 2027 10:07:43.485   04 Jun 2027 10:08:10.321            26.836                Norilsk           838.625
       377   04 Jun 2027 10:08:13.384   04 Jun 2027 10:08:21.204             7.820                Norilsk           244.375
       378   04 Jun 2027 10:08:25.759   04 Jun 2027 10:08:36.189            10.430                Irkutsk           325.937
       379   04 Jun 2027 10:08:59.222   04 Jun 2027 10:10:13.761            74.539               Magadan2          2329.344
       380   04 Jun 2027 10:10:29.735   04 Jun 2027 10:11:09.822            40.087                Norilsk          1252.719
       381   04 Jun 2027 10:11:45.924   04 Jun 2027 10:12:03.821            17.897              Murmansk1           559.281
       382   04 Jun 2027 10:45:18.943   04 Jun 2027 10:45:23.834             4.891            RioGallegos           152.844
       383   04 Jun 2027 10:46:23.085   04 Jun 2027 10:47:49.229            86.144            RioGallegos          2692.000
       384   04 Jun 2027 11:21:14.490   04 Jun 2027 11:21:56.504            42.014                Sumatra          1312.938
       385   04 Jun 2027 11:34:43.003   04 Jun 2027 11:34:54.310            11.307                  Delhi           353.344
       386   04 Jun 2027 11:40:18.628   04 Jun 2027 11:41:09.289            50.661                Novosib          1583.156
       387   04 Jun 2027 11:41:39.317   04 Jun 2027 11:41:46.823             7.506                Norilsk           234.562
       388   04 Jun 2027 11:41:58.906   04 Jun 2027 11:42:19.631            20.725                Novosib           647.656
       389   04 Jun 2027 11:42:29.546   04 Jun 2027 11:43:42.676            73.130                Norilsk          2285.312
       390   04 Jun 2027 11:43:47.667   04 Jun 2027 11:44:16.832            29.165              Murmansk1           911.406
       391   04 Jun 2027 11:44:29.149   04 Jun 2027 11:44:44.494            15.345                Norilsk           479.531
       392   04 Jun 2027 11:45:00.970   04 Jun 2027 11:45:26.301            25.331                Novosib           791.594
       393   04 Jun 2027 11:45:39.556   04 Jun 2027 11:46:42.120            62.564              Murmansk1          1955.125
       394   04 Jun 2027 11:47:20.562   04 Jun 2027 11:47:35.222            14.660                Novosib           458.125
       395   04 Jun 2027 12:23:10.836   04 Jun 2027 12:23:41.243            30.407            RioGallegos           950.219
       396   04 Jun 2027 12:26:26.891   04 Jun 2027 12:26:56.680            29.789            RioGallegos           930.906
       397   04 Jun 2027 12:57:24.353   04 Jun 2027 12:59:44.523           140.170                Sumatra          4380.312
       398   04 Jun 2027 13:11:04.066   04 Jun 2027 13:11:20.912            16.846                  Delhi           526.437
       399   04 Jun 2027 13:12:03.190   04 Jun 2027 13:14:28.217           145.027                Novosib          4532.094
       400   04 Jun 2027 13:17:33.633   04 Jun 2027 13:18:01.105            27.472                Norilsk           858.500
       401   04 Jun 2027 13:22:26.601   04 Jun 2027 13:23:24.109            57.508                Norilsk          1797.125
       402   04 Jun 2027 14:42:44.402   04 Jun 2027 14:45:23.117           158.715                  Delhi          4959.844
       403   04 Jun 2027 14:47:20.608   04 Jun 2027 14:47:25.449             4.841                  Delhi           151.281
       404   04 Jun 2027 14:49:39.459   04 Jun 2027 14:49:50.472            11.013                 Moscow           344.156
       405   04 Jun 2027 14:50:01.714   04 Jun 2027 14:50:34.753            33.039                 Moscow          1032.469
       406   04 Jun 2027 14:51:15.456   04 Jun 2027 14:54:15.580           180.124                Novosib          5628.875
       407   04 Jun 2027 14:54:25.027   04 Jun 2027 14:54:45.541            20.514                Norilsk           641.062
       408   04 Jun 2027 14:56:06.673   04 Jun 2027 14:56:51.747            45.074                Norilsk          1408.563
       409   04 Jun 2027 16:05:49.145   04 Jun 2027 16:07:30.687           101.542               CapeTown          3173.188
       410   04 Jun 2027 16:25:12.405   04 Jun 2027 16:25:24.003            11.598                 Moscow           362.438
       411   04 Jun 2027 16:26:12.949   04 Jun 2027 16:26:46.888            33.939                 Moscow          1060.594
       412   04 Jun 2027 16:27:57.787   04 Jun 2027 16:29:38.586           100.799                 Moscow          3149.969
       413   04 Jun 2027 16:29:43.186   04 Jun 2027 16:31:08.377            85.191              Murmansk2          2662.219
       414   04 Jun 2027 16:43:51.046   04 Jun 2027 16:44:44.514            53.468                Anadyr1          1670.875
       415   04 Jun 2027 16:45:46.976   04 Jun 2027 16:46:32.288            45.312                Anadyr2          1416.000
       416   04 Jun 2027 16:48:20.092   04 Jun 2027 16:49:11.461            51.369                Anadyr2          1605.281
       417   04 Jun 2027 17:38:18.132   04 Jun 2027 17:39:04.547            46.415               CapeTown          1450.469
       418   04 Jun 2027 17:47:00.202   04 Jun 2027 17:47:27.492            27.290               CapeTown           852.812
       419   04 Jun 2027 18:05:38.100   04 Jun 2027 18:08:48.966           190.866                 Moscow          5964.563
       420   04 Jun 2027 18:11:09.017   04 Jun 2027 18:12:11.774            62.757              Murmansk2          1961.156
       421   04 Jun 2027 18:19:37.181   04 Jun 2027 18:19:45.251             8.070                Anadyr1           252.187
       422   04 Jun 2027 18:19:58.729   04 Jun 2027 18:20:13.672            14.943                Anadyr1           466.969
       423   04 Jun 2027 18:20:28.392   04 Jun 2027 18:20:53.403            25.011                Anadyr1           781.594
       424   04 Jun 2027 18:24:53.681   04 Jun 2027 18:25:46.412            52.731               Magadan1          1647.844
       425   04 Jun 2027 19:15:22.905   04 Jun 2027 19:16:23.302            60.397               CapeTown          1887.406
       426   04 Jun 2027 19:19:06.567   04 Jun 2027 19:20:39.791            93.224               CapeTown          2913.250
       427   04 Jun 2027 19:48:48.752   04 Jun 2027 19:51:38.862           170.110              Murmansk2          5315.938
       428   04 Jun 2027 19:57:20.725   04 Jun 2027 19:58:50.071            89.346               Magadan2          2792.062
       429   04 Jun 2027 19:59:53.817   04 Jun 2027 19:59:59.802             5.985               Magadan2           187.031
       430   04 Jun 2027 20:00:49.717   04 Jun 2027 20:01:46.543            56.826               Magadan1          1775.812
       431   04 Jun 2027 21:30:43.400   04 Jun 2027 21:32:46.159           122.759                Anadyr2          3836.219
       432   04 Jun 2027 21:32:58.108   04 Jun 2027 21:34:34.443            96.335                Anadyr1          3010.469
       433   04 Jun 2027 21:34:43.810   04 Jun 2027 21:36:41.499           117.689                Norilsk          3677.781
       434   04 Jun 2027 21:36:48.485   04 Jun 2027 21:38:22.704            94.219               Magadan2          2944.344
       435   04 Jun 2027 21:39:45.064   04 Jun 2027 21:39:55.802            10.738               Magadan1           335.562
       436   04 Jun 2027 21:39:59.029   04 Jun 2027 21:40:09.199            10.170               Magadan1           317.812
       437   04 Jun 2027 21:42:05.379   04 Jun 2027 21:42:21.526            16.147               Magadan2           504.594
       438   04 Jun 2027 21:44:52.992   04 Jun 2027 21:44:55.396             2.404               Magadan1            75.125
       439   04 Jun 2027 22:25:14.209   04 Jun 2027 22:27:28.059           133.850            RioGallegos          4182.813
       440   04 Jun 2027 22:28:14.363   04 Jun 2027 22:28:34.382            20.019            RioGallegos           625.594
       441   04 Jun 2027 22:33:13.859   04 Jun 2027 22:33:49.999            36.140            RioGallegos          1129.375
       442   04 Jun 2027 23:06:21.657   04 Jun 2027 23:08:29.149           127.492                Anadyr2          3984.125
       443   04 Jun 2027 23:08:32.700   04 Jun 2027 23:08:37.553             4.853                Norilsk           151.656
       444   04 Jun 2027 23:09:02.890   04 Jun 2027 23:10:29.152            86.262               Magadan2          2695.688
       445   04 Jun 2027 23:12:10.117   04 Jun 2027 23:12:43.606            33.489               Magadan2          1046.531
       446   04 Jun 2027 23:12:46.527   04 Jun 2027 23:14:04.090            77.563                Irkutsk          2423.844
       447   04 Jun 2027 23:15:51.622   04 Jun 2027 23:17:22.717            91.095                Novosib          2846.719
       448   04 Jun 2027 23:28:30.915   04 Jun 2027 23:29:06.260            35.345                Sumatra          1104.531
       449   04 Jun 2027 23:33:48.397   04 Jun 2027 23:33:54.550             6.153                Sumatra           192.281
       450   04 Jun 2027 23:34:23.183   04 Jun 2027 23:35:59.867            96.684                Sumatra          3021.375
       451   05 Jun 2027 00:41:09.126   05 Jun 2027 00:41:49.631            40.505                Anadyr1          1265.781
       452   05 Jun 2027 00:42:38.287   05 Jun 2027 00:44:00.228            81.941                Anadyr2          2560.656
       453   05 Jun 2027 00:44:29.811   05 Jun 2027 00:46:12.455           102.644                Norilsk          3207.625
       454   05 Jun 2027 00:46:18.625   05 Jun 2027 00:47:24.869            66.244               Magadan2          2070.125
       455   05 Jun 2027 00:48:22.179   05 Jun 2027 00:49:11.300            49.121                Irkutsk          1535.031
       456   05 Jun 2027 00:50:30.306   05 Jun 2027 00:50:48.500            18.194                Novosib           568.563
       457   05 Jun 2027 00:50:59.008   05 Jun 2027 00:52:52.416           113.408                Novosib          3544.000
       458   05 Jun 2027 01:03:45.525   05 Jun 2027 01:04:16.878            31.353                Sumatra           979.781
       459   05 Jun 2027 01:07:15.044   05 Jun 2027 01:08:42.705            87.661                Sumatra          2739.406
       460   05 Jun 2027 01:44:09.754   05 Jun 2027 01:44:20.466            10.712            RioGallegos           334.750
       461   05 Jun 2027 01:44:26.057   05 Jun 2027 01:45:13.354            47.297            RioGallegos          1478.031
       462   05 Jun 2027 02:15:44.493   05 Jun 2027 02:16:01.546            17.053                Anadyr2           532.906
       463   05 Jun 2027 02:16:53.784   05 Jun 2027 02:16:55.736             1.952                Anadyr2            61.000
       464   05 Jun 2027 02:16:59.527   05 Jun 2027 02:17:13.311            13.784                Anadyr1           430.750
       465   05 Jun 2027 02:19:27.380   05 Jun 2027 02:20:05.407            38.027                Anadyr1          1188.344
       466   05 Jun 2027 02:20:29.803   05 Jun 2027 02:21:32.603            62.800                Norilsk          1962.500
       467   05 Jun 2027 02:22:25.012   05 Jun 2027 02:22:29.970             4.958                Norilsk           154.938
       468   05 Jun 2027 02:22:51.725   05 Jun 2027 02:24:20.532            88.807              Murmansk2          2775.219
       469   05 Jun 2027 02:24:35.226   05 Jun 2027 02:24:38.316             3.090                Novosib            96.562
       470   05 Jun 2027 02:24:55.238   05 Jun 2027 02:25:29.040            33.802                Irkutsk          1056.312
       471   05 Jun 2027 02:27:26.939   05 Jun 2027 02:27:33.708             6.769                Novosib           211.531
       472   05 Jun 2027 02:27:54.294   05 Jun 2027 02:28:08.494            14.200                Irkutsk           443.750
       473   05 Jun 2027 02:31:04.951   05 Jun 2027 02:31:22.454            17.503                Irkutsk           546.969
       474   05 Jun 2027 02:31:41.874   05 Jun 2027 02:32:23.156            41.282                Irkutsk          1290.062
       475   05 Jun 2027 02:37:23.932   05 Jun 2027 02:37:29.343             5.411                  Delhi           169.094
       476   05 Jun 2027 02:40:30.586   05 Jun 2027 02:41:21.308            50.722                  Delhi          1585.063
       477   05 Jun 2027 04:06:06.496   05 Jun 2027 04:07:05.325            58.829                Norilsk          1838.406
       478   05 Jun 2027 04:07:28.019   05 Jun 2027 04:08:01.024            33.005                Norilsk          1031.406
       479   05 Jun 2027 04:08:32.008   05 Jun 2027 04:09:09.938            37.930              Murmansk2          1185.313
       480   05 Jun 2027 04:09:54.134   05 Jun 2027 04:10:34.717            40.583              Murmansk1          1268.219
       481   05 Jun 2027 04:10:34.717   05 Jun 2027 04:10:37.506             2.789              Murmansk2            87.156
       482   05 Jun 2027 04:11:17.935   05 Jun 2027 04:13:33.764           135.829                 Moscow          4244.656
