uniorb/output/strategy_2/Drop/Drop_KinoSat_111302.txt

KinoSat_111302
-------------------------
    Access    *     Start Time (UTCG)     *     Stop Time (UTCG)  *   Duration (s)        *       Station  *  Data (Mbytes)
         1   01 Jun 2027 04:00:30.832   01 Jun 2027 04:02:51.269           140.437              Murmansk1          4388.656
         2   01 Jun 2027 04:02:51.269   01 Jun 2027 04:03:12.492            21.223              Murmansk2           663.219
         3   01 Jun 2027 05:21:09.431   01 Jun 2027 05:23:52.377           162.946                Anadyr2          5092.062
         4   01 Jun 2027 05:24:01.811   01 Jun 2027 05:24:39.625            37.814               Magadan1          1181.687
         5   01 Jun 2027 05:24:39.625   01 Jun 2027 05:25:03.559            23.934               Magadan2           747.938
         6   01 Jun 2027 05:25:33.401   01 Jun 2027 05:25:39.051             5.650               Magadan2           176.563
         7   01 Jun 2027 06:59:24.085   01 Jun 2027 06:59:46.564            22.479                Anadyr2           702.469
         8   01 Jun 2027 07:00:14.166   01 Jun 2027 07:00:32.055            17.889                Irkutsk           559.031
         9   01 Jun 2027 07:00:32.402   01 Jun 2027 07:02:14.053           101.651                Anadyr2          3176.594
        10   01 Jun 2027 07:08:17.815   01 Jun 2027 07:08:24.031             6.216                Norilsk           194.250
        11   01 Jun 2027 07:11:02.571   01 Jun 2027 07:11:23.961            21.390                 Moscow           668.438
        12   01 Jun 2027 08:34:08.038   01 Jun 2027 08:35:22.525            74.487               Magadan2          2327.719
        13   01 Jun 2027 08:35:35.722   01 Jun 2027 08:35:56.487            20.765               Magadan1           648.906
        14   01 Jun 2027 08:36:24.606   01 Jun 2027 08:38:13.958           109.352               Magadan2          3417.250
        15   01 Jun 2027 08:38:20.708   01 Jun 2027 08:38:28.021             7.313               Magadan1           228.531
        16   01 Jun 2027 08:40:34.748   01 Jun 2027 08:40:52.730            17.982                Norilsk           561.937
        17   01 Jun 2027 08:41:26.598   01 Jun 2027 08:41:44.790            18.192                Norilsk           568.500
        18   01 Jun 2027 09:13:25.083   01 Jun 2027 09:14:30.054            64.971            RioGallegos          2030.344
        19   01 Jun 2027 09:15:44.443   01 Jun 2027 09:15:59.298            14.855            RioGallegos           464.219
        20   01 Jun 2027 09:49:23.397   01 Jun 2027 09:50:21.617            58.220                Sumatra          1819.375
        21   01 Jun 2027 10:08:48.173   01 Jun 2027 10:09:26.048            37.875                Irkutsk          1183.594
        22   01 Jun 2027 10:10:53.180   01 Jun 2027 10:12:50.925           117.745                Irkutsk          3679.531
        23   01 Jun 2027 10:13:19.678   01 Jun 2027 10:14:03.299            43.621              Murmansk1          1363.156
        24   01 Jun 2027 10:14:14.561   01 Jun 2027 10:16:05.598           111.037                Novosib          3469.906
        25   01 Jun 2027 10:16:15.276   01 Jun 2027 10:18:31.680           136.404                Norilsk          4262.625
        26   01 Jun 2027 10:18:52.428   01 Jun 2027 10:19:51.564            59.136              Murmansk2          1848.000
        27   01 Jun 2027 10:50:26.191   01 Jun 2027 10:54:13.150           226.959            RioGallegos          7092.469
        28   01 Jun 2027 11:24:41.098   01 Jun 2027 11:26:17.048            95.950                Sumatra          2998.438
        29   01 Jun 2027 11:29:17.576   01 Jun 2027 11:29:23.628             6.052                Sumatra           189.125
        30   01 Jun 2027 11:29:44.178   01 Jun 2027 11:29:48.421             4.243                Sumatra           132.594
        31   01 Jun 2027 11:45:10.649   01 Jun 2027 11:45:37.189            26.540                Irkutsk           829.375
        32   01 Jun 2027 11:46:24.518   01 Jun 2027 11:47:01.677            37.159                Irkutsk          1161.219
        33   01 Jun 2027 11:47:41.800   01 Jun 2027 11:49:40.557           118.757                Irkutsk          3711.156
        34   01 Jun 2027 11:50:25.936   01 Jun 2027 11:50:57.428            31.492                Novosib           984.125
        35   01 Jun 2027 11:52:28.240   01 Jun 2027 11:52:51.863            23.623              Murmansk1           738.219
        36   01 Jun 2027 11:53:40.710   01 Jun 2027 11:54:27.727            47.017                Norilsk          1469.281
        37   01 Jun 2027 13:09:36.259   01 Jun 2027 13:12:54.407           198.148                  Delhi          6192.125
        38   01 Jun 2027 13:18:00.746   01 Jun 2027 13:18:11.300            10.554                Novosib           329.813
        39   01 Jun 2027 13:18:51.161   01 Jun 2027 13:19:26.562            35.401                Novosib          1106.281
        40   01 Jun 2027 13:20:20.774   01 Jun 2027 13:21:22.553            61.779                Novosib          1930.594
        41   01 Jun 2027 13:21:40.013   01 Jun 2027 13:23:20.957           100.944                Norilsk          3154.500
        42   01 Jun 2027 13:25:41.697   01 Jun 2027 13:26:07.452            25.755                Norilsk           804.844
        43   01 Jun 2027 13:26:20.717   01 Jun 2027 13:27:49.115            88.398                Norilsk          2762.438
        44   01 Jun 2027 14:52:56.604   01 Jun 2027 14:54:53.713           117.109                 Moscow          3659.656
        45   01 Jun 2027 14:56:27.885   01 Jun 2027 14:58:17.901           110.016              Murmansk2          3438.000
        46   01 Jun 2027 14:59:35.172   01 Jun 2027 14:59:55.740            20.568              Murmansk1           642.750
        47   01 Jun 2027 15:03:10.573   01 Jun 2027 15:05:47.486           156.913                Norilsk          4903.531
        48   01 Jun 2027 15:12:29.390   01 Jun 2027 15:13:35.125            65.735                Anadyr1          2054.219
        49   01 Jun 2027 15:14:13.351   01 Jun 2027 15:14:40.812            27.461                Anadyr2           858.156
        50   01 Jun 2027 15:16:38.787   01 Jun 2027 15:17:16.254            37.467                Anadyr2          1170.844
        51   01 Jun 2027 16:06:28.962   01 Jun 2027 16:07:28.217            59.255               CapeTown          1851.719
        52   01 Jun 2027 16:13:17.544   01 Jun 2027 16:13:25.060             7.516               CapeTown           234.875
        53   01 Jun 2027 16:13:59.762   01 Jun 2027 16:14:30.320            30.558               CapeTown           954.937
        54   01 Jun 2027 16:15:58.603   01 Jun 2027 16:16:34.515            35.912               CapeTown          1122.250
        55   01 Jun 2027 16:32:07.981   01 Jun 2027 16:33:04.279            56.298                 Moscow          1759.312
        56   01 Jun 2027 16:34:23.253   01 Jun 2027 16:34:24.864             1.611              Murmansk2            50.344
        57   01 Jun 2027 16:35:31.610   01 Jun 2027 16:35:52.533            20.923              Murmansk1           653.844
        58   01 Jun 2027 16:36:53.014   01 Jun 2027 16:37:20.232            27.218                 Moscow           850.562
        59   01 Jun 2027 16:37:38.212   01 Jun 2027 16:38:14.665            36.453              Murmansk1          1139.156
        60   01 Jun 2027 16:39:15.691   01 Jun 2027 16:39:39.280            23.589              Murmansk1           737.156
        61   01 Jun 2027 16:40:29.276   01 Jun 2027 16:40:44.181            14.905              Murmansk2           465.781
        62   01 Jun 2027 16:41:36.177   01 Jun 2027 16:42:12.813            36.636              Murmansk1          1144.875
        63   01 Jun 2027 16:43:28.711   01 Jun 2027 16:44:18.433            49.722              Murmansk2          1553.812
        64   01 Jun 2027 16:45:02.155   01 Jun 2027 16:45:06.461             4.306              Murmansk2           134.562
        65   01 Jun 2027 16:47:01.837   01 Jun 2027 16:47:18.822            16.985                Anadyr1           530.781
        66   01 Jun 2027 16:47:39.859   01 Jun 2027 16:48:01.865            22.006                Anadyr2           687.687
        67   01 Jun 2027 16:48:49.423   01 Jun 2027 16:48:50.408             0.985                Anadyr2            30.781
        68   01 Jun 2027 16:49:47.991   01 Jun 2027 16:50:15.629            27.638                Anadyr1           863.688
        69   01 Jun 2027 16:51:29.804   01 Jun 2027 16:51:59.506            29.702                Anadyr2           928.187
        70   01 Jun 2027 16:52:49.428   01 Jun 2027 16:52:57.228             7.800                Anadyr1           243.750
        71   01 Jun 2027 16:53:14.430   01 Jun 2027 16:53:32.587            18.157                Anadyr1           567.406
        72   01 Jun 2027 16:53:44.755   01 Jun 2027 16:54:07.171            22.416                Anadyr1           700.500
        73   01 Jun 2027 16:54:56.474   01 Jun 2027 16:55:30.878            34.404                Anadyr2          1075.125
        74   01 Jun 2027 16:56:07.522   01 Jun 2027 16:56:35.320            27.798                Anadyr2           868.687
        75   01 Jun 2027 16:56:54.428   01 Jun 2027 16:57:23.755            29.327                Anadyr2           916.469
        76   01 Jun 2027 16:58:14.370   01 Jun 2027 16:58:17.244             2.874                Anadyr2            89.812
        77   01 Jun 2027 17:50:08.962   01 Jun 2027 17:50:42.077            33.115               CapeTown          1034.844
        78   01 Jun 2027 17:53:22.542   01 Jun 2027 17:53:26.722             4.180               CapeTown           130.625
        79   01 Jun 2027 18:15:06.966   01 Jun 2027 18:19:39.379           272.413              Murmansk1          8512.906
        80   01 Jun 2027 18:19:44.949   01 Jun 2027 18:20:18.483            33.534              Murmansk2          1047.938
        81   01 Jun 2027 18:25:32.666   01 Jun 2027 18:26:36.903            64.237               Magadan2          2007.406
        82   01 Jun 2027 18:28:38.815   01 Jun 2027 18:28:44.797             5.982               Magadan2           186.938
        83   01 Jun 2027 18:28:57.667   01 Jun 2027 18:29:43.945            46.278               Magadan2          1446.188
        84   01 Jun 2027 18:31:46.879   01 Jun 2027 18:32:02.855            15.976                Anadyr2           499.250
        85   01 Jun 2027 18:32:30.413   01 Jun 2027 18:32:37.577             7.164               Magadan2           223.875
        86   01 Jun 2027 18:32:37.577   01 Jun 2027 18:33:20.855            43.278               Magadan1          1352.437
        87   01 Jun 2027 18:34:21.349   01 Jun 2027 18:34:30.813             9.464                Anadyr1           295.750
        88   01 Jun 2027 18:34:30.813   01 Jun 2027 18:34:45.251            14.438                Anadyr2           451.188
        89   01 Jun 2027 18:35:02.466   01 Jun 2027 18:35:12.476            10.010               Magadan2           312.812
        90   01 Jun 2027 18:35:18.680   01 Jun 2027 18:35:28.816            10.136                Anadyr2           316.750
        91   01 Jun 2027 18:35:30.933   01 Jun 2027 18:36:05.590            34.657               Magadan1          1083.031
        92   01 Jun 2027 19:58:44.724   01 Jun 2027 20:02:30.685           225.961                Anadyr1          7061.281
        93   01 Jun 2027 20:03:00.483   01 Jun 2027 20:04:59.807           119.324               Magadan2          3728.875
        94   01 Jun 2027 20:05:50.007   01 Jun 2027 20:06:06.433            16.426               Magadan2           513.312
        95   01 Jun 2027 20:06:34.094   01 Jun 2027 20:07:02.993            28.899               Magadan2           903.094
        96   01 Jun 2027 20:07:29.081   01 Jun 2027 20:07:56.035            26.954               Magadan1           842.312
        97   01 Jun 2027 20:08:10.791   01 Jun 2027 20:08:42.555            31.764                Anadyr1           992.625
        98   01 Jun 2027 20:09:45.733   01 Jun 2027 20:10:01.794            16.061                Anadyr1           501.906
        99   01 Jun 2027 20:10:01.794   01 Jun 2027 20:10:05.870             4.076                Anadyr2           127.375
       100   01 Jun 2027 20:10:10.677   01 Jun 2027 20:11:05.451            54.774               Magadan1          1711.688
       101   01 Jun 2027 20:11:36.403   01 Jun 2027 20:11:47.521            11.118               Magadan1           347.438
       102   01 Jun 2027 20:12:22.687   01 Jun 2027 20:13:26.197            63.510               Magadan2          1984.687
       103   01 Jun 2027 20:56:37.072   01 Jun 2027 20:58:46.687           129.615            RioGallegos          4050.469
       104   01 Jun 2027 20:59:51.385   01 Jun 2027 21:00:17.831            26.446            RioGallegos           826.437
       105   01 Jun 2027 21:01:44.910   01 Jun 2027 21:02:33.688            48.778            RioGallegos          1524.312
       106   01 Jun 2027 21:36:36.797   01 Jun 2027 21:37:02.242            25.445                Norilsk           795.156
       107   01 Jun 2027 21:37:35.433   01 Jun 2027 21:37:57.303            21.870               Magadan1           683.437
       108   01 Jun 2027 21:38:03.700   01 Jun 2027 21:38:37.184            33.484               Magadan1          1046.375
       109   01 Jun 2027 21:39:08.482   01 Jun 2027 21:39:14.165             5.683               Magadan2           177.594
       110   01 Jun 2027 21:39:54.231   01 Jun 2027 21:40:17.654            23.423               Magadan2           731.969
       111   01 Jun 2027 21:40:51.649   01 Jun 2027 21:41:45.037            53.388               Magadan1          1668.375
       112   01 Jun 2027 21:42:53.926   01 Jun 2027 21:43:08.743            14.817               Magadan2           463.031
       113   01 Jun 2027 21:44:04.113   01 Jun 2027 21:44:48.552            44.439                Anadyr1          1388.719
       114   01 Jun 2027 21:45:38.110   01 Jun 2027 21:45:50.006            11.896                Norilsk           371.750
       115   01 Jun 2027 21:46:23.037   01 Jun 2027 21:46:39.029            15.992                Irkutsk           499.750
       116   01 Jun 2027 21:46:40.094   01 Jun 2027 21:47:15.998            35.904                Irkutsk          1122.000
       117   01 Jun 2027 21:48:08.649   01 Jun 2027 21:49:37.110            88.461                Irkutsk          2764.406
       118   01 Jun 2027 21:59:02.222   01 Jun 2027 22:01:04.861           122.639                Sumatra          3832.469
       119   01 Jun 2027 22:05:00.910   01 Jun 2027 22:05:13.687            12.777                Sumatra           399.281
       120   01 Jun 2027 22:39:06.707   01 Jun 2027 22:40:12.470            65.763            RioGallegos          2055.094
       121   01 Jun 2027 23:09:48.021   01 Jun 2027 23:10:48.140            60.119                Anadyr1          1878.719
       122   01 Jun 2027 23:12:07.454   01 Jun 2027 23:12:09.624             2.170                Anadyr2            67.812
       123   01 Jun 2027 23:12:30.070   01 Jun 2027 23:13:40.247            70.177                Norilsk          2193.031
       124   01 Jun 2027 23:14:27.815   01 Jun 2027 23:15:03.403            35.588               Magadan1          1112.125
       125   01 Jun 2027 23:16:18.645   01 Jun 2027 23:16:19.144             0.499                Norilsk            15.594
       126   01 Jun 2027 23:16:20.104   01 Jun 2027 23:16:28.842             8.738               Magadan2           273.063
       127   01 Jun 2027 23:16:55.309   01 Jun 2027 23:17:14.905            19.596                Irkutsk           612.375
       128   01 Jun 2027 23:17:26.978   01 Jun 2027 23:17:54.180            27.202                Novosib           850.062
       129   01 Jun 2027 23:18:22.148   01 Jun 2027 23:18:26.938             4.790               Magadan2           149.687
       130   01 Jun 2027 23:18:36.443   01 Jun 2027 23:18:47.384            10.941               Magadan2           341.906
       131   01 Jun 2027 23:19:35.923   01 Jun 2027 23:19:58.731            22.808               Magadan2           712.750
       132   01 Jun 2027 23:20:45.269   01 Jun 2027 23:21:36.019            50.750                Novosib          1585.938
       133   01 Jun 2027 23:23:07.511   01 Jun 2027 23:23:18.204            10.693                Novosib           334.156
       134   01 Jun 2027 23:23:31.574   01 Jun 2027 23:24:08.453            36.879                Norilsk          1152.469
       135   01 Jun 2027 23:25:27.006   01 Jun 2027 23:25:42.510            15.504                Irkutsk           484.500
       136   01 Jun 2027 23:25:54.666   01 Jun 2027 23:26:07.856            13.190                Novosib           412.188
       137   01 Jun 2027 23:26:47.908   01 Jun 2027 23:26:49.298             1.390                Irkutsk            43.437
       138   01 Jun 2027 23:27:09.293   01 Jun 2027 23:28:08.855            59.562                Novosib          1861.313
       139   01 Jun 2027 23:29:50.332   01 Jun 2027 23:29:57.297             6.965                  Delhi           217.656
       140   01 Jun 2027 23:31:23.287   01 Jun 2027 23:32:24.883            61.596                  Delhi          1924.875
       141   01 Jun 2027 23:34:19.388   01 Jun 2027 23:34:41.347            21.959                  Delhi           686.219
       142   02 Jun 2027 00:12:19.153   02 Jun 2027 00:12:49.310            30.157            RioGallegos           942.406
       143   02 Jun 2027 00:13:52.319   02 Jun 2027 00:14:19.145            26.826            RioGallegos           838.312
       144   02 Jun 2027 00:43:15.783   02 Jun 2027 00:43:44.130            28.347                Anadyr2           885.844
       145   02 Jun 2027 00:43:44.130   02 Jun 2027 00:44:07.188            23.058                Anadyr1           720.563
       146   02 Jun 2027 00:44:55.404   02 Jun 2027 00:45:09.955            14.551                Anadyr2           454.719
       147   02 Jun 2027 00:45:14.324   02 Jun 2027 00:45:38.673            24.349                Anadyr2           760.906
       148   02 Jun 2027 00:46:10.515   02 Jun 2027 00:46:14.453             3.938                Anadyr2           123.063
       149   02 Jun 2027 00:47:38.589   02 Jun 2027 00:48:00.022            21.433                Anadyr2           669.781
       150   02 Jun 2027 00:48:30.385   02 Jun 2027 00:49:05.640            35.255                Norilsk          1101.719
       151   02 Jun 2027 00:49:32.188   02 Jun 2027 00:50:33.853            61.665                Norilsk          1927.031
       152   02 Jun 2027 00:50:57.174   02 Jun 2027 00:51:06.916             9.742               Magadan1           304.437
       153   02 Jun 2027 00:51:06.916   02 Jun 2027 00:51:25.292            18.376               Magadan2           574.250
       154   02 Jun 2027 00:51:25.951   02 Jun 2027 00:51:31.899             5.948               Magadan2           185.875
       155   02 Jun 2027 00:52:16.607   02 Jun 2027 00:52:42.348            25.741                Novosib           804.406
       156   02 Jun 2027 00:53:21.781   02 Jun 2027 00:53:37.702            15.921              Murmansk1           497.531
       157   02 Jun 2027 00:53:53.564   02 Jun 2027 00:53:58.393             4.829              Murmansk1           150.906
       158   02 Jun 2027 00:54:28.676   02 Jun 2027 00:55:20.779            52.103              Murmansk2          1628.219
       159   02 Jun 2027 00:57:49.441   02 Jun 2027 00:58:27.069            37.628              Murmansk2          1175.875
       160   02 Jun 2027 01:00:16.954   02 Jun 2027 01:00:19.379             2.425                Irkutsk            75.781
       161   02 Jun 2027 01:00:20.774   02 Jun 2027 01:01:24.551            63.777                Novosib          1993.031
       162   02 Jun 2027 01:05:07.331   02 Jun 2027 01:05:07.690             0.359                Novosib            11.219
       163   02 Jun 2027 01:08:23.394   02 Jun 2027 01:09:37.337            73.943                  Delhi          2310.719
       164   02 Jun 2027 01:11:22.065   02 Jun 2027 01:12:01.639            39.574                  Delhi          1236.688
       165   02 Jun 2027 01:45:54.303   02 Jun 2027 01:46:01.605             7.302            RioGallegos           228.187
       166   02 Jun 2027 02:16:34.089   02 Jun 2027 02:18:01.915            87.826                Anadyr1          2744.562
       167   02 Jun 2027 02:18:19.875   02 Jun 2027 02:19:14.916            55.041                Anadyr1          1720.031
       168   02 Jun 2027 02:21:45.105   02 Jun 2027 02:22:19.658            34.553                Anadyr1          1079.781
       169   02 Jun 2027 02:22:51.920   02 Jun 2027 02:23:15.306            23.386                Anadyr1           730.813
       170   02 Jun 2027 02:24:22.139   02 Jun 2027 02:24:40.995            18.856                Norilsk           589.250
       171   02 Jun 2027 02:25:25.556   02 Jun 2027 02:25:50.683            25.127               Magadan1           785.219
       172   02 Jun 2027 02:26:38.346   02 Jun 2027 02:27:06.727            28.381              Murmansk2           886.906
       173   02 Jun 2027 02:28:36.895   02 Jun 2027 02:28:47.100            10.205              Murmansk1           318.906
       174   02 Jun 2027 02:28:53.883   02 Jun 2027 02:29:38.809            44.926                Novosib          1403.937
       175   02 Jun 2027 02:31:45.443   02 Jun 2027 02:32:29.003            43.560              Murmansk2          1361.250
       176   02 Jun 2027 02:34:41.362   02 Jun 2027 02:34:59.439            18.077              Murmansk2           564.906
       177   02 Jun 2027 02:36:13.788   02 Jun 2027 02:36:42.267            28.479              Murmansk1           889.969
       178   02 Jun 2027 02:38:10.313   02 Jun 2027 02:38:15.896             5.583                Novosib           174.469
       179   02 Jun 2027 02:39:15.932   02 Jun 2027 02:39:40.521            24.589                 Moscow           768.406
       180   02 Jun 2027 02:41:25.179   02 Jun 2027 02:41:53.558            28.379                 Moscow           886.844
       181   02 Jun 2027 03:01:53.767   02 Jun 2027 03:02:32.250            38.483               CapeTown          1202.594
       182   02 Jun 2027 03:04:20.136   02 Jun 2027 03:04:37.121            16.985               CapeTown           530.781
       183   02 Jun 2027 03:05:40.553   02 Jun 2027 03:05:59.190            18.637               CapeTown           582.406
       184   02 Jun 2027 04:12:57.590   02 Jun 2027 04:13:38.885            41.295              Murmansk2          1290.469
       185   02 Jun 2027 04:13:38.885   02 Jun 2027 04:15:30.729           111.844              Murmansk1          3495.125
       186   02 Jun 2027 05:33:07.688   02 Jun 2027 05:35:06.687           118.999               Magadan1          3718.719
       187   02 Jun 2027 05:35:06.687   02 Jun 2027 05:36:18.050            71.363               Magadan2          2230.094
       188   02 Jun 2027 05:36:22.258   02 Jun 2027 05:38:56.051           153.793                Anadyr2          4806.031
       189   02 Jun 2027 07:11:48.469   02 Jun 2027 07:12:18.637            30.168                Anadyr1           942.750
       190   02 Jun 2027 07:12:18.637   02 Jun 2027 07:13:03.992            45.355                Anadyr2          1417.344
       191   02 Jun 2027 08:45:39.632   02 Jun 2027 08:45:46.869             7.237                Novosib           226.156
       192   02 Jun 2027 08:46:19.654   02 Jun 2027 08:46:52.802            33.148               Magadan1          1035.875
       193   02 Jun 2027 08:46:52.802   02 Jun 2027 08:47:57.630            64.828               Magadan2          2025.875
       194   02 Jun 2027 08:48:03.933   02 Jun 2027 08:48:25.321            21.388                Norilsk           668.375
       195   02 Jun 2027 08:48:29.667   02 Jun 2027 08:48:42.950            13.283                Norilsk           415.094
       196   02 Jun 2027 08:48:47.197   02 Jun 2027 08:49:25.544            38.347                Irkutsk          1198.344
       197   02 Jun 2027 08:49:26.259   02 Jun 2027 08:50:00.713            34.454                Novosib          1076.688
       198   02 Jun 2027 08:50:04.147   02 Jun 2027 08:51:29.781            85.634                Novosib          2676.062
       199   02 Jun 2027 09:25:22.324   02 Jun 2027 09:26:35.550            73.226            RioGallegos          2288.313
       200   02 Jun 2027 09:28:01.921   02 Jun 2027 09:28:02.407             0.486            RioGallegos            15.187
       201   02 Jun 2027 09:36:37.357   02 Jun 2027 09:37:26.985            49.628            RioGallegos          1550.875
       202   02 Jun 2027 10:00:57.335   02 Jun 2027 10:01:27.199            29.864                Sumatra           933.250
       203   02 Jun 2027 10:20:46.234   02 Jun 2027 10:21:00.359            14.125                Irkutsk           441.406
       204   02 Jun 2027 10:21:32.428   02 Jun 2027 10:22:10.251            37.823                Irkutsk          1181.969
       205   02 Jun 2027 10:22:23.526   02 Jun 2027 10:22:24.413             0.887                Novosib            27.719
       206   02 Jun 2027 10:22:25.266   02 Jun 2027 10:22:35.410            10.144                Irkutsk           317.000
       207   02 Jun 2027 10:22:36.440   02 Jun 2027 10:24:02.736            86.296                Norilsk          2696.750
       208   02 Jun 2027 10:24:09.293   02 Jun 2027 10:24:32.860            23.567                Norilsk           736.469
       209   02 Jun 2027 10:24:32.966   02 Jun 2027 10:24:41.178             8.212              Murmansk1           256.625
       210   02 Jun 2027 10:24:56.086   02 Jun 2027 10:25:26.883            30.797                Irkutsk           962.406
       211   02 Jun 2027 10:25:33.709   02 Jun 2027 10:26:38.046            64.337                Irkutsk          2010.531
       212   02 Jun 2027 10:33:14.694   02 Jun 2027 10:33:31.191            16.497              Murmansk1           515.531
       213   02 Jun 2027 11:02:55.224   02 Jun 2027 11:03:41.426            46.202            RioGallegos          1443.812
       214   02 Jun 2027 11:07:59.878   02 Jun 2027 11:08:04.760             4.882            RioGallegos           152.562
       215   02 Jun 2027 11:37:07.563   02 Jun 2027 11:38:17.623            70.060                Sumatra          2189.375
       216   02 Jun 2027 11:46:23.618   02 Jun 2027 11:47:28.655            65.037                  Delhi          2032.406
       217   02 Jun 2027 11:57:53.614   02 Jun 2027 11:58:24.210            30.596              Murmansk2           956.125
       218   02 Jun 2027 11:58:29.244   02 Jun 2027 11:58:37.218             7.974              Murmansk1           249.187
       219   02 Jun 2027 11:58:38.487   02 Jun 2027 11:58:51.554            13.067                Novosib           408.344
       220   02 Jun 2027 11:58:55.199   02 Jun 2027 11:59:05.842            10.643                Irkutsk           332.594
       221   02 Jun 2027 11:59:14.509   02 Jun 2027 11:59:21.456             6.947                Novosib           217.094
       222   02 Jun 2027 11:59:31.969   02 Jun 2027 12:00:49.710            77.741                 Moscow          2429.406
       223   02 Jun 2027 12:01:45.975   02 Jun 2027 12:02:12.079            26.104                Novosib           815.750
       224   02 Jun 2027 12:02:29.218   02 Jun 2027 12:02:56.885            27.667                Novosib           864.594
       225   02 Jun 2027 12:04:31.290   02 Jun 2027 12:04:36.371             5.081                Norilsk           158.781
       226   02 Jun 2027 12:04:58.420   02 Jun 2027 12:05:15.983            17.563                 Moscow           548.844
       227   02 Jun 2027 12:05:39.733   02 Jun 2027 12:06:25.245            45.512              Murmansk1          1422.250
       228   02 Jun 2027 12:06:36.007   02 Jun 2027 12:07:38.855            62.848                Norilsk          1964.000
       229   02 Jun 2027 13:22:46.473   02 Jun 2027 13:23:29.799            43.326                  Delhi          1353.938
       230   02 Jun 2027 13:24:12.883   02 Jun 2027 13:26:29.802           136.919                  Delhi          4278.719
       231   02 Jun 2027 13:30:47.999   02 Jun 2027 13:31:35.972            47.973                Novosib          1499.156
       232   02 Jun 2027 13:32:16.230   02 Jun 2027 13:32:37.767            21.537                Novosib           673.031
       233   02 Jun 2027 13:33:19.778   02 Jun 2027 13:34:37.994            78.216                Novosib          2444.250
       234   02 Jun 2027 13:37:40.365   02 Jun 2027 13:38:09.791            29.426                Norilsk           919.563
       235   02 Jun 2027 13:39:19.308   02 Jun 2027 13:39:50.266            30.958                Norilsk           967.437
       236   02 Jun 2027 13:41:56.920   02 Jun 2027 13:42:23.341            26.421                Norilsk           825.656
       237   02 Jun 2027 13:44:35.010   02 Jun 2027 13:45:14.991            39.981              Murmansk1          1249.406
       238   02 Jun 2027 14:47:16.803   02 Jun 2027 14:47:54.014            37.211               CapeTown          1162.844
       239   02 Jun 2027 14:48:18.893   02 Jun 2027 14:49:17.916            59.023               CapeTown          1844.469
       240   02 Jun 2027 15:05:07.860   02 Jun 2027 15:06:07.941            60.081                 Moscow          1877.531
       241   02 Jun 2027 15:06:25.486   02 Jun 2027 15:06:53.157            27.671                 Moscow           864.719
       242   02 Jun 2027 15:08:37.537   02 Jun 2027 15:09:40.297            62.760              Murmansk1          1961.250
       243   02 Jun 2027 15:13:04.961   02 Jun 2027 15:13:33.783            28.822              Murmansk2           900.687
       244   02 Jun 2027 15:15:44.763   02 Jun 2027 15:15:45.808             1.045              Murmansk1            32.656
       245   02 Jun 2027 15:16:41.426   02 Jun 2027 15:17:22.900            41.474              Murmansk2          1296.062
       246   02 Jun 2027 15:19:31.712   02 Jun 2027 15:21:12.993           101.281              Murmansk1          3165.031
       247   02 Jun 2027 15:24:31.492   02 Jun 2027 15:25:05.848            34.356                Anadyr2          1073.625
       248   02 Jun 2027 15:26:42.120   02 Jun 2027 15:28:26.172           104.052                Anadyr1          3251.625
       249   02 Jun 2027 16:45:03.813   02 Jun 2027 16:45:42.075            38.262                 Moscow          1195.687
       250   02 Jun 2027 16:46:11.096   02 Jun 2027 16:46:50.130            39.034                 Moscow          1219.812
       251   02 Jun 2027 16:48:58.603   02 Jun 2027 16:49:24.982            26.379              Murmansk1           824.344
       252   02 Jun 2027 16:51:14.761   02 Jun 2027 16:51:43.916            29.155              Murmansk2           911.094
       253   02 Jun 2027 16:55:30.666   02 Jun 2027 16:55:56.411            25.745              Murmansk1           804.531
       254   02 Jun 2027 16:55:56.411   02 Jun 2027 16:56:46.865            50.454              Murmansk2          1576.687
       255   02 Jun 2027 16:59:00.752   02 Jun 2027 16:59:20.185            19.433                Anadyr1           607.281
       256   02 Jun 2027 16:59:46.165   02 Jun 2027 16:59:52.881             6.716                Anadyr1           209.875
       257   02 Jun 2027 17:00:17.058   02 Jun 2027 17:00:37.322            20.264                Anadyr2           633.250
       258   02 Jun 2027 17:00:47.490   02 Jun 2027 17:00:51.571             4.081                Anadyr1           127.531
       259   02 Jun 2027 17:01:43.735   02 Jun 2027 17:01:56.718            12.983                Anadyr1           405.719
       260   02 Jun 2027 17:02:35.951   02 Jun 2027 17:03:30.909            54.958                Anadyr1          1717.438
       261   02 Jun 2027 17:57:40.439   02 Jun 2027 17:58:28.547            48.108               CapeTown          1503.375
       262   02 Jun 2027 18:02:21.868   02 Jun 2027 18:04:27.872           126.004               CapeTown          3937.625
       263   02 Jun 2027 18:28:10.384   02 Jun 2027 18:31:15.177           184.793              Murmansk2          5774.781
       264   02 Jun 2027 18:37:27.050   02 Jun 2027 18:38:16.393            49.343               Magadan1          1541.969
       265   02 Jun 2027 18:38:31.114   02 Jun 2027 18:38:35.022             3.908               Magadan1           122.125
       266   02 Jun 2027 18:38:35.022   02 Jun 2027 18:38:37.173             2.151               Magadan2            67.219
       267   02 Jun 2027 18:41:00.334   02 Jun 2027 18:41:11.995            11.661               Magadan1           364.406
       268   02 Jun 2027 18:43:18.700   02 Jun 2027 18:43:28.743            10.043               Magadan2           313.844
       269   02 Jun 2027 18:44:54.035   02 Jun 2027 18:45:19.104            25.069               Magadan2           783.406
       270   02 Jun 2027 20:10:45.778   02 Jun 2027 20:12:52.242           126.464                Anadyr1          3952.000
       271   02 Jun 2027 20:13:00.066   02 Jun 2027 20:14:31.065            90.999                Anadyr2          2843.719
       272   02 Jun 2027 20:14:40.884   02 Jun 2027 20:16:36.836           115.952                Norilsk          3623.500
       273   02 Jun 2027 20:17:00.096   02 Jun 2027 20:17:31.500            31.404               Magadan2           981.375
       274   02 Jun 2027 20:17:39.526   02 Jun 2027 20:17:52.504            12.978               Magadan2           405.562
       275   02 Jun 2027 20:18:13.572   02 Jun 2027 20:18:33.337            19.765               Magadan2           617.656
       276   02 Jun 2027 20:21:45.098   02 Jun 2027 20:21:58.709            13.611               Magadan1           425.344
       277   02 Jun 2027 20:23:04.805   02 Jun 2027 20:23:14.411             9.606               Magadan1           300.187
       278   02 Jun 2027 20:23:40.650   02 Jun 2027 20:23:48.467             7.817               Magadan2           244.281
       279   02 Jun 2027 20:24:01.097   02 Jun 2027 20:25:08.877            67.780               Magadan1          2118.125
       280   02 Jun 2027 21:05:26.054   02 Jun 2027 21:08:04.463           158.409            RioGallegos          4950.281
       281   02 Jun 2027 21:46:25.765   02 Jun 2027 21:47:10.416            44.651                Anadyr2          1395.344
       282   02 Jun 2027 21:48:36.617   02 Jun 2027 21:48:55.240            18.623                Norilsk           581.969
       283   02 Jun 2027 21:49:04.014   02 Jun 2027 21:51:09.485           125.471               Magadan2          3920.969
       284   02 Jun 2027 21:52:08.314   02 Jun 2027 21:52:28.678            20.364               Magadan2           636.375
       285   02 Jun 2027 21:52:54.336   02 Jun 2027 21:53:45.387            51.051                Irkutsk          1595.344
       286   02 Jun 2027 21:54:05.593   02 Jun 2027 21:54:21.075            15.482                Irkutsk           483.813
       287   02 Jun 2027 21:55:36.171   02 Jun 2027 21:55:39.580             3.409                Irkutsk           106.531
       288   02 Jun 2027 21:55:55.621   02 Jun 2027 21:56:08.059            12.438                Novosib           388.688
       289   02 Jun 2027 21:56:17.340   02 Jun 2027 21:57:40.825            83.485                Novosib          2608.906
       290   02 Jun 2027 22:08:59.049   02 Jun 2027 22:10:06.204            67.155                Sumatra          2098.594
       291   02 Jun 2027 22:16:54.711   02 Jun 2027 22:18:44.069           109.358                Sumatra          3417.438
       292   02 Jun 2027 23:24:32.145   02 Jun 2027 23:24:57.733            25.588                Norilsk           799.625
       293   02 Jun 2027 23:25:10.729   02 Jun 2027 23:25:43.157            32.428               Magadan2          1013.375
       294   02 Jun 2027 23:25:43.157   02 Jun 2027 23:26:26.418            43.261               Magadan1          1351.906
       295   02 Jun 2027 23:26:32.274   02 Jun 2027 23:26:35.680             3.406                Norilsk           106.438
       296   02 Jun 2027 23:27:05.331   02 Jun 2027 23:27:11.896             6.565               Magadan1           205.156
       297   02 Jun 2027 23:27:14.023   02 Jun 2027 23:27:17.654             3.631                Norilsk           113.469
       298   02 Jun 2027 23:27:58.668   02 Jun 2027 23:29:10.179            71.511               Magadan2          2234.719
       299   02 Jun 2027 23:29:17.883   02 Jun 2027 23:29:34.022            16.139                Irkutsk           504.344
       300   02 Jun 2027 23:29:36.514   02 Jun 2027 23:30:39.188            62.674                Novosib          1958.562
       301   02 Jun 2027 23:34:48.369   02 Jun 2027 23:35:06.140            17.771                Novosib           555.344
       302   02 Jun 2027 23:35:50.972   02 Jun 2027 23:37:23.772            92.800                Novosib          2900.000
       303   02 Jun 2027 23:42:01.643   02 Jun 2027 23:42:03.478             1.835                  Delhi            57.344
       304   02 Jun 2027 23:42:19.214   02 Jun 2027 23:42:41.080            21.866                  Delhi           683.313
       305   02 Jun 2027 23:46:32.577   02 Jun 2027 23:46:53.319            20.742                  Delhi           648.187
       306   02 Jun 2027 23:47:12.116   02 Jun 2027 23:47:30.680            18.564                  Delhi           580.125
       307   03 Jun 2027 00:24:52.221   03 Jun 2027 00:25:10.710            18.489            RioGallegos           577.781
       308   03 Jun 2027 00:54:57.207   03 Jun 2027 00:55:11.557            14.350                Anadyr1           448.438
       309   03 Jun 2027 00:55:36.287   03 Jun 2027 00:56:05.672            29.385                Anadyr2           918.281
       310   03 Jun 2027 00:56:49.831   03 Jun 2027 00:57:14.485            24.654                Anadyr1           770.437
       311   03 Jun 2027 00:57:14.485   03 Jun 2027 00:57:26.688            12.203                Anadyr2           381.344
       312   03 Jun 2027 00:57:43.183   03 Jun 2027 00:58:02.833            19.650                Anadyr2           614.062
       313   03 Jun 2027 00:59:35.928   03 Jun 2027 00:59:59.772            23.844                Anadyr2           745.125
       314   03 Jun 2027 01:00:30.614   03 Jun 2027 01:00:42.224            11.610                Anadyr2           362.812
       315   03 Jun 2027 01:00:50.580   03 Jun 2027 01:01:28.660            38.080               Magadan1          1190.000
       316   03 Jun 2027 01:01:36.330   03 Jun 2027 01:02:36.054            59.724                Norilsk          1866.375
       317   03 Jun 2027 01:02:57.920   03 Jun 2027 01:04:32.221            94.301              Murmansk2          2946.906
       318   03 Jun 2027 01:04:32.221   03 Jun 2027 01:05:25.778            53.557              Murmansk1          1673.656
       319   03 Jun 2027 01:07:56.220   03 Jun 2027 01:08:30.580            34.360                Irkutsk          1073.750
       320   03 Jun 2027 01:09:59.996   03 Jun 2027 01:10:34.744            34.748                 Moscow          1085.875
       321   03 Jun 2027 01:16:41.461   03 Jun 2027 01:16:52.627            11.166                  Delhi           348.938
       322   03 Jun 2027 01:19:36.621   03 Jun 2027 01:19:49.374            12.753                  Delhi           398.531
       323   03 Jun 2027 01:21:31.864   03 Jun 2027 01:22:14.204            42.340                  Delhi          1323.125
       324   03 Jun 2027 02:28:18.147   03 Jun 2027 02:31:18.870           180.723                Anadyr1          5647.594
       325   03 Jun 2027 02:31:18.870   03 Jun 2027 02:31:28.100             9.230                Anadyr2           288.437
       326   03 Jun 2027 02:33:39.879   03 Jun 2027 02:34:38.487            58.608               Magadan2          1831.500
       327   03 Jun 2027 02:36:21.830   03 Jun 2027 02:36:49.612            27.782                Norilsk           868.188
       328   03 Jun 2027 02:38:39.684   03 Jun 2027 02:39:29.768            50.084              Murmansk1          1565.125
       329   03 Jun 2027 02:40:21.805   03 Jun 2027 02:40:38.654            16.849              Murmansk2           526.531
       330   03 Jun 2027 02:41:23.826   03 Jun 2027 02:42:16.670            52.844                Novosib          1651.375
       331   03 Jun 2027 02:43:29.520   03 Jun 2027 02:43:35.428             5.908                Novosib           184.625
       332   03 Jun 2027 02:43:54.964   03 Jun 2027 02:44:00.282             5.318                Novosib           166.187
       333   03 Jun 2027 02:46:49.661   03 Jun 2027 02:47:07.688            18.027                 Moscow           563.344
       334   03 Jun 2027 02:47:51.510   03 Jun 2027 02:48:13.926            22.416                Novosib           700.500
       335   03 Jun 2027 02:52:50.396   03 Jun 2027 02:53:13.449            23.053                 Moscow           720.406
       336   03 Jun 2027 03:08:54.524   03 Jun 2027 03:09:46.719            52.195               CapeTown          1631.094
       337   03 Jun 2027 04:25:12.779   03 Jun 2027 04:26:30.751            77.972              Murmansk2          2436.625
       338   03 Jun 2027 04:26:30.751   03 Jun 2027 04:27:34.696            63.945              Murmansk1          1998.281
       339   03 Jun 2027 05:45:47.450   03 Jun 2027 05:47:13.744            86.294               Magadan1          2696.687
       340   03 Jun 2027 05:47:21.749   03 Jun 2027 05:49:07.131           105.382               Magadan1          3293.187
       341   03 Jun 2027 05:50:40.328   03 Jun 2027 05:51:21.865            41.537                Anadyr1          1298.031
       342   03 Jun 2027 07:21:32.054   03 Jun 2027 07:21:47.425            15.371               Magadan1           480.344
       343   03 Jun 2027 07:21:51.863   03 Jun 2027 07:23:05.542            73.679                Irkutsk          2302.469
       344   03 Jun 2027 07:23:15.018   03 Jun 2027 07:23:48.321            33.303               Magadan2          1040.719
       345   03 Jun 2027 07:23:50.344   03 Jun 2027 07:23:57.909             7.565                Anadyr2           236.406
       346   03 Jun 2027 07:24:01.720   03 Jun 2027 07:24:22.274            20.554                Irkutsk           642.312
       347   03 Jun 2027 07:24:24.576   03 Jun 2027 07:24:54.589            30.013                Irkutsk           937.906
       348   03 Jun 2027 07:24:55.011   03 Jun 2027 07:25:20.401            25.390               Magadan2           793.438
       349   03 Jun 2027 07:25:37.207   03 Jun 2027 07:26:10.321            33.114                Anadyr2          1034.812
       350   03 Jun 2027 07:26:10.321   03 Jun 2027 07:26:53.583            43.262                Anadyr1          1351.938
       351   03 Jun 2027 08:55:53.079   03 Jun 2027 08:56:13.116            20.037                Irkutsk           626.156
       352   03 Jun 2027 08:56:33.917   03 Jun 2027 08:56:50.571            16.654                Novosib           520.438
       353   03 Jun 2027 08:56:56.716   03 Jun 2027 08:56:58.238             1.522                Irkutsk            47.563
       354   03 Jun 2027 08:57:03.560   03 Jun 2027 08:58:42.082            98.522                Irkutsk          3078.813
       355   03 Jun 2027 08:58:48.255   03 Jun 2027 08:59:27.396            39.141               Magadan1          1223.156
       356   03 Jun 2027 08:59:57.858   03 Jun 2027 09:00:05.185             7.327                Irkutsk           228.969
       357   03 Jun 2027 09:00:27.721   03 Jun 2027 09:00:47.100            19.379                Norilsk           605.594
       358   03 Jun 2027 09:00:48.567   03 Jun 2027 09:00:53.726             5.159                Norilsk           161.219
       359   03 Jun 2027 09:00:59.452   03 Jun 2027 09:01:47.027            47.575              Murmansk1          1486.719
       360   03 Jun 2027 09:01:56.501   03 Jun 2027 09:01:57.499             0.998                Norilsk            31.187
       361   03 Jun 2027 09:01:58.711   03 Jun 2027 09:02:11.797            13.086               Magadan1           408.938
       362   03 Jun 2027 09:02:25.467   03 Jun 2027 09:02:33.360             7.893              Murmansk2           246.656
       363   03 Jun 2027 09:02:46.690   03 Jun 2027 09:03:14.166            27.476              Murmansk2           858.625
       364   03 Jun 2027 09:03:38.895   03 Jun 2027 09:03:41.173             2.278              Murmansk2            71.188
       365   03 Jun 2027 09:07:20.158   03 Jun 2027 09:07:57.336            37.178              Murmansk1          1161.812
       366   03 Jun 2027 09:37:22.844   03 Jun 2027 09:38:16.191            53.347            RioGallegos          1667.094
       367   03 Jun 2027 10:12:39.143   03 Jun 2027 10:13:22.701            43.558                Sumatra          1361.188
       368   03 Jun 2027 10:14:51.772   03 Jun 2027 10:15:00.854             9.082                Sumatra           283.812
       369   03 Jun 2027 10:18:41.762   03 Jun 2027 10:19:03.078            21.316                Sumatra           666.125
       370   03 Jun 2027 10:26:13.033   03 Jun 2027 10:26:26.542            13.509                  Delhi           422.156
       371   03 Jun 2027 10:32:53.782   03 Jun 2027 10:33:13.556            19.774                Norilsk           617.938
       372   03 Jun 2027 10:33:22.025   03 Jun 2027 10:34:04.587            42.562                Norilsk          1330.063
       373   03 Jun 2027 10:34:12.587   03 Jun 2027 10:34:20.529             7.942                Novosib           248.188
       374   03 Jun 2027 10:34:27.007   03 Jun 2027 10:34:45.617            18.610                Novosib           581.563
       375   03 Jun 2027 10:34:57.310   03 Jun 2027 10:35:03.567             6.257                Irkutsk           195.531
       376   03 Jun 2027 10:35:05.401   03 Jun 2027 10:35:22.981            17.580                Novosib           549.375
       377   03 Jun 2027 10:35:30.965   03 Jun 2027 10:35:54.748            23.783              Murmansk2           743.219
       378   03 Jun 2027 10:36:04.719   03 Jun 2027 10:36:10.319             5.600                Norilsk           175.000
       379   03 Jun 2027 10:36:14.396   03 Jun 2027 10:37:00.460            46.064                Irkutsk          1439.500
       380   03 Jun 2027 10:37:04.821   03 Jun 2027 10:37:07.215             2.394                Irkutsk            74.812
       381   03 Jun 2027 10:37:10.725   03 Jun 2027 10:37:22.497            11.772                Novosib           367.875
       382   03 Jun 2027 10:37:30.428   03 Jun 2027 10:37:52.988            22.560                Norilsk           705.000
       383   03 Jun 2027 10:37:58.702   03 Jun 2027 10:38:04.551             5.849                Norilsk           182.781
       384   03 Jun 2027 10:38:12.942   03 Jun 2027 10:38:17.920             4.978                Novosib           155.563
       385   03 Jun 2027 10:38:18.879   03 Jun 2027 10:38:39.218            20.339                Norilsk           635.594
       386   03 Jun 2027 10:40:07.368   03 Jun 2027 10:40:26.177            18.809              Murmansk1           587.781
       387   03 Jun 2027 11:15:30.540   03 Jun 2027 11:15:56.797            26.257            RioGallegos           820.531
       388   03 Jun 2027 11:16:34.213   03 Jun 2027 11:17:29.552            55.339            RioGallegos          1729.344
       389   03 Jun 2027 11:49:45.175   03 Jun 2027 11:49:51.546             6.371                Sumatra           199.094
       390   03 Jun 2027 11:51:03.945   03 Jun 2027 11:52:42.543            98.598                Sumatra          3081.188
       391   03 Jun 2027 12:07:32.073   03 Jun 2027 12:08:07.382            35.309                Novosib          1103.406
       392   03 Jun 2027 12:09:43.208   03 Jun 2027 12:09:47.021             3.813              Murmansk1           119.156
       393   03 Jun 2027 12:09:49.462   03 Jun 2027 12:10:24.592            35.130              Murmansk1          1097.812
       394   03 Jun 2027 12:13:53.153   03 Jun 2027 12:14:11.251            18.098                Norilsk           565.562
       395   03 Jun 2027 12:15:53.777   03 Jun 2027 12:16:07.262            13.485                Norilsk           421.406
       396   03 Jun 2027 12:17:41.075   03 Jun 2027 12:17:48.301             7.226              Murmansk2           225.812
       397   03 Jun 2027 12:18:48.779   03 Jun 2027 12:19:10.463            21.684              Murmansk1           677.625
       398   03 Jun 2027 13:35:15.111   03 Jun 2027 13:39:45.605           270.494                  Delhi          8452.937
       399   03 Jun 2027 13:43:46.672   03 Jun 2027 13:44:09.973            23.301                Novosib           728.156
       400   03 Jun 2027 13:44:21.017   03 Jun 2027 13:44:37.209            16.192              Murmansk1           506.000
       401   03 Jun 2027 13:44:37.209   03 Jun 2027 13:45:36.842            59.633              Murmansk2          1863.531
       402   03 Jun 2027 13:46:43.707   03 Jun 2027 13:47:31.033            47.326                Norilsk          1478.937
       403   03 Jun 2027 13:53:58.897   03 Jun 2027 13:54:22.012            23.115                Norilsk           722.344
       404   03 Jun 2027 13:55:22.899   03 Jun 2027 13:55:32.101             9.202                Norilsk           287.563
       405   03 Jun 2027 14:57:19.340   03 Jun 2027 14:59:23.205           123.865               CapeTown          3870.781
       406   03 Jun 2027 15:02:25.944   03 Jun 2027 15:03:32.536            66.592               CapeTown          2081.000
       407   03 Jun 2027 15:20:49.016   03 Jun 2027 15:21:57.768            68.752              Murmansk1          2148.500
       408   03 Jun 2027 15:23:38.973   03 Jun 2027 15:23:49.498            10.525              Murmansk1           328.906
       409   03 Jun 2027 15:23:59.791   03 Jun 2027 15:24:44.338            44.547              Murmansk1          1392.094
       410   03 Jun 2027 15:31:33.544   03 Jun 2027 15:32:19.362            45.818              Murmansk2          1431.813
       411   03 Jun 2027 15:35:50.030   03 Jun 2027 15:37:04.376            74.346                Anadyr2          2323.313
       412   03 Jun 2027 15:37:39.256   03 Jun 2027 15:38:05.381            26.125                Anadyr1           816.406
       413   03 Jun 2027 15:38:30.306   03 Jun 2027 15:38:42.753            12.447                Anadyr1           388.969
       414   03 Jun 2027 15:42:49.564   03 Jun 2027 15:42:50.957             1.393                Anadyr1            43.531
       415   03 Jun 2027 16:33:58.950   03 Jun 2027 16:34:40.283            41.333               CapeTown          1291.656
       416   03 Jun 2027 16:37:11.529   03 Jun 2027 16:38:19.509            67.980               CapeTown          2124.375
       417   03 Jun 2027 16:58:17.393   03 Jun 2027 16:58:52.528            35.135                 Moscow          1097.969
       418   03 Jun 2027 16:59:18.613   03 Jun 2027 16:59:45.656            27.043              Murmansk1           845.094
       419   03 Jun 2027 17:00:44.079   03 Jun 2027 17:02:05.805            81.726                 Moscow          2553.938
       420   03 Jun 2027 17:11:00.273   03 Jun 2027 17:12:03.578            63.305                Anadyr2          1978.281
       421   03 Jun 2027 17:12:03.578   03 Jun 2027 17:12:23.955            20.377                Anadyr1           636.781
       422   03 Jun 2027 17:13:14.940   03 Jun 2027 17:13:16.967             2.027                Anadyr1            63.344
       423   03 Jun 2027 17:13:37.722   03 Jun 2027 17:13:38.546             0.824                Anadyr2            25.750
       424   03 Jun 2027 17:13:41.720   03 Jun 2027 17:14:31.417            49.697                Anadyr2          1553.031
       425   03 Jun 2027 17:16:00.929   03 Jun 2027 17:16:30.272            29.343               Magadan1           916.969
       426   03 Jun 2027 17:16:47.075   03 Jun 2027 17:16:57.073             9.998               Magadan2           312.438
       427   03 Jun 2027 18:13:47.264   03 Jun 2027 18:13:55.519             8.255               CapeTown           257.969
       428   03 Jun 2027 18:41:46.145   03 Jun 2027 18:43:07.225            81.080              Murmansk1          2533.750
       429   03 Jun 2027 18:46:51.954   03 Jun 2027 18:50:12.806           200.852                Anadyr1          6276.625
       430   03 Jun 2027 18:50:18.106   03 Jun 2027 18:51:57.885            99.779               Magadan1          3118.094
       431   03 Jun 2027 18:57:38.051   03 Jun 2027 18:58:10.614            32.563               Magadan2          1017.594
       432   03 Jun 2027 20:22:46.610   03 Jun 2027 20:26:58.555           251.945                Anadyr1          7873.281
       433   03 Jun 2027 20:27:30.341   03 Jun 2027 20:28:48.883            78.542               Magadan2          2454.437
       434   03 Jun 2027 20:28:48.883   03 Jun 2027 20:29:27.902            39.019               Magadan1          1219.344
       435   03 Jun 2027 20:33:11.291   03 Jun 2027 20:34:11.321            60.030               Magadan1          1875.938
       436   03 Jun 2027 21:17:13.051   03 Jun 2027 21:19:55.692           162.641            RioGallegos          5082.531
       437   03 Jun 2027 21:20:37.839   03 Jun 2027 21:20:49.019            11.180            RioGallegos           349.375
       438   03 Jun 2027 21:58:22.739   03 Jun 2027 21:58:37.704            14.965                Anadyr1           467.656
       439   03 Jun 2027 21:58:51.886   03 Jun 2027 21:59:06.694            14.808                Anadyr1           462.750
       440   03 Jun 2027 22:00:37.022   03 Jun 2027 22:00:44.137             7.115                Norilsk           222.344
       441   03 Jun 2027 22:01:06.913   03 Jun 2027 22:03:11.871           124.958               Magadan2          3904.938
       442   03 Jun 2027 22:03:20.438   03 Jun 2027 22:03:44.268            23.830                Norilsk           744.687
       443   03 Jun 2027 22:04:18.766   03 Jun 2027 22:04:23.711             4.945                Norilsk           154.531
       444   03 Jun 2027 22:04:36.900   03 Jun 2027 22:04:57.754            20.854               Magadan2           651.688
       445   03 Jun 2027 22:05:05.400   03 Jun 2027 22:05:18.164            12.764                Norilsk           398.875
       446   03 Jun 2027 22:05:36.767   03 Jun 2027 22:05:56.818            20.051                Norilsk           626.594
       447   03 Jun 2027 22:06:25.963   03 Jun 2027 22:06:42.540            16.577                Irkutsk           518.031
       448   03 Jun 2027 22:06:48.893   03 Jun 2027 22:07:17.101            28.208                Novosib           881.500
       449   03 Jun 2027 22:07:25.448   03 Jun 2027 22:07:40.286            14.838                Irkutsk           463.688
       450   03 Jun 2027 22:07:59.275   03 Jun 2027 22:08:21.654            22.379                Novosib           699.344
       451   03 Jun 2027 22:08:28.731   03 Jun 2027 22:08:34.343             5.612                Novosib           175.375
       452   03 Jun 2027 22:09:23.934   03 Jun 2027 22:10:28.238            64.304                Novosib          2009.500
       453   03 Jun 2027 22:18:32.588   03 Jun 2027 22:19:18.280            45.692                Sumatra          1427.875
       454   03 Jun 2027 22:21:16.019   03 Jun 2027 22:22:05.640            49.621                Sumatra          1550.656
       455   03 Jun 2027 23:33:06.078   03 Jun 2027 23:35:06.299           120.221                Anadyr2          3756.906
       456   03 Jun 2027 23:35:24.177   03 Jun 2027 23:35:53.125            28.948                Anadyr2           904.625
       457   03 Jun 2027 23:36:34.268   03 Jun 2027 23:36:56.999            22.731                Norilsk           710.344
       458   03 Jun 2027 23:37:12.985   03 Jun 2027 23:37:40.470            27.485               Magadan1           858.906
       459   03 Jun 2027 23:37:40.470   03 Jun 2027 23:38:10.008            29.538               Magadan2           923.062
       460   03 Jun 2027 23:38:26.170   03 Jun 2027 23:38:44.085            17.915               Magadan2           559.844
       461   03 Jun 2027 23:40:26.546   03 Jun 2027 23:41:26.320            59.774                Irkutsk          1867.937
       462   03 Jun 2027 23:41:42.891   03 Jun 2027 23:42:32.340            49.449                Novosib          1545.281
       463   03 Jun 2027 23:43:16.306   03 Jun 2027 23:44:10.682            54.376                Novosib          1699.250
       464   03 Jun 2027 23:48:20.534   03 Jun 2027 23:49:45.171            84.637                  Delhi          2644.906
       465   03 Jun 2027 23:58:33.467   03 Jun 2027 23:59:15.821            42.354                  Delhi          1323.562
       466   04 Jun 2027 01:06:38.328   04 Jun 2027 01:07:07.230            28.902                Anadyr1           903.188
       467   04 Jun 2027 01:07:30.035   04 Jun 2027 01:08:04.703            34.668                Anadyr2          1083.375
       468   04 Jun 2027 01:08:42.180   04 Jun 2027 01:09:09.477            27.297                Anadyr2           853.031
       469   04 Jun 2027 01:09:16.021   04 Jun 2027 01:09:42.589            26.568                Anadyr1           830.250
       470   04 Jun 2027 01:12:15.125   04 Jun 2027 01:12:37.400            22.275                Anadyr1           696.094
       471   04 Jun 2027 01:12:41.834   04 Jun 2027 01:14:26.963           105.129               Magadan2          3285.281
       472   04 Jun 2027 01:14:55.022   04 Jun 2027 01:16:52.314           117.292              Murmansk2          3665.375
       473   04 Jun 2027 01:17:26.643   04 Jun 2027 01:17:30.484             3.841                Novosib           120.031
       474   04 Jun 2027 01:17:38.497   04 Jun 2027 01:17:41.251             2.754                Novosib            86.063
       475   04 Jun 2027 01:18:30.758   04 Jun 2027 01:18:37.859             7.101              Murmansk2           221.906
       476   04 Jun 2027 01:18:38.109   04 Jun 2027 01:19:27.827            49.718                Novosib          1553.688
       477   04 Jun 2027 01:24:55.691   04 Jun 2027 01:25:45.560            49.869                  Delhi          1558.406
       478   04 Jun 2027 01:35:07.420   04 Jun 2027 01:35:21.144            13.724                  Delhi           428.875
       479   04 Jun 2027 02:40:03.229   04 Jun 2027 02:43:10.470           187.241                Anadyr2          5851.281
       480   04 Jun 2027 02:45:07.692   04 Jun 2027 02:46:01.646            53.954               Magadan2          1686.063
       481   04 Jun 2027 02:46:11.504   04 Jun 2027 02:46:25.855            14.351               Magadan2           448.469
       482   04 Jun 2027 02:47:14.074   04 Jun 2027 02:47:18.619             4.545               Magadan1           142.031
