uniorb/output/strategy_2/Drop/Drop_KinoSat_110101.txt

KinoSat_110101
-------------------------
    Access    *     Start Time (UTCG)     *     Stop Time (UTCG)  *   Duration (s)        *       Station  *  Data (Mbytes)
         1   01 Jun 2027 03:08:41.859   01 Jun 2027 03:09:05.916            24.057                Irkutsk          3007.125
         2   01 Jun 2027 03:09:15.695   01 Jun 2027 03:10:20.492            64.797                Irkutsk          7638.875
         3   01 Jun 2027 03:10:25.362   01 Jun 2027 03:10:44.954            19.592               Magadan1          2435.000
         4   01 Jun 2027 03:10:53.744   01 Jun 2027 03:11:38.048            44.304                Irkutsk          4395.000
         5   01 Jun 2027 03:11:50.304   01 Jun 2027 03:12:47.740            57.436               Magadan1          6128.000
         6   01 Jun 2027 03:12:48.451   01 Jun 2027 03:13:00.954            12.503                Norilsk           355.500
         7   01 Jun 2027 03:13:05.032   01 Jun 2027 03:13:34.003            28.971               Magadan1          2039.000
         8   01 Jun 2027 03:13:40.412   01 Jun 2027 03:14:07.679            27.267                Irkutsk          3204.500
         9   01 Jun 2027 03:14:08.060   01 Jun 2027 03:14:25.796            17.736                Novosib           190.500
        10   01 Jun 2027 03:14:29.491   01 Jun 2027 03:15:21.896            52.405                Novosib          1847.500
        11   01 Jun 2027 03:15:30.045   01 Jun 2027 03:15:53.083            23.038                Irkutsk          2879.750
        12   01 Jun 2027 03:15:56.264   01 Jun 2027 03:16:09.046            12.782                Novosib          1194.750
        13   01 Jun 2027 04:46:09.682   01 Jun 2027 04:48:04.355           114.673                Norilsk         14334.125
        14   01 Jun 2027 04:48:04.631   01 Jun 2027 04:49:15.883            71.252              Murmansk1          3645.875
        15   01 Jun 2027 04:49:18.769   01 Jun 2027 04:50:05.742            46.973              Murmansk2          1443.000
        16   01 Jun 2027 04:50:13.539   01 Jun 2027 04:50:58.151            44.612              Murmansk2          3898.500
        17   01 Jun 2027 04:51:27.631   01 Jun 2027 04:53:26.358           118.727                 Moscow         14740.000
        18   01 Jun 2027 06:22:32.041   01 Jun 2027 06:22:38.684             6.643                 Moscow           830.375
        19   01 Jun 2027 06:22:47.328   01 Jun 2027 06:23:41.126            53.798                Norilsk          5682.625
        20   01 Jun 2027 06:23:45.819   01 Jun 2027 06:24:26.627            40.808              Murmansk1          2346.500
        21   01 Jun 2027 06:24:29.380   01 Jun 2027 06:24:53.446            24.066              Murmansk2          1376.500
        22   01 Jun 2027 06:25:02.997   01 Jun 2027 06:25:51.298            48.301                Novosib          4775.500
        23   01 Jun 2027 06:25:57.706   01 Jun 2027 06:26:33.046            35.340                Norilsk          3204.000
        24   01 Jun 2027 06:26:34.297   01 Jun 2027 06:27:05.371            31.074                 Moscow           625.500
        25   01 Jun 2027 06:27:06.892   01 Jun 2027 06:27:38.310            31.418              Murmansk2           760.500
        26   01 Jun 2027 07:57:38.438   01 Jun 2027 07:57:52.237            13.799              Murmansk2           283.500
        27   01 Jun 2027 07:58:16.201   01 Jun 2027 07:58:52.300            36.099                 Moscow          2621.500
        28   01 Jun 2027 07:59:19.288   01 Jun 2027 08:00:19.853            60.565              Murmansk2          3192.000
        29   01 Jun 2027 08:00:31.320   01 Jun 2027 08:01:24.327            53.007              Murmansk2          5733.500
        30   01 Jun 2027 08:01:50.563   01 Jun 2027 08:03:37.593           107.030                 Moscow         13118.000
        31   02 Jun 2027 03:21:04.245   02 Jun 2027 03:21:35.773            31.528                Novosib          3711.000
        32   02 Jun 2027 03:21:51.940   02 Jun 2027 03:23:16.097            84.157                Norilsk          8083.500
        33   02 Jun 2027 03:23:40.997   02 Jun 2027 03:25:34.766           113.769                Novosib         12450.000
        34   02 Jun 2027 03:25:35.505   02 Jun 2027 03:25:44.735             9.230              Murmansk1           369.500
        35   02 Jun 2027 03:25:46.513   02 Jun 2027 03:26:11.173            24.660                Irkutsk           889.000
        36   02 Jun 2027 03:26:11.324   02 Jun 2027 03:26:12.533             1.209                Novosib            75.500
        37   02 Jun 2027 03:26:13.077   02 Jun 2027 03:26:16.900             3.823              Murmansk1           272.000
        38   02 Jun 2027 03:26:28.320   02 Jun 2027 03:27:37.048            68.728                Irkutsk          5710.000
        39   02 Jun 2027 04:57:59.003   02 Jun 2027 04:58:08.988             9.985                Norilsk           131.000
        40   02 Jun 2027 04:58:18.643   02 Jun 2027 04:58:38.489            19.846                Norilsk          2480.750
        41   02 Jun 2027 04:58:49.921   02 Jun 2027 05:00:33.708           103.787                Irkutsk          8062.750
        42   02 Jun 2027 05:00:40.162   02 Jun 2027 05:01:14.051            33.889                Norilsk          3227.000
        43   02 Jun 2027 05:01:15.792   02 Jun 2027 05:01:38.094            22.302              Murmansk1           870.500
        44   02 Jun 2027 05:01:42.651   02 Jun 2027 05:02:07.440            24.789                 Moscow          2278.500
        45   02 Jun 2027 05:02:12.769   02 Jun 2027 05:02:57.379            44.610              Murmansk2          2664.500
        46   02 Jun 2027 05:03:02.109   02 Jun 2027 05:04:06.325            64.216                Novosib          2365.000
        47   02 Jun 2027 06:34:47.408   02 Jun 2027 06:35:10.846            23.438                 Moscow          2471.500
        48   02 Jun 2027 06:35:12.850   02 Jun 2027 06:35:35.695            22.845              Murmansk2          1002.000
        49   02 Jun 2027 06:35:36.822   02 Jun 2027 06:35:49.492            12.670                 Moscow           563.500
        50   02 Jun 2027 06:35:52.831   02 Jun 2027 06:36:17.296            24.465              Murmansk1          1669.500
        51   02 Jun 2027 06:36:18.999   02 Jun 2027 06:36:27.398             8.399                Norilsk           851.500
        52   02 Jun 2027 06:36:28.596   02 Jun 2027 06:36:53.854            25.258              Murmansk2           599.000
        53   02 Jun 2027 06:36:55.536   02 Jun 2027 06:37:23.280            27.744                Norilsk           841.000
        54   02 Jun 2027 06:37:39.204   02 Jun 2027 06:38:50.989            71.785              Murmansk2          7962.000
        55   02 Jun 2027 06:38:54.045   02 Jun 2027 06:39:36.173            42.128              Murmansk2          1528.000
        56   02 Jun 2027 08:12:57.180   02 Jun 2027 08:13:59.861            62.681                 Moscow          2817.500
        57   02 Jun 2027 08:14:38.814   02 Jun 2027 08:14:49.651            10.837              Murmansk1           243.000
        58   03 Jun 2027 03:33:30.932   03 Jun 2027 03:34:14.680            43.748                Irkutsk          5276.000
        59   03 Jun 2027 03:34:19.553   03 Jun 2027 03:34:41.050            21.497                Novosib          2436.500
        60   03 Jun 2027 03:34:52.557   03 Jun 2027 03:36:16.219            83.662                Novosib          5753.500
        61   03 Jun 2027 03:36:18.563   03 Jun 2027 03:37:32.663            74.100                Novosib          1172.000
        62   03 Jun 2027 03:37:33.754   03 Jun 2027 03:37:39.260             5.506              Murmansk1           545.500
        63   03 Jun 2027 03:37:41.506   03 Jun 2027 03:38:10.544            29.038                Norilsk          1123.000
        64   03 Jun 2027 03:38:12.906   03 Jun 2027 03:38:46.581            33.675              Murmansk2          1181.000
        65   03 Jun 2027 03:38:47.124   03 Jun 2027 03:38:49.915             2.791                Novosib           271.500
        66   03 Jun 2027 03:39:10.527   03 Jun 2027 03:39:55.272            44.745                Irkutsk          5593.125
        67   03 Jun 2027 03:39:58.652   03 Jun 2027 03:40:37.925            39.273                Novosib          4712.875
        68   03 Jun 2027 05:10:59.378   03 Jun 2027 05:11:39.126            39.748              Murmansk2          4391.500
        69   03 Jun 2027 05:11:41.275   03 Jun 2027 05:12:05.863            24.588                Norilsk          1074.500
        70   03 Jun 2027 05:12:11.676   03 Jun 2027 05:13:03.105            51.429              Murmansk1          2906.500
        71   03 Jun 2027 05:13:13.377   03 Jun 2027 05:14:00.428            47.051              Murmansk1          5136.000
        72   03 Jun 2027 05:14:12.112   03 Jun 2027 05:14:33.893            21.781                Norilsk          2722.625
        73   03 Jun 2027 05:14:47.246   03 Jun 2027 05:16:12.066            84.820                Novosib          9795.875
        74   03 Jun 2027 06:46:56.126   03 Jun 2027 06:47:03.784             7.658              Murmansk2           453.000
        75   03 Jun 2027 06:47:04.187   03 Jun 2027 06:47:08.454             4.267                 Moscow           201.500
        76   03 Jun 2027 06:47:13.075   03 Jun 2027 06:47:22.669             9.594                Norilsk          1199.250
        77   03 Jun 2027 06:47:23.161   03 Jun 2027 06:47:55.175            32.014              Murmansk2          1357.250
        78   03 Jun 2027 06:47:58.152   03 Jun 2027 06:48:29.783            31.631              Murmansk2          1488.500
        79   03 Jun 2027 06:48:30.442   03 Jun 2027 06:48:54.523            24.081              Murmansk1           329.500
        80   03 Jun 2027 06:49:04.802   03 Jun 2027 06:49:59.656            54.854              Murmansk1          5139.500
        81   03 Jun 2027 06:50:01.739   03 Jun 2027 06:50:59.548            57.809                 Moscow          1041.500
        82   03 Jun 2027 06:51:02.454   03 Jun 2027 06:51:48.945            46.491                 Moscow          1453.000
        83   04 Jun 2027 03:45:37.822   04 Jun 2027 03:45:50.193            12.371                Norilsk          1546.375
        84   04 Jun 2027 03:45:55.359   04 Jun 2027 03:46:25.145            29.786                Norilsk          2585.125
        85   04 Jun 2027 03:46:36.535   04 Jun 2027 03:47:37.171            60.636                Novosib          5695.000
        86   04 Jun 2027 03:47:42.512   04 Jun 2027 03:48:06.534            24.022                Norilsk          2670.500
        87   04 Jun 2027 03:48:14.316   04 Jun 2027 03:48:47.625            33.309                Norilsk          3891.000
        88   04 Jun 2027 03:48:59.753   04 Jun 2027 03:49:58.207            58.454              Murmansk1          6064.000
        89   04 Jun 2027 03:50:11.106   04 Jun 2027 03:50:33.289            22.183                Norilsk          2772.875
        90   04 Jun 2027 03:50:37.892   04 Jun 2027 03:52:00.791            82.899                Novosib          5978.125
        91   04 Jun 2027 05:22:55.281   04 Jun 2027 05:23:48.663            53.382                 Moscow          1299.000
        92   04 Jun 2027 05:24:02.653   04 Jun 2027 05:25:04.975            62.322                 Moscow          6995.000
        93   04 Jun 2027 05:25:11.483   04 Jun 2027 05:25:44.732            33.249              Murmansk1          3254.000
        94   04 Jun 2027 05:25:47.134   04 Jun 2027 05:26:07.174            20.040                 Moscow          1201.000
        95   04 Jun 2027 05:26:09.040   04 Jun 2027 05:26:46.339            37.299                 Moscow           933.000
        96   04 Jun 2027 05:26:57.271   04 Jun 2027 05:28:18.397            81.126                Novosib          5466.000
        97   04 Jun 2027 06:59:10.402   04 Jun 2027 06:59:54.598            44.196              Murmansk1          2874.500
        98   04 Jun 2027 07:00:01.848   04 Jun 2027 07:00:32.137            30.289              Murmansk2          3625.000
        99   04 Jun 2027 07:00:41.750   04 Jun 2027 07:01:27.993            46.243                Novosib          4806.500
       100   04 Jun 2027 07:01:29.380   04 Jun 2027 07:01:50.862            21.482                 Moscow           693.500
       101   04 Jun 2027 07:01:54.002   04 Jun 2027 07:02:38.644            44.642                Norilsk          1570.000
       102   04 Jun 2027 07:02:40.062   04 Jun 2027 07:03:32.729            52.667              Murmansk1           709.000
       103   04 Jun 2027 07:03:48.786   04 Jun 2027 07:05:20.474            91.688                Norilsk          8028.500
       104   05 Jun 2027 03:57:25.127   05 Jun 2027 03:58:22.696            57.569                Irkutsk          6884.000
       105   05 Jun 2027 03:58:26.167   05 Jun 2027 03:59:03.515            37.348                Norilsk          1735.500
       106   05 Jun 2027 03:59:03.808   05 Jun 2027 03:59:07.172             3.364                Irkutsk           146.500
       107   05 Jun 2027 03:59:18.277   05 Jun 2027 04:00:27.259            68.982                Irkutsk          5552.500
       108   05 Jun 2027 04:00:28.680   05 Jun 2027 04:00:39.596            10.916              Murmansk1           710.500
       109   05 Jun 2027 04:00:45.507   05 Jun 2027 04:01:28.248            42.741                Norilsk          2955.500
       110   05 Jun 2027 04:01:28.483   05 Jun 2027 04:01:42.156            13.673              Murmansk2           117.500
       111   05 Jun 2027 04:01:51.896   05 Jun 2027 04:02:37.992            46.096              Murmansk1          4870.000
       112   05 Jun 2027 04:02:47.727   05 Jun 2027 04:03:27.535            39.808                Norilsk          4867.500
       113   05 Jun 2027 04:03:33.261   05 Jun 2027 04:04:06.385            33.124              Murmansk2          2863.000
       114   05 Jun 2027 05:35:41.677   05 Jun 2027 05:36:39.677            58.000                Norilsk          6914.000
       115   05 Jun 2027 05:36:42.906   05 Jun 2027 05:37:18.386            35.480                 Moscow          1614.500
       116   05 Jun 2027 05:37:19.802   05 Jun 2027 05:37:50.183            30.381                 Moscow           708.000
       117   05 Jun 2027 05:37:52.877   05 Jun 2027 05:38:16.638            23.761                 Moscow          1347.000
       118   05 Jun 2027 05:38:20.793   05 Jun 2027 05:38:59.641            38.848              Murmansk2          2077.500
       119   05 Jun 2027 05:39:00.172   05 Jun 2027 05:39:48.459            48.287                 Moscow           265.500
       120   05 Jun 2027 07:10:57.536   05 Jun 2027 07:11:44.133            46.597              Murmansk1          2060.500
       121   05 Jun 2027 07:11:50.961   05 Jun 2027 07:12:42.302            51.341                 Moscow          3414.000
       122   05 Jun 2027 07:12:56.525   05 Jun 2027 07:14:09.150            72.625              Murmansk1          7111.500
       123   05 Jun 2027 07:14:14.246   05 Jun 2027 07:14:42.608            28.362                 Moscow          2548.000
       124   05 Jun 2027 07:14:54.649   05 Jun 2027 07:15:32.728            38.079                Novosib          4759.875
       125   05 Jun 2027 07:15:46.469   05 Jun 2027 07:17:11.855            85.386                Norilsk          8131.125
       126   06 Jun 2027 04:09:34.227   06 Jun 2027 04:09:53.336            19.109                Norilsk          1700.000
       127   06 Jun 2027 04:09:58.234   06 Jun 2027 04:10:16.882            18.648                Novosib          2331.000
       128   06 Jun 2027 04:10:54.212   06 Jun 2027 04:15:12.329           258.117                Irkutsk         18783.000
       129   06 Jun 2027 04:15:21.798   06 Jun 2027 04:15:51.248            29.450                Irkutsk          3681.250
       130   06 Jun 2027 04:15:56.123   06 Jun 2027 04:16:14.968            18.845                 Moscow          1847.250
       131   06 Jun 2027 05:47:32.907   06 Jun 2027 05:48:13.941            41.034              Murmansk1          2106.000
       132   06 Jun 2027 05:48:26.877   06 Jun 2027 05:49:23.791            56.914                Irkutsk          6468.000
       133   06 Jun 2027 05:49:29.381   06 Jun 2027 05:49:34.049             4.668                 Moscow           583.500
       134   06 Jun 2027 05:49:34.368   06 Jun 2027 05:49:46.819            12.451              Murmansk1          1556.375
       135   06 Jun 2027 05:49:49.331   06 Jun 2027 05:50:10.931            21.600                Novosib          2070.625
       136   06 Jun 2027 05:50:20.686   06 Jun 2027 05:50:44.163            23.477                Norilsk          2934.625
       137   06 Jun 2027 05:50:50.224   06 Jun 2027 05:51:46.769            56.545              Murmansk2          4973.375
       138   06 Jun 2027 07:21:05.696   06 Jun 2027 07:23:35.997           150.301                 Moscow         15453.000
       139   06 Jun 2027 07:23:45.276   06 Jun 2027 07:24:41.200            55.924                Novosib          4639.500
       140   06 Jun 2027 07:24:44.124   06 Jun 2027 07:25:03.163            19.039                Norilsk          1462.000
       141   06 Jun 2027 07:25:12.329   06 Jun 2027 07:25:53.492            41.163                Norilsk          4583.000
       142   06 Jun 2027 07:26:03.400   06 Jun 2027 07:27:16.692            73.292              Murmansk2          4954.000
       143   06 Jun 2027 07:27:39.130   06 Jun 2027 07:27:47.091             7.961              Murmansk2           995.125
       144   06 Jun 2027 07:27:47.091   06 Jun 2027 07:28:20.978            33.887              Murmansk1           974.375
       145   06 Jun 2027 07:28:25.420   06 Jun 2027 07:28:41.282            15.862                Norilsk          1982.750
       146   06 Jun 2027 07:28:53.682   06 Jun 2027 07:29:28.169            34.487              Murmansk2           238.250
       147   07 Jun 2027 04:21:32.231   07 Jun 2027 04:21:33.751             1.520                Novosib           190.000
       148   07 Jun 2027 04:21:50.437   07 Jun 2027 04:22:22.347            31.910                Norilsk          3988.750
       149   07 Jun 2027 04:22:25.367   07 Jun 2027 04:23:53.210            87.843                Irkutsk          6279.750
       150   07 Jun 2027 04:23:59.280   07 Jun 2027 04:24:45.123            45.843                Norilsk          3035.000
       151   07 Jun 2027 04:24:47.069   07 Jun 2027 04:25:28.052            40.983                Irkutsk           973.000
       152   07 Jun 2027 04:25:39.287   07 Jun 2027 04:26:26.223            46.936              Murmansk1          5617.500
       153   07 Jun 2027 04:26:35.114   07 Jun 2027 04:27:42.759            67.645              Murmansk1          4445.500
       154   07 Jun 2027 04:27:47.088   07 Jun 2027 04:27:59.697            12.609                Novosib          1576.125
       155   07 Jun 2027 04:28:09.410   07 Jun 2027 04:28:22.998            13.588              Murmansk1          1622.375
       156   07 Jun 2027 05:59:39.620   07 Jun 2027 06:00:25.909            46.289              Murmansk1          5210.000
       157   07 Jun 2027 06:00:31.936   07 Jun 2027 06:01:06.331            34.395                Novosib          3013.500
       158   07 Jun 2027 06:01:08.521   07 Jun 2027 06:01:30.201            21.680              Murmansk2          1095.000
       159   07 Jun 2027 06:01:38.744   07 Jun 2027 06:02:31.071            52.327                 Moscow          4271.500
       160   07 Jun 2027 06:02:35.287   07 Jun 2027 06:03:12.161            36.874                Norilsk          2108.000
       161   07 Jun 2027 06:03:17.792   07 Jun 2027 06:03:52.981            35.189                 Moscow          2815.500
       162   07 Jun 2027 07:33:12.772   07 Jun 2027 07:34:31.605            78.833                 Moscow          3022.500
       163   07 Jun 2027 07:34:31.952   07 Jun 2027 07:35:25.245            53.293              Murmansk2           173.500
       164   07 Jun 2027 07:36:03.758   07 Jun 2027 07:38:26.236           142.478              Murmansk2         17809.750
       165   07 Jun 2027 07:38:26.236   07 Jun 2027 07:39:09.797            43.561              Murmansk1          1446.750
       166   07 Jun 2027 07:39:16.422   07 Jun 2027 07:39:42.944            26.522              Murmansk1          3312.500
       167   07 Jun 2027 07:39:47.531   07 Jun 2027 07:40:10.712            23.181                 Moscow          2293.500
       168   07 Jun 2027 07:40:21.297   07 Jun 2027 07:41:17.707            56.410              Murmansk2          5292.500
       169   08 Jun 2027 03:00:09.757   08 Jun 2027 03:00:53.628            43.871                Novosib          4878.500
       170   08 Jun 2027 03:01:04.530   08 Jun 2027 03:02:11.253            66.723               Magadan1          5451.000
       171   08 Jun 2027 03:02:16.436   08 Jun 2027 03:02:33.561            17.125                Novosib          2140.625
       172   08 Jun 2027 03:02:45.697   08 Jun 2027 03:03:46.210            60.513              Murmansk2          6518.875
       173   08 Jun 2027 03:03:51.746   08 Jun 2027 03:04:06.303            14.557              Murmansk2          1819.625
       174   08 Jun 2027 03:04:06.303   08 Jun 2027 03:04:41.300            34.997              Murmansk1           948.375
       175   08 Jun 2027 04:33:46.368   08 Jun 2027 04:35:23.503            97.135                Norilsk         11806.500
       176   08 Jun 2027 04:35:32.888   08 Jun 2027 04:36:16.788            43.900                Novosib          4692.500
       177   08 Jun 2027 04:36:19.837   08 Jun 2027 04:36:44.368            24.531                Irkutsk          1524.500
       178   08 Jun 2027 04:36:46.981   08 Jun 2027 04:37:13.042            26.061                Norilsk          1306.500
       179   08 Jun 2027 04:37:18.819   08 Jun 2027 04:37:52.571            33.752                Norilsk          2888.500
       180   08 Jun 2027 04:37:54.631   08 Jun 2027 04:39:02.440            67.809                 Moscow          1030.000
       181   08 Jun 2027 04:39:02.909   08 Jun 2027 04:39:18.673            15.764                 Moscow           234.500
       182   08 Jun 2027 04:39:22.419   08 Jun 2027 04:39:27.499             5.080                Novosib           239.000
       183   08 Jun 2027 04:39:36.094   08 Jun 2027 04:40:08.290            32.196                Norilsk          4024.500
       184   08 Jun 2027 04:40:10.414   08 Jun 2027 04:40:31.811            21.397              Murmansk2           273.000
       185   08 Jun 2027 06:11:34.341   08 Jun 2027 06:11:55.586            21.245              Murmansk1           838.000
       186   08 Jun 2027 06:12:03.063   08 Jun 2027 06:12:48.302            45.239                 Moscow          3738.500
       187   08 Jun 2027 06:12:49.806   08 Jun 2027 06:13:12.317            22.511                Novosib           752.000
       188   08 Jun 2027 06:13:26.088   08 Jun 2027 06:14:25.737            59.649                Norilsk          6885.500
       189   08 Jun 2027 06:14:29.144   08 Jun 2027 06:14:59.380            30.236              Murmansk1          1703.500
       190   08 Jun 2027 06:15:00.714   08 Jun 2027 06:15:25.659            24.945                Norilsk           667.000
       191   08 Jun 2027 06:15:27.477   08 Jun 2027 06:15:55.569            28.092              Murmansk1           909.000
       192   08 Jun 2027 07:47:14.007   08 Jun 2027 07:48:14.844            60.837                 Moscow          1622.000
       193   08 Jun 2027 07:48:34.470   08 Jun 2027 07:49:26.279            51.809                 Moscow          6476.125
       194   08 Jun 2027 07:49:40.037   08 Jun 2027 07:51:03.641            83.604              Murmansk1         10215.875
       195   08 Jun 2027 07:51:19.841   08 Jun 2027 07:52:13.868            54.027              Murmansk1          6753.375
       196   08 Jun 2027 07:52:13.868   08 Jun 2027 07:52:28.009            14.141              Murmansk2          1346.625
       197   09 Jun 2027 03:08:58.737   09 Jun 2027 03:10:32.891            94.154                Novosib          6657.000
       198   09 Jun 2027 03:10:33.351   09 Jun 2027 03:10:38.253             4.902                Norilsk           230.000
       199   09 Jun 2027 03:10:40.017   09 Jun 2027 03:10:47.167             7.150               Magadan2           882.000
       200   09 Jun 2027 03:10:49.019   09 Jun 2027 03:10:59.534            10.515               Magadan1           926.000
       201   09 Jun 2027 03:11:08.644   09 Jun 2027 03:11:49.101            40.457                Irkutsk          4555.000
       202   09 Jun 2027 03:12:05.294   09 Jun 2027 03:13:05.642            60.348               Magadan2          7543.500
       203   09 Jun 2027 03:13:05.642   09 Jun 2027 03:13:19.922            14.280               Magadan1           553.000
       204   09 Jun 2027 03:13:28.921   09 Jun 2027 03:13:50.177            21.256               Magadan2          2657.000
       205   09 Jun 2027 03:13:51.873   09 Jun 2027 03:14:25.741            33.868                Novosib          2690.500
       206   09 Jun 2027 03:14:25.808   09 Jun 2027 03:15:12.972            47.164                Norilsk            33.500
       207   09 Jun 2027 03:15:24.300   09 Jun 2027 03:16:13.008            48.708              Murmansk2          5664.000
       208   09 Jun 2027 04:46:45.376   09 Jun 2027 04:50:02.836           197.460                Norilsk         24682.500
       209   09 Jun 2027 04:50:06.330   09 Jun 2027 04:50:17.487            11.157                Irkutsk          1394.625
       210   09 Jun 2027 04:50:20.325   09 Jun 2027 04:50:59.022            38.697              Murmansk1          4832.375
       211   09 Jun 2027 04:51:00.778   09 Jun 2027 04:51:32.935            32.157                Norilsk           878.000
       212   09 Jun 2027 04:51:43.791   09 Jun 2027 04:53:15.976            92.185                 Moscow          5428.000
       213   09 Jun 2027 06:22:48.205   09 Jun 2027 06:22:52.867             4.662                 Moscow           582.750
       214   09 Jun 2027 06:23:02.569   09 Jun 2027 06:24:01.175            58.606                Norilsk          7136.750
       215   09 Jun 2027 06:24:02.957   09 Jun 2027 06:24:13.428            10.471              Murmansk1           891.000
       216   09 Jun 2027 06:24:32.648   09 Jun 2027 06:25:54.858            82.210                Novosib          9610.000
       217   09 Jun 2027 06:25:58.778   09 Jun 2027 06:26:25.489            26.711              Murmansk1          1960.000
       218   09 Jun 2027 06:26:26.389   09 Jun 2027 06:26:31.395             5.006              Murmansk2           450.000
       219   09 Jun 2027 06:26:48.712   09 Jun 2027 06:27:58.845            70.133                 Moscow          8658.500
       220   09 Jun 2027 07:58:07.314   09 Jun 2027 07:59:09.291            61.977              Murmansk2          6843.000
       221   09 Jun 2027 07:59:35.011   09 Jun 2027 08:00:37.311            62.300              Murmansk2          3651.500
       222   09 Jun 2027 08:00:47.498   09 Jun 2027 08:01:29.163            41.665              Murmansk1          5093.500
       223   09 Jun 2027 08:01:38.925   09 Jun 2027 08:02:58.214            79.289              Murmansk1          4881.000
       224   10 Jun 2027 03:21:20.431   10 Jun 2027 03:21:54.323            33.892                Novosib          4236.500
       225   10 Jun 2027 03:21:59.168   10 Jun 2027 03:22:23.314            24.146                Norilsk          2647.000
       226   10 Jun 2027 03:22:34.899   10 Jun 2027 03:23:22.166            47.267                Novosib          5792.500
       227   10 Jun 2027 03:23:29.921   10 Jun 2027 03:24:24.787            54.866                Novosib          3877.500
       228   10 Jun 2027 03:24:28.035   10 Jun 2027 03:24:51.830            23.795                Norilsk          1624.000
       229   10 Jun 2027 03:25:10.163   10 Jun 2027 03:25:59.914            49.751                Norilsk          6218.875
       230   10 Jun 2027 03:26:00.947   10 Jun 2027 03:26:30.624            29.677                Irkutsk          3464.125
       231   10 Jun 2027 03:26:33.593   10 Jun 2027 03:27:11.819            38.226              Murmansk2          1484.500
       232   10 Jun 2027 03:27:16.493   10 Jun 2027 03:27:51.845            35.352                Irkutsk          2337.000
       233   10 Jun 2027 04:58:14.866   10 Jun 2027 04:58:51.743            36.877                Novosib           723.000
       234   10 Jun 2027 04:59:04.408   10 Jun 2027 04:59:56.966            52.558                 Moscow          6332.500
       235   10 Jun 2027 05:00:00.599   10 Jun 2027 05:00:37.295            36.696                Novosib          1816.500
       236   10 Jun 2027 05:00:39.432   10 Jun 2027 05:01:31.062            51.630                Novosib          1068.500
       237   10 Jun 2027 05:01:42.414   10 Jun 2027 05:02:50.267            67.853                Irkutsk          5676.000
       238   10 Jun 2027 05:02:54.452   10 Jun 2027 05:03:28.620            34.168                Norilsk          2092.500
       239   10 Jun 2027 05:03:45.385   10 Jun 2027 05:04:35.928            50.543              Murmansk2          4091.500
       240   10 Jun 2027 06:35:03.708   10 Jun 2027 06:35:29.170            25.462                 Moscow          3023.500
       241   10 Jun 2027 06:35:34.689   10 Jun 2027 06:35:46.924            12.235                Norilsk          1529.375
       242   10 Jun 2027 06:35:50.750   10 Jun 2027 06:36:31.942            41.192              Murmansk1          3143.125
       243   10 Jun 2027 06:36:34.516   10 Jun 2027 06:36:42.124             7.608                Norilsk           951.000
       244   10 Jun 2027 06:36:42.292   10 Jun 2027 06:37:06.113            23.821                 Moscow           420.000
       245   10 Jun 2027 06:37:08.844   10 Jun 2027 06:37:21.353            12.509              Murmansk2          1365.500
       246   10 Jun 2027 06:37:22.579   10 Jun 2027 06:38:03.696            41.117                Novosib           613.000
       247   10 Jun 2027 06:38:05.019   10 Jun 2027 06:38:11.011             5.992                Norilsk           661.500
       248   10 Jun 2027 06:38:11.384   10 Jun 2027 06:38:25.165            13.781                Novosib           186.500
       249   10 Jun 2027 06:38:26.037   10 Jun 2027 06:38:33.661             7.624              Murmansk2           436.000
       250   10 Jun 2027 06:38:38.299   10 Jun 2027 06:39:08.814            30.515                Norilsk          2319.000
       251   10 Jun 2027 06:39:08.921   10 Jun 2027 06:39:09.198             0.277              Murmansk1            34.625
       252   10 Jun 2027 06:39:09.198   10 Jun 2027 06:39:51.763            42.565              Murmansk2            18.875
       253   10 Jun 2027 08:13:12.721   10 Jun 2027 08:14:14.568            61.847                 Moscow          2892.500
       254   10 Jun 2027 08:14:53.478   10 Jun 2027 08:14:56.112             2.634              Murmansk1           270.000
       255   11 Jun 2027 03:33:36.836   11 Jun 2027 03:33:59.507            22.671                Novosib           548.000
       256   11 Jun 2027 03:34:09.465   11 Jun 2027 03:34:57.571            48.106                Irkutsk          4979.000
       257   11 Jun 2027 03:34:57.750   11 Jun 2027 03:35:08.628            10.878                Novosib            89.500
       258   11 Jun 2027 03:35:13.134   11 Jun 2027 03:35:16.861             3.727                Irkutsk           465.875
       259   11 Jun 2027 03:35:30.400   11 Jun 2027 03:36:43.533            73.133                Novosib          8556.625
       260   11 Jun 2027 03:36:54.726   11 Jun 2027 03:37:42.974            48.248                Irkutsk          5596.500
       261   11 Jun 2027 03:37:48.259   11 Jun 2027 03:38:20.079            31.820              Murmansk1          2642.500
       262   11 Jun 2027 03:38:28.135   11 Jun 2027 03:39:03.960            35.825              Murmansk1          4028.000
       263   11 Jun 2027 03:39:04.625   11 Jun 2027 03:39:28.634            24.009                Novosib           332.500
       264   11 Jun 2027 03:39:30.525   11 Jun 2027 03:39:49.924            19.399                Irkutsk           945.500
       265   11 Jun 2027 03:39:50.590   11 Jun 2027 03:39:53.167             2.577                Norilsk           322.125
       266   11 Jun 2027 03:39:57.907   11 Jun 2027 03:40:10.261            12.354                Irkutsk          1544.250
       267   11 Jun 2027 03:40:16.737   11 Jun 2027 03:40:39.435            22.698                Novosib           836.625
       268   11 Jun 2027 05:11:14.137   11 Jun 2027 05:11:53.618            39.481              Murmansk1          3858.500
       269   11 Jun 2027 05:12:00.818   11 Jun 2027 05:13:02.653            61.835                 Moscow          3600.000
       270   11 Jun 2027 05:13:03.261   11 Jun 2027 05:13:07.048             3.787                Norilsk           304.000
       271   11 Jun 2027 05:13:14.812   11 Jun 2027 05:14:01.637            46.825                 Moscow          3882.000
       272   11 Jun 2027 05:14:02.324   11 Jun 2027 05:14:14.552            12.228                 Moscow           343.500
       273   11 Jun 2027 05:14:14.673   11 Jun 2027 05:14:34.061            19.388              Murmansk1            60.500
       274   11 Jun 2027 05:14:37.596   11 Jun 2027 05:15:31.198            53.602              Murmansk2          1767.500
       275   11 Jun 2027 06:47:18.442   11 Jun 2027 06:47:38.208            19.766              Murmansk2          2376.000
       276   11 Jun 2027 06:47:40.628   11 Jun 2027 06:48:24.988            44.360                Novosib          1210.000
       277   11 Jun 2027 06:48:29.636   11 Jun 2027 06:48:42.596            12.960                Norilsk          1620.000
       278   11 Jun 2027 06:48:43.265   11 Jun 2027 06:49:30.941            47.676                 Moscow          1038.500
       279   11 Jun 2027 06:49:32.010   11 Jun 2027 06:50:06.477            34.467                 Moscow           534.500
       280   11 Jun 2027 06:50:09.527   11 Jun 2027 06:50:36.471            26.944                Novosib          1525.000
       281   11 Jun 2027 06:50:38.250   11 Jun 2027 06:50:49.528            11.278                Novosib           889.500
       282   11 Jun 2027 06:50:56.037   11 Jun 2027 06:51:49.055            53.018              Murmansk2          3254.500
       283   12 Jun 2027 03:46:00.113   12 Jun 2027 03:46:52.407            52.294                Novosib          5241.500
       284   12 Jun 2027 03:47:03.269   12 Jun 2027 03:47:58.005            54.736                Norilsk          5431.000
       285   12 Jun 2027 03:48:03.947   12 Jun 2027 03:48:36.852            32.905                Novosib          2971.000
       286   12 Jun 2027 03:48:49.801   12 Jun 2027 03:49:44.868            55.067                Novosib          6474.500
       287   12 Jun 2027 03:49:56.440   12 Jun 2027 03:50:49.330            52.890                Norilsk          5786.000
       288   12 Jun 2027 03:50:52.656   12 Jun 2027 03:51:17.862            25.206                Novosib          1663.000
       289   12 Jun 2027 03:51:24.264   12 Jun 2027 03:52:20.467            56.203              Murmansk1          3201.000
       290   12 Jun 2027 05:23:11.342   12 Jun 2027 05:24:05.164            53.822                 Moscow          2042.500
       291   12 Jun 2027 05:24:20.212   12 Jun 2027 05:25:31.275            71.063                 Moscow          7524.000
       292   12 Jun 2027 05:25:33.087   12 Jun 2027 05:26:01.033            27.946                Norilsk           906.000
       293   12 Jun 2027 05:26:02.406   12 Jun 2027 05:26:09.185             6.779              Murmansk2           686.500
       294   12 Jun 2027 05:26:13.296   12 Jun 2027 05:26:35.826            22.530              Murmansk2          2055.500
       295   12 Jun 2027 05:26:39.174   12 Jun 2027 05:27:24.244            45.070              Murmansk2          1674.000
       296   12 Jun 2027 05:27:40.089   12 Jun 2027 05:28:31.823            51.734              Murmansk2          6466.750
       297   12 Jun 2027 05:28:31.823   12 Jun 2027 05:29:31.332            59.509              Murmansk1          1455.750
       298   12 Jun 2027 06:59:25.443   12 Jun 2027 07:00:09.152            43.709              Murmansk2          3057.000
       299   12 Jun 2027 07:00:09.262   12 Jun 2027 07:00:19.783            10.521              Murmansk2            55.000
       300   12 Jun 2027 07:00:23.066   12 Jun 2027 07:00:45.753            22.687                 Moscow          1641.500
       301   12 Jun 2027 07:00:49.702   12 Jun 2027 07:01:10.421            20.719              Murmansk1          1974.500
       302   12 Jun 2027 07:01:18.086   12 Jun 2027 07:01:46.214            28.128              Murmansk1          3516.000
       303   12 Jun 2027 07:01:46.214   12 Jun 2027 07:02:09.200            22.986              Murmansk2           316.500
       304   12 Jun 2027 07:02:11.752   12 Jun 2027 07:02:25.802            14.050                 Moscow          1276.000
       305   12 Jun 2027 07:02:38.151   12 Jun 2027 07:03:45.746            67.595              Murmansk2          6174.500
       306   12 Jun 2027 07:03:47.331   12 Jun 2027 07:04:08.832            21.501              Murmansk1           792.500
       307   13 Jun 2027 03:57:39.497   13 Jun 2027 03:58:37.276            57.779                Irkutsk          6553.000
       308   13 Jun 2027 03:58:43.668   13 Jun 2027 03:59:19.857            36.189                Norilsk          3196.000
       309   13 Jun 2027 03:59:22.027   13 Jun 2027 03:59:37.157            15.130                Irkutsk          1085.000
       310   13 Jun 2027 03:59:46.782   13 Jun 2027 04:00:04.657            17.875                Norilsk          2234.375
       311   13 Jun 2027 04:00:09.442   13 Jun 2027 04:00:56.732            47.290                Novosib          4970.625
       312   13 Jun 2027 04:00:57.120   13 Jun 2027 04:01:07.501            10.381              Murmansk2           194.000
       313   13 Jun 2027 04:01:11.599   13 Jun 2027 04:01:16.252             4.653                Irkutsk           581.625
       314   13 Jun 2027 04:01:20.531   13 Jun 2027 04:02:07.721            47.190                Novosib          3606.875
       315   13 Jun 2027 04:02:38.934   13 Jun 2027 04:04:43.833           124.899              Murmansk1         15606.500
       316   13 Jun 2027 05:35:56.301   13 Jun 2027 05:36:55.595            59.294                Norilsk          6399.000
       317   13 Jun 2027 05:36:57.235   13 Jun 2027 05:37:33.395            36.160                 Moscow           820.000
       318   13 Jun 2027 05:37:36.918   13 Jun 2027 05:38:07.273            30.355                 Moscow          1761.500
       319   13 Jun 2027 05:38:08.243   13 Jun 2027 05:38:32.355            24.112                 Moscow           485.000
       320   13 Jun 2027 05:38:40.981   13 Jun 2027 05:39:14.145            33.164              Murmansk2          4145.500
       321   13 Jun 2027 05:39:18.903   13 Jun 2027 05:40:04.699            45.796                 Moscow          2546.500
       322   13 Jun 2027 07:11:12.576   13 Jun 2027 07:11:58.809            46.233              Murmansk1          1347.000
       323   13 Jun 2027 07:12:05.513   13 Jun 2027 07:12:59.250            53.737                 Moscow          3352.000
       324   13 Jun 2027 07:13:11.293   13 Jun 2027 07:14:07.256            55.963                Norilsk          6021.500
       325   13 Jun 2027 07:14:07.611   13 Jun 2027 07:14:25.670            18.059              Murmansk1           177.500
       326   13 Jun 2027 07:14:29.200   13 Jun 2027 07:14:59.308            30.108                 Moscow          1765.000
       327   13 Jun 2027 07:15:09.647   13 Jun 2027 07:15:47.050            37.403                Novosib          4675.375
       328   13 Jun 2027 07:16:01.852   13 Jun 2027 07:17:28.195            86.343                Norilsk          7895.125
