uniorb/output/strategy_2/Drop/Drop_KinoSat_111309.txt

KinoSat_111309
-------------------------
    Access    *     Start Time (UTCG)     *     Stop Time (UTCG)  *   Duration (s)        *       Station  *  Data (Mbytes)
         1   01 Jun 2027 04:28:57.715   01 Jun 2027 04:29:16.281            18.566              Murmansk1           580.188
         2   01 Jun 2027 04:29:16.281   01 Jun 2027 04:30:00.963            44.682              Murmansk2          1396.313
         3   01 Jun 2027 04:30:00.963   01 Jun 2027 04:32:19.012           138.049              Murmansk1          4314.031
         4   01 Jun 2027 04:33:39.503   01 Jun 2027 04:35:08.790            89.287                 Moscow          2790.219
         5   01 Jun 2027 05:50:08.280   01 Jun 2027 05:50:23.507            15.227               Magadan2           475.844
         6   01 Jun 2027 05:50:31.226   01 Jun 2027 05:53:56.602           205.376               Magadan1          6418.000
         7   01 Jun 2027 07:28:06.708   01 Jun 2027 07:28:44.269            37.561                Irkutsk          1173.781
         8   01 Jun 2027 07:29:18.055   01 Jun 2027 07:30:20.219            62.164                Anadyr1          1942.625
         9   01 Jun 2027 07:30:20.219   01 Jun 2027 07:30:53.077            32.858                Anadyr2          1026.812
        10   01 Jun 2027 09:02:13.308   01 Jun 2027 09:05:54.468           221.160               Magadan1          6911.250
        11   01 Jun 2027 09:06:25.110   01 Jun 2027 09:06:39.029            13.919              Murmansk1           434.969
        12   01 Jun 2027 09:06:39.508   01 Jun 2027 09:06:50.610            11.102               Magadan1           346.937
        13   01 Jun 2027 09:06:54.684   01 Jun 2027 09:08:26.778            92.094                Novosib          2877.938
        14   01 Jun 2027 09:09:27.393   01 Jun 2027 09:09:52.754            25.361                Norilsk           792.531
        15   01 Jun 2027 09:42:07.149   01 Jun 2027 09:42:42.483            35.334            RioGallegos          1104.187
        16   01 Jun 2027 09:43:19.224   01 Jun 2027 09:43:31.732            12.508            RioGallegos           390.875
        17   01 Jun 2027 09:44:59.624   01 Jun 2027 09:45:03.605             3.981            RioGallegos           124.406
        18   01 Jun 2027 09:45:24.340   01 Jun 2027 09:45:44.207            19.867            RioGallegos           620.844
        19   01 Jun 2027 10:17:17.146   01 Jun 2027 10:18:02.749            45.603                Sumatra          1425.094
        20   01 Jun 2027 10:38:40.775   01 Jun 2027 10:38:50.564             9.789                Irkutsk           305.906
        21   01 Jun 2027 10:39:17.922   01 Jun 2027 10:40:48.931            91.009                Norilsk          2844.031
        22   01 Jun 2027 10:40:53.803   01 Jun 2027 10:42:37.051           103.248                Norilsk          3226.500
        23   01 Jun 2027 10:42:41.609   01 Jun 2027 10:43:25.464            43.855              Murmansk2          1370.469
        24   01 Jun 2027 10:43:27.860   01 Jun 2027 10:44:38.196            70.336                Norilsk          2198.000
        25   01 Jun 2027 10:44:49.393   01 Jun 2027 10:45:05.554            16.161                Norilsk           505.031
        26   01 Jun 2027 10:46:29.017   01 Jun 2027 10:46:45.382            16.365                Norilsk           511.406
        27   01 Jun 2027 11:20:29.357   01 Jun 2027 11:21:41.476            72.119            RioGallegos          2253.719
        28   01 Jun 2027 11:23:13.613   01 Jun 2027 11:24:26.939            73.326            RioGallegos          2291.438
        29   01 Jun 2027 11:54:47.082   01 Jun 2027 11:55:10.907            23.825                Sumatra           744.531
        30   01 Jun 2027 11:55:27.782   01 Jun 2027 11:57:20.820           113.038                Sumatra          3532.438
        31   01 Jun 2027 12:09:12.472   01 Jun 2027 12:09:39.524            27.052                Novosib           845.375
        32   01 Jun 2027 12:10:35.266   01 Jun 2027 12:11:26.331            51.065                Irkutsk          1595.781
        33   01 Jun 2027 12:11:52.355   01 Jun 2027 12:12:37.528            45.173                Irkutsk          1411.656
        34   01 Jun 2027 12:14:41.485   01 Jun 2027 12:15:03.881            22.396                Irkutsk           699.875
        35   01 Jun 2027 13:40:27.387   01 Jun 2027 13:41:51.090            83.703                  Delhi          2615.719
        36   01 Jun 2027 13:44:12.359   01 Jun 2027 13:44:45.258            32.899                  Delhi          1028.094
        37   01 Jun 2027 13:48:57.113   01 Jun 2027 13:51:19.250           142.137                Novosib          4441.781
        38   01 Jun 2027 13:52:51.506   01 Jun 2027 13:52:52.005             0.499                Norilsk            15.594
        39   01 Jun 2027 13:53:07.402   01 Jun 2027 13:53:14.659             7.257                Novosib           226.781
        40   01 Jun 2027 13:53:22.174   01 Jun 2027 13:54:06.410            44.236                Novosib          1382.375
        41   01 Jun 2027 13:54:55.785   01 Jun 2027 13:56:34.328            98.543                Norilsk          3079.469
        42   01 Jun 2027 15:03:57.016   01 Jun 2027 15:04:11.372            14.356               CapeTown           448.625
        43   01 Jun 2027 15:04:25.972   01 Jun 2027 15:04:35.216             9.244               CapeTown           288.875
        44   01 Jun 2027 15:05:04.667   01 Jun 2027 15:05:24.174            19.507               CapeTown           609.594
        45   01 Jun 2027 15:07:05.104   01 Jun 2027 15:07:09.856             4.752               CapeTown           148.500
        46   01 Jun 2027 15:08:14.915   01 Jun 2027 15:08:47.948            33.033               CapeTown          1032.281
        47   01 Jun 2027 15:26:51.406   01 Jun 2027 15:27:41.267            49.861                 Moscow          1558.156
        48   01 Jun 2027 15:29:38.452   01 Jun 2027 15:29:58.458            20.006              Murmansk2           625.188
        49   01 Jun 2027 15:30:44.719   01 Jun 2027 15:31:23.458            38.739              Murmansk2          1210.594
        50   01 Jun 2027 15:34:28.208   01 Jun 2027 15:34:36.582             8.374              Murmansk2           261.687
        51   01 Jun 2027 15:40:28.657   01 Jun 2027 15:41:47.417            78.760                Anadyr2          2461.250
        52   01 Jun 2027 15:42:32.743   01 Jun 2027 15:42:41.411             8.668                Anadyr1           270.875
        53   01 Jun 2027 15:42:56.997   01 Jun 2027 15:43:12.140            15.143                Anadyr1           473.219
        54   01 Jun 2027 15:43:27.432   01 Jun 2027 15:43:35.089             7.657                Anadyr1           239.281
        55   01 Jun 2027 15:43:35.089   01 Jun 2027 15:43:54.702            19.613                Anadyr2           612.906
        56   01 Jun 2027 15:47:32.216   01 Jun 2027 15:47:33.419             1.203                Anadyr2            37.594
        57   01 Jun 2027 15:47:39.947   01 Jun 2027 15:47:57.515            17.568                Anadyr1           549.000
        58   01 Jun 2027 16:41:33.345   01 Jun 2027 16:41:53.930            20.585               CapeTown           643.281
        59   01 Jun 2027 16:43:57.627   01 Jun 2027 16:44:36.507            38.880               CapeTown          1215.000
        60   01 Jun 2027 17:03:38.474   01 Jun 2027 17:04:48.016            69.542                 Moscow          2173.187
        61   01 Jun 2027 17:05:19.601   01 Jun 2027 17:06:53.739            94.138                 Moscow          2941.813
        62   01 Jun 2027 17:12:16.111   01 Jun 2027 17:12:42.288            26.177              Murmansk2           818.031
        63   01 Jun 2027 17:18:36.679   01 Jun 2027 17:19:13.749            37.070                Anadyr2          1158.438
        64   01 Jun 2027 17:20:15.761   01 Jun 2027 17:20:30.895            15.134                Anadyr2           472.937
        65   01 Jun 2027 17:20:31.223   01 Jun 2027 17:20:32.602             1.379               Magadan2            43.094
        66   01 Jun 2027 17:20:56.743   01 Jun 2027 17:21:36.271            39.528                Anadyr2          1235.250
        67   01 Jun 2027 17:23:19.376   01 Jun 2027 17:23:33.807            14.431                Anadyr2           450.969
        68   01 Jun 2027 18:18:23.385   01 Jun 2027 18:19:01.248            37.863               CapeTown          1183.219
        69   01 Jun 2027 18:51:35.768   01 Jun 2027 18:54:00.492           144.724                Anadyr2          4522.625
        70   01 Jun 2027 18:54:14.054   01 Jun 2027 18:54:26.473            12.419                Anadyr2           388.094
        71   01 Jun 2027 18:54:54.474   01 Jun 2027 18:55:48.695            54.221               Magadan1          1694.406
        72   01 Jun 2027 18:55:56.387   01 Jun 2027 18:56:04.900             8.513               Magadan2           266.031
        73   01 Jun 2027 18:56:10.581   01 Jun 2027 18:56:13.159             2.578                Anadyr2            80.563
        74   01 Jun 2027 18:56:46.116   01 Jun 2027 18:57:25.720            39.604                Anadyr2          1237.625
        75   01 Jun 2027 18:58:03.869   01 Jun 2027 18:58:33.417            29.548               Magadan1           923.375
        76   01 Jun 2027 18:59:07.689   01 Jun 2027 19:00:03.258            55.569               Magadan2          1736.531
        77   01 Jun 2027 19:01:07.980   01 Jun 2027 19:01:56.928            48.948               Magadan1          1529.625
        78   01 Jun 2027 20:27:30.070   01 Jun 2027 20:31:08.098           218.028                Anadyr1          6813.375
        79   01 Jun 2027 20:31:10.131   01 Jun 2027 20:31:23.663            13.532                Norilsk           422.875
        80   01 Jun 2027 20:31:42.992   01 Jun 2027 20:32:35.875            52.883                Norilsk          1652.594
        81   01 Jun 2027 20:34:02.774   01 Jun 2027 20:34:53.361            50.587                Norilsk          1580.844
        82   01 Jun 2027 20:36:44.327   01 Jun 2027 20:37:13.645            29.318               Magadan1           916.188
        83   01 Jun 2027 20:40:01.639   01 Jun 2027 20:40:05.207             3.568               Magadan1           111.500
        84   01 Jun 2027 20:40:07.750   01 Jun 2027 20:40:10.816             3.066               Magadan1            95.813
        85   01 Jun 2027 20:40:17.470   01 Jun 2027 20:40:32.897            15.427               Magadan1           482.094
        86   01 Jun 2027 20:41:50.581   01 Jun 2027 20:42:40.562            49.981               Magadan1          1561.906
        87   01 Jun 2027 21:23:14.885   01 Jun 2027 21:23:34.110            19.225            RioGallegos           600.781
        88   01 Jun 2027 21:24:34.905   01 Jun 2027 21:25:17.289            42.384            RioGallegos          1324.500
        89   01 Jun 2027 21:27:39.824   01 Jun 2027 21:28:03.963            24.139            RioGallegos           754.344
        90   01 Jun 2027 21:30:43.797   01 Jun 2027 21:30:57.924            14.127            RioGallegos           441.469
        91   01 Jun 2027 21:32:03.448   01 Jun 2027 21:32:38.363            34.915            RioGallegos          1091.094
        92   01 Jun 2027 22:03:48.648   01 Jun 2027 22:04:02.514            13.866                Anadyr2           433.312
        93   01 Jun 2027 22:04:14.844   01 Jun 2027 22:04:31.063            16.219                Anadyr2           506.844
        94   01 Jun 2027 22:05:47.299   01 Jun 2027 22:06:48.672            61.373                Norilsk          1917.906
        95   01 Jun 2027 22:09:04.918   01 Jun 2027 22:09:06.645             1.727                Norilsk            53.969
        96   01 Jun 2027 22:09:07.559   01 Jun 2027 22:09:24.147            16.588                Norilsk           518.375
        97   01 Jun 2027 22:09:31.773   01 Jun 2027 22:10:30.509            58.736                Irkutsk          1835.500
        98   01 Jun 2027 22:13:07.114   01 Jun 2027 22:13:16.087             8.973                Novosib           280.406
        99   01 Jun 2027 22:13:26.857   01 Jun 2027 22:13:47.374            20.517                Novosib           641.156
       100   01 Jun 2027 22:15:04.981   01 Jun 2027 22:15:12.419             7.438                Novosib           232.437
       101   01 Jun 2027 22:16:51.121   01 Jun 2027 22:16:51.860             0.739                Irkutsk            23.094
       102   01 Jun 2027 22:16:52.312   01 Jun 2027 22:17:00.249             7.937               Magadan2           248.031
       103   01 Jun 2027 22:17:04.040   01 Jun 2027 22:17:20.490            16.450                Novosib           514.063
       104   01 Jun 2027 22:19:29.421   01 Jun 2027 22:20:08.632            39.211                Irkutsk          1225.344
       105   01 Jun 2027 22:29:26.062   01 Jun 2027 22:29:57.540            31.478                Sumatra           983.688
       106   01 Jun 2027 22:30:23.417   01 Jun 2027 22:31:06.775            43.358                Sumatra          1354.938
       107   01 Jun 2027 22:33:58.350   01 Jun 2027 22:34:14.096            15.746                Sumatra           492.062
       108   01 Jun 2027 23:07:56.049   01 Jun 2027 23:08:04.321             8.272            RioGallegos           258.500
       109   01 Jun 2027 23:37:44.360   01 Jun 2027 23:39:32.679           108.319                Anadyr1          3384.969
       110   01 Jun 2027 23:41:18.296   01 Jun 2027 23:41:39.693            21.397                Norilsk           668.656
       111   01 Jun 2027 23:41:56.983   01 Jun 2027 23:43:15.257            78.274               Magadan2          2446.063
       112   01 Jun 2027 23:43:51.086   01 Jun 2027 23:43:59.148             8.062               Magadan1           251.937
       113   01 Jun 2027 23:44:09.156   01 Jun 2027 23:44:10.074             0.918               Magadan2            28.688
       114   01 Jun 2027 23:44:34.720   01 Jun 2027 23:44:39.432             4.712               Magadan2           147.250
       115   01 Jun 2027 23:45:04.994   01 Jun 2027 23:45:19.874            14.880                Norilsk           465.000
       116   01 Jun 2027 23:45:21.620   01 Jun 2027 23:46:24.769            63.149                Irkutsk          1973.406
       117   01 Jun 2027 23:49:27.097   01 Jun 2027 23:50:29.485            62.388                Irkutsk          1949.625
       118   01 Jun 2027 23:53:10.987   01 Jun 2027 23:53:45.642            34.655                Novosib          1082.969
       119   01 Jun 2027 23:56:19.967   01 Jun 2027 23:57:05.159            45.192                  Delhi          1412.250
       120   02 Jun 2027 00:00:06.507   02 Jun 2027 00:00:14.223             7.716                  Delhi           241.125
       121   02 Jun 2027 00:02:07.457   02 Jun 2027 00:02:22.220            14.763                  Delhi           461.344
       122   02 Jun 2027 00:04:28.256   02 Jun 2027 00:04:48.792            20.536                  Delhi           641.750
       123   02 Jun 2027 00:37:56.410   02 Jun 2027 00:38:54.019            57.609            RioGallegos          1800.281
       124   02 Jun 2027 01:11:14.209   02 Jun 2027 01:11:58.737            44.528                Anadyr2          1391.500
       125   02 Jun 2027 01:12:47.884   02 Jun 2027 01:13:21.917            34.033                Anadyr1          1063.531
       126   02 Jun 2027 01:13:55.310   02 Jun 2027 01:14:12.739            17.429                Anadyr1           544.656
       127   02 Jun 2027 01:16:52.407   02 Jun 2027 01:17:00.508             8.101                Anadyr2           253.156
       128   02 Jun 2027 01:17:17.392   02 Jun 2027 01:18:04.416            47.024                Norilsk          1469.500
       129   02 Jun 2027 01:18:23.022   02 Jun 2027 01:19:22.009            58.987                Norilsk          1843.344
       130   02 Jun 2027 01:19:37.421   02 Jun 2027 01:21:07.707            90.286              Murmansk2          2821.438
       131   02 Jun 2027 01:22:58.242   02 Jun 2027 01:23:14.694            16.452              Murmansk2           514.125
       132   02 Jun 2027 01:24:44.964   02 Jun 2027 01:25:17.908            32.944                Irkutsk          1029.500
       133   02 Jun 2027 01:28:08.171   02 Jun 2027 01:28:16.762             8.591              Murmansk1           268.469
       134   02 Jun 2027 01:28:20.771   02 Jun 2027 01:28:42.384            21.613                 Moscow           675.406
       135   02 Jun 2027 01:32:48.420   02 Jun 2027 01:33:03.119            14.699                Novosib           459.344
       136   02 Jun 2027 01:33:27.754   02 Jun 2027 01:33:40.256            12.502                  Delhi           390.688
       137   02 Jun 2027 01:35:07.012   02 Jun 2027 01:36:23.754            76.742                  Delhi          2398.187
       138   02 Jun 2027 02:44:40.973   02 Jun 2027 02:47:06.623           145.650                Anadyr2          4551.563
       139   02 Jun 2027 02:47:50.397   02 Jun 2027 02:48:18.799            28.402                Anadyr2           887.562
       140   02 Jun 2027 02:49:38.440   02 Jun 2027 02:50:06.137            27.697               Magadan2           865.531
       141   02 Jun 2027 02:50:56.059   02 Jun 2027 02:51:07.743            11.684               Magadan2           365.125
       142   02 Jun 2027 02:53:03.961   02 Jun 2027 02:53:35.273            31.312                Norilsk           978.500
       143   02 Jun 2027 02:55:25.053   02 Jun 2027 02:55:53.017            27.964              Murmansk1           873.875
       144   02 Jun 2027 02:56:36.478   02 Jun 2027 02:56:50.670            14.192              Murmansk2           443.500
       145   02 Jun 2027 02:56:50.670   02 Jun 2027 02:57:24.391            33.721              Murmansk1          1053.781
       146   02 Jun 2027 02:58:05.554   02 Jun 2027 02:59:06.926            61.372                Novosib          1917.875
       147   02 Jun 2027 03:01:11.758   02 Jun 2027 03:01:14.879             3.121              Murmansk1            97.531
       148   02 Jun 2027 03:01:24.153   02 Jun 2027 03:01:39.095            14.942              Murmansk1           466.937
       149   02 Jun 2027 03:02:01.732   02 Jun 2027 03:03:02.802            61.070              Murmansk2          1908.438
       150   02 Jun 2027 03:03:37.542   02 Jun 2027 03:03:45.618             8.076                 Moscow           252.375
       151   02 Jun 2027 03:03:53.468   02 Jun 2027 03:04:45.170            51.702              Murmansk2          1615.688
       152   02 Jun 2027 03:04:45.170   02 Jun 2027 03:05:00.826            15.656              Murmansk1           489.250
       153   02 Jun 2027 03:05:28.201   02 Jun 2027 03:06:51.704            83.503              Murmansk1          2609.469
       154   02 Jun 2027 03:07:15.789   02 Jun 2027 03:08:18.606            62.817                 Moscow          1963.031
       155   02 Jun 2027 03:08:53.726   02 Jun 2027 03:08:56.418             2.692                 Moscow            84.125
       156   02 Jun 2027 03:10:14.581   02 Jun 2027 03:10:29.582            15.001                 Moscow           468.781
       157   02 Jun 2027 03:22:58.344   02 Jun 2027 03:25:00.793           122.449               CapeTown          3826.531
       158   02 Jun 2027 04:19:19.080   02 Jun 2027 04:21:17.702           118.622                Anadyr2          3706.937
       159   02 Jun 2027 04:21:33.374   02 Jun 2027 04:21:44.610            11.236               Magadan2           351.125
       160   02 Jun 2027 04:22:05.858   02 Jun 2027 04:22:28.560            22.702               Magadan2           709.437
       161   02 Jun 2027 04:22:44.166   02 Jun 2027 04:22:58.052            13.886               Magadan2           433.938
       162   02 Jun 2027 04:26:49.720   02 Jun 2027 04:28:54.101           124.381                Anadyr1          3886.906
       163   02 Jun 2027 04:38:30.177   02 Jun 2027 04:39:00.543            30.366              Murmansk1           948.938
       164   02 Jun 2027 04:59:31.313   02 Jun 2027 04:59:49.694            18.381               CapeTown           574.406
       165   02 Jun 2027 05:00:00.614   02 Jun 2027 05:00:06.954             6.340               CapeTown           198.125
       166   02 Jun 2027 06:00:44.570   02 Jun 2027 06:01:47.930            63.360                Anadyr2          1980.000
       167   02 Jun 2027 06:02:14.906   02 Jun 2027 06:03:43.818            88.912                Anadyr1          2778.500
       168   02 Jun 2027 06:03:43.818   02 Jun 2027 06:05:07.574            83.756                Anadyr2          2617.375
       169   02 Jun 2027 07:38:17.530   02 Jun 2027 07:39:22.452            64.922                Norilsk          2028.813
       170   02 Jun 2027 07:39:37.986   02 Jun 2027 07:42:20.066           162.080                Anadyr2          5065.000
       171   02 Jun 2027 07:42:20.066   02 Jun 2027 07:42:54.733            34.667                Anadyr1          1083.344
       172   02 Jun 2027 09:14:13.387   02 Jun 2027 09:15:19.898            66.511               Magadan2          2078.469
       173   02 Jun 2027 09:15:19.898   02 Jun 2027 09:16:12.822            52.924               Magadan1          1653.875
       174   02 Jun 2027 09:16:32.680   02 Jun 2027 09:17:00.907            28.227                Irkutsk           882.094
       175   02 Jun 2027 09:17:08.851   02 Jun 2027 09:17:08.994             0.143                Norilsk             4.469
       176   02 Jun 2027 09:17:15.350   02 Jun 2027 09:17:34.625            19.275                Irkutsk           602.344
       177   02 Jun 2027 09:17:38.933   02 Jun 2027 09:17:53.886            14.953                Norilsk           467.281
       178   02 Jun 2027 09:17:57.251   02 Jun 2027 09:18:12.320            15.069              Murmansk2           470.906
       179   02 Jun 2027 09:18:15.081   02 Jun 2027 09:18:18.742             3.661                Novosib           114.406
       180   02 Jun 2027 09:18:19.977   02 Jun 2027 09:18:28.742             8.765                Irkutsk           273.906
       181   02 Jun 2027 09:18:36.183   02 Jun 2027 09:18:36.405             0.222               Magadan2             6.938
       182   02 Jun 2027 09:18:38.379   02 Jun 2027 09:19:18.761            40.382                Irkutsk          1261.938
       183   02 Jun 2027 09:19:21.335   02 Jun 2027 09:19:56.807            35.472              Murmansk1          1108.500
       184   02 Jun 2027 09:20:23.087   02 Jun 2027 09:21:09.610            46.523              Murmansk2          1453.844
       185   02 Jun 2027 09:54:12.372   02 Jun 2027 09:55:08.989            56.617            RioGallegos          1769.281
       186   02 Jun 2027 09:57:24.612   02 Jun 2027 09:58:03.067            38.455            RioGallegos          1201.719
       187   02 Jun 2027 10:29:07.945   02 Jun 2027 10:29:20.742            12.797                Sumatra           399.906
       188   02 Jun 2027 10:32:08.729   02 Jun 2027 10:32:34.204            25.475                Sumatra           796.094
       189   02 Jun 2027 10:42:21.340   02 Jun 2027 10:43:23.034            61.694                  Delhi          1927.938
       190   02 Jun 2027 10:49:19.177   02 Jun 2027 10:49:56.944            37.767                Irkutsk          1180.219
       191   02 Jun 2027 10:50:24.784   02 Jun 2027 10:51:32.631            67.847                Irkutsk          2120.219
       192   02 Jun 2027 10:51:37.828   02 Jun 2027 10:52:07.131            29.303              Murmansk2           915.719
       193   02 Jun 2027 10:52:24.197   02 Jun 2027 10:53:01.534            37.337              Murmansk1          1166.781
       194   02 Jun 2027 10:53:07.942   02 Jun 2027 10:53:51.666            43.724              Murmansk1          1366.375
       195   02 Jun 2027 10:53:57.416   02 Jun 2027 10:54:38.824            41.408              Murmansk2          1294.000
       196   02 Jun 2027 10:54:39.081   02 Jun 2027 10:55:02.204            23.123                Norilsk           722.594
       197   02 Jun 2027 10:55:13.552   02 Jun 2027 10:55:44.883            31.331              Murmansk1           979.094
       198   02 Jun 2027 10:58:01.785   02 Jun 2027 10:58:09.273             7.488              Murmansk1           234.000
       199   02 Jun 2027 11:33:16.159   02 Jun 2027 11:33:44.164            28.005            RioGallegos           875.156
       200   02 Jun 2027 11:35:08.576   02 Jun 2027 11:36:19.398            70.822            RioGallegos          2213.188
       201   02 Jun 2027 12:07:53.864   02 Jun 2027 12:09:12.903            79.039                Sumatra          2469.969
       202   02 Jun 2027 12:16:26.809   02 Jun 2027 12:17:23.369            56.560                  Delhi          1767.500
       203   02 Jun 2027 12:20:45.600   02 Jun 2027 12:20:59.064            13.464                Novosib           420.750
       204   02 Jun 2027 12:21:41.978   02 Jun 2027 12:22:10.715            28.737                Novosib           898.031
       205   02 Jun 2027 12:23:47.585   02 Jun 2027 12:24:10.673            23.088                Novosib           721.500
       206   02 Jun 2027 12:24:49.647   02 Jun 2027 12:25:46.105            56.458                Norilsk          1764.313
       207   02 Jun 2027 12:26:14.094   02 Jun 2027 12:26:33.641            19.547              Murmansk2           610.844
       208   02 Jun 2027 12:30:38.574   02 Jun 2027 12:30:56.974            18.400                Norilsk           575.000
       209   02 Jun 2027 13:54:30.288   02 Jun 2027 13:57:14.524           164.236                  Delhi          5132.375
       210   02 Jun 2027 13:58:58.040   02 Jun 2027 14:00:10.085            72.045                 Moscow          2251.406
       211   02 Jun 2027 14:01:04.599   02 Jun 2027 14:03:19.361           134.762              Murmansk1          4211.313
       212   02 Jun 2027 14:04:17.775   02 Jun 2027 14:04:19.987             2.212                Norilsk            69.125
       213   02 Jun 2027 14:04:53.591   02 Jun 2027 14:04:58.990             5.399              Murmansk2           168.719
       214   02 Jun 2027 14:05:20.747   02 Jun 2027 14:05:57.211            36.464              Murmansk2          1139.500
       215   02 Jun 2027 14:06:57.947   02 Jun 2027 14:07:44.277            46.330                Norilsk          1447.812
       216   02 Jun 2027 14:08:51.605   02 Jun 2027 14:09:13.269            21.664                Norilsk           677.000
       217   02 Jun 2027 15:12:53.509   02 Jun 2027 15:13:31.972            38.463               CapeTown          1201.969
       218   02 Jun 2027 15:14:06.933   02 Jun 2027 15:15:37.409            90.476               CapeTown          2827.375
       219   02 Jun 2027 15:21:40.951   02 Jun 2027 15:21:48.415             7.464               CapeTown           233.250
       220   02 Jun 2027 15:34:32.345   02 Jun 2027 15:35:14.114            41.769                 Moscow          1305.281
       221   02 Jun 2027 15:37:51.283   02 Jun 2027 15:40:08.324           137.041              Murmansk1          4282.531
       222   02 Jun 2027 15:52:19.319   02 Jun 2027 15:54:21.282           121.963                Anadyr1          3811.344
       223   02 Jun 2027 16:47:05.127   02 Jun 2027 16:47:23.661            18.534               CapeTown           579.188
       224   02 Jun 2027 16:50:17.509   02 Jun 2027 16:50:25.959             8.450               CapeTown           264.063
       225   02 Jun 2027 16:50:51.838   02 Jun 2027 16:51:03.655            11.817               CapeTown           369.281
       226   02 Jun 2027 16:56:06.810   02 Jun 2027 16:56:37.364            30.554               CapeTown           954.812
       227   02 Jun 2027 17:16:46.629   02 Jun 2027 17:18:26.173            99.544              Murmansk1          3110.750
       228   02 Jun 2027 17:18:26.173   02 Jun 2027 17:18:29.492             3.319              Murmansk2           103.719
       229   02 Jun 2027 17:19:51.712   02 Jun 2027 17:20:31.654            39.942              Murmansk2          1248.187
       230   02 Jun 2027 17:24:17.723   02 Jun 2027 17:25:00.683            42.960              Murmansk2          1342.500
       231   02 Jun 2027 17:27:43.602   02 Jun 2027 17:28:06.749            23.147                Anadyr2           723.344
       232   02 Jun 2027 17:28:29.456   02 Jun 2027 17:29:04.240            34.784                Anadyr1          1087.000
       233   02 Jun 2027 17:31:05.465   02 Jun 2027 17:31:07.622             2.157                Anadyr2            67.406
       234   02 Jun 2027 17:31:13.069   02 Jun 2027 17:31:29.371            16.302                Anadyr2           509.438
       235   02 Jun 2027 17:31:37.715   02 Jun 2027 17:33:22.803           105.088               Magadan1          3284.000
       236   02 Jun 2027 17:37:04.101   02 Jun 2027 17:37:45.273            41.172               Magadan1          1286.625
       237   02 Jun 2027 19:03:37.357   02 Jun 2027 19:07:45.692           248.335                Anadyr2          7760.469
       238   02 Jun 2027 19:08:15.585   02 Jun 2027 19:08:30.141            14.556               Magadan2           454.875
       239   02 Jun 2027 19:08:42.460   02 Jun 2027 19:09:38.624            56.164               Magadan2          1755.125
       240   02 Jun 2027 19:09:38.624   02 Jun 2027 19:09:50.063            11.439               Magadan1           357.469
       241   02 Jun 2027 19:12:38.330   02 Jun 2027 19:12:39.667             1.337               Magadan1            41.781
       242   02 Jun 2027 19:13:35.218   02 Jun 2027 19:13:49.770            14.552               Magadan1           454.750
       243   02 Jun 2027 19:14:23.977   02 Jun 2027 19:14:37.369            13.392               Magadan1           418.500
       244   02 Jun 2027 19:14:57.966   02 Jun 2027 19:15:08.157            10.191               Magadan2           318.469
       245   02 Jun 2027 19:16:47.963   02 Jun 2027 19:17:31.674            43.711               Magadan2          1365.969
       246   02 Jun 2027 20:39:30.504   02 Jun 2027 20:42:38.094           187.590                Anadyr2          5862.187
       247   02 Jun 2027 20:42:45.896   02 Jun 2027 20:43:23.920            38.024                Norilsk          1188.250
       248   02 Jun 2027 20:43:40.559   02 Jun 2027 20:43:52.854            12.295                Norilsk           384.219
       249   02 Jun 2027 20:44:11.075   02 Jun 2027 20:45:39.877            88.802               Magadan2          2775.062
       250   02 Jun 2027 20:45:48.819   02 Jun 2027 20:46:30.533            41.714               Magadan1          1303.563
       251   02 Jun 2027 20:47:53.624   02 Jun 2027 20:48:58.248            64.624                Irkutsk          2019.500
       252   02 Jun 2027 20:49:56.122   02 Jun 2027 20:50:18.459            22.337                Irkutsk           698.031
       253   02 Jun 2027 20:51:19.656   02 Jun 2027 20:52:59.255            99.599                Irkutsk          3112.469
       254   02 Jun 2027 21:33:43.486   02 Jun 2027 21:34:30.936            47.450            RioGallegos          1482.812
       255   02 Jun 2027 22:15:00.374   02 Jun 2027 22:17:02.792           122.418                Anadyr1          3825.562
       256   02 Jun 2027 22:17:21.505   02 Jun 2027 22:18:14.569            53.064                Norilsk          1658.250
       257   02 Jun 2027 22:18:18.952   02 Jun 2027 22:19:11.796            52.844               Magadan2          1651.375
       258   02 Jun 2027 22:21:24.569   02 Jun 2027 22:21:31.156             6.587                Irkutsk           205.844
       259   02 Jun 2027 22:22:27.957   02 Jun 2027 22:23:12.796            44.839                Irkutsk          1401.219
       260   02 Jun 2027 22:23:18.549   02 Jun 2027 22:24:49.455            90.906                Novosib          2840.812
       261   02 Jun 2027 22:28:59.783   02 Jun 2027 22:29:46.432            46.649                Novosib          1457.781
       262   02 Jun 2027 22:38:11.995   02 Jun 2027 22:38:17.633             5.638                Sumatra           176.187
       263   02 Jun 2027 22:43:31.293   02 Jun 2027 22:44:39.026            67.733                Sumatra          2116.656
       264   02 Jun 2027 23:49:30.709   02 Jun 2027 23:50:04.367            33.658                Anadyr1          1051.812
       265   02 Jun 2027 23:50:08.595   02 Jun 2027 23:51:31.326            82.731                Anadyr2          2585.344
       266   02 Jun 2027 23:53:20.439   02 Jun 2027 23:53:39.990            19.551                Norilsk           610.969
       267   02 Jun 2027 23:53:58.689   02 Jun 2027 23:55:43.630           104.941               Magadan1          3279.406
       268   02 Jun 2027 23:55:43.630   02 Jun 2027 23:56:08.008            24.378               Magadan2           761.812
       269   02 Jun 2027 23:57:14.245   02 Jun 2027 23:58:16.488            62.243                Novosib          1945.094
       270   03 Jun 2027 00:00:19.777   03 Jun 2027 00:00:35.161            15.384                Novosib           480.750
       271   03 Jun 2027 00:02:13.606   03 Jun 2027 00:02:35.278            21.672                Novosib           677.250
       272   03 Jun 2027 00:04:45.734   03 Jun 2027 00:07:07.836           142.102                  Delhi          4440.687
       273   03 Jun 2027 00:49:22.837   03 Jun 2027 00:49:41.028            18.191            RioGallegos           568.469
       274   03 Jun 2027 00:54:24.226   03 Jun 2027 00:54:27.039             2.813            RioGallegos            87.906
       275   03 Jun 2027 01:22:55.234   03 Jun 2027 01:24:07.680            72.446                Anadyr2          2263.937
       276   03 Jun 2027 01:25:09.767   03 Jun 2027 01:25:29.264            19.497                Anadyr2           609.281
       277   03 Jun 2027 01:25:46.443   03 Jun 2027 01:26:09.567            23.124                Anadyr1           722.625
       278   03 Jun 2027 01:28:20.603   03 Jun 2027 01:28:44.046            23.443                Anadyr1           732.594
       279   03 Jun 2027 01:29:06.309   03 Jun 2027 01:30:20.366            74.057               Magadan1          2314.281
       280   03 Jun 2027 01:30:29.253   03 Jun 2027 01:31:39.337            70.084               Magadan2          2190.125
       281   03 Jun 2027 01:33:00.566   03 Jun 2027 01:34:05.077            64.511              Murmansk2          2015.969
       282   03 Jun 2027 01:34:38.182   03 Jun 2027 01:35:24.286            46.104                Novosib          1440.750
       283   03 Jun 2027 01:36:09.239   03 Jun 2027 01:36:39.095            29.856                 Moscow           933.000
       284   03 Jun 2027 01:38:26.513   03 Jun 2027 01:38:47.278            20.765                 Moscow           648.906
       285   03 Jun 2027 01:41:07.463   03 Jun 2027 01:41:40.373            32.910                  Delhi          1028.437
       286   03 Jun 2027 01:47:27.906   03 Jun 2027 01:48:15.524            47.618                  Delhi          1488.063
       287   03 Jun 2027 02:05:59.416   03 Jun 2027 02:07:28.117            88.701               CapeTown          2771.906
       288   03 Jun 2027 02:56:27.662   03 Jun 2027 02:56:53.297            25.635                Anadyr1           801.094
       289   03 Jun 2027 02:56:58.285   03 Jun 2027 02:57:19.511            21.226                Anadyr1           663.313
       290   03 Jun 2027 02:58:44.540   03 Jun 2027 02:59:37.186            52.646                Anadyr1          1645.187
       291   03 Jun 2027 03:01:06.312   03 Jun 2027 03:01:28.282            21.970               Magadan1           686.563
       292   03 Jun 2027 03:14:35.709   03 Jun 2027 03:14:41.391             5.682                Norilsk           177.562
       293   03 Jun 2027 03:16:21.179   03 Jun 2027 03:18:23.599           122.420              Murmansk1          3825.625
       294   03 Jun 2027 03:18:23.599   03 Jun 2027 03:18:41.890            18.291              Murmansk2           571.594
       295   03 Jun 2027 03:19:01.386   03 Jun 2027 03:21:02.040           120.654                 Moscow          3770.438
       296   03 Jun 2027 03:34:46.163   03 Jun 2027 03:38:16.691           210.528               CapeTown          6579.000
       297   03 Jun 2027 04:31:18.170   03 Jun 2027 04:33:43.065           144.895                Anadyr1          4527.969
       298   03 Jun 2027 04:34:26.153   03 Jun 2027 04:34:26.839             0.686               Magadan1            21.437
       299   03 Jun 2027 04:34:45.434   03 Jun 2027 04:35:15.001            29.567               Magadan2           923.969
       300   03 Jun 2027 04:37:39.733   03 Jun 2027 04:38:53.987            74.254               Magadan1          2320.438
       301   03 Jun 2027 04:39:12.594   03 Jun 2027 04:42:15.845           183.251                Anadyr2          5726.594
       302   03 Jun 2027 04:43:03.636   03 Jun 2027 04:43:45.581            41.945               Magadan1          1310.781
       303   03 Jun 2027 06:12:02.778   03 Jun 2027 06:13:36.229            93.451                Anadyr1          2920.344
       304   03 Jun 2027 06:13:40.446   03 Jun 2027 06:15:13.002            92.556                Anadyr2          2892.375
       305   03 Jun 2027 06:15:22.826   03 Jun 2027 06:15:38.321            15.495                Norilsk           484.219
       306   03 Jun 2027 06:15:45.088   03 Jun 2027 06:16:16.192            31.104                Norilsk           972.000
       307   03 Jun 2027 06:16:23.240   03 Jun 2027 06:17:38.180            74.940                Anadyr1          2341.875
       308   03 Jun 2027 06:17:38.180   03 Jun 2027 06:18:30.986            52.806                Anadyr2          1650.188
       309   03 Jun 2027 07:00:26.333   03 Jun 2027 07:00:39.776            13.443            RioGallegos           420.094
       310   03 Jun 2027 07:46:42.711   03 Jun 2027 07:47:11.190            28.479               Magadan2           889.969
       311   03 Jun 2027 07:47:52.990   03 Jun 2027 07:48:17.124            24.134                Anadyr2           754.187
       312   03 Jun 2027 07:48:22.341   03 Jun 2027 07:49:45.274            82.933               Magadan2          2591.656
       313   03 Jun 2027 07:49:51.930   03 Jun 2027 07:50:21.259            29.329               Magadan2           916.531
       314   03 Jun 2027 07:50:38.179   03 Jun 2027 07:51:54.953            76.774                Anadyr1          2399.188
       315   03 Jun 2027 07:52:09.130   03 Jun 2027 07:53:14.402            65.272                Novosib          2039.750
       316   03 Jun 2027 07:53:19.771   03 Jun 2027 07:54:08.343            48.572               Magadan2          1517.875
       317   03 Jun 2027 07:54:19.352   03 Jun 2027 07:54:58.384            39.032                Anadyr2          1219.750
       318   03 Jun 2027 07:55:34.133   03 Jun 2027 07:55:36.225             2.092                Norilsk            65.375
       319   03 Jun 2027 07:55:36.925   03 Jun 2027 07:55:52.342            15.417              Murmansk1           481.781
       320   03 Jun 2027 07:56:03.204   03 Jun 2027 07:56:34.981            31.777              Murmansk2           993.031
       321   03 Jun 2027 08:00:03.996   03 Jun 2027 08:00:06.271             2.275              Murmansk1            71.094
       322   03 Jun 2027 08:01:04.457   03 Jun 2027 08:01:22.816            18.359              Murmansk2           573.719
       323   03 Jun 2027 08:31:00.268   03 Jun 2027 08:31:33.514            33.246            RioGallegos          1038.938
       324   03 Jun 2027 08:33:34.900   03 Jun 2027 08:34:15.436            40.536            RioGallegos          1266.750
       325   03 Jun 2027 09:10:26.726   03 Jun 2027 09:10:50.152            23.426                Sumatra           732.063
       326   03 Jun 2027 09:24:18.639   03 Jun 2027 09:26:12.839           114.200               Magadan1          3568.750
       327   03 Jun 2027 09:26:12.839   03 Jun 2027 09:27:12.975            60.136               Magadan2          1879.250
       328   03 Jun 2027 09:27:24.090   03 Jun 2027 09:27:47.718            23.628                Norilsk           738.375
       329   03 Jun 2027 09:28:00.366   03 Jun 2027 09:28:05.128             4.762               Magadan2           148.813
       330   03 Jun 2027 09:28:14.417   03 Jun 2027 09:29:03.446            49.029               Magadan1          1532.156
       331   03 Jun 2027 09:29:18.777   03 Jun 2027 09:29:59.566            40.789              Murmansk1          1274.656
       332   03 Jun 2027 09:30:01.528   03 Jun 2027 09:30:44.713            43.185              Murmansk2          1349.531
       333   03 Jun 2027 09:31:03.294   03 Jun 2027 09:31:36.043            32.749                Novosib          1023.406
       334   03 Jun 2027 09:31:58.429   03 Jun 2027 09:32:01.093             2.664              Murmansk1            83.250
       335   03 Jun 2027 09:35:41.445   03 Jun 2027 09:36:11.443            29.998              Murmansk1           937.437
       336   03 Jun 2027 10:06:21.165   03 Jun 2027 10:07:23.309            62.144            RioGallegos          1942.000
       337   03 Jun 2027 10:41:04.553   03 Jun 2027 10:41:52.971            48.418                Sumatra          1513.063
       338   03 Jun 2027 10:52:12.232   03 Jun 2027 10:53:55.775           103.543                  Delhi          3235.719
       339   03 Jun 2027 11:01:12.358   03 Jun 2027 11:01:35.184            22.826                Norilsk           713.312
       340   03 Jun 2027 11:02:13.275   03 Jun 2027 11:02:22.675             9.400                Novosib           293.750
       341   03 Jun 2027 11:02:33.297   03 Jun 2027 11:03:39.355            66.058                Irkutsk          2064.313
       342   03 Jun 2027 11:03:43.848   03 Jun 2027 11:03:54.695            10.847              Murmansk1           338.969
       343   03 Jun 2027 11:03:57.800   03 Jun 2027 11:04:15.283            17.483              Murmansk1           546.344
       344   03 Jun 2027 11:04:15.283   03 Jun 2027 11:05:02.155            46.872              Murmansk2          1464.750
       345   03 Jun 2027 11:05:05.668   03 Jun 2027 11:05:50.680            45.012                Irkutsk          1406.625
       346   03 Jun 2027 11:06:18.090   03 Jun 2027 11:06:26.407             8.317              Murmansk1           259.906
       347   03 Jun 2027 11:06:29.086   03 Jun 2027 11:07:01.225            32.139                Novosib          1004.344
       348   03 Jun 2027 11:07:01.655   03 Jun 2027 11:07:13.281            11.626                Irkutsk           363.312
       349   03 Jun 2027 11:07:26.540   03 Jun 2027 11:07:28.714             2.174                Norilsk            67.937
       350   03 Jun 2027 11:07:33.004   03 Jun 2027 11:07:38.668             5.664              Murmansk2           177.000
       351   03 Jun 2027 11:07:38.668   03 Jun 2027 11:07:41.578             2.910              Murmansk1            90.937
       352   03 Jun 2027 11:07:55.558   03 Jun 2027 11:08:42.659            47.101              Murmansk1          1471.906
       353   03 Jun 2027 11:46:15.524   03 Jun 2027 11:46:29.388            13.864            RioGallegos           433.250
       354   03 Jun 2027 11:47:01.533   03 Jun 2027 11:47:28.136            26.603            RioGallegos           831.344
       355   03 Jun 2027 12:25:21.054   03 Jun 2027 12:25:29.145             8.091                  Delhi           252.844
       356   03 Jun 2027 12:26:10.912   03 Jun 2027 12:27:38.045            87.133                  Delhi          2722.906
       357   03 Jun 2027 12:33:06.364   03 Jun 2027 12:34:17.899            71.535                Novosib          2235.469
       358   03 Jun 2027 12:35:41.032   03 Jun 2027 12:35:48.483             7.451                Novosib           232.844
       359   03 Jun 2027 12:37:09.750   03 Jun 2027 12:38:14.039            64.289                Norilsk          2009.031
       360   03 Jun 2027 12:38:33.900   03 Jun 2027 12:38:52.636            18.736                Norilsk           585.500
       361   03 Jun 2027 12:39:07.064   03 Jun 2027 12:39:07.134             0.070              Murmansk2             2.187
       362   03 Jun 2027 12:39:52.583   03 Jun 2027 12:40:15.986            23.403              Murmansk2           731.344
       363   03 Jun 2027 12:40:15.986   03 Jun 2027 12:40:35.893            19.907              Murmansk1           622.094
       364   03 Jun 2027 12:40:58.233   03 Jun 2027 12:41:38.046            39.813              Murmansk1          1244.156
       365   03 Jun 2027 14:09:41.115   03 Jun 2027 14:13:30.617           229.502                 Moscow          7171.938
       366   03 Jun 2027 14:13:57.209   03 Jun 2027 14:16:27.788           150.579              Murmansk2          4705.594
       367   03 Jun 2027 14:18:07.534   03 Jun 2027 14:18:52.084            44.550                Norilsk          1392.187
       368   03 Jun 2027 14:20:33.693   03 Jun 2027 14:20:59.411            25.718                Norilsk           803.688
       369   03 Jun 2027 15:24:22.638   03 Jun 2027 15:27:23.243           180.605               CapeTown          5643.906
       370   03 Jun 2027 15:46:56.448   03 Jun 2027 15:47:15.518            19.070                 Moscow           595.938
       371   03 Jun 2027 15:47:30.553   03 Jun 2027 15:47:56.444            25.891                 Moscow           809.094
       372   03 Jun 2027 15:50:07.399   03 Jun 2027 15:50:09.510             2.111              Murmansk1            65.969
       373   03 Jun 2027 15:50:26.940   03 Jun 2027 15:52:17.379           110.439              Murmansk2          3451.219
       374   03 Jun 2027 16:04:12.603   03 Jun 2027 16:05:46.705            94.102                Anadyr1          2940.687
       375   03 Jun 2027 16:06:18.010   03 Jun 2027 16:06:55.274            37.264                Anadyr2          1164.500
       376   03 Jun 2027 16:59:09.253   03 Jun 2027 17:01:02.086           112.833               CapeTown          3526.031
       377   03 Jun 2027 17:29:22.681   03 Jun 2027 17:31:46.350           143.669              Murmansk2          4489.656
       378   03 Jun 2027 17:39:44.147   03 Jun 2027 17:41:03.653            79.506                Anadyr1          2484.563
       379   03 Jun 2027 17:43:10.962   03 Jun 2027 17:43:30.478            19.516                Anadyr2           609.875
       380   03 Jun 2027 17:44:06.322   03 Jun 2027 17:45:29.308            82.986               Magadan1          2593.313
       381   03 Jun 2027 17:45:29.308   03 Jun 2027 17:45:31.752             2.444               Magadan2            76.375
       382   03 Jun 2027 17:45:38.318   03 Jun 2027 17:45:46.416             8.098               Magadan2           253.063
       383   03 Jun 2027 17:46:06.113   03 Jun 2027 17:46:14.033             7.920               Magadan1           247.500
       384   03 Jun 2027 17:48:12.738   03 Jun 2027 17:48:34.698            21.960               Magadan2           686.250
       385   03 Jun 2027 19:15:38.929   03 Jun 2027 19:19:35.470           236.541                Anadyr2          7391.906
       386   03 Jun 2027 19:19:52.140   03 Jun 2027 19:21:52.376           120.236               Magadan1          3757.375
       387   03 Jun 2027 19:26:17.589   03 Jun 2027 19:26:27.400             9.811               Magadan2           306.594
       388   03 Jun 2027 19:26:52.321   03 Jun 2027 19:27:00.601             8.280               Magadan2           258.750
       389   03 Jun 2027 20:51:30.603   03 Jun 2027 20:55:45.682           255.079                Anadyr1          7971.219
       390   03 Jun 2027 20:55:45.933   03 Jun 2027 20:57:58.531           132.598               Magadan1          4143.687
       391   03 Jun 2027 20:57:58.531   03 Jun 2027 20:58:42.901            44.370               Magadan2          1386.562
       392   03 Jun 2027 20:59:10.296   03 Jun 2027 20:59:28.898            18.602                Irkutsk           581.313
       393   03 Jun 2027 21:01:03.555   03 Jun 2027 21:02:01.248            57.693                Irkutsk          1802.906
       394   03 Jun 2027 21:02:29.806   03 Jun 2027 21:02:37.635             7.829                Irkutsk           244.656
       395   03 Jun 2027 21:03:18.358   03 Jun 2027 21:05:01.526           103.168                Irkutsk          3224.000
       396   03 Jun 2027 21:15:15.105   03 Jun 2027 21:16:29.453            74.348                Sumatra          2323.375
       397   03 Jun 2027 21:18:29.587   03 Jun 2027 21:19:12.139            42.552                Sumatra          1329.750
       398   03 Jun 2027 22:27:37.158   03 Jun 2027 22:27:53.236            16.078                Anadyr1           502.438
       399   03 Jun 2027 22:28:49.952   03 Jun 2027 22:29:22.076            32.124                Anadyr1          1003.875
       400   03 Jun 2027 22:29:22.839   03 Jun 2027 22:31:01.327            98.488                Norilsk          3077.750
       401   03 Jun 2027 22:33:21.819   03 Jun 2027 22:34:35.761            73.942                Irkutsk          2310.687
       402   03 Jun 2027 22:35:05.380   03 Jun 2027 22:36:58.377           112.997                Novosib          3531.156
       403   03 Jun 2027 22:47:04.962   03 Jun 2027 22:47:17.718            12.756                Sumatra           398.625
       404   03 Jun 2027 23:33:20.499   03 Jun 2027 23:33:35.096            14.597            RioGallegos           456.156
       405   04 Jun 2027 00:01:15.855   04 Jun 2027 00:03:28.418           132.563                Anadyr1          4142.594
       406   04 Jun 2027 00:03:30.932   04 Jun 2027 00:03:46.283            15.351                Anadyr2           479.719
       407   04 Jun 2027 00:03:52.520   04 Jun 2027 00:04:08.956            16.436                Anadyr2           513.625
       408   04 Jun 2027 00:05:22.558   04 Jun 2027 00:05:40.826            18.268                Norilsk           570.875
       409   04 Jun 2027 00:05:59.828   04 Jun 2027 00:07:11.551            71.723               Magadan2          2241.344
       410   04 Jun 2027 00:07:12.207   04 Jun 2027 00:08:05.083            52.876               Magadan1          1652.375
       411   04 Jun 2027 00:08:50.947   04 Jun 2027 00:10:45.487           114.540              Murmansk1          3579.375
       412   04 Jun 2027 00:14:05.822   04 Jun 2027 00:14:19.698            13.876                Novosib           433.625
       413   04 Jun 2027 00:16:38.010   04 Jun 2027 00:17:32.808            54.798                  Delhi          1712.438
       414   04 Jun 2027 00:19:03.518   04 Jun 2027 00:19:33.522            30.004                  Delhi           937.625
       415   04 Jun 2027 00:22:44.180   04 Jun 2027 00:22:53.859             9.679                  Delhi           302.469
       416   04 Jun 2027 00:24:18.003   04 Jun 2027 00:24:59.507            41.504                  Delhi          1297.000
       417   04 Jun 2027 00:59:30.578   04 Jun 2027 00:59:31.394             0.816            RioGallegos            25.500
       418   04 Jun 2027 01:00:52.628   04 Jun 2027 01:01:22.344            29.716            RioGallegos           928.625
       419   04 Jun 2027 01:04:27.664   04 Jun 2027 01:05:20.499            52.835            RioGallegos          1651.094
       420   04 Jun 2027 01:34:36.426   04 Jun 2027 01:35:02.532            26.106                Anadyr1           815.812
       421   04 Jun 2027 01:36:05.520   04 Jun 2027 01:36:45.708            40.188                Anadyr1          1255.875
       422   04 Jun 2027 01:37:38.819   04 Jun 2027 01:37:54.995            16.176                Anadyr1           505.500
       423   04 Jun 2027 01:40:21.289   04 Jun 2027 01:40:24.332             3.043                Anadyr1            95.094
       424   04 Jun 2027 01:40:25.969   04 Jun 2027 01:40:43.862            17.893                Anadyr1           559.156
       425   04 Jun 2027 01:40:47.403   04 Jun 2027 01:42:28.976           101.573               Magadan2          3174.156
       426   04 Jun 2027 01:43:17.002   04 Jun 2027 01:43:50.050            33.048               Magadan2          1032.750
       427   04 Jun 2027 01:44:52.417   04 Jun 2027 01:45:29.370            36.953              Murmansk2          1154.781
       428   04 Jun 2027 01:46:36.583   04 Jun 2027 01:47:14.262            37.679              Murmansk1          1177.469
       429   04 Jun 2027 01:47:38.344   04 Jun 2027 01:48:23.838            45.494                 Moscow          1421.687
       430   04 Jun 2027 01:50:53.315   04 Jun 2027 01:50:59.175             5.860                 Moscow           183.125
       431   04 Jun 2027 01:51:44.751   04 Jun 2027 01:51:47.872             3.121                 Moscow            97.531
       432   04 Jun 2027 01:52:42.599   04 Jun 2027 01:53:57.268            74.669                 Moscow          2333.406
       433   04 Jun 2027 02:15:42.759   04 Jun 2027 02:16:28.880            46.121               CapeTown          1441.281
       434   04 Jun 2027 03:28:11.350   04 Jun 2027 03:28:42.603            31.253              Murmansk1           976.656
       435   04 Jun 2027 03:28:46.377   04 Jun 2027 03:30:28.308           101.931              Murmansk1          3185.344
       436   04 Jun 2027 03:30:28.308   04 Jun 2027 03:30:31.322             3.014              Murmansk2            94.187
       437   04 Jun 2027 03:30:52.861   04 Jun 2027 03:31:42.488            49.627                 Moscow          1550.844
       438   04 Jun 2027 03:33:08.268   04 Jun 2027 03:33:56.476            48.208                 Moscow          1506.500
       439   04 Jun 2027 03:35:26.903   04 Jun 2027 03:35:34.450             7.547                 Moscow           235.844
       440   04 Jun 2027 03:46:39.078   04 Jun 2027 03:49:47.591           188.513               CapeTown          5891.031
       441   04 Jun 2027 04:44:50.224   04 Jun 2027 04:45:05.163            14.939               Magadan2           466.844
       442   04 Jun 2027 04:45:28.579   04 Jun 2027 04:46:11.792            43.213               Magadan2          1350.406
       443   04 Jun 2027 04:49:33.293   04 Jun 2027 04:50:02.844            29.551               Magadan1           923.469
       444   04 Jun 2027 04:50:09.809   04 Jun 2027 04:50:53.475            43.666               Magadan2          1364.562
       445   04 Jun 2027 04:51:08.104   04 Jun 2027 04:53:09.606           121.502               Magadan2          3796.938
       446   04 Jun 2027 04:55:00.643   04 Jun 2027 04:55:07.812             7.169               Magadan2           224.031
       447   04 Jun 2027 06:24:08.632   04 Jun 2027 06:24:53.341            44.709               Magadan2          1397.156
       448   04 Jun 2027 06:25:01.562   04 Jun 2027 06:25:54.013            52.451               Magadan1          1639.094
       449   04 Jun 2027 06:25:54.013   04 Jun 2027 06:26:04.824            10.811               Magadan2           337.844
       450   04 Jun 2027 06:26:10.858   04 Jun 2027 06:27:40.278            89.420               Magadan2          2794.375
       451   04 Jun 2027 06:27:55.208   04 Jun 2027 06:28:05.949            10.741               Magadan1           335.656
       452   04 Jun 2027 06:28:07.330   04 Jun 2027 06:29:53.520           106.190               Magadan2          3318.437
       453   04 Jun 2027 07:10:33.834   04 Jun 2027 07:11:02.302            28.468            RioGallegos           889.625
       454   04 Jun 2027 07:13:27.447   04 Jun 2027 07:14:11.245            43.798            RioGallegos          1368.687
       455   04 Jun 2027 07:58:24.853   04 Jun 2027 07:58:33.441             8.588               Magadan2           268.375
       456   04 Jun 2027 08:00:18.234   04 Jun 2027 08:00:22.973             4.739               Magadan1           148.094
       457   04 Jun 2027 08:00:44.961   04 Jun 2027 08:02:38.255           113.294                Anadyr2          3540.437
       458   04 Jun 2027 08:02:50.731   04 Jun 2027 08:03:59.377            68.646               Magadan1          2145.187
       459   04 Jun 2027 08:04:15.592   04 Jun 2027 08:05:04.620            49.028               Magadan2          1532.125
       460   04 Jun 2027 08:05:11.604   04 Jun 2027 08:05:32.797            21.193               Magadan2           662.281
       461   04 Jun 2027 08:05:32.797   04 Jun 2027 08:05:34.120             1.323               Magadan1            41.344
       462   04 Jun 2027 08:05:56.761   04 Jun 2027 08:06:17.926            21.165                Anadyr2           661.406
       463   04 Jun 2027 08:06:17.926   04 Jun 2027 08:07:01.105            43.179                Anadyr1          1349.344
       464   04 Jun 2027 08:07:23.355   04 Jun 2027 08:07:37.922            14.567                Norilsk           455.219
       465   04 Jun 2027 08:07:55.492   04 Jun 2027 08:08:04.213             8.721              Murmansk2           272.531
       466   04 Jun 2027 08:11:20.414   04 Jun 2027 08:11:55.341            34.927              Murmansk2          1091.469
       467   04 Jun 2027 08:42:46.063   04 Jun 2027 08:43:21.626            35.563            RioGallegos          1111.344
       468   04 Jun 2027 08:43:35.467   04 Jun 2027 08:43:40.412             4.945            RioGallegos           154.531
       469   04 Jun 2027 08:48:26.175   04 Jun 2027 08:48:49.991            23.816            RioGallegos           744.250
       470   04 Jun 2027 09:20:29.040   04 Jun 2027 09:21:47.076            78.036                Sumatra          2438.625
       471   04 Jun 2027 09:36:32.730   04 Jun 2027 09:37:02.493            29.763               Magadan2           930.094
       472   04 Jun 2027 09:37:02.493   04 Jun 2027 09:38:11.548            69.055               Magadan1          2157.969
       473   04 Jun 2027 09:38:57.513   04 Jun 2027 09:39:23.333            25.820                Norilsk           806.875
       474   04 Jun 2027 09:39:25.488   04 Jun 2027 09:39:44.283            18.795                Norilsk           587.344
       475   04 Jun 2027 09:39:44.763   04 Jun 2027 09:40:20.439            35.676                Irkutsk          1114.875
       476   04 Jun 2027 09:40:27.289   04 Jun 2027 09:40:55.688            28.399                Novosib           887.469
       477   04 Jun 2027 09:41:07.596   04 Jun 2027 09:41:38.247            30.651                Norilsk           957.844
       478   04 Jun 2027 09:41:42.119   04 Jun 2027 09:41:44.354             2.235                Norilsk            69.844
       479   04 Jun 2027 09:41:46.977   04 Jun 2027 09:42:08.388            21.411              Murmansk1           669.094
       480   04 Jun 2027 09:42:15.805   04 Jun 2027 09:43:34.829            79.024                Irkutsk          2469.500
       481   04 Jun 2027 10:18:51.909   04 Jun 2027 10:19:44.143            52.234            RioGallegos          1632.312
       482   04 Jun 2027 10:54:38.069   04 Jun 2027 10:55:41.765            63.696                Sumatra          1990.500
