uniorb/output/strategy_2/Drop/Drop_KinoSat_111102.txt

KinoSat_111102
-------------------------
    Access    *     Start Time (UTCG)     *     Stop Time (UTCG)  *   Duration (s)        *       Station  *  Data (Mbytes)
         1   01 Jun 2027 03:53:12.813   01 Jun 2027 03:53:35.042            22.229               Magadan2           694.656
         2   01 Jun 2027 03:54:12.533   01 Jun 2027 03:57:19.541           187.008                Anadyr2          5844.000
         3   01 Jun 2027 05:28:58.808   01 Jun 2027 05:29:44.999            46.191               Magadan2          1443.469
         4   01 Jun 2027 05:30:23.870   01 Jun 2027 05:34:52.929           269.059                Anadyr2          8408.094
         5   01 Jun 2027 07:03:38.348   01 Jun 2027 07:04:19.687            41.339                Anadyr2          1291.844
         6   01 Jun 2027 07:04:37.057   01 Jun 2027 07:05:02.222            25.165               Magadan1           786.406
         7   01 Jun 2027 07:05:18.145   01 Jun 2027 07:09:56.324           278.179                Anadyr2          8693.094
         8   01 Jun 2027 08:41:47.053   01 Jun 2027 08:44:49.833           182.780               Magadan1          5711.875
         9   01 Jun 2027 08:45:25.257   01 Jun 2027 08:46:41.751            76.494                Norilsk          2390.437
        10   01 Jun 2027 08:47:06.629   01 Jun 2027 08:47:21.176            14.547              Murmansk2           454.594
        11   01 Jun 2027 08:47:48.655   01 Jun 2027 08:48:13.685            25.030              Murmansk1           782.188
        12   01 Jun 2027 08:53:41.691   01 Jun 2027 08:53:47.635             5.944              Murmansk1           185.750
        13   01 Jun 2027 08:54:07.527   01 Jun 2027 08:54:28.216            20.689              Murmansk1           646.531
        14   01 Jun 2027 09:21:14.439   01 Jun 2027 09:24:50.585           216.146            RioGallegos          6754.562
        15   01 Jun 2027 09:31:00.041   01 Jun 2027 09:31:10.335            10.294            RioGallegos           321.688
        16   01 Jun 2027 09:32:31.035   01 Jun 2027 09:33:42.828            71.793            RioGallegos          2243.531
        17   01 Jun 2027 10:00:08.132   01 Jun 2027 10:01:44.412            96.280                Sumatra          3008.750
        18   01 Jun 2027 10:16:08.878   01 Jun 2027 10:16:09.511             0.633                  Delhi            19.781
        19   01 Jun 2027 10:18:06.293   01 Jun 2027 10:18:52.428            46.135              Murmansk2          1441.719
        20   01 Jun 2027 10:18:57.645   01 Jun 2027 10:21:36.814           159.169                Norilsk          4974.031
        21   01 Jun 2027 10:21:50.723   01 Jun 2027 10:22:57.945            67.222                Novosib          2100.688
        22   01 Jun 2027 10:23:01.823   01 Jun 2027 10:23:38.311            36.488                 Moscow          1140.250
        23   01 Jun 2027 10:23:38.609   01 Jun 2027 10:23:50.913            12.304                Novosib           384.500
        24   01 Jun 2027 10:23:53.291   01 Jun 2027 10:25:37.600           104.309                Norilsk          3259.656
        25   01 Jun 2027 11:01:39.794   01 Jun 2027 11:02:26.923            47.129            RioGallegos          1472.781
        26   01 Jun 2027 11:03:02.734   01 Jun 2027 11:03:54.837            52.103            RioGallegos          1628.219
        27   01 Jun 2027 11:04:50.587   01 Jun 2027 11:05:34.421            43.834            RioGallegos          1369.812
        28   01 Jun 2027 11:42:15.330   01 Jun 2027 11:43:09.915            54.585                  Delhi          1705.781
        29   01 Jun 2027 11:44:12.218   01 Jun 2027 11:44:56.824            44.606                  Delhi          1393.938
        30   01 Jun 2027 11:49:01.959   01 Jun 2027 11:49:59.437            57.478                  Delhi          1796.187
        31   01 Jun 2027 11:55:46.371   01 Jun 2027 11:57:52.107           125.736                Novosib          3929.250
        32   01 Jun 2027 11:57:52.376   01 Jun 2027 11:58:29.090            36.714              Murmansk1          1147.312
        33   01 Jun 2027 12:00:50.330   01 Jun 2027 12:01:12.475            22.145                 Moscow           692.031
        34   01 Jun 2027 13:24:28.482   01 Jun 2027 13:28:29.604           241.122                 Moscow          7535.062
        35   01 Jun 2027 13:28:39.179   01 Jun 2027 13:33:13.735           274.556              Murmansk1          8579.875
        36   01 Jun 2027 13:33:13.735   01 Jun 2027 13:33:39.518            25.783              Murmansk2           805.719
        37   01 Jun 2027 13:33:40.041   01 Jun 2027 13:35:15.155            95.114                Norilsk          2972.313
        38   01 Jun 2027 13:35:43.594   01 Jun 2027 13:36:45.083            61.489                Norilsk          1921.531
        39   01 Jun 2027 13:37:24.437   01 Jun 2027 13:38:53.351            88.914                Norilsk          2778.563
        40   01 Jun 2027 13:39:11.775   01 Jun 2027 13:39:30.232            18.457              Murmansk2           576.781
        41   01 Jun 2027 13:39:47.078   01 Jun 2027 13:40:51.993            64.915              Murmansk2          2028.594
        42   01 Jun 2027 14:40:22.593   01 Jun 2027 14:40:29.070             6.477               CapeTown           202.406
        43   01 Jun 2027 14:41:30.714   01 Jun 2027 14:42:10.946            40.232               CapeTown          1257.250
        44   01 Jun 2027 14:43:30.443   01 Jun 2027 14:43:49.504            19.061               CapeTown           595.656
        45   01 Jun 2027 14:44:39.278   01 Jun 2027 14:46:57.512           138.234               CapeTown          4319.812
        46   01 Jun 2027 14:48:17.628   01 Jun 2027 14:49:37.109            79.481               CapeTown          2483.781
        47   01 Jun 2027 15:05:24.648   01 Jun 2027 15:05:44.286            19.638              Murmansk2           613.687
        48   01 Jun 2027 15:06:43.418   01 Jun 2027 15:07:03.437            20.019                 Moscow           625.594
        49   01 Jun 2027 15:07:46.019   01 Jun 2027 15:08:16.988            30.969                 Moscow           967.781
        50   01 Jun 2027 15:09:14.416   01 Jun 2027 15:10:06.407            51.991                 Moscow          1624.719
        51   01 Jun 2027 15:10:23.547   01 Jun 2027 15:11:27.727            64.180                 Moscow          2005.625
        52   01 Jun 2027 15:12:24.634   01 Jun 2027 15:12:59.380            34.746              Murmansk2          1085.813
        53   01 Jun 2027 15:13:19.796   01 Jun 2027 15:14:53.291            93.495              Murmansk2          2921.719
        54   01 Jun 2027 15:15:00.562   01 Jun 2027 15:15:52.892            52.330              Murmansk2          1635.312
        55   01 Jun 2027 15:16:35.093   01 Jun 2027 15:16:46.897            11.804              Murmansk2           368.875
        56   01 Jun 2027 15:21:00.354   01 Jun 2027 15:21:43.811            43.457                Anadyr2          1358.031
        57   01 Jun 2027 15:22:07.659   01 Jun 2027 15:22:40.717            33.058                Anadyr1          1033.063
        58   01 Jun 2027 15:23:12.246   01 Jun 2027 15:23:43.919            31.673                Anadyr2           989.781
        59   01 Jun 2027 15:23:47.037   01 Jun 2027 15:24:16.400            29.363                Anadyr1           917.594
        60   01 Jun 2027 15:24:56.385   01 Jun 2027 15:26:03.344            66.959                Anadyr2          2092.469
        61   01 Jun 2027 15:26:03.344   01 Jun 2027 15:26:33.544            30.200                Anadyr1           943.750
        62   01 Jun 2027 15:27:30.468   01 Jun 2027 15:28:22.081            51.613                Anadyr2          1612.906
        63   01 Jun 2027 16:24:57.719   01 Jun 2027 16:25:30.245            32.526               CapeTown          1016.437
        64   01 Jun 2027 16:47:13.924   01 Jun 2027 16:47:51.345            37.421              Murmansk1          1169.406
        65   01 Jun 2027 16:48:49.449   01 Jun 2027 16:49:31.484            42.035              Murmansk2          1313.594
        66   01 Jun 2027 16:49:40.065   01 Jun 2027 16:50:17.616            37.551              Murmansk1          1173.469
        67   01 Jun 2027 16:50:29.866   01 Jun 2027 16:50:57.949            28.083              Murmansk1           877.594
        68   01 Jun 2027 16:51:52.717   01 Jun 2027 16:52:29.916            37.199              Murmansk2          1162.469
        69   01 Jun 2027 16:57:53.080   01 Jun 2027 16:59:17.448            84.368               Magadan2          2636.500
        70   01 Jun 2027 17:00:06.861   01 Jun 2027 17:00:11.015             4.154                Anadyr1           129.813
        71   01 Jun 2027 17:00:18.791   01 Jun 2027 17:00:35.299            16.508                Anadyr1           515.875
        72   01 Jun 2027 17:00:51.717   01 Jun 2027 17:01:48.029            56.312               Magadan1          1759.750
        73   01 Jun 2027 17:02:10.678   01 Jun 2027 17:02:19.643             8.965               Magadan1           280.156
        74   01 Jun 2027 17:02:29.074   01 Jun 2027 17:03:47.660            78.586               Magadan1          2455.813
        75   01 Jun 2027 17:04:03.080   01 Jun 2027 17:04:07.397             4.317                Anadyr2           134.906
        76   01 Jun 2027 17:04:29.359   01 Jun 2027 17:04:58.157            28.798                Anadyr2           899.937
        77   01 Jun 2027 17:05:37.744   01 Jun 2027 17:05:55.012            17.268               Magadan1           539.625
        78   01 Jun 2027 17:06:09.207   01 Jun 2027 17:06:30.017            20.810                Anadyr2           650.313
        79   01 Jun 2027 17:06:30.017   01 Jun 2027 17:06:46.339            16.322                Anadyr1           510.063
        80   01 Jun 2027 18:30:27.189   01 Jun 2027 18:32:59.318           152.129                Anadyr1          4754.031
        81   01 Jun 2027 18:32:59.318   01 Jun 2027 18:33:07.412             8.094                Anadyr2           252.937
        82   01 Jun 2027 18:33:07.412   01 Jun 2027 18:33:40.485            33.073                Anadyr1          1033.531
        83   01 Jun 2027 18:33:40.655   01 Jun 2027 18:33:52.743            12.088                Anadyr1           377.750
        84   01 Jun 2027 18:34:30.813   01 Jun 2027 18:34:45.251            14.438                Anadyr1           451.188
        85   01 Jun 2027 18:35:02.466   01 Jun 2027 18:35:30.933            28.467               Magadan1           889.594
        86   01 Jun 2027 18:35:39.486   01 Jun 2027 18:36:05.590            26.104               Magadan2           815.750
        87   01 Jun 2027 18:36:12.172   01 Jun 2027 18:36:40.447            28.275                Anadyr2           883.594
        88   01 Jun 2027 18:37:23.960   01 Jun 2027 18:38:05.396            41.436                Anadyr1          1294.875
        89   01 Jun 2027 18:38:31.548   01 Jun 2027 18:38:45.744            14.196                Anadyr1           443.625
        90   01 Jun 2027 18:38:52.935   01 Jun 2027 18:39:20.358            27.423               Magadan2           856.969
        91   01 Jun 2027 18:39:31.683   01 Jun 2027 18:40:02.758            31.075                Anadyr1           971.094
        92   01 Jun 2027 18:40:49.060   01 Jun 2027 18:41:04.717            15.657               Magadan1           489.281
        93   01 Jun 2027 18:41:06.159   01 Jun 2027 18:41:44.091            37.932               Magadan2          1185.375
        94   01 Jun 2027 18:42:00.114   01 Jun 2027 18:42:20.168            20.054                Anadyr1           626.688
        95   01 Jun 2027 18:42:21.954   01 Jun 2027 18:42:34.084            12.130               Magadan2           379.062
        96   01 Jun 2027 18:42:54.126   01 Jun 2027 18:43:10.068            15.942               Magadan1           498.187
        97   01 Jun 2027 18:43:41.928   01 Jun 2027 18:44:33.259            51.331               Magadan1          1604.094
        98   01 Jun 2027 18:44:33.259   01 Jun 2027 18:45:16.247            42.988               Magadan2          1343.375
        99   01 Jun 2027 19:27:49.670   01 Jun 2027 19:28:47.323            57.653            RioGallegos          1801.656
       100   01 Jun 2027 19:29:33.509   01 Jun 2027 19:29:57.387            23.878            RioGallegos           746.187
       101   01 Jun 2027 19:30:27.833   01 Jun 2027 19:30:40.370            12.537            RioGallegos           391.781
       102   01 Jun 2027 20:08:31.123   01 Jun 2027 20:09:34.156            63.033                Norilsk          1969.781
       103   01 Jun 2027 20:09:54.109   01 Jun 2027 20:10:39.266            45.157                Norilsk          1411.156
       104   01 Jun 2027 20:11:07.018   01 Jun 2027 20:11:35.206            28.188                Norilsk           880.875
       105   01 Jun 2027 20:12:49.200   01 Jun 2027 20:13:13.085            23.885                Anadyr1           746.406
       106   01 Jun 2027 20:13:29.047   01 Jun 2027 20:14:50.864            81.817                Norilsk          2556.781
       107   01 Jun 2027 20:16:07.910   01 Jun 2027 20:16:17.576             9.666               Magadan2           302.063
       108   01 Jun 2027 20:16:38.823   01 Jun 2027 20:17:57.699            78.876                Irkutsk          2464.875
       109   01 Jun 2027 20:18:14.547   01 Jun 2027 20:19:19.688            65.141                Irkutsk          2035.656
       110   01 Jun 2027 20:20:30.363   01 Jun 2027 20:21:29.602            59.239                Irkutsk          1851.219
       111   01 Jun 2027 20:29:17.970   01 Jun 2027 20:31:01.556           103.586                Sumatra          3237.063
       112   01 Jun 2027 20:32:55.947   01 Jun 2027 20:34:03.700            67.753                Sumatra          2117.281
       113   01 Jun 2027 21:11:20.443   01 Jun 2027 21:12:11.580            51.137            RioGallegos          1598.031
       114   01 Jun 2027 21:48:19.729   01 Jun 2027 21:48:28.249             8.520               Magadan1           266.250
       115   01 Jun 2027 21:48:43.459   01 Jun 2027 21:48:55.878            12.419               Magadan2           388.094
       116   01 Jun 2027 21:49:00.126   01 Jun 2027 21:49:27.920            27.794                Novosib           868.562
       117   01 Jun 2027 21:50:14.589   01 Jun 2027 21:50:23.232             8.643                Anadyr1           270.094
       118   01 Jun 2027 21:50:28.606   01 Jun 2027 21:50:46.017            17.411               Magadan2           544.094
       119   01 Jun 2027 21:51:17.690   01 Jun 2027 21:51:24.932             7.242               Magadan1           226.312
       120   01 Jun 2027 21:51:26.774   01 Jun 2027 21:51:56.305            29.531                Norilsk           922.844
       121   01 Jun 2027 21:52:21.725   01 Jun 2027 21:52:24.178             2.453                Novosib            76.656
       122   01 Jun 2027 21:52:26.018   01 Jun 2027 21:52:43.044            17.026               Magadan2           532.063
       123   01 Jun 2027 21:53:10.937   01 Jun 2027 21:53:47.200            36.263                Norilsk          1133.219
       124   01 Jun 2027 21:54:43.473   01 Jun 2027 21:54:55.645            12.172               Magadan1           380.375
       125   01 Jun 2027 21:55:01.904   01 Jun 2027 21:55:20.363            18.459                Novosib           576.844
       126   01 Jun 2027 21:55:53.854   01 Jun 2027 21:56:21.073            27.219                Novosib           850.594
       127   01 Jun 2027 21:56:34.708   01 Jun 2027 21:56:38.791             4.083                Irkutsk           127.594
       128   01 Jun 2027 21:56:48.012   01 Jun 2027 21:57:42.161            54.149                Irkutsk          1692.156
       129   01 Jun 2027 21:59:26.083   01 Jun 2027 21:59:58.920            32.837                Irkutsk          1026.156
       130   01 Jun 2027 22:08:23.484   01 Jun 2027 22:09:16.821            53.337                Sumatra          1666.781
       131   01 Jun 2027 22:45:22.750   01 Jun 2027 22:45:46.463            23.713            RioGallegos           741.031
       132   01 Jun 2027 22:47:37.888   01 Jun 2027 22:47:55.045            17.157            RioGallegos           536.156
       133   01 Jun 2027 22:48:01.711   01 Jun 2027 22:48:33.202            31.491            RioGallegos           984.094
       134   01 Jun 2027 23:16:48.203   01 Jun 2027 23:18:06.553            78.350                Anadyr1          2448.437
       135   01 Jun 2027 23:20:11.243   01 Jun 2027 23:20:46.451            35.208                Norilsk          1100.250
       136   01 Jun 2027 23:20:46.674   01 Jun 2027 23:20:58.557            11.883               Magadan1           371.344
       137   01 Jun 2027 23:21:52.719   01 Jun 2027 23:22:06.115            13.396                Norilsk           418.625
       138   01 Jun 2027 23:22:42.420   01 Jun 2027 23:23:17.143            34.723               Magadan1          1085.094
       139   01 Jun 2027 23:23:26.865   01 Jun 2027 23:24:52.507            85.642              Murmansk2          2676.312
       140   01 Jun 2027 23:24:56.894   01 Jun 2027 23:26:44.400           107.506              Murmansk1          3359.563
       141   01 Jun 2027 23:32:57.720   01 Jun 2027 23:33:01.583             3.863                Norilsk           120.719
       142   01 Jun 2027 23:33:19.071   01 Jun 2027 23:34:59.681           100.610                Novosib          3144.062
       143   01 Jun 2027 23:39:49.764   01 Jun 2027 23:40:55.567            65.803                  Delhi          2056.344
       144   02 Jun 2027 00:49:14.627   02 Jun 2027 00:49:52.774            38.147                Anadyr2          1192.094
       145   02 Jun 2027 00:49:54.800   02 Jun 2027 00:50:13.109            18.309                Anadyr1           572.156
       146   02 Jun 2027 00:51:52.421   02 Jun 2027 00:52:07.720            15.299                Anadyr1           478.094
       147   02 Jun 2027 00:52:17.191   02 Jun 2027 00:52:35.443            18.252                Anadyr2           570.375
       148   02 Jun 2027 00:53:12.270   02 Jun 2027 00:53:40.410            28.140                Anadyr2           879.375
       149   02 Jun 2027 00:54:49.011   02 Jun 2027 00:55:17.463            28.452                Anadyr2           889.125
       150   02 Jun 2027 00:55:22.472   02 Jun 2027 00:56:52.581            90.109               Magadan1          2815.906
       151   02 Jun 2027 00:57:39.403   02 Jun 2027 00:58:26.363            46.960               Magadan1          1467.500
       152   02 Jun 2027 01:00:33.089   02 Jun 2027 01:00:44.499            11.410              Murmansk2           356.563
       153   02 Jun 2027 01:01:18.630   02 Jun 2027 01:02:16.393            57.763                Irkutsk          1805.094
       154   02 Jun 2027 01:03:59.787   02 Jun 2027 01:05:49.857           110.070                 Moscow          3439.687
       155   02 Jun 2027 01:12:10.373   02 Jun 2027 01:12:19.225             8.852                 Moscow           276.625
       156   02 Jun 2027 01:15:06.929   02 Jun 2027 01:15:24.543            17.614                  Delhi           550.437
       157   02 Jun 2027 01:17:17.762   02 Jun 2027 01:17:21.613             3.851                  Delhi           120.344
       158   02 Jun 2027 01:31:00.037   02 Jun 2027 01:31:42.487            42.450               CapeTown          1326.562
       159   02 Jun 2027 01:36:21.082   02 Jun 2027 01:36:32.774            11.692               CapeTown           365.375
       160   02 Jun 2027 02:22:57.693   02 Jun 2027 02:25:10.111           132.418                Anadyr2          4138.062
       161   02 Jun 2027 02:25:55.572   02 Jun 2027 02:26:17.284            21.712                Anadyr2           678.500
       162   02 Jun 2027 02:27:06.488   02 Jun 2027 02:27:27.805            21.317               Magadan2           666.156
       163   02 Jun 2027 02:27:37.716   02 Jun 2027 02:27:39.546             1.830               Magadan2            57.188
       164   02 Jun 2027 02:28:26.377   02 Jun 2027 02:28:52.984            26.607               Magadan1           831.469
       165   02 Jun 2027 02:29:41.562   02 Jun 2027 02:30:24.477            42.915               Magadan2          1341.094
       166   02 Jun 2027 02:31:58.091   02 Jun 2027 02:32:19.317            21.226                Norilsk           663.313
       167   02 Jun 2027 02:33:20.048   02 Jun 2027 02:33:27.137             7.089                Norilsk           221.531
       168   02 Jun 2027 02:33:56.326   02 Jun 2027 02:34:07.411            11.085                Norilsk           346.406
       169   02 Jun 2027 02:34:30.976   02 Jun 2027 02:34:37.110             6.134              Murmansk1           191.687
       170   02 Jun 2027 02:34:59.439   02 Jun 2027 02:35:31.809            32.370              Murmansk2          1011.563
       171   02 Jun 2027 02:37:22.798   02 Jun 2027 02:37:56.629            33.831                Novosib          1057.219
       172   02 Jun 2027 02:40:01.681   02 Jun 2027 02:40:31.924            30.243              Murmansk2           945.094
       173   02 Jun 2027 02:41:41.088   02 Jun 2027 02:41:59.273            18.185                Novosib           568.281
       174   02 Jun 2027 02:42:40.113   02 Jun 2027 02:43:54.284            74.171                Novosib          2317.844
       175   02 Jun 2027 02:48:57.386   02 Jun 2027 02:49:39.535            42.149                 Moscow          1317.156
       176   02 Jun 2027 03:10:14.249   02 Jun 2027 03:10:57.822            43.573               CapeTown          1361.656
       177   02 Jun 2027 04:05:21.155   02 Jun 2027 04:06:38.230            77.075               Magadan1          2408.594
       178   02 Jun 2027 04:06:38.230   02 Jun 2027 04:08:40.500           122.270               Magadan2          3820.937
       179   02 Jun 2027 04:08:40.500   02 Jun 2027 04:08:48.265             7.765               Magadan1           242.656
       180   02 Jun 2027 04:09:08.282   02 Jun 2027 04:09:12.510             4.228                Anadyr1           132.125
       181   02 Jun 2027 04:10:26.280   02 Jun 2027 04:10:37.843            11.563               Magadan2           361.344
       182   02 Jun 2027 05:43:05.994   02 Jun 2027 05:44:37.656            91.662               Magadan2          2864.437
       183   02 Jun 2027 05:44:48.608   02 Jun 2027 05:45:49.333            60.725                Anadyr1          1897.656
       184   02 Jun 2027 07:16:27.910   02 Jun 2027 07:16:40.335            12.425                Irkutsk           388.281
       185   02 Jun 2027 07:17:17.961   02 Jun 2027 07:18:03.627            45.666                Anadyr1          1427.062
       186   02 Jun 2027 07:18:27.124   02 Jun 2027 07:21:37.403           190.279                Anadyr2          5946.219
       187   02 Jun 2027 07:22:05.053   02 Jun 2027 07:22:17.934            12.881              Murmansk1           402.531
       188   02 Jun 2027 07:22:42.467   02 Jun 2027 07:23:16.549            34.082                Norilsk          1065.062
       189   02 Jun 2027 07:23:26.989   02 Jun 2027 07:24:50.289            83.300              Murmansk1          2603.125
       190   02 Jun 2027 07:25:32.818   02 Jun 2027 07:25:33.143             0.325                Norilsk            10.156
       191   02 Jun 2027 07:27:09.379   02 Jun 2027 07:27:38.511            29.132              Murmansk1           910.375
       192   02 Jun 2027 07:28:46.069   02 Jun 2027 07:29:20.776            34.707              Murmansk2          1084.594
       193   02 Jun 2027 07:29:36.696   02 Jun 2027 07:29:57.967            21.271              Murmansk1           664.719
       194   02 Jun 2027 07:31:03.906   02 Jun 2027 07:31:33.494            29.588              Murmansk1           924.625
       195   02 Jun 2027 07:57:27.805   02 Jun 2027 07:59:46.719           138.914            RioGallegos          4341.063
       196   02 Jun 2027 08:04:15.407   02 Jun 2027 08:04:52.909            37.502            RioGallegos          1171.937
       197   02 Jun 2027 08:34:42.560   02 Jun 2027 08:36:47.323           124.763                Sumatra          3898.844
       198   02 Jun 2027 08:52:43.897   02 Jun 2027 08:52:59.313            15.416                Novosib           481.750
       199   02 Jun 2027 08:53:03.545   02 Jun 2027 08:56:05.296           181.751               Magadan2          5679.719
       200   02 Jun 2027 08:56:14.934   02 Jun 2027 08:56:35.412            20.478                Irkutsk           639.937
       201   02 Jun 2027 08:56:38.976   02 Jun 2027 08:57:40.268            61.292                Irkutsk          1915.375
       202   02 Jun 2027 08:57:47.640   02 Jun 2027 08:58:10.884            23.244                Irkutsk           726.375
       203   02 Jun 2027 08:58:11.670   02 Jun 2027 08:58:20.041             8.371              Murmansk2           261.594
       204   02 Jun 2027 08:58:35.512   02 Jun 2027 08:59:00.678            25.166                Novosib           786.437
       205   02 Jun 2027 08:59:30.812   02 Jun 2027 08:59:31.818             1.006                Norilsk            31.438
       206   02 Jun 2027 09:00:02.230   02 Jun 2027 09:00:22.566            20.336              Murmansk1           635.500
       207   02 Jun 2027 09:00:45.313   02 Jun 2027 09:02:07.364            82.051              Murmansk2          2564.094
       208   02 Jun 2027 09:33:43.493   02 Jun 2027 09:33:44.101             0.608            RioGallegos            19.000
       209   02 Jun 2027 09:34:20.352   02 Jun 2027 09:34:47.759            27.407            RioGallegos           856.469
       210   02 Jun 2027 09:38:09.803   02 Jun 2027 09:38:14.904             5.101            RioGallegos           159.406
       211   02 Jun 2027 10:07:57.415   02 Jun 2027 10:08:00.692             3.277                Sumatra           102.406
       212   02 Jun 2027 10:10:16.695   02 Jun 2027 10:10:58.533            41.838                Sumatra          1307.437
       213   02 Jun 2027 10:14:12.872   02 Jun 2027 10:14:41.315            28.443                Sumatra           888.844
       214   02 Jun 2027 10:17:22.487   02 Jun 2027 10:18:24.846            62.359                  Delhi          1948.719
       215   02 Jun 2027 10:28:07.581   02 Jun 2027 10:28:29.024            21.443                  Delhi           670.094
       216   02 Jun 2027 10:28:48.019   02 Jun 2027 10:30:02.413            74.394                Novosib          2324.812
       217   02 Jun 2027 10:30:09.172   02 Jun 2027 10:31:31.175            82.003                Novosib          2562.594
       218   02 Jun 2027 10:31:36.704   02 Jun 2027 10:31:58.752            22.048                Irkutsk           689.000
       219   02 Jun 2027 10:32:00.402   02 Jun 2027 10:33:37.685            97.283                 Moscow          3040.094
       220   02 Jun 2027 10:33:44.428   02 Jun 2027 10:34:07.217            22.789                Norilsk           712.156
       221   02 Jun 2027 10:34:10.651   02 Jun 2027 10:34:19.807             9.156              Murmansk2           286.125
       222   02 Jun 2027 10:34:24.716   02 Jun 2027 10:34:51.207            26.491                 Moscow           827.844
       223   02 Jun 2027 10:35:33.652   02 Jun 2027 10:35:49.091            15.439              Murmansk2           482.469
       224   02 Jun 2027 11:15:31.513   02 Jun 2027 11:16:07.101            35.588            RioGallegos          1112.125
       225   02 Jun 2027 11:16:28.762   02 Jun 2027 11:17:24.355            55.593            RioGallegos          1737.281
       226   02 Jun 2027 11:52:28.515   02 Jun 2027 11:53:41.071            72.556                  Delhi          2267.375
       227   02 Jun 2027 12:05:37.243   02 Jun 2027 12:05:49.452            12.209                Novosib           381.531
       228   02 Jun 2027 12:06:15.769   02 Jun 2027 12:06:47.930            32.161                Novosib          1005.031
       229   02 Jun 2027 12:09:53.405   02 Jun 2027 12:10:39.128            45.723              Murmansk2          1428.844
       230   02 Jun 2027 12:13:19.900   02 Jun 2027 12:13:28.449             8.549              Murmansk2           267.156
       231   02 Jun 2027 12:14:25.796   02 Jun 2027 12:14:59.692            33.896                Norilsk          1059.250
       232   02 Jun 2027 12:16:50.651   02 Jun 2027 12:16:58.654             8.003              Murmansk2           250.094
       233   02 Jun 2027 13:36:30.124   02 Jun 2027 13:38:58.307           148.183                 Moscow          4630.719
       234   02 Jun 2027 13:39:42.101   02 Jun 2027 13:40:39.066            56.965                 Moscow          1780.156
       235   02 Jun 2027 13:40:48.795   02 Jun 2027 13:42:12.129            83.334              Murmansk1          2604.188
       236   02 Jun 2027 13:42:12.129   02 Jun 2027 13:43:14.250            62.121              Murmansk2          1941.281
       237   02 Jun 2027 13:44:55.219   02 Jun 2027 13:45:21.739            26.520                Norilsk           828.750
       238   02 Jun 2027 13:45:41.966   02 Jun 2027 13:46:56.542            74.576                Norilsk          2330.500
       239   02 Jun 2027 14:50:39.761   02 Jun 2027 14:51:31.922            52.161               CapeTown          1630.031
       240   02 Jun 2027 14:52:09.170   02 Jun 2027 14:52:30.059            20.889               CapeTown           652.781
       241   02 Jun 2027 14:52:53.965   02 Jun 2027 14:54:03.383            69.418               CapeTown          2169.313
       242   02 Jun 2027 15:00:39.127   02 Jun 2027 15:00:49.808            10.681               CapeTown           333.781
       243   02 Jun 2027 15:01:07.314   02 Jun 2027 15:02:05.849            58.535               CapeTown          1829.219
       244   02 Jun 2027 15:18:49.194   02 Jun 2027 15:19:15.800            26.606              Murmansk2           831.437
       245   02 Jun 2027 15:21:33.806   02 Jun 2027 15:22:13.448            39.642              Murmansk1          1238.813
       246   02 Jun 2027 15:25:11.148   02 Jun 2027 15:25:21.292            10.144              Murmansk1           317.000
       247   02 Jun 2027 15:27:54.535   02 Jun 2027 15:28:51.163            56.628              Murmansk1          1769.625
       248   02 Jun 2027 15:30:53.956   02 Jun 2027 15:32:08.788            74.832                Anadyr2          2338.500
       249   02 Jun 2027 15:35:13.723   02 Jun 2027 15:35:26.508            12.785                Anadyr2           399.531
       250   02 Jun 2027 15:35:48.115   02 Jun 2027 15:35:56.630             8.515                Anadyr2           266.094
       251   02 Jun 2027 15:36:12.457   02 Jun 2027 15:36:17.650             5.193                Anadyr2           162.281
       252   02 Jun 2027 15:39:26.022   02 Jun 2027 15:39:48.496            22.474                Anadyr1           702.312
       253   02 Jun 2027 15:40:24.501   02 Jun 2027 15:40:25.935             1.434                Anadyr2            44.813
       254   02 Jun 2027 15:40:28.216   02 Jun 2027 15:40:48.094            19.878                Anadyr1           621.187
       255   02 Jun 2027 16:34:59.318   02 Jun 2027 16:35:51.350            52.032               CapeTown          1626.000
       256   02 Jun 2027 16:57:11.135   02 Jun 2027 16:59:15.488           124.353              Murmansk2          3886.031
       257   02 Jun 2027 17:01:19.870   02 Jun 2027 17:01:50.880            31.010              Murmansk2           969.063
       258   02 Jun 2027 17:06:33.136   02 Jun 2027 17:08:11.551            98.415                Anadyr1          3075.469
       259   02 Jun 2027 17:09:38.729   02 Jun 2027 17:10:04.796            26.067               Magadan2           814.594
       260   02 Jun 2027 17:11:55.578   02 Jun 2027 17:13:24.098            88.520               Magadan1          2766.250
       261   02 Jun 2027 17:18:38.959   02 Jun 2027 17:18:39.162             0.203               Magadan2             6.344
       262   02 Jun 2027 18:42:28.578   02 Jun 2027 18:46:30.333           241.755                Anadyr1          7554.844
       263   02 Jun 2027 18:46:36.802   02 Jun 2027 18:47:56.202            79.400               Magadan2          2481.250
       264   02 Jun 2027 18:48:33.172   02 Jun 2027 18:48:39.149             5.977               Magadan2           186.781
       265   02 Jun 2027 18:49:15.116   02 Jun 2027 18:49:35.263            20.147                Anadyr1           629.594
       266   02 Jun 2027 18:50:36.976   02 Jun 2027 18:51:09.106            32.130               Magadan1          1004.063
       267   02 Jun 2027 18:55:12.192   02 Jun 2027 18:55:52.776            40.584               Magadan1          1268.250
       268   02 Jun 2027 19:38:35.816   02 Jun 2027 19:41:12.622           156.806            RioGallegos          4900.187
       269   02 Jun 2027 19:43:54.280   02 Jun 2027 19:44:26.677            32.397            RioGallegos          1012.406
       270   02 Jun 2027 20:19:28.713   02 Jun 2027 20:19:49.096            20.383                Anadyr1           636.969
       271   02 Jun 2027 20:20:05.089   02 Jun 2027 20:20:44.129            39.040                Anadyr1          1220.000
       272   02 Jun 2027 20:20:44.306   02 Jun 2027 20:22:40.567           116.261                Norilsk          3633.156
       273   02 Jun 2027 20:23:41.814   02 Jun 2027 20:24:14.820            33.006                Norilsk          1031.437
       274   02 Jun 2027 20:25:20.691   02 Jun 2027 20:26:12.083            51.392                Irkutsk          1606.000
       275   02 Jun 2027 20:26:36.567   02 Jun 2027 20:28:33.530           116.963                Irkutsk          3655.094
       276   02 Jun 2027 20:40:13.917   02 Jun 2027 20:42:35.263           141.346                Sumatra          4417.062
       277   02 Jun 2027 20:45:19.155   02 Jun 2027 20:45:55.979            36.824                Sumatra          1150.750
       278   02 Jun 2027 21:56:36.432   02 Jun 2027 21:56:49.824            13.392                Norilsk           418.500
       279   02 Jun 2027 21:57:03.270   02 Jun 2027 21:57:23.782            20.512                Norilsk           641.000
       280   02 Jun 2027 21:57:34.571   02 Jun 2027 21:58:11.295            36.724                Norilsk          1147.625
       281   02 Jun 2027 21:59:30.428   02 Jun 2027 21:59:51.704            21.276               Magadan2           664.875
       282   02 Jun 2027 22:00:07.573   02 Jun 2027 22:01:32.209            84.636                Irkutsk          2644.875
       283   02 Jun 2027 22:02:06.369   02 Jun 2027 22:04:25.005           138.636                Novosib          4332.375
       284   02 Jun 2027 22:10:38.769   02 Jun 2027 22:12:30.979           112.210                  Delhi          3506.563
       285   02 Jun 2027 23:32:13.189   02 Jun 2027 23:32:26.350            13.161                Norilsk           411.281
       286   02 Jun 2027 23:32:34.964   02 Jun 2027 23:33:01.141            26.177                Anadyr1           818.031
       287   02 Jun 2027 23:33:20.072   02 Jun 2027 23:34:23.199            63.127               Magadan2          1972.719
       288   02 Jun 2027 23:35:08.731   02 Jun 2027 23:39:39.254           270.523              Murmansk2          8453.844
       289   02 Jun 2027 23:46:53.319   02 Jun 2027 23:47:12.116            18.797                  Delhi           587.406
       290   02 Jun 2027 23:50:14.975   02 Jun 2027 23:50:36.274            21.299                  Delhi           665.594
       291   02 Jun 2027 23:52:26.553   02 Jun 2027 23:52:55.864            29.311                  Delhi           915.969
       292   03 Jun 2027 00:29:32.306   03 Jun 2027 00:30:07.000            34.694            RioGallegos          1084.187
       293   03 Jun 2027 01:00:56.383   03 Jun 2027 01:01:52.185            55.802                Anadyr1          1743.812
       294   03 Jun 2027 01:02:14.022   03 Jun 2027 01:02:54.122            40.100                Anadyr1          1253.125
       295   03 Jun 2027 01:03:38.499   03 Jun 2027 01:04:00.489            21.990                Anadyr2           687.187
       296   03 Jun 2027 01:04:01.963   03 Jun 2027 01:04:02.144             0.181                Anadyr2             5.656
       297   03 Jun 2027 01:06:57.544   03 Jun 2027 01:08:41.419           103.875               Magadan2          3246.094
       298   03 Jun 2027 01:08:57.977   03 Jun 2027 01:10:42.444           104.467               Magadan2          3264.594
       299   03 Jun 2027 01:10:59.214   03 Jun 2027 01:12:42.118           102.904              Murmansk1          3215.750
       300   03 Jun 2027 01:22:26.513   03 Jun 2027 01:22:39.530            13.017                  Delhi           406.781
       301   03 Jun 2027 01:24:31.220   03 Jun 2027 01:24:33.461             2.241                 Moscow            70.031
       302   03 Jun 2027 01:26:01.573   03 Jun 2027 01:26:31.667            30.094                  Delhi           940.438
       303   03 Jun 2027 01:40:11.301   03 Jun 2027 01:41:18.690            67.389               CapeTown          2105.906
       304   03 Jun 2027 02:34:47.696   03 Jun 2027 02:37:22.670           154.974                Anadyr2          4842.937
       305   03 Jun 2027 02:38:36.171   03 Jun 2027 02:38:58.321            22.150               Magadan1           692.187
       306   03 Jun 2027 02:39:30.537   03 Jun 2027 02:39:36.715             6.178               Magadan1           193.062
       307   03 Jun 2027 02:39:54.211   03 Jun 2027 02:40:21.765            27.554               Magadan1           861.063
       308   03 Jun 2027 02:42:21.640   03 Jun 2027 02:42:23.126             1.486               Magadan2            46.438
       309   03 Jun 2027 02:42:43.091   03 Jun 2027 02:42:48.700             5.609               Magadan1           175.281
       310   03 Jun 2027 02:42:56.282   03 Jun 2027 02:43:25.258            28.976               Magadan2           905.500
       311   03 Jun 2027 02:45:14.463   03 Jun 2027 02:45:16.908             2.445                Norilsk            76.406
       312   03 Jun 2027 02:46:19.051   03 Jun 2027 02:46:40.362            21.311              Murmansk1           665.969
       313   03 Jun 2027 02:46:46.933   03 Jun 2027 02:47:31.550            44.617              Murmansk2          1394.281
       314   03 Jun 2027 02:48:51.702   03 Jun 2027 02:50:11.930            80.228                Novosib          2507.125
       315   03 Jun 2027 03:13:25.239   03 Jun 2027 03:13:55.955            30.716               CapeTown           959.875
       316   03 Jun 2027 04:17:29.007   03 Jun 2027 04:17:47.450            18.443               Magadan1           576.344
       317   03 Jun 2027 04:17:48.408   03 Jun 2027 04:19:50.630           122.222                Anadyr2          3819.438
       318   03 Jun 2027 04:20:43.148   03 Jun 2027 04:21:03.877            20.729               Magadan2           647.781
       319   03 Jun 2027 05:55:06.297   03 Jun 2027 05:55:58.828            52.531                Anadyr1          1641.594
       320   03 Jun 2027 05:56:05.082   03 Jun 2027 05:56:50.387            45.305               Magadan1          1415.781
       321   03 Jun 2027 07:27:17.264   03 Jun 2027 07:28:06.469            49.205               Magadan1          1537.656
       322   03 Jun 2027 07:28:09.426   03 Jun 2027 07:28:12.962             3.536               Magadan2           110.500
       323   03 Jun 2027 07:28:13.469   03 Jun 2027 07:28:49.447            35.978                Irkutsk          1124.312
       324   03 Jun 2027 07:28:54.337   03 Jun 2027 07:29:39.626            45.289                Novosib          1415.281
       325   03 Jun 2027 07:29:47.781   03 Jun 2027 07:29:55.050             7.269                Irkutsk           227.156
       326   03 Jun 2027 07:29:55.825   03 Jun 2027 07:30:02.175             6.350                Norilsk           198.438
       327   03 Jun 2027 07:30:04.258   03 Jun 2027 07:30:09.233             4.975                Irkutsk           155.469
       328   03 Jun 2027 07:30:16.407   03 Jun 2027 07:31:28.638            72.231                Anadyr1          2257.219
       329   03 Jun 2027 07:31:41.715   03 Jun 2027 07:31:50.450             8.735               Magadan1           272.969
       330   03 Jun 2027 07:31:50.450   03 Jun 2027 07:32:50.171            59.721               Magadan2          1866.281
       331   03 Jun 2027 07:32:53.125   03 Jun 2027 07:33:05.194            12.069                Anadyr2           377.156
       332   03 Jun 2027 07:33:10.493   03 Jun 2027 07:34:20.158            69.665              Murmansk2          2177.031
       333   03 Jun 2027 07:35:17.895   03 Jun 2027 07:35:36.361            18.466              Murmansk1           577.063
       334   03 Jun 2027 07:37:36.185   03 Jun 2027 07:37:44.013             7.828              Murmansk2           244.625
       335   03 Jun 2027 07:41:34.290   03 Jun 2027 07:41:36.270             1.980              Murmansk2            61.875
       336   03 Jun 2027 08:09:18.325   03 Jun 2027 08:09:38.302            19.977            RioGallegos           624.281
       337   03 Jun 2027 08:09:55.866   03 Jun 2027 08:10:39.487            43.621            RioGallegos          1363.156
       338   03 Jun 2027 08:45:50.082   03 Jun 2027 08:46:28.162            38.080                Sumatra          1190.000
       339   03 Jun 2027 08:50:36.040   03 Jun 2027 08:51:34.237            58.197                Sumatra          1818.656
       340   03 Jun 2027 09:04:22.847   03 Jun 2027 09:04:42.194            19.347                Irkutsk           604.594
       341   03 Jun 2027 09:04:46.410   03 Jun 2027 09:05:08.253            21.843                Norilsk           682.594
       342   03 Jun 2027 09:05:12.417   03 Jun 2027 09:05:29.185            16.768                Norilsk           524.000
       343   03 Jun 2027 09:05:51.507   03 Jun 2027 09:06:11.488            19.981                Novosib           624.406
       344   03 Jun 2027 09:06:36.324   03 Jun 2027 09:06:50.818            14.494                Novosib           452.938
       345   03 Jun 2027 09:07:06.654   03 Jun 2027 09:07:53.870            47.216                Irkutsk          1475.500
       346   03 Jun 2027 09:07:57.336   03 Jun 2027 09:08:22.995            25.659              Murmansk2           801.844
       347   03 Jun 2027 09:08:22.995   03 Jun 2027 09:08:43.423            20.428              Murmansk1           638.375
       348   03 Jun 2027 09:08:45.936   03 Jun 2027 09:09:40.955            55.019                Norilsk          1719.344
       349   03 Jun 2027 09:09:43.237   03 Jun 2027 09:10:06.042            22.805              Murmansk2           712.656
       350   03 Jun 2027 09:10:16.626   03 Jun 2027 09:10:47.946            31.320              Murmansk2           978.750
       351   03 Jun 2027 09:10:59.139   03 Jun 2027 09:11:03.158             4.019                Novosib           125.594
       352   03 Jun 2027 09:16:47.822   03 Jun 2027 09:17:02.101            14.279              Murmansk1           446.219
       353   03 Jun 2027 09:45:47.432   03 Jun 2027 09:46:03.418            15.986            RioGallegos           499.563
       354   03 Jun 2027 09:46:30.281   03 Jun 2027 09:46:30.602             0.321            RioGallegos            10.031
       355   03 Jun 2027 09:47:44.971   03 Jun 2027 09:48:03.426            18.455            RioGallegos           576.719
       356   03 Jun 2027 09:49:38.619   03 Jun 2027 09:49:59.987            21.368            RioGallegos           667.750
       357   03 Jun 2027 09:55:24.748   03 Jun 2027 09:55:26.628             1.880            RioGallegos            58.750
       358   03 Jun 2027 10:20:08.221   03 Jun 2027 10:21:06.208            57.987                Sumatra          1812.094
       359   03 Jun 2027 10:24:54.132   03 Jun 2027 10:25:00.954             6.822                Sumatra           213.188
       360   03 Jun 2027 10:28:57.507   03 Jun 2027 10:29:21.249            23.742                  Delhi           741.937
       361   03 Jun 2027 10:33:27.178   03 Jun 2027 10:33:40.179            13.001                  Delhi           406.281
       362   03 Jun 2027 10:41:15.724   03 Jun 2027 10:41:24.001             8.277                Norilsk           258.656
       363   03 Jun 2027 10:41:29.853   03 Jun 2027 10:42:07.948            38.095                Novosib          1190.469
       364   03 Jun 2027 10:42:09.066   03 Jun 2027 10:42:23.343            14.277                 Moscow           446.156
       365   03 Jun 2027 10:42:26.762   03 Jun 2027 10:42:55.129            28.367                Norilsk           886.469
       366   03 Jun 2027 10:43:17.113   03 Jun 2027 10:43:32.477            15.364                 Moscow           480.125
       367   03 Jun 2027 10:43:37.290   03 Jun 2027 10:43:43.398             6.108                 Moscow           190.875
       368   03 Jun 2027 10:43:46.162   03 Jun 2027 10:43:53.175             7.013              Murmansk1           219.156
       369   03 Jun 2027 10:44:03.125   03 Jun 2027 10:44:38.501            35.376                Novosib          1105.500
       370   03 Jun 2027 10:44:43.292   03 Jun 2027 10:44:55.142            11.850              Murmansk1           370.313
       371   03 Jun 2027 10:44:55.142   03 Jun 2027 10:45:04.115             8.973              Murmansk2           280.406
       372   03 Jun 2027 10:45:11.129   03 Jun 2027 10:45:19.697             8.568                Novosib           267.750
       373   03 Jun 2027 10:45:21.145   03 Jun 2027 10:45:52.264            31.119              Murmansk1           972.469
       374   03 Jun 2027 10:46:05.120   03 Jun 2027 10:46:37.056            31.936              Murmansk2           998.000
       375   03 Jun 2027 12:04:50.117   03 Jun 2027 12:07:41.488           171.371                  Delhi          5355.344
       376   03 Jun 2027 12:13:05.370   03 Jun 2027 12:13:26.379            21.009                Novosib           656.531
       377   03 Jun 2027 12:13:37.771   03 Jun 2027 12:13:58.052            20.281                Novosib           633.781
       378   03 Jun 2027 12:14:11.471   03 Jun 2027 12:14:36.187            24.716                 Moscow           772.375
       379   03 Jun 2027 12:14:51.784   03 Jun 2027 12:14:59.385             7.601                 Moscow           237.531
       380   03 Jun 2027 12:16:16.260   03 Jun 2027 12:17:41.075            84.815              Murmansk2          2650.469
       381   03 Jun 2027 12:23:17.514   03 Jun 2027 12:23:31.187            13.673              Murmansk2           427.281
       382   03 Jun 2027 12:27:21.498   03 Jun 2027 12:27:35.348            13.850              Murmansk1           432.812
       383   03 Jun 2027 12:28:37.766   03 Jun 2027 12:28:59.349            21.583              Murmansk1           674.469
       384   03 Jun 2027 13:48:34.728   03 Jun 2027 13:52:19.617           224.889                 Moscow          7027.781
       385   03 Jun 2027 13:53:30.637   03 Jun 2027 13:55:19.656           109.019              Murmansk1          3406.844
       386   03 Jun 2027 13:55:33.156   03 Jun 2027 13:55:41.056             7.900              Murmansk2           246.875
       387   03 Jun 2027 13:56:15.570   03 Jun 2027 13:56:20.228             4.658              Murmansk1           145.563
       388   03 Jun 2027 13:57:48.631   03 Jun 2027 13:59:09.295            80.664                Norilsk          2520.750
       389   03 Jun 2027 14:09:14.821   03 Jun 2027 14:11:18.708           123.887                Anadyr1          3871.469
       390   03 Jun 2027 15:04:36.272   03 Jun 2027 15:05:39.952            63.680               CapeTown          1990.000
       391   03 Jun 2027 15:29:44.258   03 Jun 2027 15:31:16.908            92.650              Murmansk1          2895.312
       392   03 Jun 2027 15:33:35.060   03 Jun 2027 15:34:01.695            26.635              Murmansk2           832.344
       393   03 Jun 2027 15:39:01.348   03 Jun 2027 15:39:20.142            18.794              Murmansk1           587.313
       394   03 Jun 2027 15:42:50.957   03 Jun 2027 15:45:01.743           130.786                Anadyr1          4087.062
       395   03 Jun 2027 15:47:21.679   03 Jun 2027 15:47:39.375            17.696                Anadyr1           553.000
       396   03 Jun 2027 15:48:07.034   03 Jun 2027 15:48:18.808            11.774                Anadyr2           367.938
       397   03 Jun 2027 15:48:34.284   03 Jun 2027 15:48:43.926             9.642                Anadyr1           301.313
       398   03 Jun 2027 15:49:06.407   03 Jun 2027 15:49:12.254             5.847                Anadyr2           182.719
       399   03 Jun 2027 16:43:06.001   03 Jun 2027 16:43:08.953             2.952               CapeTown            92.250
       400   03 Jun 2027 16:43:49.648   03 Jun 2027 16:43:56.989             7.341               CapeTown           229.406
       401   03 Jun 2027 16:44:35.624   03 Jun 2027 16:45:49.238            73.614               CapeTown          2300.438
       402   03 Jun 2027 17:09:57.329   03 Jun 2027 17:10:42.573            45.244              Murmansk2          1413.875
       403   03 Jun 2027 17:11:16.828   03 Jun 2027 17:12:45.121            88.293              Murmansk1          2759.156
       404   03 Jun 2027 17:18:34.212   03 Jun 2027 17:19:16.181            41.969                Anadyr2          1311.531
       405   03 Jun 2027 17:19:31.495   03 Jun 2027 17:20:55.302            83.807                Anadyr1          2618.969
       406   03 Jun 2027 17:21:28.173   03 Jun 2027 17:23:15.662           107.489               Magadan1          3359.031
       407   03 Jun 2027 18:54:29.868   03 Jun 2027 18:56:27.614           117.746                Anadyr2          3679.562
       408   03 Jun 2027 18:56:35.215   03 Jun 2027 18:58:14.410            99.195                Anadyr1          3099.844
       409   03 Jun 2027 18:58:20.901   03 Jun 2027 18:59:09.198            48.297               Magadan2          1509.281
       410   03 Jun 2027 18:59:09.198   03 Jun 2027 19:00:56.788           107.590               Magadan1          3362.187
       411   03 Jun 2027 19:49:57.861   03 Jun 2027 19:52:57.265           179.404            RioGallegos          5606.375
       412   03 Jun 2027 19:56:28.227   03 Jun 2027 19:57:04.270            36.043            RioGallegos          1126.344
       413   03 Jun 2027 20:30:16.055   03 Jun 2027 20:30:41.925            25.870                Anadyr2           808.438
       414   03 Jun 2027 20:32:25.220   03 Jun 2027 20:34:42.076           136.856                Norilsk          4276.750
       415   03 Jun 2027 20:35:34.069   03 Jun 2027 20:36:13.810            39.741                Norilsk          1241.906
       416   03 Jun 2027 20:37:03.847   03 Jun 2027 20:38:35.690            91.843                Irkutsk          2870.094
       417   03 Jun 2027 20:40:09.352   03 Jun 2027 20:40:28.562            19.210                Irkutsk           600.313
       418   03 Jun 2027 20:46:00.807   03 Jun 2027 20:46:28.024            27.217                Irkutsk           850.531
       419   03 Jun 2027 20:51:29.948   03 Jun 2027 20:54:16.832           166.884                Sumatra          5215.125
       420   03 Jun 2027 20:56:45.394   03 Jun 2027 20:57:52.215            66.821                Sumatra          2088.156
       421   03 Jun 2027 22:08:39.560   03 Jun 2027 22:08:47.985             8.425                Norilsk           263.281
       422   03 Jun 2027 22:09:17.287   03 Jun 2027 22:10:05.238            47.951               Magadan1          1498.469
       423   03 Jun 2027 22:12:07.518   03 Jun 2027 22:13:10.428            62.910                Irkutsk          1965.938
       424   03 Jun 2027 22:13:19.754   03 Jun 2027 22:14:00.814            41.060                Novosib          1283.125
       425   03 Jun 2027 22:19:48.509   03 Jun 2027 22:21:53.599           125.090                Novosib          3909.063
       426   03 Jun 2027 22:22:41.013   03 Jun 2027 22:24:07.594            86.581                  Delhi          2705.656
       427   03 Jun 2027 23:40:29.237   03 Jun 2027 23:40:40.340            11.103                Anadyr2           346.969
       428   03 Jun 2027 23:41:35.708   03 Jun 2027 23:42:00.661            24.953                Anadyr1           779.781
       429   03 Jun 2027 23:44:15.055   03 Jun 2027 23:44:51.727            36.672                Norilsk          1146.000
       430   03 Jun 2027 23:45:12.748   03 Jun 2027 23:45:49.245            36.497                Norilsk          1140.531
       431   03 Jun 2027 23:46:00.614   03 Jun 2027 23:46:48.921            48.307               Magadan1          1509.594
       432   03 Jun 2027 23:46:57.653   03 Jun 2027 23:49:00.147           122.494              Murmansk2          3827.938
       433   03 Jun 2027 23:49:00.147   03 Jun 2027 23:50:34.639            94.492              Murmansk1          2952.875
       434   03 Jun 2027 23:52:10.038   03 Jun 2027 23:53:02.043            52.005              Murmansk2          1625.156
       435   04 Jun 2027 00:37:38.817   04 Jun 2027 00:38:24.282            45.465            RioGallegos          1420.781
       436   04 Jun 2027 01:12:38.725   04 Jun 2027 01:13:00.281            21.556                Anadyr1           673.625
       437   04 Jun 2027 01:13:12.992   04 Jun 2027 01:13:21.576             8.584                Anadyr2           268.250
       438   04 Jun 2027 01:13:48.095   04 Jun 2027 01:14:14.712            26.617                Anadyr2           831.781
       439   04 Jun 2027 01:14:55.466   04 Jun 2027 01:15:55.435            59.969                Anadyr2          1874.031
       440   04 Jun 2027 01:18:29.563   04 Jun 2027 01:18:47.318            17.755               Magadan1           554.844
       441   04 Jun 2027 01:18:56.030   04 Jun 2027 01:20:32.391            96.361               Magadan2          3011.281
       442   04 Jun 2027 01:20:58.442   04 Jun 2027 01:22:15.206            76.764               Magadan2          2398.875
       443   04 Jun 2027 01:22:24.195   04 Jun 2027 01:22:41.098            16.903              Murmansk2           528.219
       444   04 Jun 2027 01:22:59.301   04 Jun 2027 01:23:42.786            43.485              Murmansk2          1358.906
       445   04 Jun 2027 01:24:36.608   04 Jun 2027 01:25:26.577            49.969                Novosib          1561.531
       446   04 Jun 2027 01:32:03.989   04 Jun 2027 01:32:13.201             9.212                 Moscow           287.875
       447   04 Jun 2027 01:32:15.016   04 Jun 2027 01:33:03.453            48.437                 Moscow          1513.656
       448   04 Jun 2027 01:51:29.214   04 Jun 2027 01:51:54.437            25.223               CapeTown           788.219
       449   04 Jun 2027 01:55:06.512   04 Jun 2027 01:56:17.298            70.786               CapeTown          2212.063
       450   04 Jun 2027 02:46:39.184   04 Jun 2027 02:49:12.102           152.918                Anadyr1          4778.687
       451   04 Jun 2027 02:51:33.247   04 Jun 2027 02:51:50.634            17.387               Magadan1           543.344
       452   04 Jun 2027 02:52:14.402   04 Jun 2027 02:52:57.988            43.586               Magadan2          1362.063
       453   04 Jun 2027 02:56:33.209   04 Jun 2027 02:57:06.749            33.540                Norilsk          1048.125
       454   04 Jun 2027 02:58:20.860   04 Jun 2027 02:58:59.309            38.449              Murmansk1          1201.531
       455   04 Jun 2027 03:06:00.573   04 Jun 2027 03:06:01.708             1.135                Norilsk            35.469
       456   04 Jun 2027 03:06:06.759   04 Jun 2027 03:06:15.673             8.914              Murmansk1           278.563
       457   04 Jun 2027 03:06:31.600   04 Jun 2027 03:06:36.099             4.499                Novosib           140.594
       458   04 Jun 2027 03:06:36.363   04 Jun 2027 03:07:11.407            35.044                Norilsk          1095.125
       459   04 Jun 2027 03:07:19.044   04 Jun 2027 03:08:34.056            75.012                 Moscow          2344.125
       460   04 Jun 2027 03:08:52.359   04 Jun 2027 03:09:43.071            50.712              Murmansk2          1584.750
       461   04 Jun 2027 03:10:19.452   04 Jun 2027 03:10:25.322             5.870              Murmansk2           183.437
       462   04 Jun 2027 03:25:30.571   04 Jun 2027 03:27:43.929           133.358               CapeTown          4167.438
       463   04 Jun 2027 04:22:17.534   04 Jun 2027 04:24:09.684           112.150                Anadyr2          3504.688
       464   04 Jun 2027 04:24:15.852   04 Jun 2027 04:25:06.770            50.918               Magadan2          1591.187
       465   04 Jun 2027 04:28:15.947   04 Jun 2027 04:29:13.881            57.934                Anadyr1          1810.437
       466   04 Jun 2027 04:29:13.881   04 Jun 2027 04:29:24.190            10.309                Anadyr2           322.156
       467   04 Jun 2027 04:29:30.783   04 Jun 2027 04:29:34.216             3.433                Anadyr2           107.281
       468   04 Jun 2027 04:29:51.678   04 Jun 2027 04:29:52.474             0.796               Magadan1            24.875
       469   04 Jun 2027 04:29:52.474   04 Jun 2027 04:32:45.968           173.494               Magadan2          5421.688
       470   04 Jun 2027 06:06:36.148   04 Jun 2027 06:10:09.425           213.277                Anadyr2          6664.906
       471   04 Jun 2027 07:39:43.493   04 Jun 2027 07:40:39.289            55.796                Novosib          1743.625
       472   04 Jun 2027 07:41:02.480   04 Jun 2027 07:41:43.764            41.284               Magadan2          1290.125
       473   04 Jun 2027 07:41:48.045   04 Jun 2027 07:42:04.494            16.449                Novosib           514.031
       474   04 Jun 2027 07:42:05.628   04 Jun 2027 07:43:16.613            70.985                Irkutsk          2218.281
       475   04 Jun 2027 07:43:25.706   04 Jun 2027 07:44:26.483            60.777                Irkutsk          1899.281
       476   04 Jun 2027 07:44:46.080   04 Jun 2027 07:44:46.865             0.785                Irkutsk            24.531
       477   04 Jun 2027 07:44:50.765   04 Jun 2027 07:45:02.124            11.359               Magadan1           354.969
       478   04 Jun 2027 07:45:03.196   04 Jun 2027 07:45:51.078            47.882              Murmansk1          1496.312
       479   04 Jun 2027 07:45:51.078   04 Jun 2027 07:46:11.933            20.855              Murmansk2           651.719
       480   04 Jun 2027 07:46:33.299   04 Jun 2027 07:46:39.632             6.333                Norilsk           197.906
       481   04 Jun 2027 07:49:07.114   04 Jun 2027 07:49:32.572            25.458              Murmansk2           795.562
       482   04 Jun 2027 07:49:56.830   04 Jun 2027 07:50:17.782            20.952              Murmansk2           654.750
