uniorb/output/strategy_2/Drop/Drop_KinoSat_111810.txt

KinoSat_111810
-------------------------
    Access    *     Start Time (UTCG)     *     Stop Time (UTCG)  *   Duration (s)        *       Station  *  Data (Mbytes)
         1   01 Jun 2027 03:58:09.974   01 Jun 2027 03:58:17.199             7.225                Novosib           225.781
         2   01 Jun 2027 03:58:17.414   01 Jun 2027 03:58:55.338            37.924                Norilsk          1185.125
         3   01 Jun 2027 03:59:12.608   01 Jun 2027 03:59:14.867             2.259                Norilsk            70.594
         4   01 Jun 2027 03:59:23.223   01 Jun 2027 04:00:21.312            58.089              Murmansk1          1815.281
         5   01 Jun 2027 04:00:30.734   01 Jun 2027 04:01:46.449            75.715                Novosib          2366.094
         6   01 Jun 2027 04:02:33.184   01 Jun 2027 04:03:22.862            49.678                 Moscow          1552.437
         7   01 Jun 2027 04:04:38.050   01 Jun 2027 04:06:11.237            93.187                  Delhi          2912.094
         8   01 Jun 2027 05:31:59.774   01 Jun 2027 05:33:10.221            70.447                Novosib          2201.469
         9   01 Jun 2027 05:34:34.471   01 Jun 2027 05:35:34.365            59.894                Norilsk          1871.687
        10   01 Jun 2027 05:36:28.235   01 Jun 2027 05:36:32.119             3.884                Novosib           121.375
        11   01 Jun 2027 05:36:38.641   01 Jun 2027 05:37:31.882            53.241              Murmansk1          1663.781
        12   01 Jun 2027 05:37:31.882   01 Jun 2027 05:38:13.824            41.942              Murmansk2          1310.687
        13   01 Jun 2027 05:38:13.824   01 Jun 2027 05:38:52.387            38.563              Murmansk1          1205.094
        14   01 Jun 2027 05:38:52.387   01 Jun 2027 05:39:11.890            19.503              Murmansk2           609.469
        15   01 Jun 2027 06:58:22.224   01 Jun 2027 07:01:26.062           183.838               Magadan1          5744.938
        16   01 Jun 2027 07:01:26.062   01 Jun 2027 07:01:50.051            23.989               Magadan2           749.656
        17   01 Jun 2027 07:02:14.053   01 Jun 2027 07:03:38.348            84.295                Anadyr2          2634.219
        18   01 Jun 2027 08:35:22.525   01 Jun 2027 08:36:24.606            62.081               Magadan2          1940.031
        19   01 Jun 2027 08:37:00.642   01 Jun 2027 08:39:28.050           147.408                Anadyr1          4606.500
        20   01 Jun 2027 10:07:55.267   01 Jun 2027 10:08:19.964            24.697               Magadan1           771.781
        21   01 Jun 2027 10:08:24.538   01 Jun 2027 10:14:19.654           355.116                Anadyr1         11097.375
        22   01 Jun 2027 11:44:19.651   01 Jun 2027 11:48:56.811           277.160               Magadan1          8661.250
        23   01 Jun 2027 11:50:01.306   01 Jun 2027 11:50:57.713            56.407                Irkutsk          1762.719
        24   01 Jun 2027 13:15:05.973   01 Jun 2027 13:15:54.273            48.300                Irkutsk          1509.375
        25   01 Jun 2027 13:16:28.471   01 Jun 2027 13:16:58.716            30.245                Irkutsk           945.156
        26   01 Jun 2027 13:19:05.786   01 Jun 2027 13:20:06.561            60.775                Irkutsk          1899.219
        27   01 Jun 2027 14:07:37.992   01 Jun 2027 14:11:03.219           205.227            RioGallegos          6413.344
        28   01 Jun 2027 14:49:38.537   01 Jun 2027 14:49:48.828            10.291                  Delhi           321.594
        29   01 Jun 2027 14:53:02.751   01 Jun 2027 14:56:32.327           209.576                Novosib          6549.250
        30   01 Jun 2027 14:57:01.497   01 Jun 2027 14:57:11.814            10.317                Norilsk           322.406
        31   01 Jun 2027 14:59:51.566   01 Jun 2027 15:00:05.076            13.510                Norilsk           422.188
        32   01 Jun 2027 15:00:18.239   01 Jun 2027 15:03:18.275           180.036                Novosib          5626.125
        33   01 Jun 2027 16:29:04.351   01 Jun 2027 16:30:59.017           114.666                 Moscow          3583.312
        34   01 Jun 2027 16:32:33.976   01 Jun 2027 16:34:23.253           109.277              Murmansk2          3414.906
        35   01 Jun 2027 16:37:19.255   01 Jun 2027 16:43:26.355           367.100                Norilsk         11471.875
        36   01 Jun 2027 17:50:42.077   01 Jun 2027 17:52:38.398           116.321               CapeTown          3635.031
        37   01 Jun 2027 18:06:57.965   01 Jun 2027 18:08:08.523            70.558                 Moscow          2204.938
        38   01 Jun 2027 18:09:54.000   01 Jun 2027 18:10:42.815            48.815              Murmansk1          1525.469
        39   01 Jun 2027 18:11:56.154   01 Jun 2027 18:12:22.290            26.136                 Moscow           816.750
        40   01 Jun 2027 18:13:41.809   01 Jun 2027 18:17:00.630           198.821                 Moscow          6213.156
        41   01 Jun 2027 18:32:45.955   01 Jun 2027 18:32:59.318            13.363                Anadyr2           417.594
        42   01 Jun 2027 18:33:07.412   01 Jun 2027 18:33:40.485            33.073                Anadyr2          1033.531
        43   01 Jun 2027 18:33:40.485   01 Jun 2027 18:33:40.655             0.170                Anadyr1             5.313
        44   01 Jun 2027 19:20:21.990   01 Jun 2027 19:21:21.372            59.382               CapeTown          1855.687
        45   01 Jun 2027 19:23:22.356   01 Jun 2027 19:24:16.423            54.067               CapeTown          1689.594
        46   01 Jun 2027 19:26:31.067   01 Jun 2027 19:27:23.873            52.806               CapeTown          1650.187
        47   01 Jun 2027 19:28:25.084   01 Jun 2027 19:29:55.359            90.275               CapeTown          2821.094
        48   01 Jun 2027 19:49:37.156   01 Jun 2027 19:51:22.247           105.091              Murmansk2          3284.094
        49   01 Jun 2027 19:51:51.138   01 Jun 2027 19:57:03.611           312.473              Murmansk1          9764.781
        50   01 Jun 2027 21:35:03.477   01 Jun 2027 21:36:43.021            99.544                Anadyr1          3110.750
        51   01 Jun 2027 21:36:51.587   01 Jun 2027 21:40:47.519           235.932                Anadyr2          7372.875
        52   01 Jun 2027 21:40:51.649   01 Jun 2027 21:41:45.037            53.388               Magadan2          1668.375
        53   01 Jun 2027 21:43:08.743   01 Jun 2027 21:43:40.519            31.776               Magadan1           993.000
        54   01 Jun 2027 21:44:23.534   01 Jun 2027 21:44:33.519             9.985               Magadan2           312.031
        55   01 Jun 2027 21:44:45.799   01 Jun 2027 21:45:34.253            48.454               Magadan2          1514.188
        56   01 Jun 2027 21:46:37.834   01 Jun 2027 21:47:06.400            28.566               Magadan2           892.688
        57   01 Jun 2027 21:48:12.122   01 Jun 2027 21:48:28.249            16.127               Magadan2           503.969
        58   01 Jun 2027 21:48:28.249   01 Jun 2027 21:48:43.459            15.210               Magadan1           475.313
        59   01 Jun 2027 21:49:12.068   01 Jun 2027 21:49:48.035            35.967               Magadan1          1123.969
        60   01 Jun 2027 22:32:46.300   01 Jun 2027 22:32:51.065             4.765            RioGallegos           148.906
        61   01 Jun 2027 22:32:52.700   01 Jun 2027 22:33:44.631            51.931            RioGallegos          1622.844
        62   01 Jun 2027 22:34:47.155   01 Jun 2027 22:35:31.495            44.340            RioGallegos          1385.625
        63   01 Jun 2027 23:10:53.249   01 Jun 2027 23:15:02.272           249.023                Anadyr1          7781.969
        64   01 Jun 2027 23:15:03.403   01 Jun 2027 23:15:40.814            37.411               Magadan2          1169.094
        65   01 Jun 2027 23:16:02.410   01 Jun 2027 23:16:03.798             1.388                Norilsk            43.375
        66   01 Jun 2027 23:16:16.126   01 Jun 2027 23:16:20.104             3.978               Magadan2           124.312
        67   01 Jun 2027 23:16:48.936   01 Jun 2027 23:17:49.124            60.188                Norilsk          1880.875
        68   01 Jun 2027 23:18:59.885   01 Jun 2027 23:19:08.751             8.866               Magadan2           277.062
        69   01 Jun 2027 23:19:35.923   01 Jun 2027 23:19:58.731            22.808               Magadan1           712.750
        70   01 Jun 2027 23:20:46.451   01 Jun 2027 23:20:53.780             7.329                Norilsk           229.031
        71   01 Jun 2027 23:20:58.557   01 Jun 2027 23:21:48.856            50.299               Magadan1          1571.844
        72   01 Jun 2027 23:23:17.143   01 Jun 2027 23:23:20.682             3.539               Magadan2           110.594
        73   01 Jun 2027 23:23:46.031   01 Jun 2027 23:24:22.132            36.101               Magadan2          1128.156
        74   01 Jun 2027 23:24:55.222   01 Jun 2027 23:25:09.137            13.915               Magadan1           434.844
        75   01 Jun 2027 23:25:42.510   01 Jun 2027 23:25:57.794            15.284                Irkutsk           477.625
        76   01 Jun 2027 23:35:26.276   01 Jun 2027 23:36:14.506            48.230                Sumatra          1507.188
        77   01 Jun 2027 23:40:51.721   01 Jun 2027 23:41:34.731            43.010                Sumatra          1344.062
        78   02 Jun 2027 00:08:42.657   02 Jun 2027 00:09:12.275            29.618            RioGallegos           925.562
        79   02 Jun 2027 00:10:47.131   02 Jun 2027 00:11:47.030            59.899            RioGallegos          1871.844
        80   02 Jun 2027 00:13:32.556   02 Jun 2027 00:13:52.319            19.763            RioGallegos           617.594
        81   02 Jun 2027 00:14:19.145   02 Jun 2027 00:14:25.560             6.415            RioGallegos           200.469
        82   02 Jun 2027 00:15:35.846   02 Jun 2027 00:15:56.309            20.463            RioGallegos           639.469
        83   02 Jun 2027 00:46:10.393   02 Jun 2027 00:47:38.589            88.196                Anadyr1          2756.125
        84   02 Jun 2027 00:48:00.022   02 Jun 2027 00:48:25.964            25.942                Anadyr1           810.687
        85   02 Jun 2027 00:48:54.119   02 Jun 2027 00:49:00.919             6.800                Anadyr1           212.500
        86   02 Jun 2027 00:49:05.640   02 Jun 2027 00:49:32.188            26.548                Norilsk           829.625
        87   02 Jun 2027 00:49:43.207   02 Jun 2027 00:50:57.174            73.967               Magadan1          2311.469
        88   02 Jun 2027 00:51:25.292   02 Jun 2027 00:51:25.951             0.659               Magadan2            20.594
        89   02 Jun 2027 00:51:31.899   02 Jun 2027 00:52:36.322            64.423               Magadan1          2013.219
        90   02 Jun 2027 00:54:50.713   02 Jun 2027 00:55:10.805            20.092               Magadan1           627.875
        91   02 Jun 2027 00:56:50.393   02 Jun 2027 00:57:13.670            23.277                Irkutsk           727.406
        92   02 Jun 2027 00:58:44.450   02 Jun 2027 00:59:46.354            61.904                Irkutsk          1934.500
        93   02 Jun 2027 01:02:16.393   02 Jun 2027 01:02:24.476             8.083                Irkutsk           252.594
        94   02 Jun 2027 01:02:29.808   02 Jun 2027 01:02:43.702            13.894                Novosib           434.187
        95   02 Jun 2027 01:04:08.491   02 Jun 2027 01:05:31.290            82.799                Irkutsk          2587.469
        96   02 Jun 2027 01:12:13.495   02 Jun 2027 01:14:51.169           157.674                Sumatra          4927.313
        97   02 Jun 2027 01:49:59.819   02 Jun 2027 01:50:26.346            26.527            RioGallegos           828.969
        98   02 Jun 2027 01:51:53.661   02 Jun 2027 01:52:05.154            11.493            RioGallegos           359.156
        99   02 Jun 2027 01:52:51.005   02 Jun 2027 01:52:56.604             5.599            RioGallegos           174.969
       100   02 Jun 2027 02:21:45.105   02 Jun 2027 02:21:46.519             1.414                Anadyr2            44.187
       101   02 Jun 2027 02:22:19.658   02 Jun 2027 02:22:51.920            32.262                Anadyr1          1008.187
       102   02 Jun 2027 02:24:29.662   02 Jun 2027 02:25:10.111            40.449                Anadyr1          1264.031
       103   02 Jun 2027 02:25:46.937   02 Jun 2027 02:25:58.498            11.561                Norilsk           361.281
       104   02 Jun 2027 02:26:07.416   02 Jun 2027 02:26:31.612            24.196                Norilsk           756.125
       105   02 Jun 2027 02:27:39.546   02 Jun 2027 02:28:26.377            46.831               Magadan2          1463.469
       106   02 Jun 2027 02:30:13.246   02 Jun 2027 02:30:25.819            12.573                Irkutsk           392.906
       107   02 Jun 2027 02:31:22.481   02 Jun 2027 02:31:24.599             2.118                Novosib            66.188
       108   02 Jun 2027 02:31:33.471   02 Jun 2027 02:32:51.613            78.142                Irkutsk          2441.937
       109   02 Jun 2027 02:36:40.212   02 Jun 2027 02:37:03.624            23.412                Novosib           731.625
       110   02 Jun 2027 02:38:29.205   02 Jun 2027 02:38:42.147            12.942                Irkutsk           404.438
       111   02 Jun 2027 02:39:38.449   02 Jun 2027 02:40:02.721            24.272                Irkutsk           758.500
       112   02 Jun 2027 02:40:18.916   02 Jun 2027 02:40:19.971             1.055                Irkutsk            32.969
       113   02 Jun 2027 02:41:02.663   02 Jun 2027 02:41:05.991             3.328                Novosib           104.000
       114   02 Jun 2027 02:41:48.780   02 Jun 2027 02:42:46.366            57.586                  Delhi          1799.563
       115   02 Jun 2027 02:45:30.398   02 Jun 2027 02:45:52.973            22.575                  Delhi           705.469
       116   02 Jun 2027 02:48:22.164   02 Jun 2027 02:48:42.975            20.811                  Delhi           650.344
       117   02 Jun 2027 03:17:51.917   02 Jun 2027 03:18:52.235            60.318            RioGallegos          1884.937
       118   02 Jun 2027 03:20:06.479   02 Jun 2027 03:22:48.894           162.415            RioGallegos          5075.469
       119   02 Jun 2027 04:10:46.777   02 Jun 2027 04:11:01.163            14.386                Irkutsk           449.562
       120   02 Jun 2027 04:11:12.140   02 Jun 2027 04:11:14.257             2.117                Norilsk            66.156
       121   02 Jun 2027 04:11:24.161   02 Jun 2027 04:11:27.226             3.065                Irkutsk            95.781
       122   02 Jun 2027 04:11:32.917   02 Jun 2027 04:12:12.071            39.154              Murmansk1          1223.563
       123   02 Jun 2027 04:12:15.733   02 Jun 2027 04:13:36.611            80.878                 Moscow          2527.438
       124   02 Jun 2027 04:13:38.885   02 Jun 2027 04:13:44.915             6.030              Murmansk2           188.438
       125   02 Jun 2027 04:16:25.324   02 Jun 2027 04:19:14.862           169.538                  Delhi          5298.062
       126   02 Jun 2027 04:40:40.138   02 Jun 2027 04:41:35.476            55.338               CapeTown          1729.312
       127   02 Jun 2027 05:45:45.530   02 Jun 2027 05:46:56.375            70.845                Novosib          2213.906
       128   02 Jun 2027 05:47:35.624   02 Jun 2027 05:48:05.945            30.321              Murmansk2           947.531
       129   02 Jun 2027 05:48:28.882   02 Jun 2027 05:49:14.716            45.834              Murmansk2          1432.313
       130   02 Jun 2027 05:50:15.793   02 Jun 2027 05:51:37.698            81.905              Murmansk1          2559.531
       131   02 Jun 2027 05:52:36.168   02 Jun 2027 05:53:35.469            59.301                 Moscow          1853.156
       132   02 Jun 2027 07:10:39.090   02 Jun 2027 07:13:56.001           196.911               Magadan2          6153.469
       133   02 Jun 2027 07:13:56.001   02 Jun 2027 07:15:14.092            78.091               Magadan1          2440.344
       134   02 Jun 2027 07:22:57.160   02 Jun 2027 07:23:00.478             3.318                 Moscow           103.687
       135   02 Jun 2027 07:23:28.698   02 Jun 2027 07:23:55.335            26.637                 Moscow           832.406
       136   02 Jun 2027 08:45:50.056   02 Jun 2027 08:47:41.296           111.240                Anadyr2          3476.250
       137   02 Jun 2027 08:47:41.296   02 Jun 2027 08:50:12.411           151.115                Anadyr1          4722.344
       138   02 Jun 2027 10:19:33.502   02 Jun 2027 10:23:15.319           221.817               Magadan2          6931.781
       139   02 Jun 2027 10:23:31.014   02 Jun 2027 10:23:50.027            19.013                Irkutsk           594.156
       140   02 Jun 2027 10:24:02.736   02 Jun 2027 10:24:09.293             6.557                Norilsk           204.906
       141   02 Jun 2027 10:24:17.374   02 Jun 2027 10:24:28.055            10.681                Novosib           333.781
       142   02 Jun 2027 10:24:32.860   02 Jun 2027 10:24:42.082             9.222                Norilsk           288.187
       143   02 Jun 2027 10:25:26.883   02 Jun 2027 10:25:33.709             6.826                Irkutsk           213.313
       144   02 Jun 2027 10:25:36.034   02 Jun 2027 10:25:43.167             7.133                Norilsk           222.906
       145   02 Jun 2027 10:25:45.480   02 Jun 2027 10:26:56.550            71.070               Magadan1          2220.937
       146   02 Jun 2027 10:28:11.809   02 Jun 2027 10:28:25.440            13.631              Murmansk1           425.969
       147   02 Jun 2027 10:33:07.858   02 Jun 2027 10:33:14.694             6.836              Murmansk2           213.625
       148   02 Jun 2027 11:01:54.493   02 Jun 2027 11:02:55.224            60.731            RioGallegos          1897.844
       149   02 Jun 2027 11:38:30.330   02 Jun 2027 11:40:25.321           114.991                Sumatra          3593.469
       150   02 Jun 2027 11:56:20.127   02 Jun 2027 11:56:54.956            34.829                Norilsk          1088.406
       151   02 Jun 2027 11:56:57.845   02 Jun 2027 11:58:02.796            64.951                Norilsk          2029.719
       152   02 Jun 2027 11:58:05.812   02 Jun 2027 11:58:55.199            49.387                Irkutsk          1543.344
       153   02 Jun 2027 11:59:05.842   02 Jun 2027 12:00:50.847           105.005                Irkutsk          3281.406
       154   02 Jun 2027 12:02:00.174   02 Jun 2027 12:02:34.051            33.877                Irkutsk          1058.656
       155   02 Jun 2027 12:02:51.032   02 Jun 2027 12:02:59.864             8.832                Irkutsk           276.000
       156   02 Jun 2027 12:04:05.372   02 Jun 2027 12:04:20.968            15.596                Novosib           487.375
       157   02 Jun 2027 12:05:42.124   02 Jun 2027 12:06:36.007            53.883                Norilsk          1683.844
       158   02 Jun 2027 12:07:38.855   02 Jun 2027 12:07:48.678             9.823                Norilsk           306.969
       159   02 Jun 2027 12:07:59.082   02 Jun 2027 12:08:15.008            15.926              Murmansk2           497.687
       160   02 Jun 2027 12:08:39.781   02 Jun 2027 12:09:28.499            48.718              Murmansk1          1522.437
       161   02 Jun 2027 12:44:07.238   02 Jun 2027 12:44:19.632            12.394            RioGallegos           387.313
       162   02 Jun 2027 12:47:15.304   02 Jun 2027 12:48:11.113            55.809            RioGallegos          1744.031
       163   02 Jun 2027 12:49:03.375   02 Jun 2027 12:49:39.219            35.844            RioGallegos          1120.125
       164   02 Jun 2027 13:17:16.159   02 Jun 2027 13:18:14.524            58.365                Sumatra          1823.906
       165   02 Jun 2027 13:21:23.255   02 Jun 2027 13:23:13.984           110.729                Sumatra          3460.281
       166   02 Jun 2027 13:28:03.872   02 Jun 2027 13:28:29.709            25.837                Irkutsk           807.406
       167   02 Jun 2027 13:31:05.350   02 Jun 2027 13:32:07.179            61.829                Irkutsk          1932.156
       168   02 Jun 2027 13:37:33.921   02 Jun 2027 13:38:18.746            44.825                Irkutsk          1400.781
       169   02 Jun 2027 14:57:21.654   02 Jun 2027 14:58:30.641            68.987                  Delhi          2155.844
       170   02 Jun 2027 15:01:43.259   02 Jun 2027 15:02:32.879            49.620                  Delhi          1550.625
       171   02 Jun 2027 15:04:07.205   02 Jun 2027 15:05:30.803            83.598                  Delhi          2612.437
       172   02 Jun 2027 15:05:34.664   02 Jun 2027 15:08:31.236           176.572                Novosib          5517.875
       173   02 Jun 2027 15:12:07.493   02 Jun 2027 15:13:37.661            90.168                Norilsk          2817.750
       174   02 Jun 2027 15:18:36.901   02 Jun 2027 15:19:15.249            38.348                Norilsk          1198.375
       175   02 Jun 2027 15:19:22.823   02 Jun 2027 15:19:28.066             5.243                Norilsk           163.844
       176   02 Jun 2027 16:41:08.754   02 Jun 2027 16:42:39.906            91.152                 Moscow          2848.500
       177   02 Jun 2027 16:44:24.191   02 Jun 2027 16:44:27.622             3.431                 Moscow           107.219
       178   02 Jun 2027 16:44:39.938   02 Jun 2027 16:45:23.216            43.278              Murmansk2          1352.437
       179   02 Jun 2027 16:47:54.658   02 Jun 2027 16:48:58.603            63.945              Murmansk1          1998.281
       180   02 Jun 2027 16:50:11.128   02 Jun 2027 16:54:34.097           262.969                Norilsk          8217.781
       181   02 Jun 2027 18:19:34.517   02 Jun 2027 18:21:53.134           138.617                 Moscow          4331.781
       182   02 Jun 2027 18:22:15.320   02 Jun 2027 18:23:05.375            50.055              Murmansk1          1564.219
       183   02 Jun 2027 18:23:26.177   02 Jun 2027 18:23:52.991            26.814              Murmansk1           837.938
       184   02 Jun 2027 18:31:15.177   02 Jun 2027 18:32:28.512            73.335              Murmansk1          2291.719
       185   02 Jun 2027 18:39:40.139   02 Jun 2027 18:39:52.138            11.999                Anadyr1           374.969
       186   02 Jun 2027 18:40:40.551   02 Jun 2027 18:40:58.281            17.730                Anadyr1           554.063
       187   02 Jun 2027 19:30:53.523   02 Jun 2027 19:32:21.229            87.706               CapeTown          2740.812
       188   02 Jun 2027 19:35:34.727   02 Jun 2027 19:35:44.881            10.154               CapeTown           317.312
       189   02 Jun 2027 19:37:35.265   02 Jun 2027 19:38:42.374            67.109               CapeTown          2097.156
       190   02 Jun 2027 20:02:22.576   02 Jun 2027 20:06:55.745           273.169              Murmansk2          8536.531
       191   02 Jun 2027 20:07:51.184   02 Jun 2027 20:08:39.866            48.682              Murmansk1          1521.312
       192   02 Jun 2027 20:23:26.473   02 Jun 2027 20:23:40.650            14.177               Magadan1           443.031
       193   02 Jun 2027 21:47:05.153   02 Jun 2027 21:52:14.089           308.936                Anadyr1          9654.250
       194   02 Jun 2027 21:52:28.678   02 Jun 2027 21:54:32.956           124.278               Magadan1          3883.688
       195   02 Jun 2027 21:55:10.600   02 Jun 2027 21:55:26.301            15.701               Magadan2           490.656
       196   02 Jun 2027 21:58:35.172   02 Jun 2027 21:58:40.717             5.545               Magadan1           173.281
       197   02 Jun 2027 21:59:13.609   02 Jun 2027 21:59:30.428            16.819               Magadan2           525.594
       198   02 Jun 2027 22:00:01.325   02 Jun 2027 22:00:10.740             9.415               Magadan2           294.219
       199   02 Jun 2027 22:42:33.845   02 Jun 2027 22:45:13.851           160.006            RioGallegos          5000.188
       200   02 Jun 2027 22:47:42.905   02 Jun 2027 22:48:12.974            30.069            RioGallegos           939.656
       201   02 Jun 2027 23:22:52.573   02 Jun 2027 23:24:48.566           115.993                Anadyr1          3624.781
       202   02 Jun 2027 23:24:57.733   02 Jun 2027 23:26:32.274            94.541                Norilsk          2954.406
       203   02 Jun 2027 23:27:07.536   02 Jun 2027 23:27:14.023             6.487                Norilsk           202.719
       204   02 Jun 2027 23:27:33.300   02 Jun 2027 23:27:58.668            25.368               Magadan2           792.750
       205   02 Jun 2027 23:28:01.551   02 Jun 2027 23:28:21.229            19.678                Norilsk           614.938
       206   02 Jun 2027 23:29:15.124   02 Jun 2027 23:29:50.171            35.047               Magadan1          1095.219
       207   02 Jun 2027 23:30:32.690   02 Jun 2027 23:31:39.656            66.966                Irkutsk          2092.688
       208   02 Jun 2027 23:39:06.922   02 Jun 2027 23:39:31.000            24.078                Irkutsk           752.438
       209   02 Jun 2027 23:44:09.328   02 Jun 2027 23:45:50.095           100.767                Sumatra          3148.969
       210   02 Jun 2027 23:50:10.404   02 Jun 2027 23:50:39.346            28.942                Sumatra           904.438
       211   03 Jun 2027 00:20:53.391   03 Jun 2027 00:20:58.398             5.007            RioGallegos           156.469
       212   03 Jun 2027 00:21:29.327   03 Jun 2027 00:22:27.719            58.392            RioGallegos          1824.750
       213   03 Jun 2027 00:29:03.663   03 Jun 2027 00:29:32.306            28.643            RioGallegos           895.094
       214   03 Jun 2027 00:58:02.833   03 Jun 2027 00:58:17.826            14.993                Anadyr2           468.531
       215   03 Jun 2027 00:58:36.626   03 Jun 2027 00:59:35.928            59.302                Anadyr2          1853.187
       216   03 Jun 2027 01:00:23.549   03 Jun 2027 01:00:30.614             7.065                Anadyr2           220.781
       217   03 Jun 2027 01:00:45.138   03 Jun 2027 01:00:52.097             6.959                Anadyr1           217.469
       218   03 Jun 2027 01:00:52.097   03 Jun 2027 01:01:18.600            26.503                Anadyr2           828.219
       219   03 Jun 2027 01:01:27.935   03 Jun 2027 01:03:10.255           102.320               Magadan2          3197.500
       220   03 Jun 2027 01:03:26.405   03 Jun 2027 01:03:44.345            17.940               Magadan2           560.625
       221   03 Jun 2027 01:04:42.266   03 Jun 2027 01:05:45.242            62.976                Irkutsk          1968.000
       222   03 Jun 2027 01:05:59.749   03 Jun 2027 01:06:32.229            32.480                Novosib          1015.000
       223   03 Jun 2027 01:06:43.048   03 Jun 2027 01:07:56.220            73.172                Irkutsk          2286.625
       224   03 Jun 2027 01:16:52.627   03 Jun 2027 01:17:26.896            34.269                  Delhi          1070.906
       225   03 Jun 2027 01:18:49.156   03 Jun 2027 01:19:13.740            24.584                Sumatra           768.250
       226   03 Jun 2027 01:21:19.730   03 Jun 2027 01:23:22.407           122.677                Sumatra          3833.656
       227   03 Jun 2027 02:03:13.775   03 Jun 2027 02:03:21.167             7.392            RioGallegos           231.000
       228   03 Jun 2027 02:04:07.025   03 Jun 2027 02:04:41.002            33.977            RioGallegos          1061.781
       229   03 Jun 2027 02:33:32.708   03 Jun 2027 02:33:45.355            12.647                Anadyr1           395.219
       230   03 Jun 2027 02:34:04.527   03 Jun 2027 02:34:30.303            25.776                Anadyr2           805.500
       231   03 Jun 2027 02:36:49.612   03 Jun 2027 02:38:04.196            74.584                Norilsk          2330.750
       232   03 Jun 2027 02:39:29.768   03 Jun 2027 02:40:47.099            77.331              Murmansk1          2416.594
       233   03 Jun 2027 02:40:56.447   03 Jun 2027 02:41:36.954            40.507                Irkutsk          1265.844
       234   03 Jun 2027 02:42:16.670   03 Jun 2027 02:42:28.394            11.724                Novosib           366.375
       235   03 Jun 2027 02:42:29.305   03 Jun 2027 02:42:41.635            12.330                Irkutsk           385.313
       236   03 Jun 2027 02:45:00.198   03 Jun 2027 02:45:28.583            28.385                Irkutsk           887.031
       237   03 Jun 2027 02:47:54.522   03 Jun 2027 02:48:46.382            51.860                Irkutsk          1620.625
       238   03 Jun 2027 02:53:43.950   03 Jun 2027 02:54:35.179            51.229                  Delhi          1600.906
       239   03 Jun 2027 03:30:14.472   03 Jun 2027 03:31:02.159            47.687            RioGallegos          1490.219
       240   03 Jun 2027 03:31:19.394   03 Jun 2027 03:31:40.916            21.522            RioGallegos           672.563
       241   03 Jun 2027 03:33:44.676   03 Jun 2027 03:35:27.097           102.421            RioGallegos          3200.656
       242   03 Jun 2027 04:19:10.628   03 Jun 2027 04:19:46.543            35.915                Irkutsk          1122.344
       243   03 Jun 2027 04:23:19.153   03 Jun 2027 04:24:13.851            54.698              Murmansk2          1709.312
       244   03 Jun 2027 04:24:13.851   03 Jun 2027 04:26:08.741           114.890              Murmansk1          3590.312
       245   03 Jun 2027 04:26:10.463   03 Jun 2027 04:26:17.302             6.839                Novosib           213.719
       246   03 Jun 2027 04:27:39.880   03 Jun 2027 04:27:51.826            11.946                Novosib           373.312
       247   03 Jun 2027 04:29:05.729   03 Jun 2027 04:29:31.100            25.371                 Moscow           792.844
       248   03 Jun 2027 04:30:36.727   03 Jun 2027 04:31:17.234            40.507                  Delhi          1265.844
       249   03 Jun 2027 05:58:37.136   03 Jun 2027 05:59:07.270            30.134                Novosib           941.687
       250   03 Jun 2027 05:59:35.838   03 Jun 2027 05:59:46.985            11.147                Norilsk           348.344
       251   03 Jun 2027 05:59:56.410   03 Jun 2027 06:00:58.839            62.429                 Moscow          1950.906
       252   03 Jun 2027 06:01:22.876   03 Jun 2027 06:01:43.467            20.591              Murmansk2           643.469
       253   03 Jun 2027 06:01:43.467   03 Jun 2027 06:02:17.886            34.419              Murmansk1          1075.594
       254   03 Jun 2027 06:02:17.886   03 Jun 2027 06:02:34.273            16.387              Murmansk2           512.094
       255   03 Jun 2027 06:02:34.273   03 Jun 2027 06:02:59.414            25.141              Murmansk1           785.656
       256   03 Jun 2027 06:18:04.616   03 Jun 2027 06:20:14.790           130.174               CapeTown          4067.937
       257   03 Jun 2027 06:26:59.229   03 Jun 2027 06:27:18.619            19.390               CapeTown           605.937
       258   03 Jun 2027 07:20:50.792   03 Jun 2027 07:23:15.798           145.006                Anadyr1          4531.437
       259   03 Jun 2027 08:57:29.712   03 Jun 2027 08:57:49.342            19.630                Anadyr2           613.438
       260   03 Jun 2027 08:57:49.342   03 Jun 2027 08:59:41.245           111.903                Anadyr1          3496.969
       261   03 Jun 2027 09:00:01.301   03 Jun 2027 09:01:58.711           117.410               Magadan1          3669.062
       262   03 Jun 2027 09:02:40.733   03 Jun 2027 09:02:57.518            16.785                Anadyr1           524.531
       263   03 Jun 2027 10:29:28.961   03 Jun 2027 10:31:25.266           116.305               Magadan1          3634.531
       264   03 Jun 2027 10:32:08.773   03 Jun 2027 10:32:27.259            18.486                Norilsk           577.687
       265   03 Jun 2027 10:32:50.752   03 Jun 2027 10:36:02.356           191.604               Magadan1          5987.625
       266   03 Jun 2027 10:36:19.697   03 Jun 2027 10:36:46.513            26.816                Anadyr2           838.000
       267   03 Jun 2027 10:37:00.460   03 Jun 2027 10:37:04.821             4.361                Irkutsk           136.281
       268   03 Jun 2027 10:37:07.215   03 Jun 2027 10:37:31.328            24.113                Irkutsk           753.531
       269   03 Jun 2027 10:37:40.650   03 Jun 2027 10:38:47.282            66.632              Murmansk1          2082.250
       270   03 Jun 2027 10:38:51.937   03 Jun 2027 10:39:10.512            18.575                Norilsk           580.469
       271   03 Jun 2027 10:39:28.205   03 Jun 2027 10:39:32.772             4.567              Murmansk2           142.719
       272   03 Jun 2027 10:41:36.611   03 Jun 2027 10:41:51.450            14.839              Murmansk2           463.719
       273   03 Jun 2027 11:13:47.913   03 Jun 2027 11:14:55.623            67.710            RioGallegos          2115.938
       274   03 Jun 2027 11:49:51.546   03 Jun 2027 11:50:23.911            32.365                Sumatra          1011.406
       275   03 Jun 2027 11:53:21.917   03 Jun 2027 11:54:44.280            82.363                Sumatra          2573.844
       276   03 Jun 2027 12:07:02.087   03 Jun 2027 12:07:28.577            26.490                Norilsk           827.813
       277   03 Jun 2027 12:09:58.008   03 Jun 2027 12:10:22.700            24.692                Norilsk           771.625
       278   03 Jun 2027 12:12:00.505   03 Jun 2027 12:12:10.795            10.290                Norilsk           321.563
       279   03 Jun 2027 12:12:16.556   03 Jun 2027 12:13:10.324            53.768              Murmansk1          1680.250
       280   03 Jun 2027 12:18:10.088   03 Jun 2027 12:18:28.951            18.863              Murmansk1           589.469
       281   03 Jun 2027 12:20:41.314   03 Jun 2027 12:21:27.529            46.215              Murmansk1          1444.219
       282   03 Jun 2027 12:51:52.490   03 Jun 2027 12:52:34.454            41.964            RioGallegos          1311.375
       283   03 Jun 2027 12:58:29.629   03 Jun 2027 12:58:38.564             8.935            RioGallegos           279.219
       284   03 Jun 2027 12:59:54.071   03 Jun 2027 13:00:38.016            43.945            RioGallegos          1373.281
       285   03 Jun 2027 13:24:58.560   03 Jun 2027 13:26:01.835            63.275                Sumatra          1977.344
       286   03 Jun 2027 13:27:11.747   03 Jun 2027 13:29:27.096           135.349                Sumatra          4229.656
       287   03 Jun 2027 13:40:07.170   03 Jun 2027 13:40:42.277            35.107                Irkutsk          1097.094
       288   03 Jun 2027 13:43:47.410   03 Jun 2027 13:45:01.375            73.965                Irkutsk          2311.406
       289   03 Jun 2027 15:09:50.579   03 Jun 2027 15:14:53.764           303.185                  Delhi          9474.531
       290   03 Jun 2027 15:18:12.590   03 Jun 2027 15:21:05.615           173.025                Novosib          5407.031
       291   03 Jun 2027 15:29:44.072   03 Jun 2027 15:30:37.223            53.151                Norilsk          1660.969
       292   03 Jun 2027 16:53:16.245   03 Jun 2027 16:54:08.602            52.357                 Moscow          1636.156
       293   03 Jun 2027 16:55:01.213   03 Jun 2027 16:56:24.612            83.399                 Moscow          2606.219
       294   03 Jun 2027 17:03:11.869   03 Jun 2027 17:07:00.309           228.440                Norilsk          7138.750
       295   03 Jun 2027 18:10:06.132   03 Jun 2027 18:10:26.800            20.668               CapeTown           645.875
       296   03 Jun 2027 18:13:55.519   03 Jun 2027 18:14:15.746            20.227               CapeTown           632.094
       297   03 Jun 2027 18:32:18.193   03 Jun 2027 18:36:56.089           277.896                 Moscow          8684.250
       298   03 Jun 2027 18:43:53.644   03 Jun 2027 18:44:33.611            39.967              Murmansk2          1248.969
       299   03 Jun 2027 19:43:08.861   03 Jun 2027 19:44:23.303            74.442               CapeTown          2326.313
       300   03 Jun 2027 19:44:42.734   03 Jun 2027 19:47:05.026           142.292               CapeTown          4446.625
       301   03 Jun 2027 20:15:13.719   03 Jun 2027 20:20:46.904           333.185              Murmansk1         10412.031
       302   03 Jun 2027 21:59:06.694   03 Jun 2027 22:02:53.557           226.863                Anadyr1          7089.469
       303   03 Jun 2027 22:03:03.560   03 Jun 2027 22:04:57.683           114.123               Magadan1          3566.344
       304   03 Jun 2027 22:04:57.754   03 Jun 2027 22:05:24.317            26.563               Magadan2           830.094
       305   03 Jun 2027 22:06:03.507   03 Jun 2027 22:06:28.512            25.005               Magadan1           781.406
       306   03 Jun 2027 22:08:29.945   03 Jun 2027 22:08:31.628             1.683               Magadan1            52.594
       307   03 Jun 2027 22:11:12.929   03 Jun 2027 22:11:33.018            20.089               Magadan1           627.781
       308   03 Jun 2027 22:54:08.134   03 Jun 2027 22:56:19.861           131.727            RioGallegos          4116.469
       309   03 Jun 2027 22:56:27.411   03 Jun 2027 22:57:16.399            48.988            RioGallegos          1530.875
       310   03 Jun 2027 23:34:51.325   03 Jun 2027 23:35:56.953            65.628                Anadyr1          2050.875
       311   03 Jun 2027 23:36:09.916   03 Jun 2027 23:36:16.026             6.110                Anadyr2           190.937
       312   03 Jun 2027 23:36:27.889   03 Jun 2027 23:36:49.334            21.445                Anadyr1           670.156
       313   03 Jun 2027 23:36:56.999   03 Jun 2027 23:38:34.420            97.421                Norilsk          3044.406
       314   03 Jun 2027 23:38:44.085   03 Jun 2027 23:39:28.022            43.937               Magadan1          1373.031
       315   03 Jun 2027 23:39:59.743   03 Jun 2027 23:40:38.083            38.340               Magadan1          1198.125
       316   03 Jun 2027 23:41:26.320   03 Jun 2027 23:42:32.067            65.747                Irkutsk          2054.594
       317   03 Jun 2027 23:48:10.955   03 Jun 2027 23:48:26.721            15.766                Irkutsk           492.687
       318   03 Jun 2027 23:50:28.892   03 Jun 2027 23:50:53.002            24.110                Irkutsk           753.437
       319   03 Jun 2027 23:55:36.461   03 Jun 2027 23:58:36.676           180.215                Sumatra          5631.719
       320   04 Jun 2027 00:36:21.520   04 Jun 2027 00:36:25.479             3.959            RioGallegos           123.719
       321   04 Jun 2027 00:37:27.654   04 Jun 2027 00:37:38.817            11.163            RioGallegos           348.844
       322   04 Jun 2027 00:39:27.102   04 Jun 2027 00:39:52.006            24.904            RioGallegos           778.250
       323   04 Jun 2027 01:09:54.020   04 Jun 2027 01:10:30.990            36.970                Anadyr1          1155.312
       324   04 Jun 2027 01:10:37.788   04 Jun 2027 01:11:23.498            45.710                Anadyr1          1428.437
       325   04 Jun 2027 01:11:59.882   04 Jun 2027 01:12:15.125            15.243                Anadyr1           476.344
       326   04 Jun 2027 01:12:50.765   04 Jun 2027 01:14:38.194           107.429                Norilsk          3357.156
       327   04 Jun 2027 01:15:28.015   04 Jun 2027 01:15:38.838            10.823               Magadan1           338.219
       328   04 Jun 2027 01:16:43.438   04 Jun 2027 01:18:41.377           117.939                Irkutsk          3685.594
       329   04 Jun 2027 01:19:27.827   04 Jun 2027 01:20:13.615            45.788                Novosib          1430.875
       330   04 Jun 2027 01:25:00.691   04 Jun 2027 01:25:41.007            40.316                Irkutsk          1259.875
       331   04 Jun 2027 01:28:57.976   04 Jun 2027 01:29:35.916            37.940                  Delhi          1185.625
       332   04 Jun 2027 01:31:09.930   04 Jun 2027 01:32:23.016            73.086                Sumatra          2283.937
       333   04 Jun 2027 01:41:57.021   04 Jun 2027 01:42:16.679            19.658                Sumatra           614.312
       334   04 Jun 2027 02:06:24.340   04 Jun 2027 02:06:34.335             9.995            RioGallegos           312.344
       335   04 Jun 2027 02:09:45.785   04 Jun 2027 02:10:14.718            28.933            RioGallegos           904.156
       336   04 Jun 2027 02:12:41.281   04 Jun 2027 02:12:47.401             6.120            RioGallegos           191.250
       337   04 Jun 2027 02:15:26.291   04 Jun 2027 02:16:11.457            45.166            RioGallegos          1411.438
       338   04 Jun 2027 02:46:49.360   04 Jun 2027 02:47:20.974            31.614                Anadyr2           987.938
       339   04 Jun 2027 02:48:51.739   04 Jun 2027 02:50:01.521            69.782                Norilsk          2180.687
       340   04 Jun 2027 02:51:22.979   04 Jun 2027 02:51:49.623            26.644              Murmansk1           832.625
       341   04 Jun 2027 02:51:49.623   04 Jun 2027 02:52:11.429            21.806              Murmansk2           681.437
       342   04 Jun 2027 02:52:38.086   04 Jun 2027 02:52:57.582            19.496                Novosib           609.250
       343   04 Jun 2027 02:53:04.274   04 Jun 2027 02:56:10.172           185.898                Irkutsk          5809.313
       344   04 Jun 2027 03:42:46.976   04 Jun 2027 03:43:13.738            26.762            RioGallegos           836.313
       345   04 Jun 2027 04:35:15.775   04 Jun 2027 04:37:33.868           138.093                 Moscow          4315.406
       346   04 Jun 2027 04:37:35.309   04 Jun 2027 04:38:09.280            33.971                Novosib          1061.594
       347   04 Jun 2027 04:38:19.887   04 Jun 2027 04:38:30.260            10.373              Murmansk1           324.156
       348   04 Jun 2027 04:56:22.688   04 Jun 2027 04:58:24.541           121.853               CapeTown          3807.906
       349   04 Jun 2027 06:10:34.841   04 Jun 2027 06:11:26.352            51.511              Murmansk2          1609.719
       350   04 Jun 2027 06:11:26.352   04 Jun 2027 06:11:36.116             9.764              Murmansk1           305.125
       351   04 Jun 2027 06:11:46.325   04 Jun 2027 06:12:33.370            47.045              Murmansk1          1470.156
       352   04 Jun 2027 06:12:40.826   04 Jun 2027 06:14:50.758           129.932                 Moscow          4060.375
       353   04 Jun 2027 06:34:48.579   04 Jun 2027 06:35:47.840            59.261               CapeTown          1851.906
       354   04 Jun 2027 07:33:05.465   04 Jun 2027 07:33:29.940            24.475               Magadan2           764.844
       355   04 Jun 2027 07:33:34.855   04 Jun 2027 07:34:06.840            31.985               Magadan2           999.531
       356   04 Jun 2027 07:34:12.417   04 Jun 2027 07:35:15.958            63.541               Magadan1          1985.656
       357   04 Jun 2027 07:35:21.411   04 Jun 2027 07:35:35.098            13.687                Anadyr2           427.719
       358   04 Jun 2027 07:35:35.098   04 Jun 2027 07:35:52.153            17.055                Anadyr1           532.969
       359   04 Jun 2027 07:37:37.242   04 Jun 2027 07:38:11.265            34.023                Anadyr1          1063.219
       360   04 Jun 2027 07:44:01.854   04 Jun 2027 07:45:00.811            58.957                 Moscow          1842.406
       361   04 Jun 2027 09:05:12.808   04 Jun 2027 09:05:27.013            14.205                Anadyr1           443.906
       362   04 Jun 2027 09:07:50.209   04 Jun 2027 09:08:10.218            20.009                Anadyr2           625.281
       363   04 Jun 2027 09:08:10.218   04 Jun 2027 09:09:24.559            74.341                Anadyr1          2323.156
       364   04 Jun 2027 09:10:13.041   04 Jun 2027 09:11:53.790           100.749                Anadyr1          3148.406
       365   04 Jun 2027 09:12:07.580   04 Jun 2027 09:13:54.518           106.938               Magadan2          3341.812
       366   04 Jun 2027 09:14:09.528   04 Jun 2027 09:15:12.600            63.072                Anadyr1          1971.000
       367   04 Jun 2027 10:44:34.681   04 Jun 2027 10:45:43.291            68.610                Novosib          2144.062
       368   04 Jun 2027 10:45:46.579   04 Jun 2027 10:50:30.847           284.268               Magadan2          8883.375
       369   04 Jun 2027 10:50:48.510   04 Jun 2027 10:50:58.544            10.034                Norilsk           313.562
       370   04 Jun 2027 10:51:05.776   04 Jun 2027 10:51:10.471             4.695              Murmansk2           146.719
       371   04 Jun 2027 10:51:24.217   04 Jun 2027 10:51:44.634            20.417                Novosib           638.031
       372   04 Jun 2027 11:25:44.582   04 Jun 2027 11:26:54.579            69.997            RioGallegos          2187.406
       373   04 Jun 2027 12:01:23.695   04 Jun 2027 12:02:36.276            72.581                Sumatra          2268.156
       374   04 Jun 2027 12:14:11.433   04 Jun 2027 12:16:13.825           122.392                Irkutsk          3824.750
       375   04 Jun 2027 12:17:27.065   04 Jun 2027 12:17:34.557             7.492                Irkutsk           234.125
       376   04 Jun 2027 12:19:02.781   04 Jun 2027 12:19:27.681            24.900                Norilsk           778.125
       377   04 Jun 2027 12:22:06.503   04 Jun 2027 12:22:24.451            17.948                Norilsk           560.875
       378   04 Jun 2027 12:23:53.109   04 Jun 2027 12:24:04.661            11.552              Murmansk2           361.000
       379   04 Jun 2027 12:24:12.329   04 Jun 2027 12:25:03.464            51.135              Murmansk2          1597.969
       380   04 Jun 2027 13:03:10.063   04 Jun 2027 13:04:11.899            61.836            RioGallegos          1932.375
       381   04 Jun 2027 13:06:42.093   04 Jun 2027 13:07:40.165            58.072            RioGallegos          1814.750
       382   04 Jun 2027 13:37:23.515   04 Jun 2027 13:41:00.498           216.983                Sumatra          6780.719
       383   04 Jun 2027 13:52:47.715   04 Jun 2027 13:55:00.867           133.152                Irkutsk          4161.000
       384   04 Jun 2027 15:22:29.661   04 Jun 2027 15:27:17.195           287.534                  Delhi          8985.437
       385   04 Jun 2027 15:30:58.042   04 Jun 2027 15:34:32.111           214.069                Novosib          6689.656
       386   04 Jun 2027 17:06:03.371   04 Jun 2027 17:06:59.099            55.728                 Moscow          1741.500
       387   04 Jun 2027 17:08:57.059   04 Jun 2027 17:09:13.003            15.944              Murmansk2           498.250
       388   04 Jun 2027 17:09:23.509   04 Jun 2027 17:09:38.858            15.349                 Moscow           479.656
       389   04 Jun 2027 17:10:24.914   04 Jun 2027 17:11:31.591            66.677              Murmansk2          2083.656
       390   04 Jun 2027 17:16:35.689   04 Jun 2027 17:18:22.621           106.932                Norilsk          3341.625
       391   04 Jun 2027 18:18:45.876   04 Jun 2027 18:19:41.391            55.515               CapeTown          1734.844
       392   04 Jun 2027 18:21:44.074   04 Jun 2027 18:22:27.913            43.839               CapeTown          1369.969
       393   04 Jun 2027 18:45:11.453   04 Jun 2027 18:49:04.866           233.413                 Moscow          7294.156
       394   04 Jun 2027 18:56:28.679   04 Jun 2027 18:57:13.432            44.753              Murmansk2          1398.531
       395   04 Jun 2027 19:03:51.435   04 Jun 2027 19:04:11.554            20.119                Anadyr1           628.719
       396   04 Jun 2027 19:04:36.011   04 Jun 2027 19:04:43.580             7.569                Anadyr1           236.531
       397   04 Jun 2027 19:55:28.905   04 Jun 2027 19:56:28.164            59.259               CapeTown          1851.844
       398   04 Jun 2027 19:58:14.107   04 Jun 2027 19:59:30.370            76.263               CapeTown          2383.219
       399   04 Jun 2027 20:04:12.934   04 Jun 2027 20:05:20.203            67.269               CapeTown          2102.156
       400   04 Jun 2027 20:28:13.515   04 Jun 2027 20:32:25.162           251.647              Murmansk2          7863.969
       401   04 Jun 2027 20:37:50.974   04 Jun 2027 20:37:55.019             4.045               Magadan2           126.406
       402   04 Jun 2027 20:38:13.031   04 Jun 2027 20:38:53.775            40.744               Magadan2          1273.250
       403   04 Jun 2027 22:11:08.064   04 Jun 2027 22:14:54.274           226.210                Anadyr2          7069.063
       404   04 Jun 2027 22:15:02.033   04 Jun 2027 22:16:48.435           106.402                Norilsk          3325.062
       405   04 Jun 2027 22:17:04.591   04 Jun 2027 22:19:09.084           124.493               Magadan2          3890.406
       406   04 Jun 2027 22:20:25.814   04 Jun 2027 22:20:53.925            28.111               Magadan2           878.469
       407   04 Jun 2027 22:24:46.804   04 Jun 2027 22:25:35.620            48.816               Magadan1          1525.500
       408   04 Jun 2027 23:05:49.852   04 Jun 2027 23:07:46.531           116.679            RioGallegos          3646.219
       409   04 Jun 2027 23:11:14.721   04 Jun 2027 23:12:11.221            56.500            RioGallegos          1765.625
       410   04 Jun 2027 23:46:49.442   04 Jun 2027 23:47:48.862            59.420                Anadyr1          1856.875
       411   04 Jun 2027 23:48:24.010   04 Jun 2027 23:48:31.023             7.013                Anadyr2           219.156
       412   04 Jun 2027 23:48:57.053   04 Jun 2027 23:50:35.889            98.836                Norilsk          3088.625
       413   04 Jun 2027 23:51:10.550   04 Jun 2027 23:52:06.468            55.918               Magadan2          1747.437
       414   04 Jun 2027 23:52:06.468   04 Jun 2027 23:52:38.027            31.559               Magadan1           986.219
       415   04 Jun 2027 23:53:17.040   04 Jun 2027 23:53:50.111            33.071                Irkutsk          1033.469
       416   04 Jun 2027 23:55:12.115   04 Jun 2027 23:56:21.970            69.855                Irkutsk          2182.969
       417   05 Jun 2027 00:07:12.995   05 Jun 2027 00:07:44.925            31.930                Sumatra           997.812
       418   05 Jun 2027 00:08:44.982   05 Jun 2027 00:10:29.489           104.507                Sumatra          3265.844
       419   05 Jun 2027 00:42:44.905   05 Jun 2027 00:42:53.766             8.861            RioGallegos           276.906
       420   05 Jun 2027 00:44:06.464   05 Jun 2027 00:44:38.816            32.352            RioGallegos          1011.000
       421   05 Jun 2027 01:21:43.888   05 Jun 2027 01:23:36.068           112.180                Anadyr1          3505.625
       422   05 Jun 2027 01:24:00.310   05 Jun 2027 01:24:14.638            14.328                Anadyr2           447.750
       423   05 Jun 2027 01:24:53.107   05 Jun 2027 01:26:40.240           107.133                Norilsk          3347.906
       424   05 Jun 2027 01:27:08.293   05 Jun 2027 01:27:17.059             8.766               Magadan1           273.938
       425   05 Jun 2027 01:27:17.833   05 Jun 2027 01:27:30.000            12.167               Magadan2           380.219
       426   05 Jun 2027 01:28:45.470   05 Jun 2027 01:30:39.170           113.700                Irkutsk          3553.125
       427   05 Jun 2027 01:31:09.503   05 Jun 2027 01:32:17.900            68.397                Novosib          2137.406
       428   05 Jun 2027 01:37:46.847   05 Jun 2027 01:38:21.912            35.065                Irkutsk          1095.781
       429   05 Jun 2027 01:43:39.672   05 Jun 2027 01:44:23.353            43.681                Sumatra          1365.031
       430   05 Jun 2027 01:46:28.257   05 Jun 2027 01:47:32.349            64.092                Sumatra          2002.875
       431   05 Jun 2027 01:48:42.227   05 Jun 2027 01:49:48.291            66.064                Sumatra          2064.500
       432   05 Jun 2027 02:25:01.518   05 Jun 2027 02:25:30.900            29.382            RioGallegos           918.187
       433   05 Jun 2027 02:55:24.434   05 Jun 2027 02:55:55.294            30.860                Anadyr1           964.375
       434   05 Jun 2027 03:07:18.247   05 Jun 2027 03:10:22.656           184.409              Murmansk2          5762.781
       435   05 Jun 2027 03:10:33.714   05 Jun 2027 03:10:50.298            16.584                Novosib           518.250
       436   05 Jun 2027 03:11:11.560   05 Jun 2027 03:11:56.490            44.930                 Moscow          1404.062
       437   05 Jun 2027 03:12:08.680   05 Jun 2027 03:16:27.463           258.783                  Delhi          8086.969
       438   05 Jun 2027 04:46:36.183   05 Jun 2027 04:47:51.624            75.441              Murmansk1          2357.531
       439   05 Jun 2027 04:47:52.856   05 Jun 2027 04:48:21.898            29.042                 Moscow           907.563
       440   05 Jun 2027 04:48:36.259   05 Jun 2027 04:50:13.031            96.772              Murmansk1          3024.125
       441   05 Jun 2027 04:50:48.604   05 Jun 2027 04:50:49.422             0.818                 Moscow            25.562
       442   05 Jun 2027 04:51:35.711   05 Jun 2027 04:53:07.399            91.688                 Moscow          2865.250
       443   05 Jun 2027 05:07:08.000   05 Jun 2027 05:07:57.278            49.278               CapeTown          1539.937
       444   05 Jun 2027 05:08:21.363   05 Jun 2027 05:08:51.104            29.741               CapeTown           929.406
       445   05 Jun 2027 06:21:22.730   05 Jun 2027 06:22:05.798            43.068                 Moscow          1345.875
       446   05 Jun 2027 06:22:09.730   05 Jun 2027 06:23:19.955            70.225              Murmansk2          2194.531
       447   05 Jun 2027 06:23:55.002   05 Jun 2027 06:24:05.460            10.458              Murmansk2           326.813
       448   05 Jun 2027 06:24:35.431   05 Jun 2027 06:25:02.758            27.327              Murmansk2           853.969
       449   05 Jun 2027 06:25:50.414   05 Jun 2027 06:26:17.183            26.769              Murmansk1           836.531
       450   05 Jun 2027 06:27:10.559   05 Jun 2027 06:27:14.331             3.772              Murmansk2           117.875
       451   05 Jun 2027 06:27:46.121   05 Jun 2027 06:27:56.106             9.985              Murmansk1           312.031
       452   05 Jun 2027 06:28:12.292   05 Jun 2027 06:28:46.032            33.740                 Moscow          1054.375
       453   05 Jun 2027 06:42:30.946   05 Jun 2027 06:43:56.819            85.873               CapeTown          2683.531
       454   05 Jun 2027 07:45:37.473   05 Jun 2027 07:45:50.541            13.068               Magadan2           408.375
       455   05 Jun 2027 07:45:55.175   05 Jun 2027 07:47:13.852            78.677                Anadyr2          2458.656
       456   05 Jun 2027 07:47:28.570   05 Jun 2027 07:47:59.164            30.594               Magadan1           956.062
       457   05 Jun 2027 07:48:32.346   05 Jun 2027 07:48:38.998             6.652               Magadan1           207.875
       458   05 Jun 2027 07:48:53.583   05 Jun 2027 07:49:36.753            43.170                Anadyr2          1349.063
       459   05 Jun 2027 07:50:14.162   05 Jun 2027 07:50:37.643            23.481                Anadyr2           733.781
       460   05 Jun 2027 09:18:33.388   05 Jun 2027 09:19:50.483            77.095                Anadyr2          2409.219
       461   05 Jun 2027 09:21:17.316   05 Jun 2027 09:23:39.268           141.952                Anadyr1          4436.000
       462   05 Jun 2027 09:24:16.574   05 Jun 2027 09:25:16.235            59.661               Magadan1          1864.406
       463   05 Jun 2027 09:25:34.066   05 Jun 2027 09:27:18.331           104.265                Anadyr2          3258.281
       464   05 Jun 2027 10:53:10.112   05 Jun 2027 10:55:01.104           110.992               Magadan2          3468.500
       465   05 Jun 2027 10:56:26.734   05 Jun 2027 10:57:55.958            89.224               Magadan1          2788.250
       466   05 Jun 2027 10:57:55.958   05 Jun 2027 10:58:37.518            41.560               Magadan2          1298.750
       467   05 Jun 2027 10:58:55.179   05 Jun 2027 10:58:56.818             1.639                Irkutsk            51.219
       468   05 Jun 2027 10:59:03.110   05 Jun 2027 11:02:37.540           214.430               Magadan2          6700.938
       469   05 Jun 2027 11:02:52.016   05 Jun 2027 11:02:58.302             6.286              Murmansk2           196.438
       470   05 Jun 2027 11:02:59.558   05 Jun 2027 11:03:11.595            12.037              Murmansk2           376.156
       471   05 Jun 2027 11:03:36.060   05 Jun 2027 11:04:00.438            24.378              Murmansk2           761.813
       472   05 Jun 2027 11:09:53.440   05 Jun 2027 11:09:56.173             2.733              Murmansk1            85.406
       473   05 Jun 2027 11:37:44.550   05 Jun 2027 11:38:52.271            67.721            RioGallegos          2116.281
       474   05 Jun 2027 12:13:04.160   05 Jun 2027 12:14:55.575           111.415                Sumatra          3481.719
       475   05 Jun 2027 12:26:18.582   05 Jun 2027 12:27:07.331            48.749                Irkutsk          1523.406
       476   05 Jun 2027 12:28:09.298   05 Jun 2027 12:28:14.659             5.361                Novosib           167.531
       477   05 Jun 2027 12:29:27.225   05 Jun 2027 12:30:27.426            60.201                Irkutsk          1881.281
       478   05 Jun 2027 12:31:04.878   05 Jun 2027 12:32:09.711            64.833                Norilsk          2026.031
       479   05 Jun 2027 12:32:26.615   05 Jun 2027 12:33:01.476            34.861                Norilsk          1089.406
       480   05 Jun 2027 13:15:44.162   05 Jun 2027 13:17:51.938           127.776            RioGallegos          3993.000
       481   05 Jun 2027 13:49:58.932   05 Jun 2027 13:51:47.146           108.214                Sumatra          3381.687
       482   05 Jun 2027 13:53:31.251   05 Jun 2027 13:54:52.917            81.666                Sumatra          2552.062
