uniorb/output/strategy_2/Drop/Drop_KinoSat_111603.txt

KinoSat_111603
-------------------------
    Access    *     Start Time (UTCG)     *     Stop Time (UTCG)  *   Duration (s)        *       Station  *  Data (Mbytes)
         1   01 Jun 2027 03:34:14.339   01 Jun 2027 03:34:21.621             7.282                Irkutsk           227.563
         2   01 Jun 2027 03:36:14.764   01 Jun 2027 03:36:33.256            18.492                Irkutsk           577.875
         3   01 Jun 2027 03:36:39.854   01 Jun 2027 03:36:46.775             6.921                Norilsk           216.281
         4   01 Jun 2027 03:37:11.808   01 Jun 2027 03:37:37.329            25.521              Murmansk2           797.531
         5   01 Jun 2027 03:38:31.916   01 Jun 2027 03:39:02.324            30.408              Murmansk1           950.250
         6   01 Jun 2027 03:39:27.647   01 Jun 2027 03:39:29.669             2.022                Novosib            63.188
         7   01 Jun 2027 03:39:36.291   01 Jun 2027 03:39:58.252            21.961                Norilsk           686.281
         8   01 Jun 2027 03:39:58.455   01 Jun 2027 03:40:28.095            29.640                 Moscow           926.250
         9   01 Jun 2027 03:40:31.843   01 Jun 2027 03:41:00.033            28.190              Murmansk2           880.937
        10   01 Jun 2027 03:41:02.103   01 Jun 2027 03:41:11.518             9.415                Novosib           294.219
        11   01 Jun 2027 03:45:38.451   01 Jun 2027 03:45:43.545             5.094                  Delhi           159.188
        12   01 Jun 2027 04:53:56.209   01 Jun 2027 04:54:39.202            42.993                Anadyr2          1343.531
        13   01 Jun 2027 04:54:39.202   01 Jun 2027 04:55:09.159            29.957                Anadyr1           936.156
        14   01 Jun 2027 05:12:24.780   01 Jun 2027 05:13:39.798            75.018                Novosib          2344.313
        15   01 Jun 2027 05:15:33.982   01 Jun 2027 05:16:52.535            78.553              Murmansk2          2454.781
        16   01 Jun 2027 06:36:27.005   01 Jun 2027 06:38:50.141           143.136               Magadan2          4473.000
        17   01 Jun 2027 06:40:15.932   01 Jun 2027 06:40:35.111            19.179                Anadyr2           599.344
        18   01 Jun 2027 08:14:29.263   01 Jun 2027 08:17:35.685           186.422                Anadyr1          5825.687
        19   01 Jun 2027 09:47:27.708   01 Jun 2027 09:48:13.583            45.875               Magadan1          1433.594
        20   01 Jun 2027 09:49:29.644   01 Jun 2027 09:49:54.681            25.037                Novosib           782.406
        21   01 Jun 2027 09:50:00.886   01 Jun 2027 09:50:01.406             0.520               Magadan2            16.250
        22   01 Jun 2027 09:50:35.220   01 Jun 2027 09:53:33.005           177.785               Magadan1          5555.781
        23   01 Jun 2027 11:24:40.825   01 Jun 2027 11:26:30.009           109.184                Irkutsk          3412.000
        24   01 Jun 2027 11:26:41.650   01 Jun 2027 11:27:34.432            52.782              Murmansk2          1649.437
        25   01 Jun 2027 11:27:38.636   01 Jun 2027 11:28:48.330            69.694                Norilsk          2177.937
        26   01 Jun 2027 11:28:51.278   01 Jun 2027 11:31:11.089           139.811                Novosib          4369.094
        27   01 Jun 2027 12:05:35.174   01 Jun 2027 12:06:01.153            25.979            RioGallegos           811.844
        28   01 Jun 2027 12:07:15.080   01 Jun 2027 12:08:17.419            62.339            RioGallegos          1948.094
        29   01 Jun 2027 12:10:31.336   01 Jun 2027 12:10:36.289             4.953            RioGallegos           154.781
        30   01 Jun 2027 12:39:49.927   01 Jun 2027 12:41:16.724            86.797                Sumatra          2712.406
        31   01 Jun 2027 12:44:16.727   01 Jun 2027 12:44:55.627            38.900                Sumatra          1215.625
        32   01 Jun 2027 12:48:12.692   01 Jun 2027 12:48:35.916            23.224                  Delhi           725.750
        33   01 Jun 2027 12:54:25.582   01 Jun 2027 12:56:26.612           121.030                Novosib          3782.188
        34   01 Jun 2027 12:56:37.811   01 Jun 2027 12:58:19.697           101.886                Irkutsk          3183.937
        35   01 Jun 2027 12:59:59.515   01 Jun 2027 13:00:03.787             4.272                Irkutsk           133.500
        36   01 Jun 2027 13:02:47.657   01 Jun 2027 13:03:05.428            17.771                Norilsk           555.344
        37   01 Jun 2027 14:24:46.920   01 Jun 2027 14:29:52.794           305.874                  Delhi          9558.563
        38   01 Jun 2027 14:33:11.953   01 Jun 2027 14:38:04.002           292.049                Novosib          9126.531
        39   01 Jun 2027 16:09:54.935   01 Jun 2027 16:11:50.668           115.733                 Moscow          3616.656
        40   01 Jun 2027 16:13:19.367   01 Jun 2027 16:14:19.035            59.668              Murmansk1          1864.625
        41   01 Jun 2027 16:18:23.590   01 Jun 2027 16:21:31.787           188.197                Norilsk          5881.156
        42   01 Jun 2027 17:22:11.087   01 Jun 2027 17:22:42.070            30.983               CapeTown           968.219
        43   01 Jun 2027 17:47:20.162   01 Jun 2027 17:52:02.933           282.771                 Moscow          8836.594
        44   01 Jun 2027 18:57:58.608   01 Jun 2027 18:59:21.560            82.952               CapeTown          2592.250
        45   01 Jun 2027 19:01:21.019   01 Jun 2027 19:02:28.017            66.998               CapeTown          2093.688
        46   01 Jun 2027 19:02:29.385   01 Jun 2027 19:02:42.071            12.686               CapeTown           396.438
        47   01 Jun 2027 19:30:18.908   01 Jun 2027 19:35:23.727           304.819              Murmansk1          9525.594
        48   01 Jun 2027 19:40:36.186   01 Jun 2027 19:41:38.053            61.867               Magadan2          1933.344
        49   01 Jun 2027 19:42:48.851   01 Jun 2027 19:43:11.313            22.462               Magadan2           701.938
        50   01 Jun 2027 21:13:50.414   01 Jun 2027 21:17:33.676           223.262                Anadyr2          6976.938
        51   01 Jun 2027 21:17:40.247   01 Jun 2027 21:19:01.172            80.925                Anadyr1          2528.906
        52   01 Jun 2027 21:19:09.124   01 Jun 2027 21:22:13.862           184.738               Magadan1          5773.062
        53   01 Jun 2027 22:08:44.775   01 Jun 2027 22:11:15.386           150.611            RioGallegos          4706.594
        54   01 Jun 2027 22:17:31.767   01 Jun 2027 22:17:55.790            24.023            RioGallegos           750.719
        55   01 Jun 2027 22:49:33.668   01 Jun 2027 22:51:08.347            94.679                Anadyr2          2958.719
        56   01 Jun 2027 22:51:33.734   01 Jun 2027 22:51:44.834            11.100                Anadyr2           346.875
        57   01 Jun 2027 22:51:44.917   01 Jun 2027 22:53:18.158            93.241                Norilsk          2913.781
        58   01 Jun 2027 22:53:30.529   01 Jun 2027 22:55:14.715           104.186               Magadan2          3255.813
        59   01 Jun 2027 22:55:52.647   01 Jun 2027 22:56:10.323            17.676               Magadan2           552.375
        60   01 Jun 2027 22:56:18.897   01 Jun 2027 22:57:00.341            41.444                Irkutsk          1295.125
        61   01 Jun 2027 22:58:20.680   01 Jun 2027 22:59:31.307            70.627                Irkutsk          2207.094
        62   01 Jun 2027 23:10:10.448   01 Jun 2027 23:11:43.624            93.176                Sumatra          2911.750
        63   01 Jun 2027 23:13:54.069   01 Jun 2027 23:15:52.816           118.747                Sumatra          3710.844
        64   01 Jun 2027 23:54:59.234   01 Jun 2027 23:55:21.633            22.399            RioGallegos           699.969
        65   02 Jun 2027 00:24:33.233   02 Jun 2027 00:25:52.270            79.037                Anadyr1          2469.906
        66   02 Jun 2027 00:26:04.361   02 Jun 2027 00:26:30.663            26.302                Anadyr2           821.938
        67   02 Jun 2027 00:26:51.666   02 Jun 2027 00:27:06.714            15.048                Anadyr2           470.250
        68   02 Jun 2027 00:27:06.714   02 Jun 2027 00:27:11.447             4.733                Anadyr1           147.906
        69   02 Jun 2027 00:27:35.226   02 Jun 2027 00:28:36.648            61.422                Norilsk          1919.438
        70   02 Jun 2027 00:28:40.169   02 Jun 2027 00:29:18.598            38.429                Norilsk          1200.906
        71   02 Jun 2027 00:30:10.990   02 Jun 2027 00:31:08.327            57.337               Magadan2          1791.781
        72   02 Jun 2027 00:31:27.440   02 Jun 2027 00:33:27.845           120.405                Irkutsk          3762.656
        73   02 Jun 2027 00:38:28.763   02 Jun 2027 00:38:59.211            30.448                Novosib           951.500
        74   02 Jun 2027 00:40:07.158   02 Jun 2027 00:40:53.432            46.274                  Delhi          1446.063
        75   02 Jun 2027 00:43:38.231   02 Jun 2027 00:43:47.343             9.112                  Delhi           284.750
        76   02 Jun 2027 00:43:57.768   02 Jun 2027 00:44:18.663            20.895                  Delhi           652.969
        77   02 Jun 2027 00:48:43.743   02 Jun 2027 00:49:20.444            36.701                  Delhi          1146.906
        78   02 Jun 2027 00:50:01.805   02 Jun 2027 00:50:06.177             4.372                  Delhi           136.625
        79   02 Jun 2027 00:56:02.746   02 Jun 2027 00:56:49.038            46.292                Sumatra          1446.625
        80   02 Jun 2027 01:20:56.181   02 Jun 2027 01:21:20.402            24.221            RioGallegos           756.906
        81   02 Jun 2027 01:22:32.305   02 Jun 2027 01:23:19.904            47.599            RioGallegos          1487.469
        82   02 Jun 2027 01:27:57.764   02 Jun 2027 01:27:59.027             1.263            RioGallegos            39.469
        83   02 Jun 2027 01:29:26.170   02 Jun 2027 01:29:38.031            11.861            RioGallegos           370.656
        84   02 Jun 2027 01:29:56.667   02 Jun 2027 01:30:30.845            34.178            RioGallegos          1068.063
        85   02 Jun 2027 01:58:19.070   02 Jun 2027 01:58:44.202            25.132                Anadyr2           785.375
        86   02 Jun 2027 01:58:55.292   02 Jun 2027 01:58:59.327             4.035                Anadyr2           126.094
        87   02 Jun 2027 01:59:08.658   02 Jun 2027 01:59:45.541            36.883                Anadyr1          1152.594
        88   02 Jun 2027 02:02:24.308   02 Jun 2027 02:02:36.622            12.314                Anadyr1           384.812
        89   02 Jun 2027 02:03:35.867   02 Jun 2027 02:04:58.172            82.305                Norilsk          2572.031
        90   02 Jun 2027 02:05:55.311   02 Jun 2027 02:06:19.074            23.763               Magadan1           742.594
        91   02 Jun 2027 02:06:46.631   02 Jun 2027 02:06:59.933            13.302              Murmansk1           415.688
        92   02 Jun 2027 02:06:59.933   02 Jun 2027 02:07:27.991            28.058              Murmansk2           876.813
        93   02 Jun 2027 02:07:31.799   02 Jun 2027 02:09:14.092           102.293                Novosib          3196.656
        94   02 Jun 2027 02:13:43.034   02 Jun 2027 02:14:31.828            48.794                Irkutsk          1524.813
        95   02 Jun 2027 02:18:52.701   02 Jun 2027 02:19:02.894            10.193                Novosib           318.531
        96   02 Jun 2027 02:20:31.809   02 Jun 2027 02:20:52.336            20.527                  Delhi           641.469
        97   02 Jun 2027 02:22:56.260   02 Jun 2027 02:23:22.576            26.316                  Delhi           822.375
        98   02 Jun 2027 02:24:49.724   02 Jun 2027 02:27:11.882           142.158                  Delhi          4442.437
        99   02 Jun 2027 02:57:45.393   02 Jun 2027 02:58:17.374            31.981            RioGallegos           999.406
       100   02 Jun 2027 03:00:58.992   02 Jun 2027 03:01:14.532            15.540            RioGallegos           485.625
       101   02 Jun 2027 03:48:22.861   02 Jun 2027 03:49:21.752            58.891                Novosib          1840.344
       102   02 Jun 2027 03:50:22.216   02 Jun 2027 03:51:03.851            41.635              Murmansk1          1301.094
       103   02 Jun 2027 03:51:03.851   02 Jun 2027 03:51:18.780            14.929              Murmansk2           466.531
       104   02 Jun 2027 03:51:37.841   02 Jun 2027 03:52:09.001            31.160                 Moscow           973.750
       105   02 Jun 2027 03:52:27.302   02 Jun 2027 03:53:20.661            53.359              Murmansk1          1667.469
       106   02 Jun 2027 04:10:07.784   02 Jun 2027 04:10:31.784            24.000               CapeTown           750.000
       107   02 Jun 2027 05:24:40.862   02 Jun 2027 05:24:45.053             4.191                Novosib           130.969
       108   02 Jun 2027 05:25:16.025   02 Jun 2027 05:25:29.432            13.407                Norilsk           418.969
       109   02 Jun 2027 05:26:06.904   02 Jun 2027 05:26:17.336            10.432              Murmansk1           326.000
       110   02 Jun 2027 05:26:53.149   02 Jun 2027 05:27:17.534            24.385              Murmansk1           762.031
       111   02 Jun 2027 05:27:34.830   02 Jun 2027 05:28:33.570            58.740                 Moscow          1835.625
       112   02 Jun 2027 05:28:56.217   02 Jun 2027 05:30:26.042            89.825              Murmansk2          2807.031
       113   02 Jun 2027 05:30:26.042   02 Jun 2027 05:30:36.775            10.733              Murmansk1           335.406
       114   02 Jun 2027 05:31:34.611   02 Jun 2027 05:32:01.124            26.513                 Moscow           828.531
       115   02 Jun 2027 05:33:34.727   02 Jun 2027 05:33:39.593             4.866                 Moscow           152.063
       116   02 Jun 2027 06:48:34.632   02 Jun 2027 06:51:29.126           174.494                Anadyr1          5452.937
       117   02 Jun 2027 06:51:42.515   02 Jun 2027 06:53:44.194           121.679               Magadan1          3802.469
       118   02 Jun 2027 06:53:45.001   02 Jun 2027 06:54:04.954            19.953               Magadan1           623.531
       119   02 Jun 2027 08:25:33.998   02 Jun 2027 08:26:14.356            40.358                Irkutsk          1261.188
       120   02 Jun 2027 08:26:18.803   02 Jun 2027 08:26:53.924            35.121               Magadan1          1097.531
       121   02 Jun 2027 08:27:05.856   02 Jun 2027 08:27:53.412            47.556                Norilsk          1486.125
       122   02 Jun 2027 08:28:31.978   02 Jun 2027 08:30:03.916            91.938                Anadyr2          2873.063
       123   02 Jun 2027 08:35:40.477   02 Jun 2027 08:35:55.016            14.539                 Moscow           454.344
       124   02 Jun 2027 08:36:59.817   02 Jun 2027 08:37:05.125             5.308                 Moscow           165.875
       125   02 Jun 2027 09:59:15.411   02 Jun 2027 09:59:31.656            16.245                Norilsk           507.656
       126   02 Jun 2027 10:00:15.071   02 Jun 2027 10:04:07.760           232.689               Magadan2          7271.531
       127   02 Jun 2027 10:04:07.760   02 Jun 2027 10:05:25.976            78.216               Magadan1          2444.250
       128   02 Jun 2027 10:41:32.569   02 Jun 2027 10:42:13.907            41.338            RioGallegos          1291.812
       129   02 Jun 2027 11:15:59.176   02 Jun 2027 11:17:20.640            81.464                Sumatra          2545.750
       130   02 Jun 2027 11:32:21.233   02 Jun 2027 11:32:21.976             0.743                  Delhi            23.219
       131   02 Jun 2027 11:35:43.687   02 Jun 2027 11:35:48.929             5.242                Irkutsk           163.813
       132   02 Jun 2027 11:36:22.920   02 Jun 2027 11:38:01.253            98.333                Irkutsk          3072.906
       133   02 Jun 2027 11:38:17.503   02 Jun 2027 11:38:50.608            33.105                Norilsk          1034.531
       134   02 Jun 2027 11:39:00.607   02 Jun 2027 11:39:28.054            27.447              Murmansk1           857.719
       135   02 Jun 2027 11:39:37.713   02 Jun 2027 11:39:43.281             5.568                Norilsk           174.000
       136   02 Jun 2027 11:39:44.877   02 Jun 2027 11:39:52.242             7.365              Murmansk2           230.156
       137   02 Jun 2027 11:39:52.242   02 Jun 2027 11:40:49.237            56.995              Murmansk1          1781.094
       138   02 Jun 2027 11:40:53.955   02 Jun 2027 11:41:04.640            10.685                Norilsk           333.906
       139   02 Jun 2027 11:41:13.561   02 Jun 2027 11:41:26.794            13.233                Novosib           413.531
       140   02 Jun 2027 11:41:33.397   02 Jun 2027 11:42:39.461            66.064                Norilsk          2064.500
       141   02 Jun 2027 12:18:05.216   02 Jun 2027 12:18:43.681            38.465            RioGallegos          1202.031
       142   02 Jun 2027 12:21:36.370   02 Jun 2027 12:22:14.187            37.817            RioGallegos          1181.781
       143   02 Jun 2027 12:52:18.122   02 Jun 2027 12:53:19.302            61.180                Sumatra          1911.875
       144   02 Jun 2027 12:55:51.442   02 Jun 2027 12:56:27.546            36.104                Sumatra          1128.250
       145   02 Jun 2027 13:06:34.857   02 Jun 2027 13:10:27.925           233.068                Novosib          7283.375
       146   02 Jun 2027 13:18:57.502   02 Jun 2027 13:19:26.237            28.735                Norilsk           897.969
       147   02 Jun 2027 14:37:30.481   02 Jun 2027 14:39:09.836            99.355                  Delhi          3104.844
       148   02 Jun 2027 14:39:31.961   02 Jun 2027 14:40:34.609            62.648                  Delhi          1957.750
       149   02 Jun 2027 14:44:38.966   02 Jun 2027 14:44:55.756            16.790                 Moscow           524.687
       150   02 Jun 2027 14:45:09.824   02 Jun 2027 14:45:22.786            12.962                 Moscow           405.062
       151   02 Jun 2027 14:46:00.704   02 Jun 2027 14:47:01.469            60.765                Novosib          1898.906
       152   02 Jun 2027 14:47:27.513   02 Jun 2027 14:47:57.235            29.722              Murmansk2           928.812
       153   02 Jun 2027 14:49:20.042   02 Jun 2027 14:49:55.182            35.140                Norilsk          1098.125
       154   02 Jun 2027 14:50:10.175   02 Jun 2027 14:50:55.087            44.912                Norilsk          1403.500
       155   02 Jun 2027 14:52:44.058   02 Jun 2027 14:54:24.909           100.851                Norilsk          3151.594
       156   02 Jun 2027 16:01:47.623   02 Jun 2027 16:02:52.847            65.224               CapeTown          2038.250
       157   02 Jun 2027 16:03:49.693   02 Jun 2027 16:05:00.085            70.392               CapeTown          2199.750
       158   02 Jun 2027 16:20:40.160   02 Jun 2027 16:21:20.105            39.945                 Moscow          1248.281
       159   02 Jun 2027 16:23:44.354   02 Jun 2027 16:24:07.359            23.005              Murmansk2           718.906
       160   02 Jun 2027 16:24:07.359   02 Jun 2027 16:24:37.544            30.185              Murmansk1           943.281
       161   02 Jun 2027 16:25:39.554   02 Jun 2027 16:26:17.976            38.422              Murmansk1          1200.687
       162   02 Jun 2027 16:32:07.051   02 Jun 2027 16:32:18.233            11.182              Murmansk1           349.437
       163   02 Jun 2027 16:34:26.581   02 Jun 2027 16:35:50.954            84.373              Murmansk2          2636.656
       164   02 Jun 2027 16:39:06.132   02 Jun 2027 16:40:08.967            62.835                Anadyr1          1963.594
       165   02 Jun 2027 16:45:34.296   02 Jun 2027 16:45:35.050             0.754                Anadyr2            23.563
       166   02 Jun 2027 17:33:27.896   02 Jun 2027 17:35:28.712           120.816               CapeTown          3775.500
       167   02 Jun 2027 17:43:32.641   02 Jun 2027 17:43:42.613             9.972               CapeTown           311.625
       168   02 Jun 2027 17:45:38.077   02 Jun 2027 17:46:08.199            30.122               CapeTown           941.312
       169   02 Jun 2027 18:00:17.993   02 Jun 2027 18:04:03.725           225.732                 Moscow          7054.125
       170   02 Jun 2027 18:15:30.220   02 Jun 2027 18:15:39.320             9.100                Anadyr1           284.375
       171   02 Jun 2027 18:15:44.691   02 Jun 2027 18:15:56.647            11.956                Anadyr1           373.625
       172   02 Jun 2027 18:16:12.531   02 Jun 2027 18:16:20.894             8.363                Anadyr1           261.344
       173   02 Jun 2027 18:22:16.859   02 Jun 2027 18:22:26.689             9.830                Anadyr1           307.188
       174   02 Jun 2027 18:22:47.563   02 Jun 2027 18:23:17.413            29.850                Anadyr1           932.812
       175   02 Jun 2027 18:25:04.791   02 Jun 2027 18:25:08.287             3.496                Anadyr2           109.250
       176   02 Jun 2027 19:10:20.514   02 Jun 2027 19:11:28.183            67.669               CapeTown          2114.656
       177   02 Jun 2027 19:12:37.249   02 Jun 2027 19:13:15.379            38.130               CapeTown          1191.563
       178   02 Jun 2027 19:43:23.941   02 Jun 2027 19:47:02.298           218.357              Murmansk1          6823.656
       179   02 Jun 2027 19:52:31.034   02 Jun 2027 19:54:24.350           113.316               Magadan2          3541.125
       180   02 Jun 2027 19:55:36.860   02 Jun 2027 19:56:06.198            29.338               Magadan1           916.813
       181   02 Jun 2027 19:57:22.430   02 Jun 2027 19:57:50.208            27.778               Magadan1           868.063
       182   02 Jun 2027 19:58:46.686   02 Jun 2027 19:58:50.314             3.628               Magadan1           113.375
       183   02 Jun 2027 20:00:58.342   02 Jun 2027 20:01:01.693             3.351               Magadan2           104.719
       184   02 Jun 2027 21:25:51.602   02 Jun 2027 21:29:34.193           222.591                Anadyr1          6955.969
       185   02 Jun 2027 21:29:35.300   02 Jun 2027 21:30:59.040            83.740               Magadan2          2616.875
       186   02 Jun 2027 21:30:59.040   02 Jun 2027 21:31:56.361            57.321               Magadan1          1791.281
       187   02 Jun 2027 21:32:30.752   02 Jun 2027 21:33:26.779            56.027               Magadan1          1750.844
       188   02 Jun 2027 21:34:36.767   02 Jun 2027 21:35:05.494            28.727               Magadan1           897.719
       189   02 Jun 2027 21:38:20.185   02 Jun 2027 21:38:37.925            17.740               Magadan1           554.375
       190   02 Jun 2027 21:38:43.044   02 Jun 2027 21:38:44.275             1.231               Magadan2            38.469
       191   02 Jun 2027 21:40:01.271   02 Jun 2027 21:40:04.086             2.815               Magadan2            87.969
       192   02 Jun 2027 21:40:16.339   02 Jun 2027 21:41:03.184            46.845               Magadan2          1463.906
       193   02 Jun 2027 22:20:28.309   02 Jun 2027 22:22:17.744           109.435            RioGallegos          3419.844
       194   02 Jun 2027 22:22:32.389   02 Jun 2027 22:22:47.155            14.766            RioGallegos           461.438
       195   02 Jun 2027 22:28:48.884   02 Jun 2027 22:28:57.423             8.539            RioGallegos           266.844
       196   02 Jun 2027 22:29:12.195   02 Jun 2027 22:29:52.657            40.462            RioGallegos          1264.438
       197   02 Jun 2027 23:01:31.429   02 Jun 2027 23:02:42.965            71.536                Anadyr2          2235.500
       198   02 Jun 2027 23:02:50.033   02 Jun 2027 23:03:36.505            46.472                Anadyr2          1452.250
       199   02 Jun 2027 23:03:41.087   02 Jun 2027 23:05:06.416            85.329                Norilsk          2666.531
       200   02 Jun 2027 23:05:32.774   02 Jun 2027 23:05:44.246            11.472               Magadan1           358.500
       201   02 Jun 2027 23:07:57.954   02 Jun 2027 23:08:52.455            54.501                Irkutsk          1703.156
       202   02 Jun 2027 23:10:25.971   02 Jun 2027 23:11:27.387            61.416                Irkutsk          1919.250
       203   02 Jun 2027 23:16:24.353   02 Jun 2027 23:17:27.195            62.842                Irkutsk          1963.812
       204   02 Jun 2027 23:23:14.229   02 Jun 2027 23:23:30.322            16.093                Sumatra           502.906
       205   02 Jun 2027 23:25:05.627   02 Jun 2027 23:25:38.755            33.128                Sumatra          1035.250
       206   02 Jun 2027 23:28:15.826   02 Jun 2027 23:28:17.547             1.721                Sumatra            53.781
       207   02 Jun 2027 23:29:18.477   02 Jun 2027 23:31:12.801           114.324                Sumatra          3572.625
       208   03 Jun 2027 00:36:59.418   03 Jun 2027 00:37:40.428            41.010                Anadyr1          1281.562
       209   03 Jun 2027 00:38:32.001   03 Jun 2027 00:39:05.728            33.727                Anadyr1          1053.969
       210   03 Jun 2027 00:39:37.482   03 Jun 2027 00:41:19.011           101.529                Norilsk          3172.781
       211   03 Jun 2027 00:43:11.186   03 Jun 2027 00:43:56.580            45.394               Magadan1          1418.562
       212   03 Jun 2027 00:43:59.344   03 Jun 2027 00:44:11.488            12.144                Irkutsk           379.500
       213   03 Jun 2027 00:44:33.046   03 Jun 2027 00:45:48.312            75.266                Novosib          2352.062
       214   03 Jun 2027 00:49:10.508   03 Jun 2027 00:49:18.755             8.247                Irkutsk           257.719
       215   03 Jun 2027 00:50:06.722   03 Jun 2027 00:50:40.647            33.925                Novosib          1060.156
       216   03 Jun 2027 00:51:41.498   03 Jun 2027 00:52:28.120            46.622                  Delhi          1456.937
       217   03 Jun 2027 00:55:01.424   03 Jun 2027 00:55:28.702            27.278                Novosib           852.438
       218   03 Jun 2027 00:57:23.467   03 Jun 2027 00:58:17.540            54.073                  Delhi          1689.781
       219   03 Jun 2027 01:05:41.454   03 Jun 2027 01:08:11.382           149.928                Sumatra          4685.250
       220   03 Jun 2027 02:10:53.756   03 Jun 2027 02:11:10.021            16.265                Anadyr1           508.281
       221   03 Jun 2027 02:12:01.470   03 Jun 2027 02:12:26.332            24.862                Anadyr2           776.937
       222   03 Jun 2027 02:15:20.553   03 Jun 2027 02:15:47.854            27.301                Anadyr1           853.156
       223   03 Jun 2027 02:15:57.631   03 Jun 2027 02:16:18.723            21.092               Magadan1           659.125
       224   03 Jun 2027 02:16:19.748   03 Jun 2027 02:16:52.542            32.794                Norilsk          1024.812
       225   03 Jun 2027 02:16:59.494   03 Jun 2027 02:17:13.343            13.849                Norilsk           432.781
       226   03 Jun 2027 02:18:01.492   03 Jun 2027 02:19:28.877            87.385              Murmansk1          2730.781
       227   03 Jun 2027 02:19:50.061   03 Jun 2027 02:21:19.434            89.373                Novosib          2792.906
       228   03 Jun 2027 02:27:29.313   03 Jun 2027 02:28:48.132            78.819                  Delhi          2463.094
       229   03 Jun 2027 04:00:54.129   03 Jun 2027 04:01:00.711             6.582                Norilsk           205.688
       230   03 Jun 2027 04:01:34.625   03 Jun 2027 04:02:11.744            37.119              Murmansk1          1159.969
       231   03 Jun 2027 04:02:35.407   03 Jun 2027 04:03:05.237            29.830              Murmansk2           932.188
       232   03 Jun 2027 04:03:09.243   03 Jun 2027 04:03:20.385            11.142                Norilsk           348.187
       233   03 Jun 2027 04:03:46.053   03 Jun 2027 04:05:39.117           113.064              Murmansk2          3533.250
       234   03 Jun 2027 04:05:50.983   03 Jun 2027 04:06:42.327            51.344                 Moscow          1604.500
       235   03 Jun 2027 05:37:11.960   03 Jun 2027 05:37:33.412            21.452                Norilsk           670.375
       236   03 Jun 2027 05:37:40.725   03 Jun 2027 05:37:43.034             2.309                 Moscow            72.156
       237   03 Jun 2027 05:38:00.071   03 Jun 2027 05:38:09.421             9.350              Murmansk2           292.187
       238   03 Jun 2027 05:38:09.421   03 Jun 2027 05:38:48.073            38.652              Murmansk1          1207.875
       239   03 Jun 2027 05:39:16.863   03 Jun 2027 05:39:23.867             7.004                 Moscow           218.875
       240   03 Jun 2027 05:39:53.789   03 Jun 2027 05:40:06.933            13.144              Murmansk2           410.750
       241   03 Jun 2027 05:40:06.933   03 Jun 2027 05:40:28.655            21.722              Murmansk1           678.812
       242   03 Jun 2027 05:41:12.151   03 Jun 2027 05:42:02.240            50.089                 Moscow          1565.281
       243   03 Jun 2027 05:42:34.411   03 Jun 2027 05:43:04.129            29.718                 Moscow           928.688
       244   03 Jun 2027 05:57:21.632   03 Jun 2027 05:58:50.713            89.081               CapeTown          2783.781
       245   03 Jun 2027 07:00:08.482   03 Jun 2027 07:01:58.911           110.429               Magadan1          3450.906
       246   03 Jun 2027 07:02:18.771   03 Jun 2027 07:03:10.593            51.822               Magadan2          1619.438
       247   03 Jun 2027 07:03:41.895   03 Jun 2027 07:04:14.946            33.051                Anadyr1          1032.844
       248   03 Jun 2027 07:48:21.101   03 Jun 2027 07:49:00.897            39.796            RioGallegos          1243.625
       249   03 Jun 2027 08:35:53.946   03 Jun 2027 08:37:42.778           108.832                Anadyr1          3401.000
       250   03 Jun 2027 08:37:50.695   03 Jun 2027 08:38:26.312            35.617                Anadyr1          1113.031
       251   03 Jun 2027 08:38:58.450   03 Jun 2027 08:41:59.095           180.645                Anadyr1          5645.156
       252   03 Jun 2027 10:10:42.402   03 Jun 2027 10:11:20.052            37.650                Irkutsk          1176.562
       253   03 Jun 2027 10:11:41.450   03 Jun 2027 10:12:12.814            31.364                Novosib           980.125
       254   03 Jun 2027 10:12:16.151   03 Jun 2027 10:13:25.611            69.460               Magadan2          2170.625
       255   03 Jun 2027 10:13:27.914   03 Jun 2027 10:13:34.765             6.851               Magadan2           214.094
       256   03 Jun 2027 10:13:38.664   03 Jun 2027 10:13:47.655             8.991                Irkutsk           280.969
       257   03 Jun 2027 10:13:50.136   03 Jun 2027 10:13:56.427             6.291                Norilsk           196.594
       258   03 Jun 2027 10:14:14.164   03 Jun 2027 10:14:53.154            38.990                Norilsk          1218.437
       259   03 Jun 2027 10:15:08.683   03 Jun 2027 10:15:09.202             0.519                Irkutsk            16.219
       260   03 Jun 2027 10:15:12.216   03 Jun 2027 10:15:46.300            34.084                Irkutsk          1065.125
       261   03 Jun 2027 10:16:00.472   03 Jun 2027 10:16:05.491             5.019                Irkutsk           156.844
       262   03 Jun 2027 10:16:07.393   03 Jun 2027 10:17:16.481            69.088               Magadan2          2159.000
       263   03 Jun 2027 10:17:24.670   03 Jun 2027 10:17:35.802            11.132                Norilsk           347.875
       264   03 Jun 2027 10:17:36.350   03 Jun 2027 10:18:08.492            32.142              Murmansk2          1004.437
       265   03 Jun 2027 10:23:40.303   03 Jun 2027 10:23:49.502             9.199              Murmansk2           287.469
       266   03 Jun 2027 10:52:28.631   03 Jun 2027 10:53:30.013            61.382            RioGallegos          1918.187
       267   03 Jun 2027 10:59:08.810   03 Jun 2027 10:59:27.219            18.409            RioGallegos           575.281
       268   03 Jun 2027 11:27:42.194   03 Jun 2027 11:28:20.174            37.980                Sumatra          1186.875
       269   03 Jun 2027 11:33:49.683   03 Jun 2027 11:34:03.923            14.240                Sumatra           445.000
       270   03 Jun 2027 11:47:16.290   03 Jun 2027 11:47:22.128             5.838                Norilsk           182.438
       271   03 Jun 2027 11:47:23.133   03 Jun 2027 11:47:30.657             7.524                Novosib           235.125
       272   03 Jun 2027 11:47:45.747   03 Jun 2027 11:47:50.499             4.752                Irkutsk           148.500
       273   03 Jun 2027 11:47:55.205   03 Jun 2027 11:48:09.459            14.254                Norilsk           445.438
       274   03 Jun 2027 11:48:19.342   03 Jun 2027 11:48:27.297             7.955                Novosib           248.594
       275   03 Jun 2027 11:48:54.958   03 Jun 2027 11:49:29.861            34.903                Novosib          1090.719
       276   03 Jun 2027 11:49:41.974   03 Jun 2027 11:50:52.742            70.768                Norilsk          2211.500
       277   03 Jun 2027 11:50:56.664   03 Jun 2027 11:51:55.051            58.387                Irkutsk          1824.594
       278   03 Jun 2027 11:51:57.719   03 Jun 2027 11:52:16.608            18.889                Novosib           590.281
       279   03 Jun 2027 11:52:19.933   03 Jun 2027 11:53:55.788            95.855                Novosib          2995.469
       280   03 Jun 2027 12:30:41.738   03 Jun 2027 12:32:14.751            93.013            RioGallegos          2906.656
       281   03 Jun 2027 12:36:22.350   03 Jun 2027 12:36:25.030             2.680            RioGallegos            83.750
       282   03 Jun 2027 13:04:58.235   03 Jun 2027 13:07:32.654           154.419                Sumatra          4825.594
       283   03 Jun 2027 13:18:47.466   03 Jun 2027 13:18:48.478             1.012                Novosib            31.625
       284   03 Jun 2027 13:19:50.258   03 Jun 2027 13:21:36.136           105.878                Novosib          3308.688
       285   03 Jun 2027 13:21:47.565   03 Jun 2027 13:23:57.315           129.750                Irkutsk          4054.688
       286   03 Jun 2027 13:36:07.956   03 Jun 2027 13:36:12.304             4.348              Murmansk2           135.875
       287   03 Jun 2027 13:36:12.304   03 Jun 2027 13:36:18.000             5.696              Murmansk1           178.000
       288   03 Jun 2027 14:50:31.545   03 Jun 2027 14:54:32.506           240.961                  Delhi          7530.031
       289   03 Jun 2027 14:59:01.624   03 Jun 2027 15:01:23.566           141.942                Novosib          4435.688
       290   03 Jun 2027 15:01:53.748   03 Jun 2027 15:02:23.356            29.608                Norilsk           925.250
       291   03 Jun 2027 15:05:08.174   03 Jun 2027 15:05:17.514             9.340                Novosib           291.875
       292   03 Jun 2027 15:06:50.540   03 Jun 2027 15:06:54.546             4.006                Norilsk           125.188
       293   03 Jun 2027 16:12:13.125   03 Jun 2027 16:14:08.419           115.294               CapeTown          3602.937
       294   03 Jun 2027 16:18:06.802   03 Jun 2027 16:18:53.349            46.547               CapeTown          1454.594
       295   03 Jun 2027 16:32:30.486   03 Jun 2027 16:33:19.628            49.142                 Moscow          1535.688
       296   03 Jun 2027 16:35:05.240   03 Jun 2027 16:35:43.139            37.899                 Moscow          1184.344
       297   03 Jun 2027 16:36:39.018   03 Jun 2027 16:36:52.751            13.733              Murmansk1           429.156
       298   03 Jun 2027 16:38:16.004   03 Jun 2027 16:38:45.011            29.007              Murmansk1           906.469
       299   03 Jun 2027 16:44:06.539   03 Jun 2027 16:44:19.308            12.769              Murmansk2           399.031
       300   03 Jun 2027 16:47:48.054   03 Jun 2027 16:48:20.905            32.851              Murmansk1          1026.594
       301   03 Jun 2027 16:50:52.074   03 Jun 2027 16:51:52.513            60.439                Anadyr1          1888.719
       302   03 Jun 2027 16:52:10.341   03 Jun 2027 16:52:36.526            26.185                Anadyr2           818.281
       303   03 Jun 2027 16:52:46.387   03 Jun 2027 16:53:24.913            38.526                Anadyr2          1203.937
       304   03 Jun 2027 16:56:53.728   03 Jun 2027 16:57:08.342            14.614                Anadyr1           456.687
       305   03 Jun 2027 16:57:20.286   03 Jun 2027 16:57:58.444            38.158                Anadyr2          1192.438
       306   03 Jun 2027 17:46:05.223   03 Jun 2027 17:47:03.250            58.027               CapeTown          1813.344
       307   03 Jun 2027 17:57:41.311   03 Jun 2027 17:58:04.092            22.781               CapeTown           711.906
       308   03 Jun 2027 18:13:35.454   03 Jun 2027 18:16:58.545           203.091                 Moscow          6346.594
       309   03 Jun 2027 18:23:41.396   03 Jun 2027 18:24:12.420            31.024              Murmansk2           969.500
       310   03 Jun 2027 18:28:46.217   03 Jun 2027 18:28:58.443            12.226                Anadyr2           382.063
       311   03 Jun 2027 18:29:14.570   03 Jun 2027 18:29:47.445            32.875                Anadyr2          1027.344
       312   03 Jun 2027 18:30:50.875   03 Jun 2027 18:31:35.117            44.242               Magadan2          1382.563
       313   03 Jun 2027 18:31:40.251   03 Jun 2027 18:33:08.267            88.016               Magadan2          2750.500
       314   03 Jun 2027 19:26:06.693   03 Jun 2027 19:27:54.725           108.032               CapeTown          3376.000
       315   03 Jun 2027 19:57:10.908   03 Jun 2027 19:58:00.982            50.074              Murmansk2          1564.813
       316   03 Jun 2027 20:03:34.746   03 Jun 2027 20:05:23.073           108.327                Anadyr2          3385.219
       317   03 Jun 2027 20:05:26.290   03 Jun 2027 20:07:05.640            99.350               Magadan1          3104.687
       318   03 Jun 2027 20:12:37.778   03 Jun 2027 20:12:58.623            20.845               Magadan2           651.406
       319   03 Jun 2027 20:14:12.583   03 Jun 2027 20:14:51.272            38.689               Magadan2          1209.031
       320   03 Jun 2027 21:37:52.558   03 Jun 2027 21:41:34.356           221.798                Anadyr1          6931.187
       321   03 Jun 2027 21:41:52.653   03 Jun 2027 21:43:46.808           114.155                Norilsk          3567.344
       322   03 Jun 2027 21:43:47.596   03 Jun 2027 21:45:14.082            86.486               Magadan1          2702.688
       323   03 Jun 2027 21:47:24.758   03 Jun 2027 21:47:32.667             7.909               Magadan2           247.156
       324   03 Jun 2027 21:51:44.661   03 Jun 2027 21:52:04.731            20.070               Magadan1           627.188
       325   03 Jun 2027 21:52:59.232   03 Jun 2027 21:53:03.215             3.983               Magadan1           124.469
       326   03 Jun 2027 22:32:16.112   03 Jun 2027 22:34:26.504           130.392            RioGallegos          4074.750
       327   03 Jun 2027 22:35:26.652   03 Jun 2027 22:35:45.886            19.234            RioGallegos           601.062
       328   03 Jun 2027 22:37:47.628   03 Jun 2027 22:37:53.295             5.667            RioGallegos           177.094
       329   03 Jun 2027 22:37:58.174   03 Jun 2027 22:38:28.735            30.561            RioGallegos           955.031
       330   03 Jun 2027 23:13:28.434   03 Jun 2027 23:14:15.544            47.110                Anadyr2          1472.188
       331   03 Jun 2027 23:14:25.491   03 Jun 2027 23:14:32.277             6.786                Anadyr2           212.062
       332   03 Jun 2027 23:14:39.123   03 Jun 2027 23:15:41.275            62.152                Anadyr2          1942.250
       333   03 Jun 2027 23:15:41.779   03 Jun 2027 23:15:55.972            14.193                Norilsk           443.531
       334   03 Jun 2027 23:16:13.344   03 Jun 2027 23:18:00.454           107.110               Magadan2          3347.187
       335   03 Jun 2027 23:19:51.762   03 Jun 2027 23:20:01.303             9.541                Irkutsk           298.156
       336   03 Jun 2027 23:20:41.240   03 Jun 2027 23:21:13.823            32.583                Irkutsk          1018.219
       337   03 Jun 2027 23:21:39.046   03 Jun 2027 23:22:22.328            43.282                Novosib          1352.563
       338   03 Jun 2027 23:23:07.364   03 Jun 2027 23:23:16.202             8.838                Novosib           276.188
       339   03 Jun 2027 23:24:22.335   03 Jun 2027 23:24:28.313             5.978                Novosib           186.813
       340   03 Jun 2027 23:25:39.873   03 Jun 2027 23:26:28.079            48.206                Novosib          1506.438
       341   03 Jun 2027 23:33:36.202   03 Jun 2027 23:34:15.987            39.785                Sumatra          1243.281
       342   03 Jun 2027 23:36:31.646   03 Jun 2027 23:37:08.667            37.021                Sumatra          1156.906
       343   03 Jun 2027 23:41:47.480   03 Jun 2027 23:43:04.138            76.658                Sumatra          2395.562
       344   04 Jun 2027 00:15:36.480   04 Jun 2027 00:16:31.163            54.683            RioGallegos          1708.844
       345   04 Jun 2027 00:48:31.727   04 Jun 2027 00:48:57.549            25.822                Anadyr2           806.938
       346   04 Jun 2027 00:49:44.368   04 Jun 2027 00:50:15.726            31.358                Anadyr2           979.937
       347   04 Jun 2027 00:50:15.726   04 Jun 2027 00:50:24.897             9.171                Anadyr1           286.594
       348   04 Jun 2027 00:50:29.280   04 Jun 2027 00:50:33.335             4.055                Anadyr1           126.719
       349   04 Jun 2027 00:50:55.499   04 Jun 2027 00:50:58.874             3.375                Anadyr2           105.469
       350   04 Jun 2027 00:51:39.780   04 Jun 2027 00:53:22.297           102.517                Norilsk          3203.656
       351   04 Jun 2027 00:55:13.692   04 Jun 2027 00:55:35.206            21.514               Magadan2           672.313
       352   04 Jun 2027 00:55:38.751   04 Jun 2027 00:57:51.683           132.932                Novosib          4154.125
       353   04 Jun 2027 00:58:40.481   04 Jun 2027 00:58:51.522            11.041                Irkutsk           345.031
       354   04 Jun 2027 01:02:53.955   04 Jun 2027 01:03:27.719            33.764                Novosib          1055.125
       355   04 Jun 2027 01:03:53.805   04 Jun 2027 01:04:16.904            23.099                Novosib           721.844
       356   04 Jun 2027 01:07:41.738   04 Jun 2027 01:08:47.935            66.197                  Delhi          2068.656
       357   04 Jun 2027 01:14:18.438   04 Jun 2027 01:16:06.571           108.133                Sumatra          3379.156
       358   04 Jun 2027 02:21:41.545   04 Jun 2027 02:21:45.211             3.666                Anadyr2           114.562
       359   04 Jun 2027 02:21:54.714   04 Jun 2027 02:22:52.781            58.067                Anadyr1          1814.594
       360   04 Jun 2027 02:26:54.390   04 Jun 2027 02:27:04.775            10.385                Anadyr2           324.531
       361   04 Jun 2027 02:27:22.276   04 Jun 2027 02:27:37.247            14.971                Anadyr2           467.844
       362   04 Jun 2027 02:27:39.389   04 Jun 2027 02:28:48.311            68.922                Norilsk          2153.813
       363   04 Jun 2027 02:28:49.873   04 Jun 2027 02:29:13.247            23.374                Norilsk           730.438
       364   04 Jun 2027 02:29:59.063   04 Jun 2027 02:30:48.212            49.149              Murmansk1          1535.906
       365   04 Jun 2027 02:31:12.000   04 Jun 2027 02:31:44.237            32.237              Murmansk2          1007.406
       366   04 Jun 2027 02:31:52.853   04 Jun 2027 02:31:58.834             5.981                Novosib           186.906
       367   04 Jun 2027 02:32:10.377   04 Jun 2027 02:32:32.019            21.642                Irkutsk           676.313
       368   04 Jun 2027 02:33:14.219   04 Jun 2027 02:34:15.573            61.354                Irkutsk          1917.312
       369   04 Jun 2027 02:39:49.609   04 Jun 2027 02:41:18.032            88.423                  Delhi          2763.219
       370   04 Jun 2027 04:13:52.769   04 Jun 2027 04:15:52.151           119.382              Murmansk2          3730.687
       371   04 Jun 2027 04:16:14.730   04 Jun 2027 04:17:55.489           100.759              Murmansk2          3148.719
       372   04 Jun 2027 04:18:29.605   04 Jun 2027 04:19:29.777            60.172                 Moscow          1880.375
       373   04 Jun 2027 04:19:49.059   04 Jun 2027 04:20:17.673            28.614                 Moscow           894.188
       374   04 Jun 2027 04:35:03.950   04 Jun 2027 04:35:36.844            32.894               CapeTown          1027.937
       375   04 Jun 2027 04:37:34.305   04 Jun 2027 04:39:36.921           122.616               CapeTown          3831.750
       376   04 Jun 2027 04:44:42.922   04 Jun 2027 04:44:46.568             3.646               CapeTown           113.937
       377   04 Jun 2027 04:45:30.950   04 Jun 2027 04:45:35.332             4.382               CapeTown           136.938
       378   04 Jun 2027 05:37:11.587   04 Jun 2027 05:37:17.194             5.607               Magadan2           175.219
       379   04 Jun 2027 05:37:52.619   04 Jun 2027 05:38:05.363            12.744               Magadan1           398.250
       380   04 Jun 2027 05:38:15.836   04 Jun 2027 05:39:15.074            59.238                Anadyr2          1851.188
       381   04 Jun 2027 05:48:04.572   04 Jun 2027 05:48:16.895            12.323                Norilsk           385.094
       382   04 Jun 2027 05:48:43.247   04 Jun 2027 05:48:51.258             8.011                 Moscow           250.344
       383   04 Jun 2027 05:48:54.600   04 Jun 2027 05:49:13.814            19.214                 Moscow           600.438
       384   04 Jun 2027 05:49:14.049   04 Jun 2027 05:49:52.200            38.151              Murmansk1          1192.219
       385   04 Jun 2027 05:50:35.550   04 Jun 2027 05:51:42.523            66.973              Murmansk2          2092.906
       386   04 Jun 2027 05:53:15.786   04 Jun 2027 05:53:21.460             5.674              Murmansk2           177.313
       387   04 Jun 2027 05:53:52.330   04 Jun 2027 05:54:00.487             8.157              Murmansk2           254.906
       388   04 Jun 2027 06:09:46.770   04 Jun 2027 06:10:52.611            65.841               CapeTown          2057.531
       389   04 Jun 2027 06:15:56.083   04 Jun 2027 06:16:39.403            43.320               CapeTown          1353.750
       390   04 Jun 2027 07:10:56.661   04 Jun 2027 07:11:43.137            46.476                Anadyr2          1452.375
       391   04 Jun 2027 07:12:11.787   04 Jun 2027 07:12:24.556            12.769               Magadan1           399.031
       392   04 Jun 2027 07:12:35.060   04 Jun 2027 07:13:47.105            72.045                Anadyr2          2251.406
       393   04 Jun 2027 07:13:58.560   04 Jun 2027 07:14:21.788            23.228               Magadan2           725.875
       394   04 Jun 2027 07:14:44.301   04 Jun 2027 07:15:18.416            34.115                Anadyr1          1066.094
       395   04 Jun 2027 07:15:57.088   04 Jun 2027 07:16:13.484            16.396                Anadyr1           512.375
       396   04 Jun 2027 07:17:54.710   04 Jun 2027 07:18:10.342            15.632               Magadan2           488.500
       397   04 Jun 2027 07:21:45.222   04 Jun 2027 07:22:59.762            74.540                 Moscow          2329.375
       398   04 Jun 2027 08:46:12.674   04 Jun 2027 08:46:53.748            41.074                Irkutsk          1283.563
       399   04 Jun 2027 08:47:42.423   04 Jun 2027 08:49:24.839           102.416                Anadyr1          3200.500
       400   04 Jun 2027 08:49:24.839   04 Jun 2027 08:50:14.682            49.843                Anadyr2          1557.594
       401   04 Jun 2027 08:50:21.304   04 Jun 2027 08:50:46.653            25.349               Magadan1           792.156
       402   04 Jun 2027 08:51:16.699   04 Jun 2027 08:51:42.359            25.660               Magadan2           801.875
       403   04 Jun 2027 08:51:42.359   04 Jun 2027 08:51:44.658             2.299               Magadan1            71.844
       404   04 Jun 2027 08:51:52.755   04 Jun 2027 08:52:14.951            22.196                Irkutsk           693.625
       405   04 Jun 2027 08:52:17.615   04 Jun 2027 08:52:50.337            32.722               Magadan2          1022.562
       406   04 Jun 2027 09:29:44.715   04 Jun 2027 09:30:13.334            28.619            RioGallegos           894.344
       407   04 Jun 2027 09:31:25.570   04 Jun 2027 09:32:07.842            42.272            RioGallegos          1321.000
       408   04 Jun 2027 10:21:15.631   04 Jun 2027 10:22:15.096            59.465               Magadan1          1858.281
       409   04 Jun 2027 10:22:38.739   04 Jun 2027 10:25:45.539           186.800               Magadan2          5837.500
       410   04 Jun 2027 10:25:46.829   04 Jun 2027 10:28:06.296           139.467               Magadan1          4358.344
       411   04 Jun 2027 10:28:26.085   04 Jun 2027 10:29:08.847            42.762                Irkutsk          1336.312
       412   04 Jun 2027 10:29:24.004   04 Jun 2027 10:29:32.262             8.258                Norilsk           258.062
       413   04 Jun 2027 10:30:04.048   04 Jun 2027 10:30:50.972            46.924              Murmansk1          1466.375
       414   04 Jun 2027 11:04:33.168   04 Jun 2027 11:05:47.094            73.926            RioGallegos          2310.187
       415   04 Jun 2027 11:39:31.749   04 Jun 2027 11:40:10.292            38.543                Sumatra          1204.469
       416   04 Jun 2027 11:42:06.166   04 Jun 2027 11:42:12.544             6.378                Sumatra           199.313
       417   04 Jun 2027 11:52:29.134   04 Jun 2027 11:52:33.532             4.398                  Delhi           137.438
       418   04 Jun 2027 11:56:18.147   04 Jun 2027 11:57:27.501            69.354                  Delhi          2167.312
       419   04 Jun 2027 11:59:38.621   04 Jun 2027 11:59:53.797            15.176                Norilsk           474.250
       420   04 Jun 2027 11:59:56.427   04 Jun 2027 12:02:02.772           126.345                Irkutsk          3948.281
       421   04 Jun 2027 12:03:01.102   04 Jun 2027 12:03:29.949            28.847                Novosib           901.469
       422   04 Jun 2027 12:03:56.666   04 Jun 2027 12:05:13.510            76.844                Novosib          2401.375
       423   04 Jun 2027 12:09:10.423   04 Jun 2027 12:09:12.664             2.241              Murmansk1            70.031
       424   04 Jun 2027 12:09:27.863   04 Jun 2027 12:09:32.428             4.565                Norilsk           142.656
       425   04 Jun 2027 12:09:34.206   04 Jun 2027 12:10:31.260            57.054              Murmansk1          1782.937
       426   04 Jun 2027 12:45:15.120   04 Jun 2027 12:45:29.307            14.187            RioGallegos           443.344
       427   04 Jun 2027 12:48:12.795   04 Jun 2027 12:48:35.435            22.640            RioGallegos           707.500
       428   04 Jun 2027 12:48:54.293   04 Jun 2027 12:49:51.503            57.210            RioGallegos          1787.813
       429   04 Jun 2027 13:17:58.350   04 Jun 2027 13:19:20.694            82.344                Sumatra          2573.250
       430   04 Jun 2027 13:22:13.080   04 Jun 2027 13:22:26.634            13.554                Sumatra           423.563
       431   04 Jun 2027 13:23:08.024   04 Jun 2027 13:24:41.751            93.727                Sumatra          2928.969
       432   04 Jun 2027 13:33:53.400   04 Jun 2027 13:35:56.421           123.021                Irkutsk          3844.406
       433   04 Jun 2027 13:46:05.929   04 Jun 2027 13:46:14.783             8.854                Norilsk           276.687
       434   04 Jun 2027 13:48:31.019   04 Jun 2027 13:48:32.400             1.381              Murmansk1            43.156
       435   04 Jun 2027 15:04:11.849   04 Jun 2027 15:06:35.825           143.976                  Delhi          4499.250
       436   04 Jun 2027 15:07:00.451   04 Jun 2027 15:07:34.973            34.522                  Delhi          1078.813
       437   04 Jun 2027 15:09:32.647   04 Jun 2027 15:10:04.649            32.002                 Moscow          1000.062
       438   04 Jun 2027 15:11:26.700   04 Jun 2027 15:12:31.801            65.101              Murmansk1          2034.406
       439   04 Jun 2027 15:13:22.050   04 Jun 2027 15:14:12.510            50.460                Novosib          1576.875
       440   04 Jun 2027 15:14:30.392   04 Jun 2027 15:15:17.635            47.243                Norilsk          1476.344
       441   04 Jun 2027 15:17:00.061   04 Jun 2027 15:18:46.484           106.423                Norilsk          3325.719
       442   04 Jun 2027 16:23:23.598   04 Jun 2027 16:24:06.794            43.196               CapeTown          1349.875
       443   04 Jun 2027 16:27:07.390   04 Jun 2027 16:27:12.665             5.275               CapeTown           164.844
       444   04 Jun 2027 16:29:13.661   04 Jun 2027 16:29:21.439             7.778               CapeTown           243.062
       445   04 Jun 2027 16:30:08.109   04 Jun 2027 16:30:46.353            38.244               CapeTown          1195.125
       446   04 Jun 2027 16:44:49.628   04 Jun 2027 16:45:25.522            35.894                 Moscow          1121.687
       447   04 Jun 2027 16:48:40.259   04 Jun 2027 16:48:54.749            14.490              Murmansk2           452.813
       448   04 Jun 2027 16:49:34.411   04 Jun 2027 16:50:12.833            38.422              Murmansk2          1200.687
       449   04 Jun 2027 16:51:13.405   04 Jun 2027 16:51:52.369            38.964              Murmansk2          1217.625
       450   04 Jun 2027 16:56:05.275   04 Jun 2027 16:56:36.225            30.950              Murmansk1           967.187
       451   04 Jun 2027 16:58:15.403   04 Jun 2027 16:58:30.625            15.222              Murmansk2           475.688
       452   04 Jun 2027 17:02:42.306   04 Jun 2027 17:03:02.941            20.635                Anadyr1           644.844
       453   04 Jun 2027 17:03:02.941   04 Jun 2027 17:03:51.691            48.750                Anadyr2          1523.437
       454   04 Jun 2027 17:05:23.076   04 Jun 2027 17:05:47.621            24.545                Anadyr1           767.031
       455   04 Jun 2027 17:06:40.008   04 Jun 2027 17:07:22.874            42.866                Anadyr1          1339.562
       456   04 Jun 2027 17:11:03.714   04 Jun 2027 17:11:09.877             6.163                Anadyr1           192.594
       457   04 Jun 2027 18:01:20.729   04 Jun 2027 18:02:05.062            44.333               CapeTown          1385.406
       458   04 Jun 2027 18:07:09.608   04 Jun 2027 18:09:16.125           126.517               CapeTown          3953.656
       459   04 Jun 2027 18:27:00.540   04 Jun 2027 18:28:24.472            83.932              Murmansk2          2622.875
       460   04 Jun 2027 18:28:45.041   04 Jun 2027 18:30:13.767            88.726              Murmansk2          2772.688
       461   04 Jun 2027 18:42:05.204   04 Jun 2027 18:43:09.600            64.396               Magadan1          2012.375
       462   04 Jun 2027 18:43:39.798   04 Jun 2027 18:44:57.339            77.541               Magadan1          2423.156
       463   04 Jun 2027 19:35:31.267   04 Jun 2027 19:35:50.892            19.625               CapeTown           613.281
       464   04 Jun 2027 19:37:47.923   04 Jun 2027 19:40:20.906           152.983               CapeTown          4780.719
       465   04 Jun 2027 20:13:59.406   04 Jun 2027 20:14:24.421            25.015                Anadyr2           781.719
       466   04 Jun 2027 20:14:51.109   04 Jun 2027 20:15:01.692            10.583                Anadyr2           330.719
       467   04 Jun 2027 20:15:13.683   04 Jun 2027 20:15:24.087            10.404                Anadyr2           325.125
       468   04 Jun 2027 20:16:00.756   04 Jun 2027 20:17:21.243            80.487                Anadyr2          2515.219
       469   04 Jun 2027 20:17:28.156   04 Jun 2027 20:18:29.794            61.638               Magadan2          1926.187
       470   04 Jun 2027 20:19:26.287   04 Jun 2027 20:20:32.679            66.392               Magadan2          2074.750
       471   04 Jun 2027 21:49:53.228   04 Jun 2027 21:51:57.304           124.076                Anadyr2          3877.375
       472   04 Jun 2027 21:52:02.198   04 Jun 2027 21:53:34.117            91.919                Anadyr1          2872.469
       473   04 Jun 2027 21:53:41.765   04 Jun 2027 21:55:24.552           102.787                Norilsk          3212.094
       474   04 Jun 2027 21:55:28.613   04 Jun 2027 21:55:57.600            28.987               Magadan1           905.844
       475   04 Jun 2027 21:56:11.598   04 Jun 2027 21:56:36.386            24.788                Norilsk           774.625
       476   04 Jun 2027 21:58:07.006   04 Jun 2027 21:58:31.900            24.894               Magadan2           777.937
       477   04 Jun 2027 21:58:59.364   04 Jun 2027 21:59:18.793            19.429               Magadan2           607.156
       478   04 Jun 2027 21:59:23.574   04 Jun 2027 22:00:25.214            61.640                Irkutsk          1926.250
       479   04 Jun 2027 22:44:07.043   04 Jun 2027 22:45:39.646            92.603            RioGallegos          2893.844
       480   04 Jun 2027 22:52:18.355   04 Jun 2027 22:53:06.111            47.756            RioGallegos          1492.375
       481   04 Jun 2027 23:25:24.592   04 Jun 2027 23:25:34.821            10.229                Anadyr2           319.656
       482   04 Jun 2027 23:25:34.821   04 Jun 2027 23:26:04.442            29.621                Anadyr1           925.656
