uniorb/output/strategy_2/Drop/Drop_KinoSat_110610.txt

KinoSat_110610
-------------------------
    Access    *     Start Time (UTCG)     *     Stop Time (UTCG)  *   Duration (s)        *       Station  *  Data (Mbytes)
         1   01 Jun 2027 04:32:06.345   01 Jun 2027 04:32:09.041             2.696               Magadan2            84.250
         2   01 Jun 2027 04:32:15.610   01 Jun 2027 04:32:22.876             7.266                Anadyr1           227.062
         3   01 Jun 2027 04:32:34.500   01 Jun 2027 04:34:43.279           128.779                Irkutsk          4024.344
         4   01 Jun 2027 04:34:50.735   01 Jun 2027 04:35:01.079            10.344                Anadyr2           323.250
         5   01 Jun 2027 04:35:01.079   01 Jun 2027 04:36:01.518            60.439                Anadyr1          1888.719
         6   01 Jun 2027 04:36:10.886   01 Jun 2027 04:37:05.398            54.512               Magadan2          1703.500
         7   01 Jun 2027 04:37:24.342   01 Jun 2027 04:37:45.323            20.981                Anadyr1           655.656
         8   01 Jun 2027 04:37:57.811   01 Jun 2027 04:38:13.295            15.484               Magadan1           483.875
         9   01 Jun 2027 04:38:29.230   01 Jun 2027 04:38:58.142            28.912                Norilsk           903.500
        10   01 Jun 2027 04:40:00.016   01 Jun 2027 04:40:18.169            18.153                Norilsk           567.281
        11   01 Jun 2027 04:41:54.980   01 Jun 2027 04:42:18.909            23.929              Murmansk1           747.781
        12   01 Jun 2027 05:13:30.619   01 Jun 2027 05:17:19.004           228.385            RioGallegos          7137.031
        13   01 Jun 2027 05:18:07.711   01 Jun 2027 05:19:34.986            87.275            RioGallegos          2727.344
        14   01 Jun 2027 05:52:16.150   01 Jun 2027 05:56:50.812           274.662                Sumatra          8583.187
        15   01 Jun 2027 06:08:19.867   01 Jun 2027 06:08:58.300            38.433                Irkutsk          1201.031
        16   01 Jun 2027 06:09:45.724   01 Jun 2027 06:10:05.663            19.939                Novosib           623.094
        17   01 Jun 2027 06:10:52.104   01 Jun 2027 06:13:22.381           150.277                Irkutsk          4696.156
        18   01 Jun 2027 06:14:22.832   01 Jun 2027 06:14:23.537             0.705              Murmansk2            22.031
        19   01 Jun 2027 06:14:45.056   01 Jun 2027 06:15:24.193            39.137                Novosib          1223.031
        20   01 Jun 2027 06:15:36.845   01 Jun 2027 06:15:57.137            20.292              Murmansk2           634.125
        21   01 Jun 2027 06:20:09.030   01 Jun 2027 06:20:28.780            19.750              Murmansk1           617.188
        22   01 Jun 2027 06:48:59.467   01 Jun 2027 06:50:00.947            61.480            RioGallegos          1921.250
        23   01 Jun 2027 06:51:58.032   01 Jun 2027 06:53:07.697            69.665            RioGallegos          2177.031
        24   01 Jun 2027 07:23:39.603   01 Jun 2027 07:26:16.553           156.950                Sumatra          4904.687
        25   01 Jun 2027 07:28:34.388   01 Jun 2027 07:29:13.928            39.540                Sumatra          1235.625
        26   01 Jun 2027 07:33:49.752   01 Jun 2027 07:41:15.224           445.472                  Delhi         13921.000
        27   01 Jun 2027 07:45:16.773   01 Jun 2027 07:45:31.433            14.660                Novosib           458.125
        28   01 Jun 2027 07:46:25.640   01 Jun 2027 07:47:04.819            39.179                Novosib          1224.344
        29   01 Jun 2027 07:47:05.440   01 Jun 2027 07:47:20.810            15.370                Irkutsk           480.312
        30   01 Jun 2027 07:47:29.561   01 Jun 2027 07:48:48.662            79.101                 Moscow          2471.906
        31   01 Jun 2027 07:49:16.142   01 Jun 2027 07:50:28.840            72.698                Norilsk          2271.812
        32   01 Jun 2027 07:50:30.397   01 Jun 2027 07:51:37.967            67.570                Novosib          2111.562
        33   01 Jun 2027 07:52:02.535   01 Jun 2027 07:52:04.309             1.774                 Moscow            55.438
        34   01 Jun 2027 09:07:58.816   01 Jun 2027 09:10:58.226           179.410                  Delhi          5606.562
        35   01 Jun 2027 09:11:51.450   01 Jun 2027 09:13:10.548            79.098                  Delhi          2471.813
        36   01 Jun 2027 09:21:59.099   01 Jun 2027 09:22:19.300            20.201                 Moscow           631.281
        37   01 Jun 2027 09:23:56.173   01 Jun 2027 09:24:26.603            30.430                 Moscow           950.937
        38   01 Jun 2027 09:24:31.372   01 Jun 2027 09:25:57.547            86.175              Murmansk1          2692.969
        39   01 Jun 2027 09:27:32.565   01 Jun 2027 09:28:11.046            38.481              Murmansk1          1202.531
        40   01 Jun 2027 10:57:26.849   01 Jun 2027 10:59:56.127           149.278                 Moscow          4664.937
        41   01 Jun 2027 11:00:10.903   01 Jun 2027 11:01:48.688            97.785              Murmansk1          3055.781
        42   01 Jun 2027 11:01:53.061   01 Jun 2027 11:02:15.321            22.260              Murmansk1           695.625
        43   01 Jun 2027 12:06:51.419   01 Jun 2027 12:13:37.941           406.522               CapeTown         12703.813
        44   01 Jun 2027 12:32:47.742   01 Jun 2027 12:32:55.889             8.147              Murmansk2           254.594
        45   01 Jun 2027 12:33:14.196   01 Jun 2027 12:34:16.579            62.383              Murmansk1          1949.469
        46   01 Jun 2027 12:46:47.409   01 Jun 2027 12:49:29.428           162.019                Anadyr2          5063.094
        47   01 Jun 2027 12:49:53.226   01 Jun 2027 12:52:27.148           153.922                Anadyr1          4810.063
        48   01 Jun 2027 12:52:57.538   01 Jun 2027 12:56:17.274           199.736                Anadyr2          6241.750
        49   01 Jun 2027 14:22:19.716   01 Jun 2027 14:22:32.283            12.567                Anadyr1           392.719
        50   01 Jun 2027 14:23:25.039   01 Jun 2027 14:24:03.391            38.352                Anadyr1          1198.500
        51   01 Jun 2027 14:24:39.978   01 Jun 2027 14:25:09.517            29.539                Anadyr1           923.094
        52   01 Jun 2027 14:25:45.068   01 Jun 2027 14:32:19.738           394.670               Magadan1         12333.437
        53   01 Jun 2027 14:33:18.348   01 Jun 2027 14:33:31.657            13.309               Magadan2           415.906
        54   01 Jun 2027 15:58:14.132   01 Jun 2027 15:59:23.882            69.750                Anadyr2          2179.688
        55   01 Jun 2027 16:00:35.873   01 Jun 2027 16:05:17.944           282.071               Magadan1          8814.719
        56   01 Jun 2027 16:56:17.629   01 Jun 2027 16:57:40.578            82.949            RioGallegos          2592.156
        57   01 Jun 2027 17:34:04.753   01 Jun 2027 17:34:52.685            47.932                Anadyr1          1497.875
        58   01 Jun 2027 17:36:20.790   01 Jun 2027 17:37:05.201            44.411                Norilsk          1387.844
        59   01 Jun 2027 17:37:31.107   01 Jun 2027 17:39:36.051           124.944               Magadan2          3904.500
        60   01 Jun 2027 17:41:38.262   01 Jun 2027 17:49:04.622           446.360                Irkutsk         13948.750
        61   01 Jun 2027 17:57:22.595   01 Jun 2027 18:03:40.843           378.248                Sumatra         11820.250
        62   01 Jun 2027 19:16:51.418   01 Jun 2027 19:17:56.262            64.844                Novosib          2026.375
        63   01 Jun 2027 19:18:12.227   01 Jun 2027 19:23:09.551           297.324                Novosib          9291.375
        64   01 Jun 2027 20:51:22.227   01 Jun 2027 20:55:06.022           223.795              Murmansk1          6993.594
        65   01 Jun 2027 22:26:11.472   01 Jun 2027 22:27:40.875            89.403              Murmansk2          2793.844
        66   01 Jun 2027 22:27:56.213   01 Jun 2027 22:32:13.990           257.777              Murmansk1          8055.531
        67   01 Jun 2027 22:33:08.673   01 Jun 2027 22:36:14.855           186.182                 Moscow          5818.188
        68   01 Jun 2027 22:57:04.928   01 Jun 2027 23:04:12.543           427.615               CapeTown         13362.969
        69   02 Jun 2027 01:41:56.803   02 Jun 2027 01:42:11.494            14.691                 Moscow           459.094
        70   02 Jun 2027 02:07:45.830   02 Jun 2027 02:09:21.422            95.592               CapeTown          2987.250
        71   02 Jun 2027 03:01:45.651   02 Jun 2027 03:02:32.596            46.945               Magadan2          1467.031
        72   02 Jun 2027 03:03:03.478   02 Jun 2027 03:03:21.191            17.713               Magadan1           553.531
        73   02 Jun 2027 03:06:36.128   02 Jun 2027 03:06:57.688            21.560                Anadyr1           673.750
        74   02 Jun 2027 03:06:59.898   02 Jun 2027 03:07:19.124            19.226               Magadan2           600.812
        75   02 Jun 2027 03:07:19.124   02 Jun 2027 03:07:56.348            37.224               Magadan1          1163.250
        76   02 Jun 2027 03:08:29.072   02 Jun 2027 03:09:39.908            70.836                Anadyr2          2213.625
        77   02 Jun 2027 03:09:39.908   02 Jun 2027 03:14:39.108           299.200                Anadyr1          9350.000
        78   02 Jun 2027 04:44:20.242   02 Jun 2027 04:45:35.612            75.370                Anadyr1          2355.312
        79   02 Jun 2027 04:45:53.586   02 Jun 2027 04:49:27.548           213.962                Anadyr2          6686.312
        80   02 Jun 2027 04:49:32.077   02 Jun 2027 04:49:43.244            11.167                Irkutsk           348.969
        81   02 Jun 2027 04:49:51.558   02 Jun 2027 04:50:11.043            19.485               Magadan2           608.906
        82   02 Jun 2027 04:55:03.217   02 Jun 2027 04:55:04.817             1.600                Norilsk            50.000
        83   02 Jun 2027 05:25:17.278   02 Jun 2027 05:27:26.971           129.693            RioGallegos          4052.906
        84   02 Jun 2027 05:28:02.031   02 Jun 2027 05:28:19.046            17.015            RioGallegos           531.719
        85   02 Jun 2027 05:28:36.844   02 Jun 2027 05:29:16.073            39.229            RioGallegos          1225.906
        86   02 Jun 2027 05:29:43.173   02 Jun 2027 05:31:14.102            90.929            RioGallegos          2841.531
        87   02 Jun 2027 06:02:43.515   02 Jun 2027 06:10:16.672           453.157                Sumatra         14161.156
        88   02 Jun 2027 06:20:34.609   02 Jun 2027 06:20:58.424            23.815                Novosib           744.219
        89   02 Jun 2027 06:20:58.654   02 Jun 2027 06:21:46.724            48.070                Irkutsk          1502.187
        90   02 Jun 2027 06:22:39.749   02 Jun 2027 06:22:52.693            12.944                Irkutsk           404.500
        91   02 Jun 2027 06:22:57.295   02 Jun 2027 06:23:19.817            22.522                Novosib           703.812
        92   02 Jun 2027 06:23:38.432   02 Jun 2027 06:24:11.762            33.330              Murmansk2          1041.563
        93   02 Jun 2027 06:24:41.574   02 Jun 2027 06:24:51.404             9.830              Murmansk2           307.187
        94   02 Jun 2027 06:25:02.988   02 Jun 2027 06:25:18.914            15.926                Irkutsk           497.687
        95   02 Jun 2027 06:25:36.181   02 Jun 2027 06:26:52.395            76.214              Murmansk2          2381.687
        96   02 Jun 2027 06:26:52.395   02 Jun 2027 06:27:19.005            26.610              Murmansk1           831.563
        97   02 Jun 2027 06:27:34.012   02 Jun 2027 06:28:07.256            33.244              Murmansk1          1038.875
        98   02 Jun 2027 06:28:14.032   02 Jun 2027 06:28:22.278             8.246                Norilsk           257.688
        99   02 Jun 2027 06:28:34.670   02 Jun 2027 06:28:35.953             1.283              Murmansk2            40.094
       100   02 Jun 2027 06:29:51.969   02 Jun 2027 06:30:29.215            37.246                Norilsk          1163.938
       101   02 Jun 2027 06:31:33.384   02 Jun 2027 06:32:08.067            34.683              Murmansk1          1083.844
       102   02 Jun 2027 06:32:08.067   02 Jun 2027 06:32:36.322            28.255              Murmansk2           882.969
       103   02 Jun 2027 06:33:43.686   02 Jun 2027 06:33:45.590             1.904              Murmansk2            59.500
       104   02 Jun 2027 07:01:12.961   02 Jun 2027 07:03:17.576           124.615            RioGallegos          3894.219
       105   02 Jun 2027 07:04:24.153   02 Jun 2027 07:05:10.490            46.337            RioGallegos          1448.031
       106   02 Jun 2027 07:06:01.101   02 Jun 2027 07:06:27.264            26.163            RioGallegos           817.594
       107   02 Jun 2027 07:06:48.796   02 Jun 2027 07:07:42.503            53.707            RioGallegos          1678.344
       108   02 Jun 2027 07:08:18.827   02 Jun 2027 07:09:20.577            61.750            RioGallegos          1929.688
       109   02 Jun 2027 07:10:37.315   02 Jun 2027 07:11:01.198            23.883            RioGallegos           746.344
       110   02 Jun 2027 07:35:43.179   02 Jun 2027 07:37:44.757           121.578                Sumatra          3799.312
       111   02 Jun 2027 07:41:00.296   02 Jun 2027 07:41:04.366             4.070                Sumatra           127.188
       112   02 Jun 2027 07:42:16.584   02 Jun 2027 07:43:06.643            50.059                Sumatra          1564.344
       113   02 Jun 2027 07:44:04.680   02 Jun 2027 07:44:35.089            30.409                Sumatra           950.281
       114   02 Jun 2027 07:45:15.629   02 Jun 2027 07:52:11.278           415.649                  Delhi         12989.031
       115   02 Jun 2027 07:57:57.390   02 Jun 2027 08:00:15.095           137.705                 Moscow          4303.281
       116   02 Jun 2027 08:00:38.826   02 Jun 2027 08:00:58.892            20.066                 Moscow           627.063
       117   02 Jun 2027 08:01:16.694   02 Jun 2027 08:01:57.296            40.602                 Moscow          1268.813
       118   02 Jun 2027 08:02:05.556   02 Jun 2027 08:02:37.682            32.126              Murmansk1          1003.938
       119   02 Jun 2027 08:03:08.394   02 Jun 2027 08:03:41.519            33.125                 Moscow          1035.156
       120   02 Jun 2027 09:20:12.236   02 Jun 2027 09:21:18.105            65.869                  Delhi          2058.406
       121   02 Jun 2027 09:23:56.513   02 Jun 2027 09:25:10.557            74.044                  Delhi          2313.875
       122   02 Jun 2027 09:33:11.399   02 Jun 2027 09:33:13.155             1.756                 Moscow            54.875
       123   02 Jun 2027 09:33:17.730   02 Jun 2027 09:33:48.378            30.648              Murmansk1           957.750
       124   02 Jun 2027 09:34:02.971   02 Jun 2027 09:34:29.101            26.130              Murmansk1           816.562
       125   02 Jun 2027 09:34:29.101   02 Jun 2027 09:34:45.241            16.140              Murmansk2           504.375
       126   02 Jun 2027 09:34:48.941   02 Jun 2027 09:35:03.064            14.123                 Moscow           441.344
       127   02 Jun 2027 09:35:06.476   02 Jun 2027 09:35:11.529             5.053                Novosib           157.906
       128   02 Jun 2027 09:35:24.589   02 Jun 2027 09:35:47.084            22.495                Novosib           702.969
       129   02 Jun 2027 09:35:52.680   02 Jun 2027 09:37:14.386            81.706                 Moscow          2553.313
       130   02 Jun 2027 09:37:21.003   02 Jun 2027 09:37:48.436            27.433              Murmansk1           857.281
       131   02 Jun 2027 09:37:55.593   02 Jun 2027 09:39:45.069           109.476                 Moscow          3421.125
       132   02 Jun 2027 11:07:57.734   02 Jun 2027 11:08:09.017            11.283              Murmansk1           352.594
       133   02 Jun 2027 11:08:36.494   02 Jun 2027 11:09:00.904            24.410                 Moscow           762.813
       134   02 Jun 2027 11:09:39.810   02 Jun 2027 11:10:43.651            63.841                 Moscow          1995.031
       135   02 Jun 2027 11:11:01.640   02 Jun 2027 11:12:11.663            70.023              Murmansk2          2188.219
       136   02 Jun 2027 11:12:31.274   02 Jun 2027 11:13:40.575            69.301              Murmansk2          2165.656
       137   02 Jun 2027 12:18:30.847   02 Jun 2027 12:22:12.178           221.331               CapeTown          6916.594
       138   02 Jun 2027 12:23:21.131   02 Jun 2027 12:24:51.927            90.796               CapeTown          2837.375
       139   02 Jun 2027 12:45:10.761   02 Jun 2027 12:45:44.067            33.306              Murmansk1          1040.812
       140   02 Jun 2027 12:46:15.227   02 Jun 2027 12:46:21.247             6.020              Murmansk1           188.125
       141   02 Jun 2027 12:54:03.612   02 Jun 2027 12:54:18.042            14.430              Murmansk2           450.937
       142   02 Jun 2027 12:58:42.669   02 Jun 2027 13:04:40.153           357.484                Anadyr2         11171.375
       143   02 Jun 2027 13:06:13.682   02 Jun 2027 13:08:14.383           120.701                Anadyr2          3771.906
       144   02 Jun 2027 14:34:20.377   02 Jun 2027 14:35:34.655            74.278                Anadyr1          2321.187
       145   02 Jun 2027 14:36:58.759   02 Jun 2027 14:37:21.054            22.295                Anadyr2           696.719
       146   02 Jun 2027 14:37:29.475   02 Jun 2027 14:46:17.312           527.837               Magadan1         16494.906
       147   02 Jun 2027 16:12:34.954   02 Jun 2027 16:13:40.842            65.888               Magadan1          2059.000
       148   02 Jun 2027 16:16:33.659   02 Jun 2027 16:16:43.791            10.132               Magadan1           316.625
       149   02 Jun 2027 17:06:35.270   02 Jun 2027 17:11:55.741           320.471            RioGallegos         10014.719
       150   02 Jun 2027 17:48:16.467   02 Jun 2027 17:48:22.134             5.667                Norilsk           177.094
       151   02 Jun 2027 17:49:21.603   02 Jun 2027 17:50:00.753            39.150                Norilsk          1223.438
       152   02 Jun 2027 17:53:12.965   02 Jun 2027 17:59:54.626           401.661                Irkutsk         12551.906
       153   02 Jun 2027 18:08:12.438   02 Jun 2027 18:16:44.744           512.306                Sumatra         16009.563
       154   02 Jun 2027 19:31:52.169   02 Jun 2027 19:35:09.238           197.069                Novosib          6158.406
       155   02 Jun 2027 19:38:45.127   02 Jun 2027 19:43:57.799           312.672                  Delhi          9771.000
       156   02 Jun 2027 21:03:00.913   02 Jun 2027 21:08:09.647           308.734              Murmansk2          9647.938
       157   02 Jun 2027 22:41:01.458   02 Jun 2027 22:44:07.464           186.006              Murmansk1          5812.687
       158   02 Jun 2027 22:48:47.053   02 Jun 2027 22:50:12.203            85.150                 Moscow          2660.937
       159   02 Jun 2027 23:08:08.126   02 Jun 2027 23:16:21.809           493.683               CapeTown         15427.594
       160   03 Jun 2027 02:21:15.410   03 Jun 2027 02:21:20.329             4.919               CapeTown           153.719
       161   03 Jun 2027 02:22:55.845   03 Jun 2027 02:23:16.615            20.770               CapeTown           649.063
       162   03 Jun 2027 03:20:30.609   03 Jun 2027 03:21:13.375            42.766               Magadan1          1336.438
       163   03 Jun 2027 03:21:15.528   03 Jun 2027 03:21:25.394             9.866                Anadyr1           308.312
       164   03 Jun 2027 03:21:37.774   03 Jun 2027 03:21:53.466            15.692                Anadyr1           490.375
       165   03 Jun 2027 03:22:15.640   03 Jun 2027 03:24:38.342           142.702                Anadyr1          4459.438
       166   03 Jun 2027 03:25:00.389   03 Jun 2027 03:25:24.798            24.409               Magadan2           762.781
       167   03 Jun 2027 03:25:24.798   03 Jun 2027 03:25:41.255            16.457               Magadan1           514.281
       168   03 Jun 2027 03:25:41.255   03 Jun 2027 03:26:06.846            25.591               Magadan2           799.719
       169   03 Jun 2027 04:09:48.573   03 Jun 2027 04:10:04.173            15.600            RioGallegos           487.500
       170   03 Jun 2027 04:56:39.448   03 Jun 2027 04:56:53.912            14.464                Irkutsk           452.000
       171   03 Jun 2027 04:57:13.358   03 Jun 2027 04:57:22.124             8.766               Magadan2           273.937
       172   03 Jun 2027 04:57:36.888   03 Jun 2027 05:00:58.762           201.874                Anadyr1          6308.562
       173   03 Jun 2027 05:01:06.842   03 Jun 2027 05:02:07.387            60.545               Magadan1          1892.031
       174   03 Jun 2027 05:03:37.347   03 Jun 2027 05:04:00.590            23.243                Norilsk           726.344
       175   03 Jun 2027 05:06:22.597   03 Jun 2027 05:06:22.750             0.153                Norilsk             4.781
       176   03 Jun 2027 05:06:31.139   03 Jun 2027 05:06:34.593             3.454                Norilsk           107.937
       177   03 Jun 2027 05:37:07.108   03 Jun 2027 05:40:46.863           219.755            RioGallegos          6867.344
       178   03 Jun 2027 05:41:14.236   03 Jun 2027 05:42:07.953            53.717            RioGallegos          1678.656
       179   03 Jun 2027 06:13:46.796   03 Jun 2027 06:22:30.287           523.491                Sumatra         16359.094
       180   03 Jun 2027 06:33:08.188   03 Jun 2027 06:33:30.280            22.092                Novosib           690.375
       181   03 Jun 2027 06:33:40.752   03 Jun 2027 06:33:50.766            10.014                Irkutsk           312.937
       182   03 Jun 2027 06:34:06.576   03 Jun 2027 06:34:16.709            10.133                Novosib           316.656
       183   03 Jun 2027 06:34:29.755   03 Jun 2027 06:35:03.927            34.172                Novosib          1067.875
       184   03 Jun 2027 06:35:13.530   03 Jun 2027 06:35:43.019            29.489                Norilsk           921.531
       185   03 Jun 2027 06:35:46.328   03 Jun 2027 06:35:47.106             0.778                Novosib            24.313
       186   03 Jun 2027 06:36:10.132   03 Jun 2027 06:36:52.579            42.447              Murmansk2          1326.469
       187   03 Jun 2027 06:37:25.740   03 Jun 2027 06:38:20.581            54.841                Novosib          1713.781
       188   03 Jun 2027 06:38:21.910   03 Jun 2027 06:38:40.397            18.487              Murmansk1           577.719
       189   03 Jun 2027 07:13:30.552   03 Jun 2027 07:13:54.624            24.072            RioGallegos           752.250
       190   03 Jun 2027 07:15:30.011   03 Jun 2027 07:15:51.285            21.274            RioGallegos           664.812
       191   03 Jun 2027 07:17:12.414   03 Jun 2027 07:17:17.780             5.366            RioGallegos           167.688
       192   03 Jun 2027 07:22:41.013   03 Jun 2027 07:22:48.633             7.620            RioGallegos           238.125
       193   03 Jun 2027 07:47:52.559   03 Jun 2027 07:49:21.924            89.365                Sumatra          2792.656
       194   03 Jun 2027 07:50:38.865   03 Jun 2027 07:51:29.607            50.742                Sumatra          1585.687
       195   03 Jun 2027 07:56:49.218   03 Jun 2027 07:59:52.964           183.746                  Delhi          5742.062
       196   03 Jun 2027 08:00:25.843   03 Jun 2027 08:01:20.126            54.283                  Delhi          1696.344
       197   03 Jun 2027 08:02:14.240   03 Jun 2027 08:02:43.565            29.325                  Delhi           916.406
       198   03 Jun 2027 08:08:41.666   03 Jun 2027 08:08:55.536            13.870                Irkutsk           433.437
       199   03 Jun 2027 08:08:57.536   03 Jun 2027 08:09:16.578            19.042                Norilsk           595.062
       200   03 Jun 2027 08:09:31.111   03 Jun 2027 08:10:19.720            48.609              Murmansk1          1519.031
       201   03 Jun 2027 08:10:22.632   03 Jun 2027 08:10:38.726            16.094              Murmansk2           502.937
       202   03 Jun 2027 08:10:38.726   03 Jun 2027 08:11:26.355            47.629              Murmansk1          1488.406
       203   03 Jun 2027 08:11:33.841   03 Jun 2027 08:11:50.694            16.853                Norilsk           526.656
       204   03 Jun 2027 08:11:53.717   03 Jun 2027 08:12:24.502            30.785                Novosib           962.031
       205   03 Jun 2027 08:12:31.488   03 Jun 2027 08:13:09.208            37.720                Novosib          1178.750
       206   03 Jun 2027 08:13:11.892   03 Jun 2027 08:14:00.619            48.727              Murmansk1          1522.719
       207   03 Jun 2027 08:17:03.410   03 Jun 2027 08:17:04.687             1.277              Murmansk1            39.906
       208   03 Jun 2027 08:20:32.534   03 Jun 2027 08:20:52.729            20.195              Murmansk1           631.094
       209   03 Jun 2027 09:32:32.225   03 Jun 2027 09:36:10.501           218.276                  Delhi          6821.125
       210   03 Jun 2027 09:45:15.145   03 Jun 2027 09:45:35.598            20.453              Murmansk1           639.156
       211   03 Jun 2027 09:45:52.275   03 Jun 2027 09:46:20.690            28.415              Murmansk1           887.969
       212   03 Jun 2027 09:46:21.583   03 Jun 2027 09:47:02.585            41.002                Novosib          1281.312
       213   03 Jun 2027 09:47:10.061   03 Jun 2027 09:47:22.971            12.910                 Moscow           403.438
       214   03 Jun 2027 09:47:28.623   03 Jun 2027 09:48:03.022            34.399                 Moscow          1074.969
       215   03 Jun 2027 09:48:05.068   03 Jun 2027 09:48:09.693             4.625              Murmansk2           144.531
       216   03 Jun 2027 09:48:14.530   03 Jun 2027 09:48:27.515            12.985              Murmansk1           405.781
       217   03 Jun 2027 09:48:29.447   03 Jun 2027 09:48:48.335            18.888              Murmansk2           590.250
       218   03 Jun 2027 09:48:48.335   03 Jun 2027 09:49:11.884            23.549              Murmansk1           735.906
       219   03 Jun 2027 09:49:18.295   03 Jun 2027 09:49:21.578             3.283                 Moscow           102.594
       220   03 Jun 2027 09:49:26.383   03 Jun 2027 09:50:17.830            51.447                 Moscow          1607.719
       221   03 Jun 2027 09:52:06.519   03 Jun 2027 09:52:23.677            17.158                 Moscow           536.188
       222   03 Jun 2027 11:22:37.741   03 Jun 2027 11:22:53.789            16.048              Murmansk2           501.500
       223   03 Jun 2027 11:23:06.314   03 Jun 2027 11:23:11.319             5.005              Murmansk1           156.406
       224   03 Jun 2027 11:23:21.757   03 Jun 2027 11:23:43.971            22.214                 Moscow           694.188
       225   03 Jun 2027 11:23:52.956   03 Jun 2027 11:23:56.328             3.372                 Moscow           105.375
       226   03 Jun 2027 11:24:09.722   03 Jun 2027 11:24:42.534            32.812              Murmansk1          1025.375
       227   03 Jun 2027 11:28:23.613   03 Jun 2027 11:28:26.013             2.400              Murmansk1            75.000
       228   03 Jun 2027 11:29:45.039   03 Jun 2027 11:29:58.802            13.763                Norilsk           430.094
       229   03 Jun 2027 11:37:52.741   03 Jun 2027 11:38:06.388            13.647                Anadyr2           426.469
       230   03 Jun 2027 12:30:15.890   03 Jun 2027 12:34:14.451           238.561               CapeTown          7455.031
       231   03 Jun 2027 12:57:27.145   03 Jun 2027 12:58:19.194            52.049              Murmansk1          1626.531
       232   03 Jun 2027 12:59:45.038   03 Jun 2027 13:00:09.976            24.938              Murmansk2           779.312
       233   03 Jun 2027 13:00:38.876   03 Jun 2027 13:01:39.897            61.021              Murmansk2          1906.906
       234   03 Jun 2027 13:06:58.980   03 Jun 2027 13:07:19.920            20.940              Murmansk2           654.375
       235   03 Jun 2027 13:10:39.254   03 Jun 2027 13:17:01.061           381.807                Anadyr2         11931.469
       236   03 Jun 2027 14:46:21.264   03 Jun 2027 14:47:33.589            72.325                Anadyr2          2260.156
       237   03 Jun 2027 14:47:39.580   03 Jun 2027 14:48:50.954            71.374                Anadyr1          2230.437
       238   03 Jun 2027 14:49:18.029   03 Jun 2027 14:55:12.128           354.099               Magadan1         11065.594
       239   03 Jun 2027 14:55:24.379   03 Jun 2027 14:58:56.133           211.754               Magadan2          6617.313
       240   03 Jun 2027 16:24:34.645   03 Jun 2027 16:25:22.939            48.294               Magadan1          1509.188
       241   03 Jun 2027 17:17:52.693   03 Jun 2027 17:25:07.909           435.216            RioGallegos         13600.500
       242   03 Jun 2027 18:02:13.774   03 Jun 2027 18:03:08.741            54.967                Norilsk          1717.719
       243   03 Jun 2027 18:04:54.796   03 Jun 2027 18:06:07.632            72.836                Irkutsk          2276.125
       244   03 Jun 2027 18:06:09.983   03 Jun 2027 18:06:30.273            20.290                Norilsk           634.063
       245   03 Jun 2027 18:07:33.293   03 Jun 2027 18:11:09.471           216.178                Irkutsk          6755.562
       246   03 Jun 2027 18:19:25.224   03 Jun 2027 18:27:15.401           470.177                Sumatra         14693.031
       247   03 Jun 2027 19:49:35.283   03 Jun 2027 19:57:20.530           465.247                  Delhi         14538.969
       248   03 Jun 2027 21:14:48.256   03 Jun 2027 21:15:03.275            15.019              Murmansk2           469.344
       249   03 Jun 2027 21:15:58.460   03 Jun 2027 21:21:02.565           304.105              Murmansk1          9503.281
       250   03 Jun 2027 22:53:55.248   03 Jun 2027 22:54:11.541            16.293              Murmansk2           509.156
       251   03 Jun 2027 22:55:58.811   03 Jun 2027 22:56:39.835            41.024                 Moscow          1282.000
       252   03 Jun 2027 23:02:16.000   03 Jun 2027 23:02:20.997             4.997                 Moscow           156.156
       253   03 Jun 2027 23:19:24.056   03 Jun 2027 23:20:19.109            55.053               CapeTown          1720.406
       254   03 Jun 2027 23:21:34.239   03 Jun 2027 23:26:48.074           313.835               CapeTown          9807.344
       255   04 Jun 2027 00:56:31.713   04 Jun 2027 00:57:11.521            39.808               CapeTown          1244.000
       256   04 Jun 2027 00:58:29.655   04 Jun 2027 00:58:35.087             5.432               CapeTown           169.750
       257   04 Jun 2027 01:50:44.423   04 Jun 2027 01:52:02.836            78.413               Magadan2          2450.406
       258   04 Jun 2027 01:52:16.256   04 Jun 2027 01:52:39.806            23.550               Magadan1           735.937
       259   04 Jun 2027 01:58:36.659   04 Jun 2027 01:58:57.383            20.724               Magadan2           647.625
       260   04 Jun 2027 02:01:36.255   04 Jun 2027 02:01:55.643            19.388               Magadan2           605.875
       261   04 Jun 2027 02:02:03.696   04 Jun 2027 02:03:42.102            98.406              Murmansk2          3075.187
       262   04 Jun 2027 02:05:32.280   04 Jun 2027 02:06:16.511            44.231                 Moscow          1382.219
       263   04 Jun 2027 02:10:00.780   04 Jun 2027 02:10:13.497            12.717                 Moscow           397.406
       264   04 Jun 2027 02:13:05.131   04 Jun 2027 02:13:40.090            34.959                 Moscow          1092.469
       265   04 Jun 2027 03:31:24.719   04 Jun 2027 03:31:25.789             1.070               Magadan1            33.438
       266   04 Jun 2027 03:32:40.594   04 Jun 2027 03:33:16.561            35.967                Anadyr1          1123.969
       267   04 Jun 2027 03:33:16.980   04 Jun 2027 03:33:51.682            34.702               Magadan1          1084.438
       268   04 Jun 2027 03:34:17.913   04 Jun 2027 03:35:46.338            88.425                Anadyr1          2763.281
       269   04 Jun 2027 03:37:03.187   04 Jun 2027 03:37:09.668             6.481               Magadan2           202.531
       270   04 Jun 2027 04:20:25.238   04 Jun 2027 04:21:16.016            50.778            RioGallegos          1586.813
       271   04 Jun 2027 05:05:27.055   04 Jun 2027 05:05:54.233            27.178                Irkutsk           849.313
       272   04 Jun 2027 05:08:59.006   04 Jun 2027 05:09:18.490            19.484                Irkutsk           608.875
       273   04 Jun 2027 05:10:22.116   04 Jun 2027 05:12:17.546           115.430                Irkutsk          3607.187
       274   04 Jun 2027 05:12:40.917   04 Jun 2027 05:13:45.925            65.008               Magadan1          2031.500
       275   04 Jun 2027 05:14:56.654   04 Jun 2027 05:14:58.757             2.103                Novosib            65.719
       276   04 Jun 2027 05:15:50.740   04 Jun 2027 05:16:12.235            21.495                Norilsk           671.719
       277   04 Jun 2027 05:18:22.297   04 Jun 2027 05:18:24.421             2.124                Norilsk            66.375
       278   04 Jun 2027 05:19:15.862   04 Jun 2027 05:19:22.129             6.267                Norilsk           195.844
       279   04 Jun 2027 05:49:00.099   04 Jun 2027 05:51:27.088           146.989            RioGallegos          4593.406
       280   04 Jun 2027 05:52:00.255   04 Jun 2027 05:52:55.431            55.176            RioGallegos          1724.250
       281   04 Jun 2027 05:53:35.913   04 Jun 2027 05:53:56.096            20.183            RioGallegos           630.719
       282   04 Jun 2027 05:54:38.232   04 Jun 2027 05:55:32.977            54.745            RioGallegos          1710.781
       283   04 Jun 2027 05:57:21.426   04 Jun 2027 05:57:53.154            31.728            RioGallegos           991.500
       284   04 Jun 2027 05:58:09.918   04 Jun 2027 05:58:27.512            17.594            RioGallegos           549.813
       285   04 Jun 2027 06:25:06.901   04 Jun 2027 06:26:14.693            67.792                Sumatra          2118.500
       286   04 Jun 2027 06:27:37.541   04 Jun 2027 06:32:28.325           290.784                Sumatra          9087.000
       287   04 Jun 2027 06:44:44.691   04 Jun 2027 06:44:48.287             3.596                Norilsk           112.375
       288   04 Jun 2027 06:45:04.067   04 Jun 2027 06:45:18.103            14.036                Irkutsk           438.625
       289   04 Jun 2027 06:45:34.661   04 Jun 2027 06:45:57.449            22.788                Norilsk           712.125
       290   04 Jun 2027 06:46:05.926   04 Jun 2027 06:46:32.841            26.915                Novosib           841.094
       291   04 Jun 2027 06:47:05.032   04 Jun 2027 06:47:07.207             2.175                Norilsk            67.969
       292   04 Jun 2027 06:47:09.888   04 Jun 2027 06:47:47.919            38.031                Novosib          1188.469
       293   04 Jun 2027 06:47:57.858   04 Jun 2027 06:48:01.037             3.179                Novosib            99.344
       294   04 Jun 2027 06:48:06.139   04 Jun 2027 06:49:03.796            57.657              Murmansk1          1801.781
       295   04 Jun 2027 06:49:07.053   04 Jun 2027 06:50:12.835            65.782                Irkutsk          2055.687
       296   04 Jun 2027 06:50:34.645   04 Jun 2027 06:51:06.637            31.992                Novosib           999.750
       297   04 Jun 2027 07:25:52.661   04 Jun 2027 07:25:56.355             3.694            RioGallegos           115.437
       298   04 Jun 2027 07:26:32.336   04 Jun 2027 07:26:36.200             3.864            RioGallegos           120.750
       299   04 Jun 2027 07:27:45.474   04 Jun 2027 07:27:53.739             8.265            RioGallegos           258.281
       300   04 Jun 2027 07:28:39.887   04 Jun 2027 07:29:13.426            33.539            RioGallegos          1048.094
       301   04 Jun 2027 08:00:08.359   04 Jun 2027 08:01:06.332            57.973                Sumatra          1811.656
       302   04 Jun 2027 08:02:24.732   04 Jun 2027 08:03:47.045            82.313                Sumatra          2572.281
       303   04 Jun 2027 08:08:29.376   04 Jun 2027 08:10:19.262           109.886                  Delhi          3433.937
       304   04 Jun 2027 08:12:24.167   04 Jun 2027 08:13:05.459            41.292                  Delhi          1290.375
       305   04 Jun 2027 08:21:33.275   04 Jun 2027 08:22:18.993            45.718                Norilsk          1428.688
       306   04 Jun 2027 08:22:23.300   04 Jun 2027 08:22:28.542             5.242                Irkutsk           163.812
       307   04 Jun 2027 08:22:29.334   04 Jun 2027 08:22:35.403             6.069                 Moscow           189.656
       308   04 Jun 2027 08:22:38.693   04 Jun 2027 08:23:16.298            37.605              Murmansk2          1175.156
       309   04 Jun 2027 08:23:16.646   04 Jun 2027 08:23:41.667            25.021                 Moscow           781.906
       310   04 Jun 2027 08:23:43.659   04 Jun 2027 08:24:20.755            37.096                 Moscow          1159.250
       311   04 Jun 2027 08:24:31.454   04 Jun 2027 08:25:28.242            56.788                Novosib          1774.625
       312   04 Jun 2027 08:29:58.906   04 Jun 2027 08:30:27.003            28.097              Murmansk1           878.031
       313   04 Jun 2027 09:44:59.940   04 Jun 2027 09:47:52.727           172.787                  Delhi          5399.594
       314   04 Jun 2027 09:57:22.891   04 Jun 2027 09:57:42.232            19.341              Murmansk1           604.406
       315   04 Jun 2027 09:57:50.105   04 Jun 2027 09:58:22.184            32.079              Murmansk1          1002.469
       316   04 Jun 2027 09:58:32.086   04 Jun 2027 09:58:33.739             1.653              Murmansk1            51.656
       317   04 Jun 2027 09:58:37.291   04 Jun 2027 09:59:07.236            29.945                 Moscow           935.781
       318   04 Jun 2027 09:59:12.065   04 Jun 2027 10:00:15.000            62.935              Murmansk1          1966.719
       319   04 Jun 2027 10:00:20.412   04 Jun 2027 10:00:36.224            15.812              Murmansk1           494.125
       320   04 Jun 2027 10:00:37.835   04 Jun 2027 10:01:55.193            77.358                Novosib          2417.437
       321   04 Jun 2027 11:48:17.475   04 Jun 2027 11:52:23.786           246.311                Anadyr2          7697.219
       322   04 Jun 2027 12:44:39.544   04 Jun 2027 12:45:28.644            49.100               CapeTown          1534.375
       323   04 Jun 2027 13:10:09.346   04 Jun 2027 13:10:17.379             8.033              Murmansk2           251.031
       324   04 Jun 2027 13:11:45.641   04 Jun 2027 13:12:11.630            25.989              Murmansk2           812.156
       325   04 Jun 2027 13:13:41.537   04 Jun 2027 13:13:56.333            14.796              Murmansk1           462.375
       326   04 Jun 2027 13:14:07.423   04 Jun 2027 13:14:21.077            13.654              Murmansk1           426.687
       327   04 Jun 2027 13:19:39.803   04 Jun 2027 13:19:44.893             5.090              Murmansk2           159.063
       328   04 Jun 2027 13:22:36.860   04 Jun 2027 13:26:54.229           257.369                Anadyr1          8042.781
       329   04 Jun 2027 13:27:59.627   04 Jun 2027 13:28:04.912             5.285                Anadyr1           165.156
       330   04 Jun 2027 13:29:14.896   04 Jun 2027 13:31:10.719           115.823                Anadyr2          3619.469
       331   04 Jun 2027 14:52:03.951   04 Jun 2027 14:53:30.943            86.992              Murmansk1          2718.500
       332   04 Jun 2027 14:58:22.329   04 Jun 2027 14:59:25.779            63.450                Anadyr1          1982.813
       333   04 Jun 2027 15:00:14.302   04 Jun 2027 15:00:52.112            37.810                Anadyr2          1181.562
       334   04 Jun 2027 15:01:09.448   04 Jun 2027 15:04:10.156           180.708               Magadan2          5647.125
       335   04 Jun 2027 15:04:37.291   04 Jun 2027 15:06:54.808           137.517               Magadan1          4297.406
       336   04 Jun 2027 15:08:14.813   04 Jun 2027 15:10:38.681           143.868               Magadan2          4495.875
       337   04 Jun 2027 16:36:34.852   04 Jun 2027 16:38:43.902           129.050               Magadan1          4032.813
       338   04 Jun 2027 17:29:25.128   04 Jun 2027 17:36:16.134           411.006            RioGallegos         12843.937
       339   04 Jun 2027 18:14:24.594   04 Jun 2027 18:17:12.708           168.114                Norilsk          5253.562
       340   04 Jun 2027 18:17:57.132   04 Jun 2027 18:19:58.911           121.779                Irkutsk          3805.594
       341   04 Jun 2027 18:20:44.000   04 Jun 2027 18:22:40.992           116.992                Irkutsk          3656.000
       342   04 Jun 2027 18:31:58.817   04 Jun 2027 18:32:11.587            12.770                Sumatra           399.063
       343   04 Jun 2027 18:34:17.667   04 Jun 2027 18:37:52.543           214.876                Sumatra          6714.875
       344   04 Jun 2027 19:52:19.174   04 Jun 2027 19:53:47.837            88.663                Novosib          2770.719
       345   04 Jun 2027 19:54:29.377   04 Jun 2027 19:55:00.844            31.467                Novosib           983.344
       346   04 Jun 2027 20:00:51.931   04 Jun 2027 20:08:42.096           470.165                  Delhi         14692.656
       347   04 Jun 2027 21:26:39.995   04 Jun 2027 21:28:09.832            89.837              Murmansk1          2807.406
       348   04 Jun 2027 21:28:12.113   04 Jun 2027 21:32:27.209           255.096              Murmansk2          7971.750
       349   04 Jun 2027 21:33:34.010   04 Jun 2027 21:33:49.016            15.006              Murmansk1           468.938
       350   04 Jun 2027 23:05:45.117   04 Jun 2027 23:07:08.142            83.025                 Moscow          2594.531
       351   04 Jun 2027 23:12:33.026   04 Jun 2027 23:12:50.717            17.691                 Moscow           552.844
       352   04 Jun 2027 23:30:49.060   04 Jun 2027 23:33:52.671           183.611               CapeTown          5737.844
       353   04 Jun 2027 23:35:53.647   04 Jun 2027 23:37:45.658           112.011               CapeTown          3500.344
       354   05 Jun 2027 00:46:02.844   05 Jun 2027 00:46:39.890            37.046                 Moscow          1157.688
       355   05 Jun 2027 00:50:32.919   05 Jun 2027 00:50:41.525             8.606                 Moscow           268.938
       356   05 Jun 2027 01:05:25.543   05 Jun 2027 01:06:47.230            81.687               CapeTown          2552.719
       357   05 Jun 2027 02:02:21.206   05 Jun 2027 02:02:34.192            12.986                Anadyr1           405.813
       358   05 Jun 2027 02:03:08.048   05 Jun 2027 02:03:36.619            28.571                Anadyr1           892.844
       359   05 Jun 2027 02:03:43.742   05 Jun 2027 02:05:42.380           118.638               Magadan2          3707.438
       360   05 Jun 2027 02:07:55.325   05 Jun 2027 02:08:01.169             5.844               Magadan2           182.625
       361   05 Jun 2027 02:10:17.965   05 Jun 2027 02:10:23.828             5.863                Norilsk           183.219
       362   05 Jun 2027 02:10:37.226   05 Jun 2027 02:11:24.018            46.792               Magadan1          1462.250
       363   05 Jun 2027 02:14:04.265   05 Jun 2027 02:14:20.803            16.538              Murmansk2           516.812
       364   05 Jun 2027 02:14:20.803   05 Jun 2027 02:14:45.298            24.495              Murmansk1           765.469
       365   05 Jun 2027 02:15:21.403   05 Jun 2027 02:15:36.199            14.796              Murmansk1           462.375
       366   05 Jun 2027 02:15:59.365   05 Jun 2027 02:16:27.770            28.405              Murmansk1           887.656
       367   05 Jun 2027 02:17:37.913   05 Jun 2027 02:18:22.680            44.767                 Moscow          1398.969
       368   05 Jun 2027 02:21:19.085   05 Jun 2027 02:21:29.675            10.590                 Moscow           330.937
       369   05 Jun 2027 02:23:13.691   05 Jun 2027 02:23:25.207            11.516                 Moscow           359.875
       370   05 Jun 2027 02:24:26.091   05 Jun 2027 02:24:27.372             1.281                 Moscow            40.031
       371   05 Jun 2027 02:24:50.322   05 Jun 2027 02:27:08.746           138.424                 Moscow          4325.750
       372   05 Jun 2027 03:45:17.433   05 Jun 2027 03:45:43.921            26.488                Anadyr1           827.750
       373   05 Jun 2027 03:46:04.142   05 Jun 2027 03:47:18.807            74.665               Magadan1          2333.281
       374   05 Jun 2027 03:47:47.281   05 Jun 2027 03:47:51.918             4.637                Anadyr1           144.906
       375   05 Jun 2027 03:47:55.353   05 Jun 2027 03:48:05.661            10.308               Magadan2           322.125
       376   05 Jun 2027 03:48:19.888   05 Jun 2027 03:49:28.228            68.340                Anadyr2          2135.625
       377   05 Jun 2027 03:49:57.362   05 Jun 2027 03:50:13.342            15.980                Anadyr2           499.375
       378   05 Jun 2027 04:30:32.089   05 Jun 2027 04:32:03.807            91.718            RioGallegos          2866.187
       379   05 Jun 2027 05:16:45.714   05 Jun 2027 05:17:35.450            49.736                Irkutsk          1554.250
       380   05 Jun 2027 05:21:57.852   05 Jun 2027 05:22:14.509            16.657               Magadan1           520.531
       381   05 Jun 2027 05:22:27.560   05 Jun 2027 05:23:41.375            73.815                Novosib          2306.719
       382   05 Jun 2027 05:23:58.465   05 Jun 2027 05:25:04.442            65.977                Irkutsk          2061.781
       383   05 Jun 2027 05:25:07.185   05 Jun 2027 05:25:16.275             9.090               Magadan1           284.062
       384   05 Jun 2027 05:25:16.275   05 Jun 2027 05:25:40.956            24.681               Magadan2           771.281
       385   05 Jun 2027 05:25:46.679   05 Jun 2027 05:25:55.750             9.071               Magadan1           283.469
       386   05 Jun 2027 06:00:56.271   05 Jun 2027 06:04:56.536           240.265            RioGallegos          7508.281
       387   05 Jun 2027 06:36:38.023   05 Jun 2027 06:43:23.627           405.604                Sumatra         12675.125
       388   05 Jun 2027 06:56:53.529   05 Jun 2027 06:56:58.447             4.918                Irkutsk           153.688
       389   05 Jun 2027 06:57:02.878   05 Jun 2027 06:57:15.685            12.807                Novosib           400.219
       390   05 Jun 2027 06:57:56.578   05 Jun 2027 06:58:27.999            31.421                Irkutsk           981.906
       391   05 Jun 2027 06:59:01.551   05 Jun 2027 06:59:20.721            19.170                Norilsk           599.063
       392   05 Jun 2027 06:59:36.520   05 Jun 2027 06:59:39.538             3.018                Norilsk            94.313
       393   05 Jun 2027 07:00:00.102   05 Jun 2027 07:00:17.544            17.442              Murmansk1           545.062
       394   05 Jun 2027 07:00:23.292   05 Jun 2027 07:00:54.167            30.875              Murmansk2           964.844
       395   05 Jun 2027 07:00:57.882   05 Jun 2027 07:02:12.712            74.830                Irkutsk          2338.437
       396   05 Jun 2027 07:02:58.212   05 Jun 2027 07:03:21.124            22.912              Murmansk1           716.000
       397   05 Jun 2027 07:38:39.094   05 Jun 2027 07:39:37.574            58.480            RioGallegos          1827.500
       398   05 Jun 2027 08:12:31.792   05 Jun 2027 08:14:03.636            91.844                Sumatra          2870.125
       399   05 Jun 2027 08:20:15.427   05 Jun 2027 08:24:02.232           226.805                  Delhi          7087.656
       400   05 Jun 2027 08:33:45.819   05 Jun 2027 08:34:41.860            56.041                 Moscow          1751.281
       401   05 Jun 2027 08:34:51.556   05 Jun 2027 08:35:17.358            25.802                 Moscow           806.312
       402   05 Jun 2027 08:35:19.122   05 Jun 2027 08:35:42.184            23.062              Murmansk2           720.687
       403   05 Jun 2027 08:35:51.270   05 Jun 2027 08:37:07.016            75.746                 Moscow          2367.062
       404   05 Jun 2027 08:37:13.889   05 Jun 2027 08:38:12.597            58.708                 Moscow          1834.625
       405   05 Jun 2027 08:38:52.411   05 Jun 2027 08:40:31.901            99.490                 Moscow          3109.062
       406   05 Jun 2027 09:57:37.467   05 Jun 2027 09:59:22.898           105.431                  Delhi          3294.719
       407   05 Jun 2027 10:10:21.400   05 Jun 2027 10:10:29.229             7.829                Novosib           244.656
       408   05 Jun 2027 10:10:33.698   05 Jun 2027 10:11:12.858            39.160              Murmansk1          1223.750
       409   05 Jun 2027 10:11:33.273   05 Jun 2027 10:11:53.788            20.515                 Moscow           641.094
       410   05 Jun 2027 10:12:04.709   05 Jun 2027 10:12:24.554            19.845              Murmansk1           620.156
       411   05 Jun 2027 10:12:26.759   05 Jun 2027 10:12:55.891            29.132              Murmansk1           910.375
       412   05 Jun 2027 10:13:26.997   05 Jun 2027 10:14:10.871            43.874              Murmansk1          1371.063
       413   05 Jun 2027 10:16:38.103   05 Jun 2027 10:16:59.872            21.769                 Moscow           680.281
       414   05 Jun 2027 11:59:47.857   05 Jun 2027 12:05:32.976           345.119                Anadyr2         10784.969
       415   05 Jun 2027 13:22:15.685   05 Jun 2027 13:23:04.432            48.747              Murmansk1          1523.344
       416   05 Jun 2027 13:24:13.206   05 Jun 2027 13:24:31.656            18.450              Murmansk1           576.562
       417   05 Jun 2027 13:29:43.441   05 Jun 2027 13:30:24.523            41.082              Murmansk1          1283.812
       418   05 Jun 2027 13:32:04.071   05 Jun 2027 13:32:12.377             8.306              Murmansk2           259.563
       419   05 Jun 2027 13:32:35.459   05 Jun 2027 13:32:38.935             3.476              Murmansk2           108.625
       420   05 Jun 2027 13:34:35.281   05 Jun 2027 13:36:57.303           142.022                Anadyr1          4438.188
       421   05 Jun 2027 13:38:24.477   05 Jun 2027 13:40:01.123            96.646                Anadyr1          3020.188
       422   05 Jun 2027 13:40:55.664   05 Jun 2027 13:41:34.872            39.208                Anadyr2          1225.250
       423   05 Jun 2027 15:03:27.029   05 Jun 2027 15:05:06.849            99.820              Murmansk1          3119.375
       424   05 Jun 2027 15:06:41.539   05 Jun 2027 15:07:22.202            40.663              Murmansk2          1270.719
       425   05 Jun 2027 15:10:23.515   05 Jun 2027 15:11:10.846            47.331                Anadyr2          1479.094
       426   05 Jun 2027 15:11:10.846   05 Jun 2027 15:12:46.240            95.394                Anadyr1          2981.063
       427   05 Jun 2027 15:13:02.991   05 Jun 2027 15:18:58.920           355.929               Magadan1         11122.781
       428   05 Jun 2027 15:21:32.675   05 Jun 2027 15:23:58.174           145.499               Magadan1          4546.844
       429   05 Jun 2027 16:53:00.325   05 Jun 2027 16:53:55.623            55.298               Magadan2          1728.062
       430   05 Jun 2027 17:41:05.495   05 Jun 2027 17:47:24.953           379.458            RioGallegos         11858.063
       431   05 Jun 2027 18:25:28.531   05 Jun 2027 18:28:33.178           184.647                Norilsk          5770.219
       432   05 Jun 2027 18:29:43.581   05 Jun 2027 18:31:45.092           121.511                Irkutsk          3797.219
       433   05 Jun 2027 18:42:26.818   05 Jun 2027 18:46:14.497           227.679                Sumatra          7114.969
       434   05 Jun 2027 18:48:24.995   05 Jun 2027 18:48:59.565            34.570                Sumatra          1080.313
       435   05 Jun 2027 20:03:56.544   05 Jun 2027 20:04:28.215            31.671                Irkutsk           989.719
       436   05 Jun 2027 20:05:34.373   05 Jun 2027 20:07:56.308           141.935                Novosib          4435.469
       437   05 Jun 2027 20:12:21.627   05 Jun 2027 20:19:14.423           412.796                  Delhi         12899.875
       438   05 Jun 2027 21:38:34.431   05 Jun 2027 21:46:30.690           476.259              Murmansk2         14883.094
       439   05 Jun 2027 21:46:55.789   05 Jun 2027 21:48:22.958            87.169                 Moscow          2724.031
       440   05 Jun 2027 23:42:21.328   05 Jun 2027 23:45:51.342           210.014               CapeTown          6562.937
       441   05 Jun 2027 23:47:56.784   05 Jun 2027 23:48:10.279            13.495               CapeTown           421.719
       442   06 Jun 2027 00:53:23.855   06 Jun 2027 00:54:31.854            67.999                 Moscow          2124.969
       443   06 Jun 2027 00:59:13.621   06 Jun 2027 00:59:24.130            10.509                 Moscow           328.406
       444   06 Jun 2027 01:01:59.610   06 Jun 2027 01:02:22.999            23.389                 Moscow           730.906
       445   06 Jun 2027 01:17:40.618   06 Jun 2027 01:20:13.788           153.170               CapeTown          4786.563
       446   06 Jun 2027 02:14:17.823   06 Jun 2027 02:15:36.648            78.825               Magadan1          2463.281
       447   06 Jun 2027 02:15:59.092   06 Jun 2027 02:16:49.765            50.673               Magadan2          1583.531
       448   06 Jun 2027 02:21:15.854   06 Jun 2027 02:21:26.129            10.275               Magadan1           321.094
       449   06 Jun 2027 02:22:08.533   06 Jun 2027 02:22:29.758            21.225                Norilsk           663.281
       450   06 Jun 2027 02:23:38.493   06 Jun 2027 02:23:49.198            10.705               Magadan2           334.531
       451   06 Jun 2027 02:26:04.566   06 Jun 2027 02:26:46.377            41.811              Murmansk2          1306.594
       452   06 Jun 2027 02:28:29.678   06 Jun 2027 02:28:47.149            17.471              Murmansk1           545.969
       453   06 Jun 2027 02:29:33.856   06 Jun 2027 02:30:23.550            49.694              Murmansk2          1552.938
       454   06 Jun 2027 02:31:13.364   06 Jun 2027 02:31:57.018            43.654                 Moscow          1364.188
       455   06 Jun 2027 02:36:30.535   06 Jun 2027 02:36:42.062            11.527                 Moscow           360.219
       456   06 Jun 2027 02:39:03.397   06 Jun 2027 02:39:23.588            20.191                 Moscow           630.969
       457   06 Jun 2027 03:10:01.038   06 Jun 2027 03:10:15.273            14.235            RioGallegos           444.844
       458   06 Jun 2027 03:51:59.735   06 Jun 2027 03:52:56.713            56.978               Magadan2          1780.563
       459   06 Jun 2027 03:57:00.750   06 Jun 2027 03:57:45.428            44.678                Anadyr1          1396.187
       460   06 Jun 2027 03:58:09.883   06 Jun 2027 03:58:15.396             5.513                Irkutsk           172.281
       461   06 Jun 2027 03:58:15.614   06 Jun 2027 03:59:48.431            92.817                Anadyr1          2900.531
       462   06 Jun 2027 03:59:49.858   06 Jun 2027 04:00:34.510            44.652               Magadan2          1395.375
       463   06 Jun 2027 04:00:34.510   06 Jun 2027 04:02:21.999           107.489               Magadan1          3359.031
       464   06 Jun 2027 04:02:21.999   06 Jun 2027 04:02:31.335             9.336               Magadan2           291.750
       465   06 Jun 2027 05:34:23.550   06 Jun 2027 05:35:24.081            60.531                Irkutsk          1891.594
       466   06 Jun 2027 05:35:36.704   06 Jun 2027 05:36:25.790            49.086               Magadan2          1533.938
       467   06 Jun 2027 05:36:38.847   06 Jun 2027 05:37:10.784            31.937                Novosib           998.031
       468   06 Jun 2027 05:37:13.222   06 Jun 2027 05:37:46.913            33.691               Magadan2          1052.844
       469   06 Jun 2027 05:38:11.616   06 Jun 2027 05:39:01.896            50.280              Murmansk1          1571.250
       470   06 Jun 2027 05:40:05.484   06 Jun 2027 05:40:49.162            43.678                Norilsk          1364.937
       471   06 Jun 2027 05:43:00.942   06 Jun 2027 05:43:21.015            20.073                Norilsk           627.281
       472   06 Jun 2027 06:12:55.674   06 Jun 2027 06:17:37.944           282.270            RioGallegos          8820.938
       473   06 Jun 2027 06:18:06.230   06 Jun 2027 06:18:18.995            12.765            RioGallegos           398.906
       474   06 Jun 2027 06:18:22.964   06 Jun 2027 06:18:27.915             4.951            RioGallegos           154.719
       475   06 Jun 2027 06:19:04.936   06 Jun 2027 06:20:00.253            55.317            RioGallegos          1728.656
       476   06 Jun 2027 06:20:32.318   06 Jun 2027 06:21:01.041            28.723            RioGallegos           897.594
       477   06 Jun 2027 06:21:29.550   06 Jun 2027 06:22:28.653            59.103            RioGallegos          1846.969
       478   06 Jun 2027 06:48:17.474   06 Jun 2027 06:49:53.293            95.819                Sumatra          2994.344
       479   06 Jun 2027 06:50:36.482   06 Jun 2027 06:52:15.001            98.519                Sumatra          3078.719
       480   06 Jun 2027 07:01:08.177   06 Jun 2027 07:06:00.603           292.426                  Delhi          9138.313
       481   06 Jun 2027 07:09:45.861   06 Jun 2027 07:09:58.314            12.453                Irkutsk           389.156
       482   06 Jun 2027 07:10:01.885   06 Jun 2027 07:10:37.514            35.629                Novosib          1113.406
