uniorb/output/strategy_2/Drop/Drop_KinoSat_111103.txt

KinoSat_111103
-------------------------
    Access    *     Start Time (UTCG)     *     Stop Time (UTCG)  *   Duration (s)        *       Station  *  Data (Mbytes)
         1   01 Jun 2027 03:43:19.873   01 Jun 2027 03:44:04.111            44.238               Magadan1          1382.437
         2   01 Jun 2027 03:44:46.766   01 Jun 2027 03:45:02.657            15.891               Magadan1           496.594
         3   01 Jun 2027 03:48:11.890   01 Jun 2027 03:48:20.640             8.750                Anadyr2           273.438
         4   01 Jun 2027 05:19:49.888   01 Jun 2027 05:20:00.697            10.809                Anadyr1           337.781
         5   01 Jun 2027 05:20:06.502   01 Jun 2027 05:21:10.792            64.290               Magadan2          2009.062
         6   01 Jun 2027 05:21:31.025   01 Jun 2027 05:23:04.461            93.436                Anadyr1          2919.875
         7   01 Jun 2027 05:23:07.799   01 Jun 2027 05:23:21.694            13.895               Magadan1           434.219
         8   01 Jun 2027 05:23:21.694   01 Jun 2027 05:24:39.625            77.931               Magadan2          2435.344
         9   01 Jun 2027 06:55:04.328   01 Jun 2027 06:56:46.242           101.914                Irkutsk          3184.813
        10   01 Jun 2027 06:57:04.938   01 Jun 2027 07:00:32.402           207.464                Anadyr1          6483.250
        11   01 Jun 2027 08:32:16.766   01 Jun 2027 08:35:35.722           198.956               Magadan1          6217.375
        12   01 Jun 2027 08:36:12.703   01 Jun 2027 08:36:50.020            37.317              Murmansk1          1166.156
        13   01 Jun 2027 08:37:53.824   01 Jun 2027 08:38:32.669            38.845                Norilsk          1213.906
        14   01 Jun 2027 08:38:48.674   01 Jun 2027 08:39:01.857            13.183              Murmansk2           411.969
        15   01 Jun 2027 08:39:39.073   01 Jun 2027 08:40:32.277            53.204              Murmansk2          1662.625
        16   01 Jun 2027 09:11:31.300   01 Jun 2027 09:12:45.182            73.882            RioGallegos          2308.812
        17   01 Jun 2027 09:13:24.880   01 Jun 2027 09:13:25.083             0.203            RioGallegos             6.344
        18   01 Jun 2027 09:14:30.054   01 Jun 2027 09:15:44.443            74.389            RioGallegos          2324.656
        19   01 Jun 2027 09:46:18.223   01 Jun 2027 09:47:31.459            73.236                Sumatra          2288.625
        20   01 Jun 2027 09:56:52.877   01 Jun 2027 09:56:56.479             3.602                  Delhi           112.563
        21   01 Jun 2027 10:08:31.590   01 Jun 2027 10:09:01.094            29.504                Norilsk           922.000
        22   01 Jun 2027 10:09:02.245   01 Jun 2027 10:09:24.974            22.729              Murmansk1           710.281
        23   01 Jun 2027 10:09:24.974   01 Jun 2027 10:10:26.367            61.393              Murmansk2          1918.531
        24   01 Jun 2027 10:10:29.382   01 Jun 2027 10:11:54.084            84.702                Novosib          2646.937
        25   01 Jun 2027 10:11:56.407   01 Jun 2027 10:12:16.484            20.077              Murmansk1           627.406
        26   01 Jun 2027 10:12:18.074   01 Jun 2027 10:12:48.051            29.977              Murmansk1           936.781
        27   01 Jun 2027 10:13:37.556   01 Jun 2027 10:14:29.815            52.259                 Moscow          1633.094
        28   01 Jun 2027 10:54:36.366   01 Jun 2027 10:55:29.221            52.855            RioGallegos          1651.719
        29   01 Jun 2027 11:26:30.464   01 Jun 2027 11:29:17.576           167.112                Sumatra          5222.250
        30   01 Jun 2027 11:45:58.049   01 Jun 2027 11:46:49.954            51.905              Murmansk2          1622.031
        31   01 Jun 2027 11:46:49.954   01 Jun 2027 11:47:02.310            12.356              Murmansk1           386.125
        32   01 Jun 2027 11:47:07.292   01 Jun 2027 11:50:07.542           180.250                Norilsk          5632.812
        33   01 Jun 2027 11:50:13.700   01 Jun 2027 11:50:33.566            19.866                Norilsk           620.813
        34   01 Jun 2027 11:51:49.807   01 Jun 2027 11:52:08.116            18.309                Norilsk           572.156
        35   01 Jun 2027 11:52:57.968   01 Jun 2027 11:53:09.407            11.439                Norilsk           357.469
        36   01 Jun 2027 13:14:54.773   01 Jun 2027 13:18:49.839           235.066                 Moscow          7345.813
        37   01 Jun 2027 13:19:14.988   01 Jun 2027 13:21:40.440           145.452              Murmansk2          4545.375
        38   01 Jun 2027 13:21:56.737   01 Jun 2027 13:22:31.125            34.388              Murmansk2          1074.625
        39   01 Jun 2027 13:23:20.957   01 Jun 2027 13:24:30.905            69.948                Norilsk          2185.875
        40   01 Jun 2027 13:26:07.452   01 Jun 2027 13:26:20.717            13.265                Norilsk           414.531
        41   01 Jun 2027 14:29:44.716   01 Jun 2027 14:32:45.173           180.457               CapeTown          5639.281
        42   01 Jun 2027 14:52:08.600   01 Jun 2027 14:52:19.446            10.846                 Moscow           338.937
        43   01 Jun 2027 14:55:15.538   01 Jun 2027 14:58:08.393           172.855              Murmansk1          5401.719
        44   01 Jun 2027 15:03:44.472   01 Jun 2027 15:03:51.853             7.381              Murmansk2           230.656
        45   01 Jun 2027 15:06:33.835   01 Jun 2027 15:07:14.467            40.632              Murmansk2          1269.750
        46   01 Jun 2027 15:09:28.274   01 Jun 2027 15:11:25.610           117.336                Anadyr2          3666.750
        47   01 Jun 2027 15:13:01.237   01 Jun 2027 15:13:08.133             6.896                Anadyr2           215.500
        48   01 Jun 2027 15:13:49.953   01 Jun 2027 15:14:13.351            23.398                Anadyr1           731.188
        49   01 Jun 2027 15:14:40.812   01 Jun 2027 15:15:29.681            48.869                Anadyr1          1527.156
        50   01 Jun 2027 15:17:16.254   01 Jun 2027 15:17:58.244            41.990                Anadyr2          1312.187
        51   01 Jun 2027 16:06:22.899   01 Jun 2027 16:06:28.962             6.063               CapeTown           189.469
        52   01 Jun 2027 16:07:28.217   01 Jun 2027 16:07:51.204            22.987               CapeTown           718.344
        53   01 Jun 2027 16:13:31.332   01 Jun 2027 16:13:59.762            28.430               CapeTown           888.438
        54   01 Jun 2027 16:15:02.407   01 Jun 2027 16:15:58.603            56.196               CapeTown          1756.125
        55   01 Jun 2027 16:34:24.864   01 Jun 2027 16:35:13.998            49.134              Murmansk2          1535.438
        56   01 Jun 2027 16:35:52.533   01 Jun 2027 16:36:08.172            15.639              Murmansk2           488.719
        57   01 Jun 2027 16:37:06.427   01 Jun 2027 16:37:38.212            31.785              Murmansk1           993.281
        58   01 Jun 2027 16:38:14.665   01 Jun 2027 16:39:15.691            61.026              Murmansk1          1907.062
        59   01 Jun 2027 16:40:44.181   01 Jun 2027 16:41:22.649            38.468              Murmansk2          1202.125
        60   01 Jun 2027 16:44:57.322   01 Jun 2027 16:46:11.156            73.834                Anadyr1          2307.313
        61   01 Jun 2027 16:46:32.502   01 Jun 2027 16:46:46.634            14.132                Anadyr1           441.625
        62   01 Jun 2027 16:48:23.567   01 Jun 2027 16:48:49.423            25.856                Anadyr2           808.000
        63   01 Jun 2027 16:50:32.584   01 Jun 2027 16:50:37.972             5.388                Anadyr2           168.375
        64   01 Jun 2027 16:50:41.744   01 Jun 2027 16:51:40.323            58.579               Magadan2          1830.594
        65   01 Jun 2027 16:51:40.323   01 Jun 2027 16:51:46.934             6.611               Magadan1           206.594
        66   01 Jun 2027 16:51:58.953   01 Jun 2027 16:52:34.000            35.047               Magadan2          1095.219
        67   01 Jun 2027 16:52:43.557   01 Jun 2027 16:52:53.005             9.448               Magadan1           295.250
        68   01 Jun 2027 16:53:48.263   01 Jun 2027 16:54:27.325            39.062               Magadan2          1220.687
        69   01 Jun 2027 16:54:27.325   01 Jun 2027 16:55:18.729            51.404               Magadan1          1606.375
        70   01 Jun 2027 18:20:51.572   01 Jun 2027 18:24:55.801           244.229                Anadyr1          7632.156
        71   01 Jun 2027 18:25:16.678   01 Jun 2027 18:27:03.797           107.119               Magadan1          3347.469
        72   01 Jun 2027 18:28:12.429   01 Jun 2027 18:28:44.152            31.723                Anadyr1           991.344
        73   01 Jun 2027 18:28:44.797   01 Jun 2027 18:28:57.667            12.870               Magadan2           402.187
        74   01 Jun 2027 18:30:13.960   01 Jun 2027 18:30:57.325            43.365               Magadan2          1355.156
        75   01 Jun 2027 18:31:45.053   01 Jun 2027 18:31:46.879             1.826                Anadyr2            57.063
        76   01 Jun 2027 18:32:24.498   01 Jun 2027 18:32:45.955            21.457                Anadyr2           670.531
        77   01 Jun 2027 18:33:20.855   01 Jun 2027 18:33:33.675            12.820               Magadan1           400.625
        78   01 Jun 2027 18:34:05.279   01 Jun 2027 18:35:02.466            57.187               Magadan1          1787.094
        79   01 Jun 2027 18:35:12.476   01 Jun 2027 18:35:30.933            18.457               Magadan2           576.781
        80   01 Jun 2027 19:56:43.506   01 Jun 2027 19:58:44.724           121.218                Anadyr1          3788.062
        81   01 Jun 2027 19:59:01.055   01 Jun 2027 20:03:55.229           294.174                Norilsk          9192.937
        82   01 Jun 2027 20:04:35.551   01 Jun 2027 20:05:17.731            42.180                Irkutsk          1318.125
        83   01 Jun 2027 20:07:00.106   01 Jun 2027 20:07:23.851            23.745                Irkutsk           742.031
        84   01 Jun 2027 20:07:39.929   01 Jun 2027 20:08:19.497            39.568                Irkutsk          1236.500
        85   01 Jun 2027 20:10:29.117   01 Jun 2027 20:11:05.844            36.727                Irkutsk          1147.719
        86   01 Jun 2027 20:11:36.403   01 Jun 2027 20:11:47.521            11.118               Magadan2           347.438
        87   01 Jun 2027 20:21:07.451   01 Jun 2027 20:24:39.703           212.252                Sumatra          6632.875
        88   01 Jun 2027 21:00:17.831   01 Jun 2027 21:01:44.910            87.079            RioGallegos          2721.219
        89   01 Jun 2027 21:35:48.823   01 Jun 2027 21:35:57.697             8.874                Norilsk           277.313
        90   01 Jun 2027 21:37:35.433   01 Jun 2027 21:37:38.397             2.964               Magadan2            92.625
        91   01 Jun 2027 21:37:57.303   01 Jun 2027 21:38:03.700             6.397               Magadan1           199.906
        92   01 Jun 2027 21:38:03.700   01 Jun 2027 21:38:37.184            33.484               Magadan2          1046.375
        93   01 Jun 2027 21:39:24.207   01 Jun 2027 21:39:32.570             8.363               Magadan2           261.344
        94   01 Jun 2027 21:39:39.127   01 Jun 2027 21:40:56.112            76.985                Novosib          2405.781
        95   01 Jun 2027 21:43:08.743   01 Jun 2027 21:43:40.519            31.776               Magadan2           993.000
        96   01 Jun 2027 21:44:12.473   01 Jun 2027 21:45:47.234            94.761                Novosib          2961.281
        97   01 Jun 2027 21:49:37.110   01 Jun 2027 21:51:05.946            88.836                Irkutsk          2776.125
        98   01 Jun 2027 22:01:04.861   01 Jun 2027 22:01:25.100            20.239                Sumatra           632.469
        99   01 Jun 2027 22:01:53.130   01 Jun 2027 22:02:44.662            51.532                Sumatra          1610.375
       100   01 Jun 2027 22:04:25.611   01 Jun 2027 22:05:00.910            35.299                Sumatra          1103.094
       101   01 Jun 2027 22:38:03.903   01 Jun 2027 22:38:49.025            45.122            RioGallegos          1410.063
       102   01 Jun 2027 23:09:03.627   01 Jun 2027 23:09:48.021            44.394                Anadyr1          1387.312
       103   01 Jun 2027 23:10:35.196   01 Jun 2027 23:12:16.950           101.754                Norilsk          3179.813
       104   01 Jun 2027 23:13:21.437   01 Jun 2027 23:13:44.363            22.926               Magadan2           716.438
       105   01 Jun 2027 23:14:05.130   01 Jun 2027 23:14:34.044            28.914                Norilsk           903.563
       106   01 Jun 2027 23:14:56.826   01 Jun 2027 23:15:18.734            21.908              Murmansk1           684.625
       107   01 Jun 2027 23:16:01.060   01 Jun 2027 23:16:59.207            58.147              Murmansk2          1817.094
       108   01 Jun 2027 23:19:36.664   01 Jun 2027 23:20:45.269            68.605                Novosib          2143.906
       109   01 Jun 2027 23:22:50.857   01 Jun 2027 23:23:07.511            16.654                Novosib           520.437
       110   01 Jun 2027 23:23:18.204   01 Jun 2027 23:25:29.659           131.455                Novosib          4107.969
       111   01 Jun 2027 23:29:57.297   01 Jun 2027 23:31:23.287            85.990                  Delhi          2687.188
       112   02 Jun 2027 00:39:55.020   02 Jun 2027 00:40:08.857            13.837                Anadyr1           432.406
       113   02 Jun 2027 00:40:22.973   02 Jun 2027 00:40:37.723            14.750                Anadyr1           460.938
       114   02 Jun 2027 00:41:17.257   02 Jun 2027 00:42:21.078            63.821                Anadyr1          1994.406
       115   02 Jun 2027 00:44:55.404   02 Jun 2027 00:45:38.673            43.269                Anadyr1          1352.156
       116   02 Jun 2027 00:45:41.879   02 Jun 2027 00:45:45.465             3.586                Anadyr2           112.063
       117   02 Jun 2027 00:46:05.101   02 Jun 2027 00:47:22.435            77.334               Magadan2          2416.688
       118   02 Jun 2027 00:47:58.106   02 Jun 2027 00:48:21.167            23.061                Norilsk           720.656
       119   02 Jun 2027 00:48:49.259   02 Jun 2027 00:51:27.435           158.176              Murmansk2          4943.000
       120   02 Jun 2027 00:57:32.724   02 Jun 2027 00:57:47.290            14.566                 Moscow           455.187
       121   02 Jun 2027 00:58:27.069   02 Jun 2027 00:58:30.220             3.151              Murmansk1            98.469
       122   02 Jun 2027 00:58:33.328   02 Jun 2027 00:58:55.684            22.356                 Moscow           698.625
       123   02 Jun 2027 00:59:16.753   02 Jun 2027 00:59:50.328            33.575                 Moscow          1049.219
       124   02 Jun 2027 01:04:15.231   02 Jun 2027 01:04:41.548            26.317                  Delhi           822.406
       125   02 Jun 2027 01:04:58.247   02 Jun 2027 01:05:06.793             8.546                  Delhi           267.063
       126   02 Jun 2027 01:08:00.506   02 Jun 2027 01:08:23.394            22.888                  Delhi           715.250
       127   02 Jun 2027 01:21:54.249   02 Jun 2027 01:22:27.809            33.560               CapeTown          1048.750
       128   02 Jun 2027 02:13:32.216   02 Jun 2027 02:15:13.356           101.140                Anadyr1          3160.625
       129   02 Jun 2027 02:15:58.310   02 Jun 2027 02:16:22.934            24.624                Anadyr2           769.500
       130   02 Jun 2027 02:16:50.016   02 Jun 2027 02:16:57.330             7.314                Anadyr2           228.562
       131   02 Jun 2027 02:17:09.133   02 Jun 2027 02:18:01.915            52.782                Anadyr2          1649.437
       132   02 Jun 2027 02:19:33.093   02 Jun 2027 02:19:38.456             5.363               Magadan2           167.594
       133   02 Jun 2027 02:20:16.858   02 Jun 2027 02:20:29.415            12.557               Magadan2           392.406
       134   02 Jun 2027 02:21:07.975   02 Jun 2027 02:21:45.565            37.590               Magadan2          1174.687
       135   02 Jun 2027 02:22:14.443   02 Jun 2027 02:22:47.342            32.899                Norilsk          1028.094
       136   02 Jun 2027 02:23:57.908   02 Jun 2027 02:24:01.836             3.928                Norilsk           122.750
       137   02 Jun 2027 02:24:38.241   02 Jun 2027 02:24:56.865            18.624               Magadan1           582.000
       138   02 Jun 2027 02:25:35.093   02 Jun 2027 02:25:57.244            22.151              Murmansk1           692.219
       139   02 Jun 2027 02:26:57.877   02 Jun 2027 02:27:38.375            40.498                Novosib          1265.563
       140   02 Jun 2027 02:29:43.288   02 Jun 2027 02:30:24.073            40.785                Novosib          1274.531
       141   02 Jun 2027 02:32:30.442   02 Jun 2027 02:32:50.549            20.107                Novosib           628.344
       142   02 Jun 2027 02:33:45.334   02 Jun 2027 02:33:53.409             8.075              Murmansk2           252.344
       143   02 Jun 2027 02:34:17.244   02 Jun 2027 02:34:30.976            13.732              Murmansk2           429.125
       144   02 Jun 2027 02:35:57.100   02 Jun 2027 02:36:13.788            16.688              Murmansk2           521.500
       145   02 Jun 2027 02:36:42.267   02 Jun 2027 02:37:03.512            21.245              Murmansk2           663.906
       146   02 Jun 2027 02:38:55.966   02 Jun 2027 02:39:15.932            19.966                 Moscow           623.938
       147   02 Jun 2027 02:39:57.564   02 Jun 2027 02:40:01.573             4.009                 Moscow           125.281
       148   02 Jun 2027 03:00:19.336   02 Jun 2027 03:01:24.989            65.653               CapeTown          2051.656
       149   02 Jun 2027 03:03:37.836   02 Jun 2027 03:04:20.136            42.300               CapeTown          1321.875
       150   02 Jun 2027 03:55:31.776   02 Jun 2027 03:56:49.259            77.483               Magadan2          2421.344
       151   02 Jun 2027 03:56:50.645   02 Jun 2027 03:57:49.420            58.775                Anadyr2          1836.719
       152   02 Jun 2027 03:58:08.497   02 Jun 2027 03:58:47.912            39.415               Magadan1          1231.719
       153   02 Jun 2027 03:59:19.836   02 Jun 2027 03:59:25.307             5.471               Magadan1           170.969
       154   02 Jun 2027 05:32:00.601   02 Jun 2027 05:32:20.235            19.634                Anadyr2           613.563
       155   02 Jun 2027 05:32:42.685   02 Jun 2027 05:35:24.469           161.784                Anadyr2          5055.750
       156   02 Jun 2027 05:35:36.215   02 Jun 2027 05:36:22.258            46.043                Anadyr1          1438.844
       157   02 Jun 2027 05:36:51.552   02 Jun 2027 05:37:18.341            26.789                Anadyr1           837.156
       158   02 Jun 2027 07:06:04.452   02 Jun 2027 07:06:47.402            42.950                Anadyr2          1342.188
       159   02 Jun 2027 07:06:47.402   02 Jun 2027 07:07:43.807            56.405                Anadyr1          1762.656
       160   02 Jun 2027 07:08:27.645   02 Jun 2027 07:12:18.637           230.992                Anadyr2          7218.500
       161   02 Jun 2027 07:12:30.714   02 Jun 2027 07:13:03.206            32.492                Novosib          1015.375
       162   02 Jun 2027 08:26:09.270   02 Jun 2027 08:27:36.709            87.439                Sumatra          2732.469
       163   02 Jun 2027 08:43:07.043   02 Jun 2027 08:43:25.033            17.990                Irkutsk           562.187
       164   02 Jun 2027 08:43:27.026   02 Jun 2027 08:44:12.023            44.997               Magadan2          1406.156
       165   02 Jun 2027 08:44:12.023   02 Jun 2027 08:46:19.654           127.631               Magadan1          3988.469
       166   02 Jun 2027 08:46:32.178   02 Jun 2027 08:46:45.974            13.796              Murmansk2           431.125
       167   02 Jun 2027 08:46:52.470   02 Jun 2027 08:47:21.291            28.821                Norilsk           900.656
       168   02 Jun 2027 08:47:31.105   02 Jun 2027 08:48:34.024            62.919                Novosib          1966.219
       169   02 Jun 2027 08:48:42.432   02 Jun 2027 08:49:30.616            48.184              Murmansk1          1505.750
       170   02 Jun 2027 08:50:00.713   02 Jun 2027 08:50:04.147             3.434                Novosib           107.312
       171   02 Jun 2027 08:50:34.995   02 Jun 2027 08:50:53.894            18.899              Murmansk2           590.594
       172   02 Jun 2027 08:52:32.896   02 Jun 2027 08:52:42.770             9.874              Murmansk2           308.563
       173   02 Jun 2027 08:55:55.636   02 Jun 2027 08:56:07.321            11.685              Murmansk1           365.156
       174   02 Jun 2027 09:23:42.588   02 Jun 2027 09:24:19.376            36.788            RioGallegos          1149.625
       175   02 Jun 2027 09:24:49.793   02 Jun 2027 09:25:01.850            12.057            RioGallegos           376.781
       176   02 Jun 2027 09:26:35.550   02 Jun 2027 09:27:05.039            29.489            RioGallegos           921.531
       177   02 Jun 2027 09:58:18.607   02 Jun 2027 09:58:33.289            14.682                Sumatra           458.812
       178   02 Jun 2027 09:59:46.643   02 Jun 2027 10:00:43.431            56.788                Sumatra          1774.625
       179   02 Jun 2027 10:07:33.308   02 Jun 2027 10:07:34.347             1.039                Sumatra            32.469
       180   02 Jun 2027 10:08:13.222   02 Jun 2027 10:09:02.429            49.207                  Delhi          1537.719
       181   02 Jun 2027 10:18:24.846   02 Jun 2027 10:18:39.490            14.644                  Delhi           457.625
       182   02 Jun 2027 10:19:17.583   02 Jun 2027 10:20:23.270            65.687                Novosib          2052.719
       183   02 Jun 2027 10:20:29.284   02 Jun 2027 10:20:50.014            20.730              Murmansk2           647.813
       184   02 Jun 2027 10:21:00.359   02 Jun 2027 10:21:32.428            32.069                Irkutsk          1002.156
       185   02 Jun 2027 10:21:40.509   02 Jun 2027 10:21:55.915            15.406                 Moscow           481.437
       186   02 Jun 2027 10:22:02.886   02 Jun 2027 10:22:32.945            30.059                Norilsk           939.344
       187   02 Jun 2027 10:22:35.410   02 Jun 2027 10:22:49.191            13.781                Irkutsk           430.656
       188   02 Jun 2027 10:22:56.133   02 Jun 2027 10:23:31.014            34.881                Irkutsk          1090.031
       189   02 Jun 2027 10:23:43.718   02 Jun 2027 10:23:49.129             5.411              Murmansk1           169.094
       190   02 Jun 2027 10:24:02.245   02 Jun 2027 10:25:29.406            87.161                 Moscow          2723.781
       191   02 Jun 2027 11:04:22.552   02 Jun 2027 11:04:53.588            31.036            RioGallegos           969.875
       192   02 Jun 2027 11:06:22.472   02 Jun 2027 11:06:34.874            12.402            RioGallegos           387.562
       193   02 Jun 2027 11:42:41.744   02 Jun 2027 11:43:11.899            30.155                  Delhi           942.344
       194   02 Jun 2027 11:45:34.226   02 Jun 2027 11:46:23.618            49.392                  Delhi          1543.500
       195   02 Jun 2027 11:56:17.783   02 Jun 2027 11:57:08.714            50.931              Murmansk2          1591.594
       196   02 Jun 2027 11:57:17.457   02 Jun 2027 11:57:32.031            14.574              Murmansk1           455.437
       197   02 Jun 2027 11:57:32.031   02 Jun 2027 11:57:49.214            17.183              Murmansk2           536.969
       198   02 Jun 2027 11:57:52.675   02 Jun 2027 11:57:53.614             0.939              Murmansk2            29.344
       199   02 Jun 2027 11:58:03.794   02 Jun 2027 11:58:15.261            11.467                 Moscow           358.344
       200   02 Jun 2027 11:58:17.429   02 Jun 2027 11:58:21.139             3.710                Norilsk           115.937
       201   02 Jun 2027 11:58:24.210   02 Jun 2027 11:58:29.244             5.034              Murmansk2           157.313
       202   02 Jun 2027 11:58:37.218   02 Jun 2027 11:59:03.961            26.743              Murmansk2           835.719
       203   02 Jun 2027 11:59:04.130   02 Jun 2027 11:59:31.969            27.839                 Moscow           869.969
       204   02 Jun 2027 11:59:34.469   02 Jun 2027 11:59:50.703            16.234                Norilsk           507.313
       205   02 Jun 2027 11:59:55.102   02 Jun 2027 12:00:09.145            14.043              Murmansk2           438.844
       206   02 Jun 2027 12:00:19.270   02 Jun 2027 12:01:11.656            52.386                Novosib          1637.063
       207   02 Jun 2027 12:01:49.116   02 Jun 2027 12:02:01.362            12.246                 Moscow           382.688
       208   02 Jun 2027 12:02:31.661   02 Jun 2027 12:02:56.920            25.259                 Moscow           789.344
       209   02 Jun 2027 12:03:36.919   02 Jun 2027 12:03:41.730             4.811              Murmansk2           150.344
       210   02 Jun 2027 12:03:54.166   02 Jun 2027 12:04:21.042            26.876              Murmansk1           839.875
       211   02 Jun 2027 12:04:55.817   02 Jun 2027 12:05:12.991            17.174                Norilsk           536.687
       212   02 Jun 2027 12:05:39.733   02 Jun 2027 12:06:25.245            45.512              Murmansk2          1422.250
       213   02 Jun 2027 12:06:58.294   02 Jun 2027 12:07:03.258             4.964              Murmansk1           155.125
       214   02 Jun 2027 12:07:19.351   02 Jun 2027 12:07:23.842             4.491              Murmansk2           140.344
       215   02 Jun 2027 13:26:54.125   02 Jun 2027 13:30:56.784           242.659                 Moscow          7583.094
       216   02 Jun 2027 13:31:02.306   02 Jun 2027 13:31:55.342            53.036              Murmansk1          1657.375
       217   02 Jun 2027 13:32:01.769   02 Jun 2027 13:32:40.784            39.015              Murmansk1          1219.219
       218   02 Jun 2027 13:33:48.849   02 Jun 2027 13:34:07.051            18.202              Murmansk2           568.812
       219   02 Jun 2027 13:34:57.020   02 Jun 2027 13:35:39.574            42.554              Murmansk1          1329.812
       220   02 Jun 2027 13:38:09.791   02 Jun 2027 13:39:19.308            69.517                Norilsk          2172.406
       221   02 Jun 2027 14:41:20.056   02 Jun 2027 14:42:46.776            86.720               CapeTown          2710.000
       222   02 Jun 2027 14:42:50.466   02 Jun 2027 14:42:53.593             3.127               CapeTown            97.719
       223   02 Jun 2027 14:44:34.646   02 Jun 2027 14:45:54.631            79.985               CapeTown          2499.531
       224   02 Jun 2027 14:47:08.590   02 Jun 2027 14:47:16.803             8.213               CapeTown           256.656
       225   02 Jun 2027 14:51:46.709   02 Jun 2027 14:52:09.170            22.461               CapeTown           701.906
       226   02 Jun 2027 15:06:07.941   02 Jun 2027 15:06:25.486            17.545                 Moscow           548.281
       227   02 Jun 2027 15:07:33.011   02 Jun 2027 15:08:10.086            37.075              Murmansk1          1158.594
       228   02 Jun 2027 15:08:10.086   02 Jun 2027 15:08:52.112            42.026              Murmansk2          1313.313
       229   02 Jun 2027 15:13:33.783   02 Jun 2027 15:13:41.184             7.401              Murmansk2           231.281
       230   02 Jun 2027 15:13:53.451   02 Jun 2027 15:14:48.970            55.519              Murmansk2          1734.969
       231   02 Jun 2027 15:21:22.770   02 Jun 2027 15:22:17.468            54.698                Anadyr2          1709.313
       232   02 Jun 2027 15:22:20.029   02 Jun 2027 15:23:25.930            65.901                Anadyr1          2059.406
       233   02 Jun 2027 15:25:48.799   02 Jun 2027 15:25:55.207             6.408                Anadyr1           200.250
       234   02 Jun 2027 15:26:12.155   02 Jun 2027 15:26:24.266            12.111                Anadyr1           378.469
       235   02 Jun 2027 15:26:42.120   02 Jun 2027 15:27:20.289            38.169                Anadyr2          1192.781
       236   02 Jun 2027 16:24:50.098   02 Jun 2027 16:25:13.668            23.570               CapeTown           736.562
       237   02 Jun 2027 16:47:03.269   02 Jun 2027 16:49:39.917           156.648              Murmansk2          4895.250
       238   02 Jun 2027 16:51:43.916   02 Jun 2027 16:51:56.192            12.276              Murmansk2           383.625
       239   02 Jun 2027 16:54:20.127   02 Jun 2027 16:54:54.561            34.434              Murmansk1          1076.062
       240   02 Jun 2027 16:56:57.974   02 Jun 2027 16:57:54.553            56.579                Anadyr2          1768.094
       241   02 Jun 2027 16:58:35.816   02 Jun 2027 16:59:00.752            24.936                Anadyr1           779.250
       242   02 Jun 2027 17:00:15.325   02 Jun 2027 17:01:42.623            87.298               Magadan1          2728.063
       243   02 Jun 2027 17:02:13.055   02 Jun 2027 17:02:31.074            18.019               Magadan2           563.094
       244   02 Jun 2027 17:03:57.771   02 Jun 2027 17:04:16.863            19.092               Magadan2           596.625
       245   02 Jun 2027 17:04:36.694   02 Jun 2027 17:04:45.516             8.822               Magadan2           275.688
       246   02 Jun 2027 17:04:54.942   02 Jun 2027 17:05:48.323            53.381               Magadan1          1668.156
       247   02 Jun 2027 18:32:53.019   02 Jun 2027 18:35:11.383           138.364                Anadyr2          4323.875
       248   02 Jun 2027 18:35:13.416   02 Jun 2027 18:37:27.050           133.634               Magadan1          4176.063
       249   02 Jun 2027 18:37:28.988   02 Jun 2027 18:37:59.426            30.438               Magadan2           951.188
       250   02 Jun 2027 18:38:16.393   02 Jun 2027 18:38:31.114            14.721               Magadan2           460.031
       251   02 Jun 2027 18:42:17.179   02 Jun 2027 18:42:32.063            14.884               Magadan1           465.125
       252   02 Jun 2027 18:44:04.641   02 Jun 2027 18:44:27.464            22.823               Magadan2           713.219
       253   02 Jun 2027 18:46:22.013   02 Jun 2027 18:46:36.802            14.789               Magadan1           462.156
       254   02 Jun 2027 19:29:53.356   02 Jun 2027 19:31:54.235           120.879            RioGallegos          3777.469
       255   02 Jun 2027 20:08:43.234   02 Jun 2027 20:09:07.302            24.068                Anadyr1           752.125
       256   02 Jun 2027 20:09:57.487   02 Jun 2027 20:10:02.690             5.203                Anadyr1           162.594
       257   02 Jun 2027 20:10:04.495   02 Jun 2027 20:10:45.778            41.283                Anadyr1          1290.094
       258   02 Jun 2027 20:10:55.782   02 Jun 2027 20:14:40.884           225.102                Norilsk          7034.438
       259   02 Jun 2027 20:16:04.098   02 Jun 2027 20:19:03.469           179.371                Irkutsk          5605.344
       260   02 Jun 2027 20:21:32.866   02 Jun 2027 20:22:52.994            80.128                Irkutsk          2504.000
       261   02 Jun 2027 20:31:28.117   02 Jun 2027 20:33:21.030           112.913                Sumatra          3528.531
       262   02 Jun 2027 21:46:58.335   02 Jun 2027 21:47:15.568            17.233                Norilsk           538.531
       263   02 Jun 2027 21:47:59.069   02 Jun 2027 21:48:22.203            23.134                Norilsk           722.937
       264   02 Jun 2027 21:50:33.887   02 Jun 2027 21:52:01.867            87.980                Irkutsk          2749.375
       265   02 Jun 2027 21:52:49.571   02 Jun 2027 21:54:48.294           118.723                Novosib          3710.094
       266   02 Jun 2027 22:02:45.627   02 Jun 2027 22:03:21.498            35.871                  Delhi          1120.969
       267   02 Jun 2027 22:04:35.063   02 Jun 2027 22:04:50.977            15.914                  Delhi           497.312
       268   02 Jun 2027 23:18:17.524   02 Jun 2027 23:19:06.321            48.797                Anadyr1          1524.906
       269   02 Jun 2027 23:19:11.490   02 Jun 2027 23:20:28.806            77.316                Anadyr2          2416.125
       270   02 Jun 2027 23:22:37.189   02 Jun 2027 23:22:51.012            13.823                Norilsk           431.969
       271   02 Jun 2027 23:23:12.233   02 Jun 2027 23:24:25.216            72.983               Magadan2          2280.719
       272   02 Jun 2027 23:25:47.853   02 Jun 2027 23:27:17.870            90.017              Murmansk1          2813.031
       273   02 Jun 2027 23:27:28.547   02 Jun 2027 23:30:05.061           156.514              Murmansk2          4891.063
       274   02 Jun 2027 23:37:28.430   02 Jun 2027 23:37:36.346             7.916                  Delhi           247.375
       275   02 Jun 2027 23:37:41.209   02 Jun 2027 23:38:57.570            76.361                  Delhi          2386.281
       276   03 Jun 2027 00:51:36.421   03 Jun 2027 00:51:58.355            21.934                Anadyr1           685.438
       277   03 Jun 2027 00:52:38.771   03 Jun 2027 00:53:18.532            39.761                Anadyr1          1242.531
       278   03 Jun 2027 00:53:18.532   03 Jun 2027 00:54:15.133            56.601                Anadyr2          1768.781
       279   03 Jun 2027 00:57:43.231   03 Jun 2027 00:59:58.439           135.208               Magadan2          4225.250
       280   03 Jun 2027 01:00:48.985   03 Jun 2027 01:03:10.316           141.331              Murmansk1          4416.594
       281   03 Jun 2027 01:06:32.229   03 Jun 2027 01:07:00.669            28.440                Novosib           888.750
       282   03 Jun 2027 01:09:18.918   03 Jun 2027 01:09:36.117            17.199                 Moscow           537.469
       283   03 Jun 2027 01:11:48.325   03 Jun 2027 01:12:36.082            47.757                  Delhi          1492.406
       284   03 Jun 2027 01:31:18.591   03 Jun 2027 01:31:55.823            37.232               CapeTown          1163.500
       285   03 Jun 2027 01:33:19.069   03 Jun 2027 01:33:29.210            10.141               CapeTown           316.906
       286   03 Jun 2027 01:34:35.470   03 Jun 2027 01:35:01.636            26.166               CapeTown           817.687
       287   03 Jun 2027 02:25:21.088   03 Jun 2027 02:27:00.456            99.368                Anadyr2          3105.250
       288   03 Jun 2027 02:27:57.754   03 Jun 2027 02:28:20.462            22.708                Anadyr2           709.625
       289   03 Jun 2027 02:29:25.792   03 Jun 2027 02:30:45.491            79.699               Magadan1          2490.594
       290   03 Jun 2027 02:34:12.257   03 Jun 2027 02:34:24.386            12.129                Norilsk           379.031
       291   03 Jun 2027 02:35:21.646   03 Jun 2027 02:35:23.136             1.490               Magadan2            46.562
       292   03 Jun 2027 02:35:44.614   03 Jun 2027 02:36:03.901            19.287                Norilsk           602.719
       293   03 Jun 2027 02:36:43.157   03 Jun 2027 02:37:57.248            74.091              Murmansk2          2315.344
       294   03 Jun 2027 02:38:23.323   03 Jun 2027 02:38:39.684            16.361              Murmansk1           511.281
       295   03 Jun 2027 02:39:07.928   03 Jun 2027 02:39:08.858             0.930                Novosib            29.063
       296   03 Jun 2027 02:39:19.608   03 Jun 2027 02:39:50.899            31.291                Novosib           977.844
       297   03 Jun 2027 02:42:15.021   03 Jun 2027 02:42:28.025            13.004              Murmansk2           406.375
       298   03 Jun 2027 02:42:32.902   03 Jun 2027 02:42:57.144            24.242                Novosib           757.562
       299   03 Jun 2027 02:48:17.487   03 Jun 2027 02:48:46.450            28.963                 Moscow           905.094
       300   03 Jun 2027 03:03:50.180   03 Jun 2027 03:04:00.871            10.691               CapeTown           334.094
       301   03 Jun 2027 03:04:55.378   03 Jun 2027 03:06:40.977           105.599               CapeTown          3299.969
       302   03 Jun 2027 04:07:43.254   03 Jun 2027 04:08:31.003            47.749               Magadan2          1492.156
       303   03 Jun 2027 04:08:31.003   03 Jun 2027 04:08:58.473            27.470               Magadan1           858.437
       304   03 Jun 2027 04:08:58.473   03 Jun 2027 04:09:05.568             7.095               Magadan2           221.719
       305   03 Jun 2027 04:09:06.631   03 Jun 2027 04:09:39.082            32.451                Anadyr2          1014.094
       306   03 Jun 2027 04:10:02.069   03 Jun 2027 04:11:06.657            64.588               Magadan1          2018.375
       307   03 Jun 2027 04:12:15.822   03 Jun 2027 04:12:58.691            42.869               Magadan1          1339.656
       308   03 Jun 2027 05:45:42.237   03 Jun 2027 05:45:47.450             5.213               Magadan1           162.906
       309   03 Jun 2027 05:45:57.754   03 Jun 2027 05:47:37.597            99.843                Anadyr1          3120.094
       310   03 Jun 2027 05:47:37.597   03 Jun 2027 05:49:17.359            99.762                Anadyr2          3117.563
       311   03 Jun 2027 07:17:23.732   03 Jun 2027 07:17:40.506            16.774               Magadan1           524.187
       312   03 Jun 2027 07:18:08.363   03 Jun 2027 07:18:27.488            19.125               Magadan2           597.656
       313   03 Jun 2027 07:18:34.895   03 Jun 2027 07:18:52.602            17.707                Irkutsk           553.344
       314   03 Jun 2027 07:18:55.991   03 Jun 2027 07:20:10.862            74.871                Irkutsk          2339.719
       315   03 Jun 2027 07:20:15.403   03 Jun 2027 07:21:06.911            51.508               Magadan2          1609.625
       316   03 Jun 2027 07:21:06.911   03 Jun 2027 07:21:32.054            25.143               Magadan1           785.719
       317   03 Jun 2027 07:21:47.425   03 Jun 2027 07:22:10.491            23.066               Magadan1           720.813
       318   03 Jun 2027 07:22:10.491   03 Jun 2027 07:22:27.800            17.309               Magadan2           540.906
       319   03 Jun 2027 07:22:33.786   03 Jun 2027 07:23:50.344            76.558                Anadyr2          2392.437
       320   03 Jun 2027 07:23:56.855   03 Jun 2027 07:24:48.447            51.592               Magadan1          1612.250
       321   03 Jun 2027 07:26:52.177   03 Jun 2027 07:27:16.063            23.886              Murmansk2           746.437
       322   03 Jun 2027 07:59:51.163   03 Jun 2027 08:00:28.714            37.551            RioGallegos          1173.469
       323   03 Jun 2027 08:01:01.053   03 Jun 2027 08:01:04.990             3.937            RioGallegos           123.031
       324   03 Jun 2027 08:02:41.955   03 Jun 2027 08:03:04.265            22.310            RioGallegos           697.187
       325   03 Jun 2027 08:36:55.787   03 Jun 2027 08:37:45.791            50.004                Sumatra          1562.625
       326   03 Jun 2027 08:53:56.999   03 Jun 2027 08:54:20.151            23.152                Irkutsk           723.500
       327   03 Jun 2027 08:54:44.247   03 Jun 2027 08:54:44.410             0.163                Novosib             5.094
       328   03 Jun 2027 08:55:16.037   03 Jun 2027 08:55:29.931            13.894               Magadan1           434.187
       329   03 Jun 2027 08:55:29.931   03 Jun 2027 08:55:58.517            28.586               Magadan2           893.313
       330   03 Jun 2027 08:56:09.628   03 Jun 2027 08:57:30.282            80.654               Magadan1          2520.438
       331   03 Jun 2027 08:57:50.023   03 Jun 2027 08:58:21.734            31.711               Magadan1           990.969
       332   03 Jun 2027 08:58:35.433   03 Jun 2027 08:58:47.648            12.215                Norilsk           381.719
       333   03 Jun 2027 08:58:54.796   03 Jun 2027 08:59:00.401             5.605                Irkutsk           175.156
       334   03 Jun 2027 08:59:15.658   03 Jun 2027 09:00:05.260            49.602                Norilsk          1550.063
       335   03 Jun 2027 09:00:16.128   03 Jun 2027 09:00:48.849            32.721                Irkutsk          1022.531
       336   03 Jun 2027 09:01:47.027   03 Jun 2027 09:02:00.191            13.164              Murmansk1           411.375
       337   03 Jun 2027 09:35:57.811   03 Jun 2027 09:36:42.266            44.455            RioGallegos          1389.219
       338   03 Jun 2027 09:38:16.191   03 Jun 2027 09:38:32.499            16.308            RioGallegos           509.625
       339   03 Jun 2027 09:43:06.481   03 Jun 2027 09:43:15.915             9.434            RioGallegos           294.813
       340   03 Jun 2027 10:10:24.660   03 Jun 2027 10:10:37.038            12.378                Sumatra           386.813
       341   03 Jun 2027 10:13:22.701   03 Jun 2027 10:14:51.772            89.071                Sumatra          2783.469
       342   03 Jun 2027 10:20:06.642   03 Jun 2027 10:20:39.961            33.319                  Delhi          1041.219
       343   03 Jun 2027 10:30:48.114   03 Jun 2027 10:30:57.879             9.765                  Delhi           305.156
       344   03 Jun 2027 10:31:12.845   03 Jun 2027 10:32:05.804            52.959                Novosib          1654.969
       345   03 Jun 2027 10:32:16.926   03 Jun 2027 10:32:17.545             0.619              Murmansk2            19.344
       346   03 Jun 2027 10:32:29.258   03 Jun 2027 10:32:34.603             5.345                Novosib           167.031
       347   03 Jun 2027 10:32:38.182   03 Jun 2027 10:33:08.482            30.300              Murmansk1           946.875
       348   03 Jun 2027 10:33:18.406   03 Jun 2027 10:34:13.980            55.574              Murmansk2          1736.688
       349   03 Jun 2027 10:34:18.167   03 Jun 2027 10:34:29.694            11.527              Murmansk2           360.219
       350   03 Jun 2027 10:34:31.404   03 Jun 2027 10:34:34.305             2.901                 Moscow            90.656
       351   03 Jun 2027 10:34:34.773   03 Jun 2027 10:34:38.754             3.981                Norilsk           124.406
       352   03 Jun 2027 10:34:45.617   03 Jun 2027 10:35:00.125            14.508                Novosib           453.375
       353   03 Jun 2027 10:35:03.567   03 Jun 2027 10:35:41.550            37.983                Irkutsk          1186.969
       354   03 Jun 2027 10:35:54.748   03 Jun 2027 10:36:35.059            40.311              Murmansk2          1259.719
       355   03 Jun 2027 10:37:52.089   03 Jun 2027 10:38:00.236             8.147                 Moscow           254.594
       356   03 Jun 2027 11:18:49.992   03 Jun 2027 11:19:43.490            53.498            RioGallegos          1671.812
       357   03 Jun 2027 11:54:57.863   03 Jun 2027 11:56:23.947            86.084                  Delhi          2690.125
       358   03 Jun 2027 12:04:10.034   03 Jun 2027 12:04:35.435            25.401                Novosib           793.781
       359   03 Jun 2027 12:06:30.676   03 Jun 2027 12:06:47.769            17.093                Novosib           534.156
       360   03 Jun 2027 12:08:07.922   03 Jun 2027 12:08:22.200            14.278                Norilsk           446.187
       361   03 Jun 2027 12:08:41.593   03 Jun 2027 12:09:12.759            31.166                 Moscow           973.938
       362   03 Jun 2027 12:11:53.888   03 Jun 2027 12:12:10.696            16.808              Murmansk2           525.250
       363   03 Jun 2027 12:13:11.137   03 Jun 2027 12:13:25.947            14.810                Norilsk           462.813
       364   03 Jun 2027 12:15:16.917   03 Jun 2027 12:15:30.278            13.361              Murmansk2           417.531
       365   03 Jun 2027 12:16:07.262   03 Jun 2027 12:16:36.778            29.516                Norilsk           922.375
       366   03 Jun 2027 13:38:56.364   03 Jun 2027 13:43:06.644           250.280                 Moscow          7821.250
       367   03 Jun 2027 13:43:20.583   03 Jun 2027 13:44:21.017            60.434              Murmansk1          1888.563
       368   03 Jun 2027 13:44:37.209   03 Jun 2027 13:45:36.842            59.633              Murmansk1          1863.531
       369   03 Jun 2027 13:47:31.033   03 Jun 2027 13:48:07.930            36.897                Norilsk          1153.031
       370   03 Jun 2027 13:49:00.322   03 Jun 2027 13:49:36.815            36.493                Norilsk          1140.406
       371   03 Jun 2027 14:53:02.117   03 Jun 2027 14:54:57.118           115.001               CapeTown          3593.781
       372   03 Jun 2027 14:55:27.171   03 Jun 2027 14:56:27.788            60.617               CapeTown          1894.281
       373   03 Jun 2027 15:03:32.536   03 Jun 2027 15:04:36.272            63.736               CapeTown          1991.750
       374   03 Jun 2027 15:19:52.609   03 Jun 2027 15:19:54.736             2.127              Murmansk1            66.469
       375   03 Jun 2027 15:19:54.736   03 Jun 2027 15:20:00.762             6.026              Murmansk2           188.313
       376   03 Jun 2027 15:20:10.456   03 Jun 2027 15:20:57.811            47.355              Murmansk2          1479.844
       377   03 Jun 2027 15:27:26.929   03 Jun 2027 15:29:28.325           121.396              Murmansk1          3793.625
       378   03 Jun 2027 15:33:18.805   03 Jun 2027 15:34:18.798            59.993                Anadyr2          1874.781
       379   03 Jun 2027 15:38:42.753   03 Jun 2027 15:39:13.517            30.764                Anadyr1           961.375
       380   03 Jun 2027 16:34:40.283   03 Jun 2027 16:35:57.448            77.165               CapeTown          2411.406
       381   03 Jun 2027 16:59:45.656   03 Jun 2027 17:01:41.438           115.782              Murmansk1          3618.187
       382   03 Jun 2027 17:03:46.017   03 Jun 2027 17:04:24.075            38.058              Murmansk2          1189.312
       383   03 Jun 2027 17:08:58.888   03 Jun 2027 17:10:11.614            72.726                Anadyr2          2272.687
       384   03 Jun 2027 17:12:01.872   03 Jun 2027 17:12:30.558            28.686               Magadan2           896.437
       385   03 Jun 2027 17:14:18.307   03 Jun 2027 17:15:24.868            66.561               Magadan2          2080.031
       386   03 Jun 2027 17:16:30.272   03 Jun 2027 17:16:39.400             9.128               Magadan2           285.250
       387   03 Jun 2027 17:16:57.073   03 Jun 2027 17:17:49.508            52.435               Magadan1          1638.594
       388   03 Jun 2027 18:44:54.397   03 Jun 2027 18:46:51.954           117.557                Anadyr1          3673.656
       389   03 Jun 2027 18:47:10.358   03 Jun 2027 18:48:12.020            61.662                Anadyr2          1926.937
       390   03 Jun 2027 18:48:40.588   03 Jun 2027 18:48:48.063             7.475                Anadyr2           233.594
       391   03 Jun 2027 18:48:57.126   03 Jun 2027 18:50:18.106            80.980               Magadan1          2530.625
       392   03 Jun 2027 18:50:18.106   03 Jun 2027 18:51:03.909            45.803               Magadan2          1431.344
       393   03 Jun 2027 18:51:57.885   03 Jun 2027 18:51:59.728             1.843               Magadan1            57.594
       394   03 Jun 2027 18:54:22.765   03 Jun 2027 18:55:22.188            59.423               Magadan2          1856.969
       395   03 Jun 2027 19:40:52.093   03 Jun 2027 19:43:34.659           162.566            RioGallegos          5080.187
       396   03 Jun 2027 19:46:07.963   03 Jun 2027 19:46:59.190            51.227            RioGallegos          1600.844
       397   03 Jun 2027 20:20:43.428   03 Jun 2027 20:21:09.060            25.632                Anadyr2           801.000
       398   03 Jun 2027 20:22:52.439   03 Jun 2027 20:25:06.340           133.901                Norilsk          4184.406
       399   03 Jun 2027 20:25:22.705   03 Jun 2027 20:26:11.617            48.912                Norilsk          1528.500
       400   03 Jun 2027 20:27:42.385   03 Jun 2027 20:27:54.331            11.946                Irkutsk           373.312
       401   03 Jun 2027 20:28:32.392   03 Jun 2027 20:29:26.223            53.831                Irkutsk          1682.219
       402   03 Jun 2027 20:30:43.607   03 Jun 2027 20:32:06.720            83.113                Irkutsk          2597.281
       403   03 Jun 2027 20:33:09.620   03 Jun 2027 20:34:11.032            61.412                Irkutsk          1919.125
       404   03 Jun 2027 20:42:29.270   03 Jun 2027 20:44:19.151           109.881                Sumatra          3433.781
       405   03 Jun 2027 20:47:50.391   03 Jun 2027 20:48:20.617            30.226                Sumatra           944.563
       406   03 Jun 2027 21:59:43.917   03 Jun 2027 22:00:29.435            45.518                Norilsk          1422.438
       407   03 Jun 2027 22:02:33.028   03 Jun 2027 22:03:56.350            83.322                Irkutsk          2603.813
       408   03 Jun 2027 22:04:10.840   03 Jun 2027 22:06:48.893           158.053                Novosib          4939.156
       409   03 Jun 2027 22:12:48.885   03 Jun 2027 22:14:51.133           122.248                  Delhi          3820.250
       410   03 Jun 2027 23:30:47.538   03 Jun 2027 23:32:13.053            85.515                Anadyr2          2672.344
       411   03 Jun 2027 23:35:11.715   03 Jun 2027 23:36:32.222            80.507               Magadan2          2515.844
       412   03 Jun 2027 23:37:31.611   03 Jun 2027 23:39:17.637           106.026              Murmansk2          3313.312
       413   03 Jun 2027 23:39:57.476   03 Jun 2027 23:42:04.633           127.157              Murmansk1          3973.656
       414   04 Jun 2027 00:28:33.294   04 Jun 2027 00:28:50.061            16.767            RioGallegos           523.969
       415   04 Jun 2027 01:03:18.284   04 Jun 2027 01:04:39.640            81.356                Anadyr2          2542.375
       416   04 Jun 2027 01:05:19.856   04 Jun 2027 01:06:01.474            41.618                Anadyr2          1300.562
       417   04 Jun 2027 01:09:14.239   04 Jun 2027 01:09:16.021             1.782                Anadyr1            55.688
       418   04 Jun 2027 01:09:17.609   04 Jun 2027 01:11:04.893           107.284               Magadan1          3352.625
       419   04 Jun 2027 01:11:04.893   04 Jun 2027 01:11:23.507            18.614               Magadan2           581.688
       420   04 Jun 2027 01:11:26.092   04 Jun 2027 01:11:51.136            25.044               Magadan1           782.625
       421   04 Jun 2027 01:12:49.239   04 Jun 2027 01:15:05.254           136.015              Murmansk1          4250.469
       422   04 Jun 2027 01:17:15.930   04 Jun 2027 01:17:24.137             8.207                 Moscow           256.469
       423   04 Jun 2027 01:17:38.138   04 Jun 2027 01:17:56.944            18.806                 Moscow           587.688
       424   04 Jun 2027 01:22:07.312   04 Jun 2027 01:22:12.952             5.640                 Moscow           176.250
       425   04 Jun 2027 01:22:39.132   04 Jun 2027 01:23:44.854            65.722                 Moscow          2053.813
       426   04 Jun 2027 01:44:51.207   04 Jun 2027 01:45:31.856            40.649               CapeTown          1270.281
       427   04 Jun 2027 01:46:31.152   04 Jun 2027 01:46:48.641            17.489               CapeTown           546.531
       428   04 Jun 2027 02:37:11.387   04 Jun 2027 02:39:46.125           154.738                Anadyr2          4835.563
       429   04 Jun 2027 02:40:55.680   04 Jun 2027 02:41:23.726            28.046               Magadan2           876.437
       430   04 Jun 2027 02:42:13.203   04 Jun 2027 02:42:24.396            11.193               Magadan1           349.781
       431   04 Jun 2027 02:46:01.646   04 Jun 2027 02:46:11.504             9.858               Magadan2           308.062
       432   04 Jun 2027 02:46:38.445   04 Jun 2027 02:47:05.128            26.683                Norilsk           833.844
       433   04 Jun 2027 02:48:44.964   04 Jun 2027 02:49:05.946            20.982              Murmansk2           655.687
       434   04 Jun 2027 02:49:09.930   04 Jun 2027 02:50:25.979            76.049              Murmansk1          2376.531
       435   04 Jun 2027 02:51:19.855   04 Jun 2027 02:51:38.458            18.603                Novosib           581.344
       436   04 Jun 2027 02:51:57.818   04 Jun 2027 02:52:08.742            10.924                 Moscow           341.375
       437   04 Jun 2027 02:53:11.259   04 Jun 2027 02:53:17.811             6.552                 Moscow           204.750
       438   04 Jun 2027 02:55:16.503   04 Jun 2027 02:55:30.368            13.865                 Moscow           433.281
       439   04 Jun 2027 02:56:27.428   04 Jun 2027 02:56:34.119             6.691                 Moscow           209.094
       440   04 Jun 2027 02:57:44.381   04 Jun 2027 02:58:47.701            63.320                 Moscow          1978.750
       441   04 Jun 2027 04:20:20.736   04 Jun 2027 04:20:56.045            35.309               Magadan1          1103.406
       442   04 Jun 2027 04:21:22.605   04 Jun 2027 04:21:40.609            18.004                Anadyr2           562.625
       443   04 Jun 2027 04:22:10.218   04 Jun 2027 04:22:43.622            33.404               Magadan1          1043.875
       444   04 Jun 2027 05:57:31.797   04 Jun 2027 05:57:59.526            27.729                Anadyr2           866.531
       445   04 Jun 2027 05:57:59.526   04 Jun 2027 05:59:38.814            99.288                Anadyr1          3102.750
       446   04 Jun 2027 07:29:42.139   04 Jun 2027 07:30:11.368            29.229                Irkutsk           913.406
       447   04 Jun 2027 07:30:27.728   04 Jun 2027 07:30:37.003             9.275               Magadan2           289.844
       448   04 Jun 2027 07:30:40.303   04 Jun 2027 07:31:01.157            20.854                Irkutsk           651.688
       449   04 Jun 2027 07:31:08.251   04 Jun 2027 07:31:21.979            13.728                Norilsk           429.000
       450   04 Jun 2027 07:31:25.566   04 Jun 2027 07:31:32.253             6.687               Magadan2           208.969
       451   04 Jun 2027 07:31:58.072   04 Jun 2027 07:33:54.528           116.456                Anadyr2          3639.250
       452   04 Jun 2027 07:34:06.840   04 Jun 2027 07:34:12.417             5.577               Magadan1           174.281
       453   04 Jun 2027 07:34:32.672   04 Jun 2027 07:35:20.937            48.265                Novosib          1508.281
       454   04 Jun 2027 07:35:25.305   04 Jun 2027 07:35:28.976             3.671               Magadan1           114.719
       455   04 Jun 2027 07:35:34.615   04 Jun 2027 07:35:59.554            24.939              Murmansk1           779.344
       456   04 Jun 2027 07:36:00.080   04 Jun 2027 07:36:32.760            32.680                Irkutsk          1021.250
       457   04 Jun 2027 07:36:40.934   04 Jun 2027 07:36:44.445             3.511               Magadan2           109.719
       458   04 Jun 2027 07:36:45.733   04 Jun 2027 07:37:41.636            55.903              Murmansk2          1746.969
       459   04 Jun 2027 08:11:42.331   04 Jun 2027 08:13:04.876            82.545            RioGallegos          2579.531
       460   04 Jun 2027 08:48:07.042   04 Jun 2027 08:48:55.671            48.629                Sumatra          1519.656
       461   04 Jun 2027 09:06:14.325   04 Jun 2027 09:06:18.005             3.680                Novosib           115.000
       462   04 Jun 2027 09:06:50.352   04 Jun 2027 09:07:07.597            17.245                Irkutsk           538.906
       463   04 Jun 2027 09:07:09.117   04 Jun 2027 09:08:13.208            64.091                Irkutsk          2002.844
       464   04 Jun 2027 09:08:19.202   04 Jun 2027 09:08:37.748            18.546                Novosib           579.562
       465   04 Jun 2027 09:08:58.885   04 Jun 2027 09:09:32.848            33.963                Irkutsk          1061.344
       466   04 Jun 2027 09:09:51.122   04 Jun 2027 09:10:14.359            23.237                Novosib           726.156
       467   04 Jun 2027 09:10:21.800   04 Jun 2027 09:11:07.330            45.530              Murmansk1          1422.812
       468   04 Jun 2027 09:11:10.705   04 Jun 2027 09:12:06.794            56.089                Norilsk          1752.781
       469   04 Jun 2027 09:12:28.294   04 Jun 2027 09:12:29.356             1.062                Irkutsk            33.188
       470   04 Jun 2027 09:12:30.513   04 Jun 2027 09:12:41.493            10.980              Murmansk1           343.125
       471   04 Jun 2027 09:12:55.049   04 Jun 2027 09:13:10.676            15.627                Novosib           488.344
       472   04 Jun 2027 09:18:22.131   04 Jun 2027 09:19:11.782            49.651              Murmansk1          1551.594
       473   04 Jun 2027 09:48:17.305   04 Jun 2027 09:48:26.014             8.709            RioGallegos           272.156
       474   04 Jun 2027 09:50:27.896   04 Jun 2027 09:50:52.686            24.790            RioGallegos           774.688
       475   04 Jun 2027 09:56:22.325   04 Jun 2027 09:56:34.312            11.987            RioGallegos           374.594
       476   04 Jun 2027 10:22:36.741   04 Jun 2027 10:23:50.178            73.437                Sumatra          2294.906
       477   04 Jun 2027 10:33:26.543   04 Jun 2027 10:33:32.114             5.571                  Delhi           174.094
       478   04 Jun 2027 10:43:10.895   04 Jun 2027 10:43:48.124            37.229                Novosib          1163.406
       479   04 Jun 2027 10:44:04.968   04 Jun 2027 10:44:16.836            11.868              Murmansk2           370.875
       480   04 Jun 2027 10:44:26.852   04 Jun 2027 10:45:01.379            34.527              Murmansk2          1078.969
       481   04 Jun 2027 10:45:12.367   04 Jun 2027 10:45:17.073             4.706              Murmansk1           147.063
       482   04 Jun 2027 10:45:37.757   04 Jun 2027 10:45:39.803             2.046                Norilsk            63.938
