uniorb/output/strategy_2/Drop/Drop_KinoSat_110703.txt

KinoSat_110703
-------------------------
    Access    *     Start Time (UTCG)     *     Stop Time (UTCG)  *   Duration (s)        *       Station  *  Data (Mbytes)
         1   01 Jun 2027 03:59:55.499   01 Jun 2027 04:00:14.362            18.863               Magadan2           589.469
         2   01 Jun 2027 04:00:14.362   01 Jun 2027 04:01:05.015            50.653               Magadan1          1582.906
         3   01 Jun 2027 04:01:21.256   01 Jun 2027 04:05:15.332           234.076                Anadyr2          7314.875
         4   01 Jun 2027 05:31:23.199   01 Jun 2027 05:33:10.358           107.159                Irkutsk          3348.719
         5   01 Jun 2027 05:35:56.655   01 Jun 2027 05:36:31.106            34.451                Irkutsk          1076.594
         6   01 Jun 2027 05:36:33.405   01 Jun 2027 05:36:40.137             6.732               Magadan1           210.375
         7   01 Jun 2027 05:36:55.582   01 Jun 2027 05:37:05.967            10.385               Magadan1           324.531
         8   01 Jun 2027 05:37:49.003   01 Jun 2027 05:39:24.864            95.861                Anadyr2          2995.656
         9   01 Jun 2027 05:39:31.668   01 Jun 2027 05:40:53.399            81.731               Magadan2          2554.094
        10   01 Jun 2027 05:41:11.655   01 Jun 2027 05:41:43.957            32.302                Novosib          1009.437
        11   01 Jun 2027 06:15:51.541   01 Jun 2027 06:19:58.616           247.075            RioGallegos          7721.094
        12   01 Jun 2027 06:27:32.451   01 Jun 2027 06:27:49.948            17.497            RioGallegos           546.781
        13   01 Jun 2027 06:52:14.485   01 Jun 2027 06:55:10.372           175.887                Sumatra          5496.469
        14   01 Jun 2027 06:56:43.757   01 Jun 2027 06:57:48.090            64.333                Sumatra          2010.406
        15   01 Jun 2027 06:58:48.102   01 Jun 2027 06:59:56.637            68.535                Sumatra          2141.719
        16   01 Jun 2027 07:11:48.696   01 Jun 2027 07:12:34.539            45.843                Novosib          1432.594
        17   01 Jun 2027 07:13:32.795   01 Jun 2027 07:14:24.998            52.203                Irkutsk          1631.344
        18   01 Jun 2027 07:15:02.269   01 Jun 2027 07:15:25.559            23.290                Novosib           727.813
        19   01 Jun 2027 07:15:35.701   01 Jun 2027 07:17:00.654            84.953                Irkutsk          2654.781
        20   01 Jun 2027 07:17:01.543   01 Jun 2027 07:18:17.546            76.003                Novosib          2375.094
        21   01 Jun 2027 08:26:47.284   01 Jun 2027 08:28:09.811            82.527                Sumatra          2578.969
        22   01 Jun 2027 08:35:27.239   01 Jun 2027 08:39:06.211           218.972                  Delhi          6842.875
        23   01 Jun 2027 08:49:09.603   01 Jun 2027 08:50:51.310           101.707                Irkutsk          3178.344
        24   01 Jun 2027 08:51:15.512   01 Jun 2027 08:51:41.185            25.673                Novosib           802.281
        25   01 Jun 2027 08:51:49.945   01 Jun 2027 08:52:02.654            12.709                Irkutsk           397.156
        26   01 Jun 2027 08:52:39.922   01 Jun 2027 08:54:28.016           108.094                Novosib          3377.937
        27   01 Jun 2027 10:26:32.931   01 Jun 2027 10:26:55.775            22.844              Murmansk2           713.875
        28   01 Jun 2027 10:27:04.661   01 Jun 2027 10:27:08.377             3.716                Norilsk           116.125
        29   01 Jun 2027 10:27:25.959   01 Jun 2027 10:31:51.106           265.147              Murmansk2          8285.844
        30   01 Jun 2027 10:31:51.106   01 Jun 2027 10:34:00.918           129.812              Murmansk1          4056.625
        31   01 Jun 2027 10:34:00.918   01 Jun 2027 10:35:34.905            93.987              Murmansk2          2937.094
        32   01 Jun 2027 12:04:14.908   01 Jun 2027 12:04:52.717            37.809                 Moscow          1181.531
        33   01 Jun 2027 12:06:07.860   01 Jun 2027 12:06:36.481            28.621                 Moscow           894.406
        34   01 Jun 2027 12:06:50.168   01 Jun 2027 12:07:46.596            56.428                 Moscow          1763.375
        35   01 Jun 2027 12:10:05.071   01 Jun 2027 12:10:30.784            25.713              Murmansk1           803.531
        36   01 Jun 2027 12:10:45.572   01 Jun 2027 12:11:31.100            45.528              Murmansk1          1422.750
        37   01 Jun 2027 12:15:32.425   01 Jun 2027 12:18:23.094           170.669                Anadyr2          5333.406
        38   01 Jun 2027 13:17:28.796   01 Jun 2027 13:18:25.765            56.969               CapeTown          1780.281
        39   01 Jun 2027 13:19:19.988   01 Jun 2027 13:20:13.271            53.283               CapeTown          1665.094
        40   01 Jun 2027 13:44:47.399   01 Jun 2027 13:46:09.274            81.875              Murmansk2          2558.594
        41   01 Jun 2027 13:46:18.746   01 Jun 2027 13:47:26.932            68.186              Murmansk2          2130.812
        42   01 Jun 2027 13:52:10.635   01 Jun 2027 13:52:40.025            29.390                Anadyr2           918.437
        43   01 Jun 2027 13:52:52.175   01 Jun 2027 13:53:35.807            43.632                Anadyr2          1363.500
        44   01 Jun 2027 13:54:40.957   01 Jun 2027 13:55:40.878            59.921                Anadyr2          1872.531
        45   01 Jun 2027 13:55:48.460   01 Jun 2027 13:57:29.194           100.734                Anadyr2          3147.937
        46   01 Jun 2027 13:57:56.989   01 Jun 2027 13:58:51.116            54.127                Anadyr1          1691.469
        47   01 Jun 2027 13:59:48.434   01 Jun 2027 14:00:18.472            30.038                Anadyr2           938.688
        48   01 Jun 2027 15:29:18.489   01 Jun 2027 15:29:24.864             6.375               Magadan2           199.219
        49   01 Jun 2027 15:30:54.693   01 Jun 2027 15:31:24.951            30.258               Magadan2           945.562
        50   01 Jun 2027 15:31:47.009   01 Jun 2027 15:33:43.137           116.128               Magadan1          3629.000
        51   01 Jun 2027 15:33:45.205   01 Jun 2027 15:34:20.366            35.161               Magadan1          1098.781
        52   01 Jun 2027 15:34:24.867   01 Jun 2027 15:34:45.295            20.428                Anadyr1           638.375
        53   01 Jun 2027 15:35:27.109   01 Jun 2027 15:36:07.918            40.809                Anadyr2          1275.281
        54   01 Jun 2027 15:36:11.729   01 Jun 2027 15:38:00.632           108.903               Magadan2          3403.219
        55   01 Jun 2027 17:09:40.871   01 Jun 2027 17:09:53.535            12.664                Anadyr2           395.750
        56   01 Jun 2027 17:10:40.547   01 Jun 2027 17:12:00.647            80.100                Anadyr2          2503.125
        57   01 Jun 2027 17:12:00.647   01 Jun 2027 17:12:24.964            24.317                Anadyr1           759.906
        58   01 Jun 2027 17:12:52.719   01 Jun 2027 17:15:07.139           134.420               Magadan2          4200.625
        59   01 Jun 2027 17:59:45.852   01 Jun 2027 18:03:09.762           203.910            RioGallegos          6372.188
        60   01 Jun 2027 18:44:55.709   01 Jun 2027 18:46:25.028            89.319                Irkutsk          2791.219
        61   01 Jun 2027 18:47:14.345   01 Jun 2027 18:47:42.759            28.414                Norilsk           887.937
        62   01 Jun 2027 18:48:17.366   01 Jun 2027 18:51:08.943           171.577                Irkutsk          5361.781
        63   01 Jun 2027 18:51:31.878   01 Jun 2027 18:51:51.884            20.006                Irkutsk           625.188
        64   01 Jun 2027 18:53:00.853   01 Jun 2027 18:53:44.067            43.214                Irkutsk          1350.438
        65   01 Jun 2027 19:03:54.600   01 Jun 2027 19:07:06.512           191.912                Sumatra          5997.250
        66   01 Jun 2027 20:25:37.227   01 Jun 2027 20:25:39.564             2.337                Novosib            73.031
        67   01 Jun 2027 20:27:03.052   01 Jun 2027 20:29:48.209           165.157                Novosib          5161.156
        68   01 Jun 2027 20:32:18.198   01 Jun 2027 20:32:42.741            24.543                  Delhi           766.969
        69   01 Jun 2027 20:34:45.279   01 Jun 2027 20:36:36.603           111.324                  Delhi          3478.875
        70   01 Jun 2027 21:53:31.947   01 Jun 2027 22:00:13.369           401.422              Murmansk1         12544.437
        71   01 Jun 2027 23:27:27.079   01 Jun 2027 23:27:55.197            28.118                Norilsk           878.687
        72   01 Jun 2027 23:28:12.746   01 Jun 2027 23:28:22.967            10.221               Magadan2           319.406
        73   01 Jun 2027 23:29:00.063   01 Jun 2027 23:30:32.577            92.514              Murmansk2          2891.062
        74   01 Jun 2027 23:30:32.577   01 Jun 2027 23:32:27.106           114.529              Murmansk1          3579.031
        75   01 Jun 2027 23:33:43.874   01 Jun 2027 23:34:26.696            42.822              Murmansk1          1338.188
        76   01 Jun 2027 23:34:34.460   01 Jun 2027 23:35:13.251            38.791                 Moscow          1212.219
        77   01 Jun 2027 23:38:21.048   01 Jun 2027 23:39:06.034            44.986                 Moscow          1405.812
        78   01 Jun 2027 23:40:27.282   01 Jun 2027 23:40:36.792             9.510                 Moscow           297.187
        79   01 Jun 2027 23:40:55.751   01 Jun 2027 23:42:16.230            80.479                 Moscow          2514.969
        80   01 Jun 2027 23:58:19.885   01 Jun 2027 23:58:26.259             6.374               CapeTown           199.188
        81   01 Jun 2027 23:59:11.480   02 Jun 2027 00:00:02.006            50.526               CapeTown          1578.938
        82   02 Jun 2027 00:02:29.534   02 Jun 2027 00:02:46.770            17.236               CapeTown           538.625
        83   02 Jun 2027 00:03:24.556   02 Jun 2027 00:04:48.514            83.958               CapeTown          2623.687
        84   02 Jun 2027 01:03:53.421   02 Jun 2027 01:03:55.771             2.350                Norilsk            73.438
        85   02 Jun 2027 01:04:05.899   02 Jun 2027 01:04:20.711            14.812               Magadan2           462.875
        86   02 Jun 2027 01:04:20.711   02 Jun 2027 01:04:27.391             6.680               Magadan1           208.750
        87   02 Jun 2027 01:04:56.647   02 Jun 2027 01:06:14.696            78.049              Murmansk2          2439.031
        88   02 Jun 2027 01:08:33.700   02 Jun 2027 01:08:35.038             1.338              Murmansk2            41.813
        89   02 Jun 2027 01:08:37.140   02 Jun 2027 01:08:46.655             9.515              Murmansk2           297.344
        90   02 Jun 2027 01:10:37.079   02 Jun 2027 01:11:27.174            50.095                 Moscow          1565.469
        91   02 Jun 2027 01:13:06.445   02 Jun 2027 01:13:15.354             8.909              Murmansk2           278.406
        92   02 Jun 2027 01:13:38.577   02 Jun 2027 01:14:16.999            38.422              Murmansk1          1200.687
        93   02 Jun 2027 01:16:56.398   02 Jun 2027 01:17:39.869            43.471              Murmansk1          1358.469
        94   02 Jun 2027 01:37:19.916   02 Jun 2027 01:37:55.604            35.688               CapeTown          1115.250
        95   02 Jun 2027 01:40:10.654   02 Jun 2027 01:40:28.309            17.655               CapeTown           551.719
        96   02 Jun 2027 01:40:40.146   02 Jun 2027 01:41:33.135            52.989               CapeTown          1655.906
        97   02 Jun 2027 02:28:54.663   02 Jun 2027 02:29:26.861            32.198                Anadyr2          1006.187
        98   02 Jun 2027 02:29:26.861   02 Jun 2027 02:29:38.713            11.852                Anadyr1           370.375
        99   02 Jun 2027 02:29:41.562   02 Jun 2027 02:30:24.477            42.915               Magadan1          1341.094
       100   02 Jun 2027 02:31:41.803   02 Jun 2027 02:31:55.531            13.728                Anadyr1           429.000
       101   02 Jun 2027 02:32:11.693   02 Jun 2027 02:32:27.611            15.918               Magadan1           497.437
       102   02 Jun 2027 02:32:55.600   02 Jun 2027 02:32:58.752             3.152               Magadan2            98.500
       103   02 Jun 2027 02:33:22.941   02 Jun 2027 02:33:36.737            13.796               Magadan1           431.125
       104   02 Jun 2027 02:34:59.491   02 Jun 2027 02:35:04.348             4.857               Magadan2           151.781
       105   02 Jun 2027 02:35:04.348   02 Jun 2027 02:35:25.298            20.950               Magadan1           654.688
       106   02 Jun 2027 02:36:51.324   02 Jun 2027 02:37:04.499            13.175               Magadan1           411.719
       107   02 Jun 2027 02:37:10.893   02 Jun 2027 02:37:30.473            19.580                Norilsk           611.875
       108   02 Jun 2027 02:39:00.007   02 Jun 2027 02:39:19.819            19.812                Norilsk           619.125
       109   02 Jun 2027 02:40:06.572   02 Jun 2027 02:40:11.281             4.709                Norilsk           147.156
       110   02 Jun 2027 02:40:46.863   02 Jun 2027 02:41:19.545            32.682               Magadan2          1021.312
       111   02 Jun 2027 02:42:12.877   02 Jun 2027 02:42:19.768             6.891              Murmansk2           215.344
       112   02 Jun 2027 02:42:37.171   02 Jun 2027 02:43:13.972            36.801              Murmansk1          1150.031
       113   02 Jun 2027 02:45:41.096   02 Jun 2027 02:46:01.787            20.691                 Moscow           646.594
       114   02 Jun 2027 02:46:55.678   02 Jun 2027 02:47:06.335            10.657                 Moscow           333.031
       115   02 Jun 2027 02:47:56.493   02 Jun 2027 02:48:01.445             4.952              Murmansk2           154.750
       116   02 Jun 2027 02:48:24.903   02 Jun 2027 02:48:46.258            21.355              Murmansk1           667.344
       117   02 Jun 2027 02:49:36.339   02 Jun 2027 02:49:56.141            19.802              Murmansk2           618.812
       118   02 Jun 2027 02:51:39.413   02 Jun 2027 02:51:45.988             6.575              Murmansk2           205.469
       119   02 Jun 2027 02:52:22.705   02 Jun 2027 02:52:42.134            19.429              Murmansk2           607.156
       120   02 Jun 2027 02:53:51.078   02 Jun 2027 02:54:02.257            11.179                 Moscow           349.344
       121   02 Jun 2027 04:11:27.226   02 Jun 2027 04:12:33.430            66.204                Irkutsk          2068.875
       122   02 Jun 2027 04:13:20.666   02 Jun 2027 04:14:57.702            97.036                Anadyr1          3032.375
       123   02 Jun 2027 04:15:52.272   02 Jun 2027 04:16:17.068            24.796               Magadan1           774.875
       124   02 Jun 2027 04:16:36.049   02 Jun 2027 04:17:19.052            43.003               Magadan1          1343.844
       125   02 Jun 2027 05:49:12.550   02 Jun 2027 05:50:29.037            76.487               Magadan2          2390.219
       126   02 Jun 2027 05:50:35.003   02 Jun 2027 05:51:53.865            78.862               Magadan2          2464.437
       127   02 Jun 2027 05:51:53.865   02 Jun 2027 05:52:11.057            17.192               Magadan1           537.250
       128   02 Jun 2027 05:52:20.397   02 Jun 2027 05:52:47.694            27.297               Magadan1           853.031
       129   02 Jun 2027 05:53:08.647   02 Jun 2027 05:53:19.953            11.306                Novosib           353.312
       130   02 Jun 2027 05:56:22.433   02 Jun 2027 05:56:45.592            23.159                Norilsk           723.719
       131   02 Jun 2027 07:03:40.250   02 Jun 2027 07:04:46.000            65.750                Sumatra          2054.687
       132   02 Jun 2027 07:23:59.534   02 Jun 2027 07:24:50.243            50.709                Irkutsk          1584.656
       133   02 Jun 2027 07:25:15.154   02 Jun 2027 07:26:07.772            52.618                Novosib          1644.313
       134   02 Jun 2027 07:27:40.510   02 Jun 2027 07:27:50.255             9.745                Irkutsk           304.531
       135   02 Jun 2027 07:27:53.849   02 Jun 2027 07:28:05.375            11.526                Norilsk           360.187
       136   02 Jun 2027 07:28:17.330   02 Jun 2027 07:29:01.037            43.707                Irkutsk          1365.844
       137   02 Jun 2027 07:29:41.446   02 Jun 2027 07:30:28.488            47.042                Novosib          1470.062
       138   02 Jun 2027 07:30:37.238   02 Jun 2027 07:30:47.414            10.176                Norilsk           318.000
       139   02 Jun 2027 07:33:07.847   02 Jun 2027 07:33:27.642            19.795                Norilsk           618.594
       140   02 Jun 2027 08:04:52.909   02 Jun 2027 08:06:30.219            97.310            RioGallegos          3040.938
       141   02 Jun 2027 08:06:54.450   02 Jun 2027 08:07:18.839            24.389            RioGallegos           762.156
       142   02 Jun 2027 08:09:04.144   02 Jun 2027 08:09:33.315            29.171            RioGallegos           911.594
       143   02 Jun 2027 08:10:04.382   02 Jun 2027 08:10:33.919            29.537            RioGallegos           923.031
       144   02 Jun 2027 08:12:57.778   02 Jun 2027 08:13:00.493             2.715            RioGallegos            84.844
       145   02 Jun 2027 08:13:51.496   02 Jun 2027 08:14:40.934            49.438            RioGallegos          1544.938
       146   02 Jun 2027 08:39:06.499   02 Jun 2027 08:39:59.111            52.612                Sumatra          1644.125
       147   02 Jun 2027 08:42:41.356   02 Jun 2027 08:42:56.354            14.998                Sumatra           468.688
       148   02 Jun 2027 08:43:23.267   02 Jun 2027 08:43:33.727            10.460                Sumatra           326.875
       149   02 Jun 2027 08:47:10.235   02 Jun 2027 08:48:52.595           102.360                  Delhi          3198.750
       150   02 Jun 2027 08:51:06.184   02 Jun 2027 08:51:15.698             9.514                  Delhi           297.312
       151   02 Jun 2027 08:52:31.749   02 Jun 2027 08:53:22.337            50.588                  Delhi          1580.875
       152   02 Jun 2027 08:59:20.903   02 Jun 2027 08:59:31.217            10.314                  Delhi           322.312
       153   02 Jun 2027 09:02:07.364   02 Jun 2027 09:02:55.156            47.792              Murmansk2          1493.500
       154   02 Jun 2027 09:02:55.156   02 Jun 2027 09:04:02.201            67.045              Murmansk1          2095.156
       155   02 Jun 2027 09:04:15.418   02 Jun 2027 09:04:18.543             3.125                Novosib            97.656
       156   02 Jun 2027 09:04:37.782   02 Jun 2027 09:05:03.940            26.158                Novosib           817.437
       157   02 Jun 2027 09:05:04.130   02 Jun 2027 09:05:21.747            17.617                Norilsk           550.531
       158   02 Jun 2027 09:05:30.905   02 Jun 2027 09:06:36.100            65.195                 Moscow          2037.344
       159   02 Jun 2027 10:24:04.357   02 Jun 2027 10:27:11.609           187.252                  Delhi          5851.625
       160   02 Jun 2027 10:36:24.093   02 Jun 2027 10:36:38.771            14.678              Murmansk2           458.688
       161   02 Jun 2027 10:36:43.392   02 Jun 2027 10:36:50.139             6.747              Murmansk1           210.844
       162   02 Jun 2027 10:36:56.012   02 Jun 2027 10:37:06.990            10.978              Murmansk1           343.063
       163   02 Jun 2027 10:37:39.388   02 Jun 2027 10:37:54.214            14.826                Norilsk           463.313
       164   02 Jun 2027 10:37:58.929   02 Jun 2027 10:38:31.349            32.420                Norilsk          1013.125
       165   02 Jun 2027 10:38:40.955   02 Jun 2027 10:38:56.049            15.094              Murmansk2           471.688
       166   02 Jun 2027 10:39:01.782   02 Jun 2027 10:39:26.072            24.290              Murmansk2           759.062
       167   02 Jun 2027 10:39:36.271   02 Jun 2027 10:40:01.384            25.113                Norilsk           784.781
       168   02 Jun 2027 10:40:12.943   02 Jun 2027 10:40:23.702            10.759              Murmansk1           336.219
       169   02 Jun 2027 10:40:49.929   02 Jun 2027 10:41:01.214            11.285                 Moscow           352.656
       170   02 Jun 2027 10:41:14.454   02 Jun 2027 10:41:43.549            29.095                Norilsk           909.219
       171   02 Jun 2027 12:07:20.142   02 Jun 2027 12:10:23.837           183.695                 Moscow          5740.469
       172   02 Jun 2027 12:10:51.310   02 Jun 2027 12:11:47.466            56.156              Murmansk2          1754.875
       173   02 Jun 2027 12:12:05.011   02 Jun 2027 12:12:21.945            16.934                 Moscow           529.188
       174   02 Jun 2027 12:13:56.915   02 Jun 2027 12:14:14.878            17.963              Murmansk1           561.344
       175   02 Jun 2027 12:15:23.026   02 Jun 2027 12:15:41.619            18.593              Murmansk2           581.031
       176   02 Jun 2027 12:16:46.484   02 Jun 2027 12:16:50.651             4.167              Murmansk2           130.219
       177   02 Jun 2027 12:16:58.654   02 Jun 2027 12:17:33.633            34.979              Murmansk2          1093.094
       178   02 Jun 2027 12:26:49.326   02 Jun 2027 12:31:47.150           297.824                Anadyr1          9307.000
       179   02 Jun 2027 13:48:50.013   02 Jun 2027 13:49:33.946            43.933              Murmansk1          1372.906
       180   02 Jun 2027 13:49:52.486   02 Jun 2027 13:50:24.603            32.117              Murmansk1          1003.656
       181   02 Jun 2027 13:53:50.914   02 Jun 2027 13:54:04.674            13.760              Murmansk1           430.000
       182   02 Jun 2027 13:55:18.283   02 Jun 2027 13:55:25.785             7.502              Murmansk1           234.437
       183   02 Jun 2027 13:56:49.162   02 Jun 2027 13:57:33.054            43.892              Murmansk2          1371.625
       184   02 Jun 2027 14:01:24.117   02 Jun 2027 14:03:11.980           107.863                Anadyr2          3370.719
       185   02 Jun 2027 14:03:13.599   02 Jun 2027 14:04:41.084            87.485                Anadyr1          2733.906
       186   02 Jun 2027 14:04:53.419   02 Jun 2027 14:05:24.317            30.898                Anadyr1           965.562
       187   02 Jun 2027 14:07:15.103   02 Jun 2027 14:07:19.734             4.631                Anadyr2           144.719
       188   02 Jun 2027 14:08:13.872   02 Jun 2027 14:09:29.350            75.478                Anadyr2          2358.687
       189   02 Jun 2027 15:31:09.036   02 Jun 2027 15:32:09.650            60.614              Murmansk2          1894.187
       190   02 Jun 2027 15:37:11.007   02 Jun 2027 15:39:26.022           135.015                Anadyr1          4219.219
       191   02 Jun 2027 15:39:54.257   02 Jun 2027 15:43:54.791           240.534               Magadan2          7516.688
       192   02 Jun 2027 15:47:53.753   02 Jun 2027 15:48:11.349            17.596               Magadan2           549.875
       193   02 Jun 2027 15:49:15.623   02 Jun 2027 15:49:24.167             8.544               Magadan2           267.000
       194   02 Jun 2027 17:13:06.202   02 Jun 2027 17:13:42.507            36.305                Anadyr1          1134.531
       195   02 Jun 2027 17:15:23.237   02 Jun 2027 17:17:31.083           127.846               Magadan2          3995.187
       196   02 Jun 2027 17:19:02.467   02 Jun 2027 17:19:04.528             2.061               Magadan1            64.406
       197   02 Jun 2027 17:21:31.636   02 Jun 2027 17:22:32.979            61.343               Magadan2          1916.969
       198   02 Jun 2027 18:08:03.168   02 Jun 2027 18:11:36.607           213.439            RioGallegos          6669.969
       199   02 Jun 2027 18:12:38.541   02 Jun 2027 18:14:34.987           116.446            RioGallegos          3638.938
       200   02 Jun 2027 18:51:46.268   02 Jun 2027 18:55:13.958           207.690                Norilsk          6490.313
       201   02 Jun 2027 18:55:24.209   02 Jun 2027 18:56:16.411            52.202                Irkutsk          1631.313
       202   02 Jun 2027 18:57:05.794   02 Jun 2027 18:58:26.834            81.040                Irkutsk          2532.500
       203   02 Jun 2027 19:09:26.852   02 Jun 2027 19:10:45.056            78.204                Sumatra          2443.875
       204   02 Jun 2027 19:11:01.010   02 Jun 2027 19:12:57.538           116.528                Sumatra          3641.500
       205   02 Jun 2027 19:16:02.999   02 Jun 2027 19:16:11.709             8.710                Sumatra           272.187
       206   02 Jun 2027 20:31:04.265   02 Jun 2027 20:33:04.929           120.664                Novosib          3770.750
       207   02 Jun 2027 20:39:06.845   02 Jun 2027 20:39:25.107            18.262                Novosib           570.687
       208   02 Jun 2027 20:40:21.459   02 Jun 2027 20:42:38.723           137.264                  Delhi          4289.500
       209   02 Jun 2027 20:44:31.159   02 Jun 2027 20:45:07.740            36.581                  Delhi          1143.156
       210   02 Jun 2027 22:05:25.133   02 Jun 2027 22:11:11.484           346.351              Murmansk1         10823.469
       211   02 Jun 2027 22:12:01.072   02 Jun 2027 22:13:57.680           116.608                 Moscow          3644.000
       212   02 Jun 2027 23:37:33.283   02 Jun 2027 23:38:19.033            45.750               Magadan2          1429.688
       213   02 Jun 2027 23:41:00.928   02 Jun 2027 23:41:34.384            33.456              Murmansk1          1045.500
       214   02 Jun 2027 23:41:57.421   02 Jun 2027 23:42:45.912            48.491              Murmansk2          1515.344
       215   02 Jun 2027 23:42:53.446   02 Jun 2027 23:43:11.424            17.978                Novosib           561.812
       216   02 Jun 2027 23:44:27.683   02 Jun 2027 23:44:41.078            13.395              Murmansk1           418.594
       217   02 Jun 2027 23:44:53.577   02 Jun 2027 23:46:30.223            96.646                 Moscow          3020.188
       218   02 Jun 2027 23:47:54.424   02 Jun 2027 23:49:01.694            67.270                 Moscow          2102.188
       219   02 Jun 2027 23:52:56.673   02 Jun 2027 23:53:18.004            21.331                 Moscow           666.594
       220   02 Jun 2027 23:56:15.616   02 Jun 2027 23:56:21.572             5.956                 Moscow           186.125
       221   03 Jun 2027 00:09:23.314   03 Jun 2027 00:12:20.340           177.026               CapeTown          5532.063
       222   03 Jun 2027 00:14:37.852   03 Jun 2027 00:15:12.954            35.102               CapeTown          1096.937
       223   03 Jun 2027 01:13:19.312   03 Jun 2027 01:13:30.933            11.621               Magadan1           363.156
       224   03 Jun 2027 01:15:49.173   03 Jun 2027 01:16:10.342            21.169               Magadan1           661.531
       225   03 Jun 2027 01:16:58.303   03 Jun 2027 01:18:16.217            77.914              Murmansk1          2434.812
       226   03 Jun 2027 01:20:04.786   03 Jun 2027 01:20:37.279            32.493              Murmansk2          1015.406
       227   03 Jun 2027 01:20:50.753   03 Jun 2027 01:21:12.326            21.573              Murmansk2           674.156
       228   03 Jun 2027 01:21:23.142   03 Jun 2027 01:23:25.140           121.998                 Moscow          3812.437
       229   03 Jun 2027 01:49:06.338   03 Jun 2027 01:49:11.453             5.115               CapeTown           159.844
       230   03 Jun 2027 01:52:41.162   03 Jun 2027 01:53:48.509            67.347               CapeTown          2104.594
       231   03 Jun 2027 02:41:03.127   03 Jun 2027 02:41:50.402            47.275                Anadyr2          1477.344
       232   03 Jun 2027 02:42:00.068   03 Jun 2027 02:43:06.343            66.275                Anadyr2          2071.094
       233   03 Jun 2027 02:43:25.258   03 Jun 2027 02:44:12.211            46.953               Magadan2          1467.281
       234   03 Jun 2027 02:49:07.218   03 Jun 2027 02:49:12.189             4.971               Magadan2           155.344
       235   03 Jun 2027 02:49:22.292   03 Jun 2027 02:49:36.253            13.961                Norilsk           436.281
       236   03 Jun 2027 02:51:15.922   03 Jun 2027 02:51:49.019            33.097                Norilsk          1034.281
       237   03 Jun 2027 02:52:52.604   03 Jun 2027 02:53:31.992            39.388              Murmansk1          1230.875
       238   03 Jun 2027 02:54:09.282   03 Jun 2027 02:54:14.345             5.063              Murmansk1           158.219
       239   03 Jun 2027 02:55:53.304   03 Jun 2027 02:55:57.315             4.011              Murmansk2           125.344
       240   03 Jun 2027 02:56:05.885   03 Jun 2027 02:56:14.409             8.524              Murmansk2           266.375
       241   03 Jun 2027 02:56:28.971   03 Jun 2027 02:57:22.634            53.663                 Moscow          1676.969
       242   03 Jun 2027 02:58:28.465   03 Jun 2027 02:59:37.508            69.043                 Moscow          2157.594
       243   03 Jun 2027 04:23:43.428   03 Jun 2027 04:23:55.759            12.331                Irkutsk           385.344
       244   03 Jun 2027 04:24:39.744   03 Jun 2027 04:25:20.354            40.610                Irkutsk          1269.063
       245   03 Jun 2027 04:29:10.791   03 Jun 2027 04:29:11.876             1.085                Norilsk            33.906
       246   03 Jun 2027 04:29:34.502   03 Jun 2027 04:29:37.243             2.741                Norilsk            85.656
       247   03 Jun 2027 05:05:46.306   03 Jun 2027 05:08:53.176           186.870            RioGallegos          5839.688
       248   03 Jun 2027 06:00:35.181   03 Jun 2027 06:00:45.418            10.237                Norilsk           319.906
       249   03 Jun 2027 06:01:09.845   03 Jun 2027 06:03:42.374           152.529               Magadan2          4766.531
       250   03 Jun 2027 06:03:53.868   03 Jun 2027 06:04:14.296            20.428                Irkutsk           638.375
       251   03 Jun 2027 06:04:20.688   03 Jun 2027 06:04:32.441            11.753                Novosib           367.281
       252   03 Jun 2027 06:04:37.854   03 Jun 2027 06:04:40.105             2.251               Magadan1            70.344
       253   03 Jun 2027 06:04:55.907   03 Jun 2027 06:05:11.315            15.408              Murmansk2           481.500
       254   03 Jun 2027 06:05:30.605   03 Jun 2027 06:06:22.999            52.394              Murmansk1          1637.313
       255   03 Jun 2027 06:06:37.105   03 Jun 2027 06:07:31.939            54.834              Murmansk1          1713.562
       256   03 Jun 2027 06:08:06.509   03 Jun 2027 06:08:11.398             4.889              Murmansk2           152.781
       257   03 Jun 2027 06:39:43.729   03 Jun 2027 06:41:53.147           129.418            RioGallegos          4044.313
       258   03 Jun 2027 07:15:15.538   03 Jun 2027 07:18:56.127           220.589                Sumatra          6893.406
       259   03 Jun 2027 07:29:09.819   03 Jun 2027 07:29:22.200            12.381                  Delhi           386.906
       260   03 Jun 2027 07:35:23.641   03 Jun 2027 07:36:15.267            51.626                Novosib          1613.312
       261   03 Jun 2027 07:36:43.357   03 Jun 2027 07:37:24.320            40.963                Norilsk          1280.094
       262   03 Jun 2027 07:37:28.831   03 Jun 2027 07:37:46.222            17.391                Norilsk           543.469
       263   03 Jun 2027 07:38:12.844   03 Jun 2027 07:38:27.130            14.286                Novosib           446.437
       264   03 Jun 2027 07:38:30.041   03 Jun 2027 07:39:35.581            65.540                Norilsk          2048.125
       265   03 Jun 2027 07:39:40.991   03 Jun 2027 07:39:46.988             5.997                Novosib           187.406
       266   03 Jun 2027 07:39:54.121   03 Jun 2027 07:40:06.241            12.120                Norilsk           378.750
       267   03 Jun 2027 07:40:12.716   03 Jun 2027 07:40:17.041             4.325              Murmansk1           135.156
       268   03 Jun 2027 07:40:26.787   03 Jun 2027 07:40:43.350            16.563                Norilsk           517.594
       269   03 Jun 2027 07:41:10.306   03 Jun 2027 07:41:56.638            46.332              Murmansk1          1447.875
       270   03 Jun 2027 08:17:59.553   03 Jun 2027 08:18:47.510            47.957            RioGallegos          1498.656
       271   03 Jun 2027 08:51:34.237   03 Jun 2027 08:52:39.041            64.804                Sumatra          2025.125
       272   03 Jun 2027 08:55:28.513   03 Jun 2027 08:56:12.190            43.677                Sumatra          1364.906
       273   03 Jun 2027 08:58:58.916   03 Jun 2027 09:00:41.091           102.175                  Delhi          3192.969
       274   03 Jun 2027 09:12:46.809   03 Jun 2027 09:13:13.698            26.889              Murmansk2           840.281
       275   03 Jun 2027 09:13:27.337   03 Jun 2027 09:14:20.592            53.255                Novosib          1664.219
       276   03 Jun 2027 09:14:41.792   03 Jun 2027 09:14:44.318             2.526                Norilsk            78.938
       277   03 Jun 2027 09:14:50.811   03 Jun 2027 09:14:59.439             8.628                Norilsk           269.625
       278   03 Jun 2027 09:15:00.213   03 Jun 2027 09:15:31.419            31.206                Irkutsk           975.187
       279   03 Jun 2027 09:15:34.853   03 Jun 2027 09:17:04.302            89.449                 Moscow          2795.281
       280   03 Jun 2027 10:36:47.733   03 Jun 2027 10:39:14.769           147.036                  Delhi          4594.875
       281   03 Jun 2027 10:48:35.235   03 Jun 2027 10:48:37.253             2.018              Murmansk2            63.062
       282   03 Jun 2027 10:48:38.560   03 Jun 2027 10:49:30.145            51.585                Norilsk          1612.031
       283   03 Jun 2027 10:49:34.863   03 Jun 2027 10:49:38.995             4.132                Novosib           129.125
       284   03 Jun 2027 10:50:01.443   03 Jun 2027 10:50:54.557            53.114              Murmansk2          1659.813
       285   03 Jun 2027 10:51:00.782   03 Jun 2027 10:51:07.016             6.234              Murmansk2           194.813
       286   03 Jun 2027 10:51:25.600   03 Jun 2027 10:51:29.039             3.439              Murmansk2           107.469
       287   03 Jun 2027 10:51:47.262   03 Jun 2027 10:52:03.380            16.118                 Moscow           503.687
       288   03 Jun 2027 10:52:06.288   03 Jun 2027 10:52:18.346            12.058              Murmansk1           376.813
       289   03 Jun 2027 10:52:41.769   03 Jun 2027 10:53:18.701            36.932              Murmansk2          1154.125
       290   03 Jun 2027 12:01:07.534   03 Jun 2027 12:02:17.936            70.402               CapeTown          2200.063
       291   03 Jun 2027 12:03:35.543   03 Jun 2027 12:04:14.630            39.087               CapeTown          1221.469
       292   03 Jun 2027 12:19:31.823   03 Jun 2027 12:20:30.793            58.970                 Moscow          1842.812
       293   03 Jun 2027 12:22:54.300   03 Jun 2027 12:23:41.151            46.851                 Moscow          1464.094
       294   03 Jun 2027 12:23:44.729   03 Jun 2027 12:25:47.252           122.523              Murmansk2          3828.844
       295   03 Jun 2027 12:27:16.742   03 Jun 2027 12:27:35.348            18.606              Murmansk2           581.438
       296   03 Jun 2027 12:27:53.362   03 Jun 2027 12:27:57.344             3.982              Murmansk1           124.437
       297   03 Jun 2027 12:28:16.244   03 Jun 2027 12:28:37.766            21.522              Murmansk1           672.563
       298   03 Jun 2027 12:38:26.378   03 Jun 2027 12:44:48.508           382.130                Anadyr2         11941.563
       299   03 Jun 2027 14:03:06.699   03 Jun 2027 14:03:14.930             8.231              Murmansk1           257.219
       300   03 Jun 2027 14:10:40.082   03 Jun 2027 14:10:41.560             1.478              Murmansk2            46.188
       301   03 Jun 2027 14:13:22.879   03 Jun 2027 14:16:41.974           199.095                Anadyr2          6221.719
       302   03 Jun 2027 14:21:29.153   03 Jun 2027 14:21:58.888            29.735                Anadyr2           929.219
       303   03 Jun 2027 14:24:13.754   03 Jun 2027 14:24:34.444            20.690                Anadyr2           646.562
       304   03 Jun 2027 15:42:49.001   03 Jun 2027 15:44:39.282           110.281              Murmansk2          3446.281
       305   03 Jun 2027 15:49:12.254   03 Jun 2027 15:51:19.907           127.653                Anadyr2          3989.156
       306   03 Jun 2027 15:51:48.636   03 Jun 2027 15:55:52.829           244.193               Magadan2          7631.031
       307   03 Jun 2027 15:59:46.827   03 Jun 2027 15:59:56.513             9.686               Magadan1           302.688
       308   03 Jun 2027 16:00:11.495   03 Jun 2027 16:00:54.892            43.397               Magadan1          1356.156
       309   03 Jun 2027 17:25:06.992   03 Jun 2027 17:25:48.968            41.976                Anadyr2          1311.750
       310   03 Jun 2027 17:25:48.968   03 Jun 2027 17:26:27.280            38.312                Anadyr1          1197.250
       311   03 Jun 2027 17:27:24.093   03 Jun 2027 17:28:50.835            86.742               Magadan2          2710.688
       312   03 Jun 2027 17:29:54.263   03 Jun 2027 17:30:43.237            48.974               Magadan1          1530.438
       313   03 Jun 2027 17:35:58.087   03 Jun 2027 17:36:09.891            11.804               Magadan2           368.875
       314   03 Jun 2027 17:36:21.909   03 Jun 2027 17:38:24.312           122.403               Magadan2          3825.094
       315   03 Jun 2027 18:19:46.196   03 Jun 2027 18:20:35.919            49.723            RioGallegos          1553.844
       316   03 Jun 2027 18:21:03.658   03 Jun 2027 18:22:32.412            88.754            RioGallegos          2773.562
       317   03 Jun 2027 18:23:16.595   03 Jun 2027 18:25:58.421           161.826            RioGallegos          5057.063
       318   03 Jun 2027 19:02:59.397   03 Jun 2027 19:04:05.975            66.578                Norilsk          2080.563
       319   03 Jun 2027 19:04:47.623   03 Jun 2027 19:07:14.970           147.347                Norilsk          4604.594
       320   03 Jun 2027 19:08:46.882   03 Jun 2027 19:09:12.373            25.491                Irkutsk           796.594
       321   03 Jun 2027 19:10:03.094   03 Jun 2027 19:12:14.584           131.490                Novosib          4109.062
       322   03 Jun 2027 19:21:06.097   03 Jun 2027 19:22:33.528            87.431                Sumatra          2732.219
       323   03 Jun 2027 19:24:56.107   03 Jun 2027 19:25:21.059            24.952                Sumatra           779.750
       324   03 Jun 2027 19:26:24.429   03 Jun 2027 19:26:32.418             7.989                Sumatra           249.656
       325   03 Jun 2027 20:45:04.057   03 Jun 2027 20:46:24.205            80.148                Novosib          2504.625
       326   03 Jun 2027 20:50:15.928   03 Jun 2027 20:51:11.108            55.180                Novosib          1724.375
       327   03 Jun 2027 20:51:56.196   03 Jun 2027 20:55:26.083           209.887                  Delhi          6558.969
       328   03 Jun 2027 20:56:13.884   03 Jun 2027 20:57:23.446            69.562                  Delhi          2173.812
       329   03 Jun 2027 22:17:20.533   03 Jun 2027 22:19:53.697           153.164              Murmansk1          4786.375
       330   03 Jun 2027 22:20:34.519   03 Jun 2027 22:21:28.069            53.550              Murmansk2          1673.437
       331   03 Jun 2027 22:22:39.469   03 Jun 2027 22:27:54.844           315.375                 Moscow          9855.469
       332   03 Jun 2027 23:53:02.043   03 Jun 2027 23:53:06.626             4.583              Murmansk2           143.219
       333   03 Jun 2027 23:53:26.906   03 Jun 2027 23:54:15.607            48.701              Murmansk1          1521.906
       334   03 Jun 2027 23:56:26.895   03 Jun 2027 23:57:16.928            50.033                 Moscow          1563.531
       335   03 Jun 2027 23:57:44.960   03 Jun 2027 23:58:41.224            56.264                 Moscow          1758.250
       336   04 Jun 2027 00:04:45.617   04 Jun 2027 00:04:48.649             3.032                 Moscow            94.750
       337   04 Jun 2027 00:20:58.606   04 Jun 2027 00:22:57.442           118.836               CapeTown          3713.625
       338   04 Jun 2027 00:24:30.921   04 Jun 2027 00:25:56.457            85.536               CapeTown          2673.000
       339   04 Jun 2027 01:20:58.442   04 Jun 2027 01:22:06.509            68.067               Magadan1          2127.094
       340   04 Jun 2027 01:28:59.906   04 Jun 2027 01:31:18.008           138.102              Murmansk1          4315.687
       341   04 Jun 2027 01:35:20.344   04 Jun 2027 01:35:32.100            11.756                 Moscow           367.375
       342   04 Jun 2027 01:39:24.096   04 Jun 2027 01:39:53.684            29.588              Murmansk2           924.625
       343   04 Jun 2027 01:56:38.033   04 Jun 2027 01:57:29.558            51.525               CapeTown          1610.156
       344   04 Jun 2027 01:58:57.404   04 Jun 2027 02:00:36.179            98.775               CapeTown          3086.719
       345   04 Jun 2027 02:53:00.929   04 Jun 2027 02:54:16.441            75.512               Magadan1          2359.750
       346   04 Jun 2027 02:54:20.970   04 Jun 2027 02:55:43.682            82.712               Magadan2          2584.750
       347   04 Jun 2027 03:00:08.152   04 Jun 2027 03:01:09.888            61.736               Magadan2          1929.250
       348   04 Jun 2027 03:01:15.592   04 Jun 2027 03:02:03.970            48.378               Magadan1          1511.813
       349   04 Jun 2027 04:38:20.296   04 Jun 2027 04:38:40.772            20.476               Magadan1           639.875
       350   04 Jun 2027 04:38:47.490   04 Jun 2027 04:39:00.346            12.856                Norilsk           401.750
       351   04 Jun 2027 04:39:09.696   04 Jun 2027 04:41:12.647           122.951                Anadyr2          3842.219
       352   04 Jun 2027 04:41:27.011   04 Jun 2027 04:41:32.414             5.403                Norilsk           168.844
       353   04 Jun 2027 05:17:21.320   04 Jun 2027 05:20:38.575           197.255            RioGallegos          6164.219
       354   04 Jun 2027 06:11:20.244   04 Jun 2027 06:11:50.314            30.070                Novosib           939.688
       355   04 Jun 2027 06:12:17.166   04 Jun 2027 06:12:40.857            23.691               Magadan2           740.344
       356   04 Jun 2027 06:12:40.857   04 Jun 2027 06:12:49.008             8.151               Magadan1           254.719
       357   04 Jun 2027 06:13:09.513   04 Jun 2027 06:14:17.858            68.345               Magadan1          2135.781
       358   04 Jun 2027 06:14:17.858   04 Jun 2027 06:14:32.491            14.633               Magadan2           457.281
       359   04 Jun 2027 06:14:42.198   04 Jun 2027 06:15:33.037            50.839               Magadan2          1588.719
       360   04 Jun 2027 06:15:33.037   04 Jun 2027 06:15:35.017             1.980               Magadan1            61.875
       361   04 Jun 2027 06:15:39.061   04 Jun 2027 06:16:00.636            21.575                Norilsk           674.219
       362   04 Jun 2027 06:16:18.812   04 Jun 2027 06:16:30.007            11.195               Magadan1           349.844
       363   04 Jun 2027 06:16:42.248   04 Jun 2027 06:16:58.439            16.191                Novosib           505.969
       364   04 Jun 2027 06:17:09.773   04 Jun 2027 06:17:58.628            48.855              Murmansk1          1526.719
       365   04 Jun 2027 06:17:58.628   04 Jun 2027 06:18:48.322            49.694              Murmansk2          1552.937
       366   04 Jun 2027 06:51:44.686   04 Jun 2027 06:53:38.174           113.488            RioGallegos          3546.500
       367   04 Jun 2027 07:26:58.375   04 Jun 2027 07:29:32.693           154.318                Sumatra          4822.437
       368   04 Jun 2027 07:30:54.446   04 Jun 2027 07:30:57.484             3.038                Sumatra            94.937
       369   04 Jun 2027 07:39:12.452   04 Jun 2027 07:40:44.538            92.086                  Delhi          2877.688
       370   04 Jun 2027 07:43:53.414   04 Jun 2027 07:45:21.850            88.436                  Delhi          2763.625
       371   04 Jun 2027 07:47:12.151   04 Jun 2027 07:47:35.581            23.430                Norilsk           732.188
       372   04 Jun 2027 07:47:37.964   04 Jun 2027 07:48:19.913            41.949                Irkutsk          1310.906
       373   04 Jun 2027 07:48:22.542   04 Jun 2027 07:48:53.557            31.015                Irkutsk           969.219
       374   04 Jun 2027 07:48:58.664   04 Jun 2027 07:50:05.218            66.554                Irkutsk          2079.812
       375   04 Jun 2027 07:50:17.782   04 Jun 2027 07:51:12.576            54.794              Murmansk2          1712.313
       376   04 Jun 2027 07:51:17.754   04 Jun 2027 07:51:28.534            10.780                Novosib           336.875
       377   04 Jun 2027 07:51:29.094   04 Jun 2027 07:53:00.503            91.409              Murmansk1          2856.531
       378   04 Jun 2027 08:29:59.116   04 Jun 2027 08:30:25.587            26.471            RioGallegos           827.219
       379   04 Jun 2027 08:35:58.931   04 Jun 2027 08:36:39.409            40.478            RioGallegos          1264.937
       380   04 Jun 2027 09:08:01.206   04 Jun 2027 09:08:30.203            28.997                Sumatra           906.156
       381   04 Jun 2027 09:10:52.979   04 Jun 2027 09:12:04.485            71.506                  Delhi          2234.562
       382   04 Jun 2027 09:13:46.547   04 Jun 2027 09:14:03.108            16.561                  Delhi           517.531
       383   04 Jun 2027 09:14:24.544   04 Jun 2027 09:15:22.574            58.030                  Delhi          1813.437
       384   04 Jun 2027 09:25:03.195   04 Jun 2027 09:25:04.185             0.990                 Moscow            30.938
       385   04 Jun 2027 09:25:14.277   04 Jun 2027 09:25:56.072            41.795              Murmansk2          1306.094
       386   04 Jun 2027 09:26:20.899   04 Jun 2027 09:27:13.335            52.436                Novosib          1638.625
       387   04 Jun 2027 09:27:21.220   04 Jun 2027 09:27:23.413             2.193                Norilsk            68.531
       388   04 Jun 2027 09:27:29.020   04 Jun 2027 09:27:53.463            24.443              Murmansk2           763.844
       389   04 Jun 2027 09:27:57.703   04 Jun 2027 09:28:00.033             2.330                Norilsk            72.812
       390   04 Jun 2027 09:28:15.010   04 Jun 2027 09:28:34.089            19.079                Novosib           596.219
       391   04 Jun 2027 09:28:38.711   04 Jun 2027 09:29:10.354            31.643              Murmansk2           988.844
       392   04 Jun 2027 10:49:48.685   04 Jun 2027 10:52:12.780           144.095                  Delhi          4502.969
       393   04 Jun 2027 10:59:25.055   04 Jun 2027 10:59:30.943             5.888              Murmansk2           184.000
       394   04 Jun 2027 11:00:00.223   04 Jun 2027 11:00:34.118            33.895              Murmansk2          1059.219
       395   04 Jun 2027 11:00:45.913   04 Jun 2027 11:01:26.907            40.994              Murmansk2          1281.063
       396   04 Jun 2027 11:01:35.460   04 Jun 2027 11:02:48.044            72.584              Murmansk1          2268.250
       397   04 Jun 2027 11:02:55.929   04 Jun 2027 11:03:08.186            12.257              Murmansk1           383.031
       398   04 Jun 2027 11:03:18.656   04 Jun 2027 11:03:25.479             6.823              Murmansk2           213.219
       399   04 Jun 2027 11:03:39.188   04 Jun 2027 11:03:50.903            11.715                Novosib           366.094
       400   04 Jun 2027 11:03:51.432   04 Jun 2027 11:04:13.108            21.676                 Moscow           677.375
       401   04 Jun 2027 11:04:14.197   04 Jun 2027 11:05:01.332            47.135              Murmansk2          1472.969
       402   04 Jun 2027 11:05:10.072   04 Jun 2027 11:05:27.836            17.764              Murmansk2           555.125
       403   04 Jun 2027 11:05:27.836   04 Jun 2027 11:05:42.943            15.107              Murmansk1           472.094
       404   04 Jun 2027 11:07:27.793   04 Jun 2027 11:07:31.363             3.570              Murmansk2           111.562
       405   04 Jun 2027 11:10:46.131   04 Jun 2027 11:11:07.707            21.576              Murmansk1           674.250
       406   04 Jun 2027 12:11:31.507   04 Jun 2027 12:13:54.631           143.124               CapeTown          4472.625
       407   04 Jun 2027 12:17:23.226   04 Jun 2027 12:18:08.525            45.299               CapeTown          1415.594
       408   04 Jun 2027 12:31:46.961   04 Jun 2027 12:32:30.334            43.373                 Moscow          1355.406
       409   04 Jun 2027 12:35:12.750   04 Jun 2027 12:37:11.439           118.689              Murmansk1          3709.031
       410   04 Jun 2027 12:38:48.683   04 Jun 2027 12:39:18.306            29.623              Murmansk1           925.719
       411   04 Jun 2027 12:50:11.379   04 Jun 2027 12:54:00.767           229.388                Anadyr1          7168.375
       412   04 Jun 2027 12:55:32.317   04 Jun 2027 12:57:39.061           126.744                Anadyr2          3960.750
       413   04 Jun 2027 14:13:45.940   04 Jun 2027 14:13:55.601             9.661              Murmansk2           301.906
       414   04 Jun 2027 14:15:08.089   04 Jun 2027 14:15:39.298            31.209              Murmansk1           975.281
       415   04 Jun 2027 14:25:22.231   04 Jun 2027 14:26:58.975            96.744                Anadyr1          3023.250
       416   04 Jun 2027 14:27:05.543   04 Jun 2027 14:28:56.073           110.530                Anadyr2          3454.062
       417   04 Jun 2027 14:30:14.430   04 Jun 2027 14:32:51.461           157.031               Magadan2          4907.219
       418   04 Jun 2027 14:33:33.107   04 Jun 2027 14:33:39.786             6.679               Magadan1           208.719
       419   04 Jun 2027 16:01:13.579   04 Jun 2027 16:02:34.298            80.719                Anadyr2          2522.469
       420   04 Jun 2027 16:03:12.194   04 Jun 2027 16:03:13.523             1.329                Anadyr1            41.531
       421   04 Jun 2027 16:03:44.469   04 Jun 2027 16:09:03.822           319.353               Magadan1          9979.781
       422   04 Jun 2027 17:37:07.553   04 Jun 2027 17:38:13.930            66.377                Anadyr2          2074.281
       423   04 Jun 2027 17:38:13.930   04 Jun 2027 17:38:26.990            13.060                Anadyr1           408.125
       424   04 Jun 2027 17:39:25.295   04 Jun 2027 17:40:49.626            84.331               Magadan2          2635.344
       425   04 Jun 2027 17:40:52.021   04 Jun 2027 17:41:19.448            27.427                Norilsk           857.094
       426   04 Jun 2027 17:43:25.896   04 Jun 2027 17:44:15.045            49.149                Norilsk          1535.906
       427   04 Jun 2027 18:31:33.507   04 Jun 2027 18:34:34.381           180.874            RioGallegos          5652.313
       428   04 Jun 2027 18:41:00.194   04 Jun 2027 18:41:48.742            48.548            RioGallegos          1517.125
       429   04 Jun 2027 19:14:59.589   04 Jun 2027 19:16:32.302            92.713                Norilsk          2897.281
       430   04 Jun 2027 19:17:50.375   04 Jun 2027 19:18:29.913            39.538                Norilsk          1235.562
       431   04 Jun 2027 19:19:08.672   04 Jun 2027 19:21:11.985           123.313                Irkutsk          3853.531
       432   04 Jun 2027 19:21:41.743   04 Jun 2027 19:24:53.257           191.514                Irkutsk          5984.812
       433   04 Jun 2027 19:25:21.764   04 Jun 2027 19:26:40.411            78.647                Novosib          2457.719
       434   04 Jun 2027 19:34:15.449   04 Jun 2027 19:35:39.599            84.150                Sumatra          2629.687
       435   04 Jun 2027 19:44:30.061   04 Jun 2027 19:45:21.894            51.833                Sumatra          1619.781
       436   04 Jun 2027 20:55:42.701   04 Jun 2027 20:56:23.615            40.914                Novosib          1278.562
       437   04 Jun 2027 20:57:10.480   04 Jun 2027 20:58:27.217            76.737                Novosib          2398.031
       438   04 Jun 2027 21:01:20.714   04 Jun 2027 21:01:38.780            18.066                Novosib           564.563
       439   04 Jun 2027 21:02:39.749   04 Jun 2027 21:06:22.304           222.555                  Delhi          6954.844
       440   04 Jun 2027 21:07:50.375   04 Jun 2027 21:08:05.857            15.482                  Delhi           483.813
       441   04 Jun 2027 22:29:17.490   04 Jun 2027 22:31:23.667           126.177              Murmansk1          3943.031
       442   04 Jun 2027 22:32:08.093   04 Jun 2027 22:35:21.056           192.963              Murmansk2          6030.094
       443   04 Jun 2027 22:35:50.230   04 Jun 2027 22:41:04.540           314.310                 Moscow          9822.188
       444   05 Jun 2027 00:06:12.219   05 Jun 2027 00:06:25.474            13.255              Murmansk2           414.219
       445   05 Jun 2027 00:08:24.173   05 Jun 2027 00:10:27.186           123.013                 Moscow          3844.156
       446   05 Jun 2027 00:32:39.790   05 Jun 2027 00:35:09.716           149.926               CapeTown          4685.187
       447   05 Jun 2027 00:36:28.112   05 Jun 2027 00:36:49.934            21.822               CapeTown           681.937
       448   05 Jun 2027 01:31:44.374   05 Jun 2027 01:32:02.841            18.467               Magadan2           577.094
       449   05 Jun 2027 01:32:19.194   05 Jun 2027 01:32:25.556             6.362               Magadan2           198.812
       450   05 Jun 2027 01:33:46.552   05 Jun 2027 01:34:24.157            37.605               Magadan1          1175.156
       451   05 Jun 2027 01:36:53.819   05 Jun 2027 01:37:06.299            12.480               Magadan2           390.000
       452   05 Jun 2027 01:41:01.428   05 Jun 2027 01:42:21.064            79.636              Murmansk1          2488.625
       453   05 Jun 2027 01:43:57.861   05 Jun 2027 01:44:22.620            24.759              Murmansk2           773.719
       454   05 Jun 2027 01:44:28.132   05 Jun 2027 01:45:33.238            65.106                 Moscow          2034.562
       455   05 Jun 2027 01:48:49.038   05 Jun 2027 01:49:41.363            52.325                 Moscow          1635.156
       456   05 Jun 2027 02:09:02.849   05 Jun 2027 02:09:26.203            23.354               CapeTown           729.812
       457   05 Jun 2027 02:12:39.458   05 Jun 2027 02:13:37.878            58.420               CapeTown          1825.625
       458   05 Jun 2027 03:10:01.401   05 Jun 2027 03:10:32.690            31.289               Magadan1           977.781
       459   05 Jun 2027 03:10:52.246   05 Jun 2027 03:11:15.886            23.640               Magadan1           738.750
       460   05 Jun 2027 03:11:42.666   05 Jun 2027 03:13:34.550           111.884                Anadyr1          3496.375
       461   05 Jun 2027 03:13:34.550   05 Jun 2027 03:16:57.349           202.799                Anadyr2          6337.469
       462   05 Jun 2027 03:17:25.786   05 Jun 2027 03:17:26.332             0.546               Magadan1            17.063
       463   05 Jun 2027 04:47:23.307   05 Jun 2027 04:48:37.442            74.135                Irkutsk          2316.719
       464   05 Jun 2027 04:50:14.736   05 Jun 2027 04:51:23.601            68.865               Magadan1          2152.031
       465   05 Jun 2027 04:51:34.584   05 Jun 2027 04:51:37.491             2.907                Irkutsk            90.844
       466   05 Jun 2027 06:22:44.425   05 Jun 2027 06:22:57.143            12.718               Magadan2           397.438
       467   05 Jun 2027 06:23:29.276   05 Jun 2027 06:23:36.489             7.213                Novosib           225.406
       468   05 Jun 2027 06:23:51.863   05 Jun 2027 06:24:30.476            38.613                Irkutsk          1206.656
       469   05 Jun 2027 06:24:40.423   05 Jun 2027 06:24:42.944             2.521               Magadan1            78.781
       470   05 Jun 2027 06:24:43.297   05 Jun 2027 06:25:04.948            21.651                Irkutsk           676.594
       471   05 Jun 2027 06:25:11.589   05 Jun 2027 06:25:32.117            20.528                Norilsk           641.500
       472   05 Jun 2027 06:25:59.588   05 Jun 2027 06:26:09.694            10.106                Novosib           315.812
       473   05 Jun 2027 06:26:33.256   05 Jun 2027 06:26:40.337             7.081                Irkutsk           221.281
       474   05 Jun 2027 06:26:41.220   05 Jun 2027 06:27:12.946            31.726                Norilsk           991.437
       475   05 Jun 2027 06:27:14.331   05 Jun 2027 06:28:23.936            69.605              Murmansk2          2175.156
       476   05 Jun 2027 06:28:43.993   05 Jun 2027 06:28:50.551             6.558                Novosib           204.937
       477   05 Jun 2027 06:28:53.647   05 Jun 2027 06:29:43.164            49.517                Novosib          1547.406
       478   05 Jun 2027 06:29:50.149   05 Jun 2027 06:29:58.721             8.572              Murmansk2           267.875
       479   05 Jun 2027 06:31:26.486   05 Jun 2027 06:31:28.537             2.051              Murmansk1            64.094
       480   05 Jun 2027 06:31:44.456   05 Jun 2027 06:31:52.596             8.140              Murmansk1           254.375
       481   05 Jun 2027 06:32:09.226   05 Jun 2027 06:32:48.475            39.249              Murmansk1          1226.531
       482   05 Jun 2027 07:03:49.011   05 Jun 2027 07:03:52.050             3.039            RioGallegos            94.969
