uniorb/output/strategy_2/Drop/Drop_KinoSat_111003.txt

KinoSat_111003
-------------------------
    Access    *     Start Time (UTCG)     *     Stop Time (UTCG)  *   Duration (s)        *       Station  *  Data (Mbytes)
         1   01 Jun 2027 03:47:39.106   01 Jun 2027 03:47:44.407             5.301                Anadyr2           165.656
         2   01 Jun 2027 03:47:44.407   01 Jun 2027 03:47:58.744            14.337                Anadyr1           448.031
         3   01 Jun 2027 03:48:07.127   01 Jun 2027 03:48:57.009            49.882               Magadan1          1558.812
         4   01 Jun 2027 03:48:57.009   01 Jun 2027 03:49:27.846            30.837               Magadan2           963.656
         5   01 Jun 2027 03:49:27.846   01 Jun 2027 03:52:22.944           175.098               Magadan1          5471.812
         6   01 Jun 2027 03:52:22.944   01 Jun 2027 03:52:52.524            29.580               Magadan2           924.375
         7   01 Jun 2027 05:25:48.477   01 Jun 2027 05:26:28.945            40.468               Magadan2          1264.625
         8   01 Jun 2027 05:26:28.945   01 Jun 2027 05:27:03.920            34.975               Magadan1          1092.969
         9   01 Jun 2027 05:27:07.007   01 Jun 2027 05:28:24.151            77.144                Anadyr1          2410.750
        10   01 Jun 2027 05:28:54.730   01 Jun 2027 05:28:58.808             4.078               Magadan2           127.437
        11   01 Jun 2027 06:58:47.529   01 Jun 2027 06:59:40.769            53.240               Magadan2          1663.750
        12   01 Jun 2027 06:59:46.564   01 Jun 2027 07:00:32.402            45.838                Anadyr2          1432.438
        13   01 Jun 2027 07:00:53.178   01 Jun 2027 07:01:15.223            22.045               Magadan2           688.906
        14   01 Jun 2027 07:01:26.062   01 Jun 2027 07:04:37.057           190.995               Magadan1          5968.594
        15   01 Jun 2027 07:04:48.240   01 Jun 2027 07:05:18.531            30.291                Novosib           946.594
        16   01 Jun 2027 07:08:24.031   01 Jun 2027 07:08:59.652            35.621                Norilsk          1113.156
        17   01 Jun 2027 08:36:24.606   01 Jun 2027 08:36:50.229            25.623               Magadan1           800.719
        18   01 Jun 2027 08:37:23.030   01 Jun 2027 08:38:01.772            38.742                Irkutsk          1210.688
        19   01 Jun 2027 08:38:06.864   01 Jun 2027 08:38:13.587             6.723                Novosib           210.094
        20   01 Jun 2027 08:38:20.688   01 Jun 2027 08:40:41.265           140.577                Irkutsk          4393.031
        21   01 Jun 2027 08:40:41.885   01 Jun 2027 08:41:32.458            50.573                Novosib          1580.406
        22   01 Jun 2027 08:41:39.821   01 Jun 2027 08:42:27.127            47.306              Murmansk2          1478.312
        23   01 Jun 2027 08:43:33.849   01 Jun 2027 08:43:53.971            20.122              Murmansk2           628.812
        24   01 Jun 2027 08:44:07.733   01 Jun 2027 08:44:28.014            20.281                Norilsk           633.781
        25   01 Jun 2027 09:15:59.298   01 Jun 2027 09:16:58.370            59.072            RioGallegos          1846.000
        26   01 Jun 2027 09:20:00.243   01 Jun 2027 09:20:25.074            24.831            RioGallegos           775.969
        27   01 Jun 2027 09:20:47.752   01 Jun 2027 09:21:06.263            18.511            RioGallegos           578.469
        28   01 Jun 2027 09:25:32.850   01 Jun 2027 09:25:39.617             6.767            RioGallegos           211.469
        29   01 Jun 2027 09:50:21.617   01 Jun 2027 09:51:34.482            72.865                Sumatra          2277.031
        30   01 Jun 2027 09:56:10.000   01 Jun 2027 09:56:17.845             7.845                Sumatra           245.156
        31   01 Jun 2027 09:58:36.372   01 Jun 2027 09:59:01.886            25.514                Sumatra           797.312
        32   01 Jun 2027 09:59:18.965   01 Jun 2027 10:00:26.964            67.999                  Delhi          2124.969
        33   01 Jun 2027 10:01:10.688   01 Jun 2027 10:01:38.481            27.793                  Delhi           868.531
        34   01 Jun 2027 10:10:56.615   01 Jun 2027 10:10:57.099             0.484                  Delhi            15.125
        35   01 Jun 2027 10:12:50.925   01 Jun 2027 10:14:28.889            97.964                Irkutsk          3061.375
        36   01 Jun 2027 10:14:42.944   01 Jun 2027 10:15:51.688            68.744                Norilsk          2148.250
        37   01 Jun 2027 10:16:01.604   01 Jun 2027 10:16:15.276            13.672                Norilsk           427.250
        38   01 Jun 2027 10:16:16.838   01 Jun 2027 10:18:09.132           112.294                Novosib          3509.188
        39   01 Jun 2027 10:18:17.969   01 Jun 2027 10:18:58.464            40.495                 Moscow          1265.469
        40   01 Jun 2027 11:35:00.993   01 Jun 2027 11:38:12.781           191.788                  Delhi          5993.375
        41   01 Jun 2027 11:48:58.914   01 Jun 2027 11:50:57.338           118.424                 Moscow          3700.750
        42   01 Jun 2027 11:51:27.773   01 Jun 2027 11:55:23.657           235.884              Murmansk2          7371.375
        43   01 Jun 2027 11:56:21.479   01 Jun 2027 11:57:03.246            41.767                Norilsk          1305.219
        44   01 Jun 2027 13:18:49.839   01 Jun 2027 13:22:46.226           236.387                 Moscow          7387.094
        45   01 Jun 2027 13:22:57.112   01 Jun 2027 13:26:37.373           220.261              Murmansk2          6883.156
        46   01 Jun 2027 13:29:22.763   01 Jun 2027 13:29:54.812            32.049                Norilsk          1001.531
        47   01 Jun 2027 13:30:19.024   01 Jun 2027 13:31:32.835            73.811                Norilsk          2306.594
        48   01 Jun 2027 13:35:06.961   01 Jun 2027 13:35:11.504             4.543              Murmansk2           141.969
        49   01 Jun 2027 13:40:14.544   01 Jun 2027 13:40:42.041            27.497                Anadyr2           859.281
        50   01 Jun 2027 14:32:45.173   01 Jun 2027 14:36:38.905           233.732               CapeTown          7304.125
        51   01 Jun 2027 14:40:29.070   01 Jun 2027 14:41:30.714            61.644               CapeTown          1926.375
        52   01 Jun 2027 14:43:49.504   01 Jun 2027 14:44:39.278            49.774               CapeTown          1555.438
        53   01 Jun 2027 14:59:55.740   01 Jun 2027 15:00:38.137            42.397              Murmansk1          1324.906
        54   01 Jun 2027 15:01:32.948   01 Jun 2027 15:03:19.268           106.320              Murmansk1          3322.500
        55   01 Jun 2027 15:03:19.268   01 Jun 2027 15:03:44.472            25.204              Murmansk2           787.625
        56   01 Jun 2027 15:03:51.853   01 Jun 2027 15:04:09.273            17.420              Murmansk2           544.375
        57   01 Jun 2027 15:07:14.467   01 Jun 2027 15:07:30.010            15.543              Murmansk1           485.719
        58   01 Jun 2027 15:07:54.641   01 Jun 2027 15:09:11.100            76.459              Murmansk2          2389.344
        59   01 Jun 2027 15:10:23.644   01 Jun 2027 15:10:31.958             8.314              Murmansk2           259.812
        60   01 Jun 2027 15:13:08.133   01 Jun 2027 15:14:13.351            65.218                Anadyr2          2038.063
        61   01 Jun 2027 15:14:40.812   01 Jun 2027 15:15:34.532            53.720                Anadyr2          1678.750
        62   01 Jun 2027 15:16:38.787   01 Jun 2027 15:16:59.474            20.687                Anadyr1           646.469
        63   01 Jun 2027 15:17:58.244   01 Jun 2027 15:18:41.139            42.895                Anadyr1          1340.469
        64   01 Jun 2027 15:18:52.672   01 Jun 2027 15:19:12.046            19.374                Anadyr1           605.437
        65   01 Jun 2027 15:19:12.046   01 Jun 2027 15:19:51.738            39.692                Anadyr2          1240.375
        66   01 Jun 2027 15:20:25.448   01 Jun 2027 15:21:00.354            34.906                Anadyr2          1090.812
        67   01 Jun 2027 15:21:43.811   01 Jun 2027 15:22:07.659            23.848                Anadyr1           745.250
        68   01 Jun 2027 15:22:07.659   01 Jun 2027 15:22:40.717            33.058                Anadyr2          1033.063
        69   01 Jun 2027 15:23:12.246   01 Jun 2027 15:23:14.077             1.831                Anadyr1            57.219
        70   01 Jun 2027 15:23:30.432   01 Jun 2027 15:23:47.037            16.605                Anadyr1           518.906
        71   01 Jun 2027 16:40:03.167   01 Jun 2027 16:41:36.177            93.010              Murmansk1          2906.563
        72   01 Jun 2027 16:42:12.813   01 Jun 2027 16:42:58.310            45.497              Murmansk1          1421.781
        73   01 Jun 2027 16:44:18.433   01 Jun 2027 16:45:02.155            43.722              Murmansk2          1366.313
        74   01 Jun 2027 16:46:17.487   01 Jun 2027 16:46:34.941            17.454              Murmansk1           545.437
        75   01 Jun 2027 16:48:50.408   01 Jun 2027 16:49:25.846            35.438                Anadyr2          1107.437
        76   01 Jun 2027 16:50:37.972   01 Jun 2027 16:51:29.804            51.832                Anadyr1          1619.750
        77   01 Jun 2027 16:51:46.934   01 Jun 2027 16:52:43.557            56.623               Magadan1          1769.469
        78   01 Jun 2027 16:52:53.005   01 Jun 2027 16:53:48.263            55.258               Magadan1          1726.813
        79   01 Jun 2027 16:56:45.444   01 Jun 2027 16:57:24.340            38.896               Magadan2          1215.500
        80   01 Jun 2027 16:57:50.344   01 Jun 2027 16:58:03.506            13.162               Magadan1           411.312
        81   01 Jun 2027 16:58:55.919   01 Jun 2027 16:59:19.192            23.273                Anadyr2           727.281
        82   01 Jun 2027 16:59:29.306   01 Jun 2027 17:00:07.923            38.617               Magadan1          1206.781
        83   01 Jun 2027 17:00:51.717   01 Jun 2027 17:01:23.127            31.410               Magadan2           981.562
        84   01 Jun 2027 18:24:45.944   01 Jun 2027 18:26:36.519           110.575                Anadyr2          3455.469
        85   01 Jun 2027 18:27:03.797   01 Jun 2027 18:30:08.937           185.140               Magadan1          5785.625
        86   01 Jun 2027 18:30:57.325   01 Jun 2027 18:31:37.556            40.231               Magadan2          1257.219
        87   01 Jun 2027 18:32:02.855   01 Jun 2027 18:32:24.498            21.643                Anadyr2           676.344
        88   01 Jun 2027 18:32:37.577   01 Jun 2027 18:33:20.855            43.278               Magadan2          1352.437
        89   01 Jun 2027 18:33:52.743   01 Jun 2027 18:34:21.349            28.606                Anadyr1           893.937
        90   01 Jun 2027 18:35:18.680   01 Jun 2027 18:35:43.884            25.204                Anadyr1           787.625
        91   01 Jun 2027 18:36:05.590   01 Jun 2027 18:37:47.906           102.316               Magadan1          3197.375
        92   01 Jun 2027 18:39:20.358   01 Jun 2027 18:39:31.708            11.350               Magadan1           354.688
        93   01 Jun 2027 18:39:31.708   01 Jun 2027 18:39:49.316            17.608               Magadan2           550.250
        94   01 Jun 2027 19:20:21.779   01 Jun 2027 19:23:20.060           178.281            RioGallegos          5571.281
        95   01 Jun 2027 19:25:29.512   01 Jun 2027 19:25:53.687            24.175            RioGallegos           755.469
        96   01 Jun 2027 19:26:54.760   01 Jun 2027 19:27:16.520            21.760            RioGallegos           680.000
        97   01 Jun 2027 20:03:55.229   01 Jun 2027 20:04:24.613            29.384                Norilsk           918.250
        98   01 Jun 2027 20:05:15.012   01 Jun 2027 20:06:36.052            81.040                Norilsk          2532.500
        99   01 Jun 2027 20:07:23.851   01 Jun 2027 20:07:39.929            16.078                Irkutsk           502.438
       100   01 Jun 2027 20:08:19.497   01 Jun 2027 20:09:08.269            48.772                Irkutsk          1524.125
       101   01 Jun 2027 20:10:39.266   01 Jun 2027 20:11:07.018            27.752                Norilsk           867.250
       102   01 Jun 2027 20:12:21.514   01 Jun 2027 20:16:38.823           257.309                Irkutsk          8040.906
       103   01 Jun 2027 20:25:50.489   01 Jun 2027 20:27:04.627            74.138                Sumatra          2316.812
       104   01 Jun 2027 20:28:20.546   01 Jun 2027 20:28:50.680            30.134                Sumatra           941.688
       105   01 Jun 2027 20:31:01.556   01 Jun 2027 20:31:30.180            28.624                Sumatra           894.500
       106   01 Jun 2027 21:07:11.561   01 Jun 2027 21:07:12.645             1.084            RioGallegos            33.875
       107   01 Jun 2027 21:41:28.826   01 Jun 2027 21:41:38.444             9.618                Anadyr2           300.563
       108   01 Jun 2027 21:41:57.562   01 Jun 2027 21:42:09.149            11.587               Magadan2           362.094
       109   01 Jun 2027 21:42:15.757   01 Jun 2027 21:42:27.271            11.514               Magadan2           359.812
       110   01 Jun 2027 21:42:27.271   01 Jun 2027 21:42:40.839            13.568               Magadan1           424.000
       111   01 Jun 2027 21:42:53.926   01 Jun 2027 21:43:08.743            14.817               Magadan1           463.031
       112   01 Jun 2027 21:43:36.745   01 Jun 2027 21:44:12.473            35.728                Novosib          1116.500
       113   01 Jun 2027 21:45:32.283   01 Jun 2027 21:45:38.110             5.827                Norilsk           182.094
       114   01 Jun 2027 21:45:39.238   01 Jun 2027 21:46:37.834            58.596               Magadan2          1831.125
       115   01 Jun 2027 21:47:33.878   01 Jun 2027 21:48:12.122            38.244               Magadan2          1195.125
       116   01 Jun 2027 21:48:14.733   01 Jun 2027 21:48:45.347            30.614                Novosib           956.687
       117   01 Jun 2027 21:51:05.946   01 Jun 2027 21:51:49.490            43.544                Irkutsk          1360.750
       118   01 Jun 2027 21:52:05.039   01 Jun 2027 21:52:21.695            16.656                  Delhi           520.500
       119   01 Jun 2027 21:52:24.178   01 Jun 2027 21:53:30.279            66.101                Novosib          2065.656
       120   01 Jun 2027 21:56:53.718   01 Jun 2027 21:59:25.148           151.430                  Delhi          4732.187
       121   01 Jun 2027 23:11:16.967   01 Jun 2027 23:11:51.299            34.332                Anadyr2          1072.875
       122   01 Jun 2027 23:14:05.628   01 Jun 2027 23:14:34.609            28.981                Anadyr2           905.656
       123   01 Jun 2027 23:14:40.098   01 Jun 2027 23:14:51.991            11.893                Norilsk           371.656
       124   01 Jun 2027 23:15:01.195   01 Jun 2027 23:15:03.403             2.208               Magadan2            69.000
       125   01 Jun 2027 23:15:03.403   01 Jun 2027 23:15:40.814            37.411               Magadan1          1169.094
       126   01 Jun 2027 23:16:16.126   01 Jun 2027 23:16:20.104             3.978               Magadan1           124.312
       127   01 Jun 2027 23:16:28.842   01 Jun 2027 23:16:57.326            28.484               Magadan2           890.125
       128   01 Jun 2027 23:17:16.623   01 Jun 2027 23:20:29.957           193.334              Murmansk1          6041.688
       129   01 Jun 2027 23:20:29.957   01 Jun 2027 23:20:56.384            26.427              Murmansk2           825.844
       130   01 Jun 2027 23:23:03.654   01 Jun 2027 23:23:26.865            23.211              Murmansk2           725.344
       131   01 Jun 2027 23:28:52.072   01 Jun 2027 23:29:07.285            15.213                Novosib           475.406
       132   01 Jun 2027 23:29:49.763   01 Jun 2027 23:30:27.334            37.571                Novosib          1174.094
       133   01 Jun 2027 23:32:24.883   01 Jun 2027 23:34:19.388           114.505                  Delhi          3578.281
       134   02 Jun 2027 00:42:58.938   02 Jun 2027 00:43:15.783            16.845                Anadyr2           526.406
       135   02 Jun 2027 00:44:07.188   02 Jun 2027 00:44:55.404            48.216                Anadyr2          1506.750
       136   02 Jun 2027 00:45:38.673   02 Jun 2027 00:45:41.879             3.206                Anadyr2           100.188
       137   02 Jun 2027 00:45:45.465   02 Jun 2027 00:46:10.515            25.050                Anadyr2           782.812
       138   02 Jun 2027 00:48:00.022   02 Jun 2027 00:48:25.964            25.942                Anadyr2           810.687
       139   02 Jun 2027 00:48:51.896   02 Jun 2027 00:50:21.739            89.843               Magadan2          2807.594
       140   02 Jun 2027 00:51:06.916   02 Jun 2027 00:51:31.899            24.983               Magadan1           780.719
       141   02 Jun 2027 00:52:40.585   02 Jun 2027 00:53:21.781            41.196              Murmansk1          1287.375
       142   02 Jun 2027 00:53:53.564   02 Jun 2027 00:53:58.393             4.829              Murmansk2           150.906
       143   02 Jun 2027 00:53:58.393   02 Jun 2027 00:54:28.676            30.283              Murmansk1           946.344
       144   02 Jun 2027 00:56:17.496   02 Jun 2027 00:56:28.278            10.782                Irkutsk           336.937
       145   02 Jun 2027 00:57:06.150   02 Jun 2027 00:57:49.441            43.291              Murmansk1          1352.844
       146   02 Jun 2027 00:58:58.837   02 Jun 2027 00:59:39.466            40.629              Murmansk2          1269.656
       147   02 Jun 2027 01:02:14.640   02 Jun 2027 01:02:20.333             5.693                 Moscow           177.906
       148   02 Jun 2027 01:02:31.036   02 Jun 2027 01:02:53.121            22.085                 Moscow           690.156
       149   02 Jun 2027 01:03:34.468   02 Jun 2027 01:04:02.825            28.357                Novosib           886.156
       150   02 Jun 2027 01:06:36.013   02 Jun 2027 01:06:42.062             6.049                 Moscow           189.031
       151   02 Jun 2027 01:07:09.037   02 Jun 2027 01:07:29.334            20.297                 Moscow           634.281
       152   02 Jun 2027 01:24:31.358   02 Jun 2027 01:25:38.915            67.557               CapeTown          2111.156
       153   02 Jun 2027 01:27:56.013   02 Jun 2027 01:29:05.230            69.217               CapeTown          2163.031
       154   02 Jun 2027 02:16:57.330   02 Jun 2027 02:17:09.133            11.803                Anadyr2           368.844
       155   02 Jun 2027 02:18:01.915   02 Jun 2027 02:18:19.875            17.960                Anadyr2           561.250
       156   02 Jun 2027 02:19:21.291   02 Jun 2027 02:19:24.605             3.314                Anadyr2           103.563
       157   02 Jun 2027 02:19:28.562   02 Jun 2027 02:19:41.405            12.843                Anadyr2           401.344
       158   02 Jun 2027 02:20:17.973   02 Jun 2027 02:20:36.941            18.968                Anadyr1           592.750
       159   02 Jun 2027 02:20:50.539   02 Jun 2027 02:21:18.804            28.265               Magadan1           883.281
       160   02 Jun 2027 02:22:06.349   02 Jun 2027 02:22:32.913            26.564               Magadan1           830.125
       161   02 Jun 2027 02:23:18.998   02 Jun 2027 02:23:30.530            11.532               Magadan2           360.375
       162   02 Jun 2027 02:23:41.582   02 Jun 2027 02:24:13.050            31.468               Magadan1           983.375
       163   02 Jun 2027 02:25:58.498   02 Jun 2027 02:26:07.416             8.918                Norilsk           278.688
       164   02 Jun 2027 02:26:31.612   02 Jun 2027 02:27:15.294            43.682                Norilsk          1365.063
       165   02 Jun 2027 02:29:15.336   02 Jun 2027 02:29:34.751            19.415                Norilsk           606.719
       166   02 Jun 2027 02:30:16.247   02 Jun 2027 02:30:25.923             9.676              Murmansk2           302.375
       167   02 Jun 2027 02:30:44.025   02 Jun 2027 02:31:20.436            36.411                Norilsk          1137.844
       168   02 Jun 2027 02:33:04.357   02 Jun 2027 02:34:15.637            71.280                Novosib          2227.500
       169   02 Jun 2027 02:38:12.016   02 Jun 2027 02:38:12.779             0.763              Murmansk2            23.844
       170   02 Jun 2027 02:38:27.961   02 Jun 2027 02:38:45.642            17.681              Murmansk1           552.531
       171   02 Jun 2027 02:39:49.842   02 Jun 2027 02:40:01.681            11.839              Murmansk1           369.969
       172   02 Jun 2027 02:40:31.924   02 Jun 2027 02:41:25.957            54.033              Murmansk2          1688.531
       173   02 Jun 2027 02:44:23.041   02 Jun 2027 02:44:42.521            19.480                 Moscow           608.750
       174   02 Jun 2027 03:05:26.825   02 Jun 2027 03:05:40.553            13.728               CapeTown           429.000
       175   02 Jun 2027 03:05:59.190   02 Jun 2027 03:06:04.197             5.007               CapeTown           156.469
       176   02 Jun 2027 03:06:17.371   02 Jun 2027 03:06:51.130            33.759               CapeTown          1054.969
       177   02 Jun 2027 03:59:15.369   02 Jun 2027 03:59:53.015            37.646                Anadyr2          1176.438
       178   02 Jun 2027 03:59:53.015   02 Jun 2027 04:01:28.230            95.215                Anadyr1          2975.469
       179   02 Jun 2027 04:01:28.230   02 Jun 2027 04:02:12.691            44.461                Anadyr2          1389.406
       180   02 Jun 2027 04:02:14.651   02 Jun 2027 04:02:37.059            22.408               Magadan2           700.250
       181   02 Jun 2027 04:02:52.525   02 Jun 2027 04:02:53.859             1.334               Magadan1            41.688
       182   02 Jun 2027 04:03:03.830   02 Jun 2027 04:04:54.014           110.184               Magadan1          3443.250
       183   02 Jun 2027 05:36:36.150   02 Jun 2027 05:37:32.973            56.823                Irkutsk          1775.719
       184   02 Jun 2027 07:13:03.992   02 Jun 2027 07:14:11.278            67.286                Anadyr2          2102.687
       185   02 Jun 2027 07:14:11.278   02 Jun 2027 07:14:21.492            10.214                Anadyr1           319.188
       186   02 Jun 2027 07:14:47.415   02 Jun 2027 07:16:27.910           100.495                Irkutsk          3140.469
       187   02 Jun 2027 07:16:28.822   02 Jun 2027 07:16:47.200            18.378                Novosib           574.313
       188   02 Jun 2027 07:16:48.970   02 Jun 2027 07:16:59.783            10.813                Norilsk           337.906
       189   02 Jun 2027 07:17:22.871   02 Jun 2027 07:17:35.626            12.755                Norilsk           398.594
       190   02 Jun 2027 07:18:51.581   02 Jun 2027 07:19:27.669            36.088                Norilsk          1127.750
       191   02 Jun 2027 07:19:59.911   02 Jun 2027 07:20:00.393             0.482              Murmansk2            15.062
       192   02 Jun 2027 07:20:13.346   02 Jun 2027 07:20:25.672            12.326                Norilsk           385.187
       193   02 Jun 2027 07:20:51.817   02 Jun 2027 07:21:20.868            29.051                Norilsk           907.844
       194   02 Jun 2027 07:51:29.552   02 Jun 2027 07:52:09.571            40.019            RioGallegos          1250.594
       195   02 Jun 2027 07:53:22.052   02 Jun 2027 07:54:18.115            56.063            RioGallegos          1751.969
       196   02 Jun 2027 08:27:36.709   02 Jun 2027 08:28:09.585            32.876                Sumatra          1027.375
       197   02 Jun 2027 08:31:43.686   02 Jun 2027 08:32:10.660            26.974                Sumatra           842.937
       198   02 Jun 2027 08:33:12.574   02 Jun 2027 08:34:21.657            69.083                Sumatra          2158.844
       199   02 Jun 2027 08:47:45.673   02 Jun 2027 08:48:01.515            15.842                Irkutsk           495.063
       200   02 Jun 2027 08:48:20.196   02 Jun 2027 08:48:47.197            27.001                Irkutsk           843.781
       201   02 Jun 2027 08:49:05.092   02 Jun 2027 08:49:22.482            17.390                Norilsk           543.437
       202   02 Jun 2027 08:49:25.544   02 Jun 2027 08:50:33.084            67.540                Irkutsk          2110.625
       203   02 Jun 2027 08:50:34.995   02 Jun 2027 08:51:09.664            34.669              Murmansk1          1083.406
       204   02 Jun 2027 08:51:29.781   02 Jun 2027 08:51:40.181            10.400                Novosib           325.000
       205   02 Jun 2027 08:52:00.492   02 Jun 2027 08:52:13.046            12.554                Irkutsk           392.312
       206   02 Jun 2027 08:52:20.716   02 Jun 2027 08:52:50.901            30.185                Norilsk           943.281
       207   02 Jun 2027 08:53:42.428   02 Jun 2027 08:54:07.561            25.133                Novosib           785.406
       208   02 Jun 2027 08:55:05.621   02 Jun 2027 08:55:37.409            31.788                Norilsk           993.375
       209   02 Jun 2027 08:56:51.940   02 Jun 2027 08:56:54.341             2.401              Murmansk1            75.031
       210   02 Jun 2027 08:58:09.334   02 Jun 2027 08:58:11.670             2.336              Murmansk2            73.000
       211   02 Jun 2027 09:28:21.390   02 Jun 2027 09:29:03.281            41.891            RioGallegos          1309.094
       212   02 Jun 2027 09:32:16.596   02 Jun 2027 09:33:16.485            59.889            RioGallegos          1871.531
       213   02 Jun 2027 10:02:37.421   02 Jun 2027 10:04:08.596            91.175                Sumatra          2849.219
       214   02 Jun 2027 10:18:39.490   02 Jun 2027 10:18:45.780             6.290                  Delhi           196.562
       215   02 Jun 2027 10:23:49.129   02 Jun 2027 10:24:32.966            43.837              Murmansk1          1369.906
       216   02 Jun 2027 10:24:41.178   02 Jun 2027 10:26:00.790            79.612              Murmansk2          2487.875
       217   02 Jun 2027 10:26:05.861   02 Jun 2027 10:26:16.770            10.909                Novosib           340.906
       218   02 Jun 2027 10:26:18.948   02 Jun 2027 10:26:37.193            18.245                Norilsk           570.156
       219   02 Jun 2027 10:26:39.273   02 Jun 2027 10:27:42.078            62.805                Irkutsk          1962.656
       220   02 Jun 2027 10:27:46.396   02 Jun 2027 10:28:30.135            43.739                 Moscow          1366.844
       221   02 Jun 2027 10:30:44.402   02 Jun 2027 10:30:54.276             9.874              Murmansk2           308.562
       222   02 Jun 2027 10:31:49.073   02 Jun 2027 10:31:52.524             3.451              Murmansk2           107.844
       223   02 Jun 2027 10:32:09.024   02 Jun 2027 10:32:11.872             2.848                Norilsk            89.000
       224   02 Jun 2027 10:32:57.927   02 Jun 2027 10:33:38.800            40.873                Norilsk          1277.281
       225   02 Jun 2027 11:47:28.655   02 Jun 2027 11:50:52.727           204.072                  Delhi          6377.250
       226   02 Jun 2027 11:59:50.703   02 Jun 2027 12:00:00.101             9.398                Norilsk           293.688
       227   02 Jun 2027 12:00:09.145   02 Jun 2027 12:00:26.859            17.714              Murmansk1           553.563
       228   02 Jun 2027 12:00:28.853   02 Jun 2027 12:00:52.900            24.047              Murmansk1           751.469
       229   02 Jun 2027 12:01:11.383   02 Jun 2027 12:01:49.116            37.733                 Moscow          1179.156
       230   02 Jun 2027 12:02:13.033   02 Jun 2027 12:02:29.218            16.185                Novosib           505.781
       231   02 Jun 2027 12:02:56.885   02 Jun 2027 12:04:05.372            68.487                Novosib          2140.219
       232   02 Jun 2027 12:04:20.968   02 Jun 2027 12:05:09.677            48.709                Novosib          1522.156
       233   02 Jun 2027 12:07:48.678   02 Jun 2027 12:07:56.616             7.938                Norilsk           248.063
       234   02 Jun 2027 12:08:15.008   02 Jun 2027 12:08:39.781            24.773              Murmansk2           774.156
       235   02 Jun 2027 12:09:39.914   02 Jun 2027 12:09:44.893             4.979              Murmansk1           155.594
       236   02 Jun 2027 12:10:39.128   02 Jun 2027 12:10:46.099             6.971              Murmansk1           217.844
       237   02 Jun 2027 13:30:56.784   02 Jun 2027 13:35:27.333           270.549                 Moscow          8454.656
       238   02 Jun 2027 13:35:39.574   02 Jun 2027 13:36:20.361            40.787              Murmansk1          1274.594
       239   02 Jun 2027 13:37:08.138   02 Jun 2027 13:37:36.595            28.457              Murmansk2           889.281
       240   02 Jun 2027 13:40:00.443   02 Jun 2027 13:40:17.531            17.088              Murmansk1           534.000
       241   02 Jun 2027 13:40:53.966   02 Jun 2027 13:41:56.920            62.954                Norilsk          1967.312
       242   02 Jun 2027 13:43:44.871   02 Jun 2027 13:43:56.186            11.315                Norilsk           353.594
       243   02 Jun 2027 13:50:45.744   02 Jun 2027 13:54:53.241           247.497                Anadyr1          7734.281
       244   02 Jun 2027 15:12:18.839   02 Jun 2027 15:13:04.961            46.122              Murmansk1          1441.313
       245   02 Jun 2027 15:15:44.763   02 Jun 2027 15:16:41.426            56.663              Murmansk2          1770.719
       246   02 Jun 2027 15:22:39.340   02 Jun 2027 15:23:08.677            29.337              Murmansk1           916.781
       247   02 Jun 2027 15:25:05.848   02 Jun 2027 15:26:42.120            96.272                Anadyr2          3008.500
       248   02 Jun 2027 15:30:19.559   02 Jun 2027 15:30:41.663            22.104                Anadyr2           690.750
       249   02 Jun 2027 15:30:41.663   02 Jun 2027 15:30:48.956             7.293                Anadyr1           227.906
       250   02 Jun 2027 15:31:12.968   02 Jun 2027 15:31:53.063            40.095                Anadyr1          1252.969
       251   02 Jun 2027 15:35:56.699   02 Jun 2027 15:36:12.457            15.758                Anadyr2           492.437
       252   02 Jun 2027 16:31:05.358   02 Jun 2027 16:31:39.630            34.272               CapeTown          1071.000
       253   02 Jun 2027 16:52:54.024   02 Jun 2027 16:54:54.561           120.537              Murmansk2          3766.781
       254   02 Jun 2027 16:55:30.666   02 Jun 2027 16:55:56.411            25.745              Murmansk2           804.531
       255   02 Jun 2027 16:57:30.629   02 Jun 2027 16:58:24.005            53.376              Murmansk1          1668.000
       256   02 Jun 2027 17:00:51.571   02 Jun 2027 17:01:43.735            52.164                Anadyr1          1630.125
       257   02 Jun 2027 17:01:56.718   02 Jun 2027 17:02:32.216            35.498                Anadyr1          1109.313
       258   02 Jun 2027 17:03:38.452   02 Jun 2027 17:04:54.942            76.490               Magadan1          2390.313
       259   02 Jun 2027 17:06:09.360   02 Jun 2027 17:06:38.624            29.264               Magadan2           914.500
       260   02 Jun 2027 17:09:25.691   02 Jun 2027 17:09:26.913             1.222               Magadan2            38.187
       261   02 Jun 2027 17:12:46.331   02 Jun 2027 17:13:07.714            21.383               Magadan2           668.219
       262   02 Jun 2027 18:36:47.084   02 Jun 2027 18:38:38.056           110.972                Anadyr2          3467.875
       263   02 Jun 2027 18:39:04.104   02 Jun 2027 18:43:18.700           254.596               Magadan2          7956.125
       264   02 Jun 2027 18:51:22.837   02 Jun 2027 18:51:56.322            33.485               Magadan1          1046.406
       265   02 Jun 2027 19:31:54.235   02 Jun 2027 19:35:02.181           187.946            RioGallegos          5873.313
       266   02 Jun 2027 19:38:16.137   02 Jun 2027 19:38:35.816            19.679            RioGallegos           614.969
       267   02 Jun 2027 20:12:31.019   02 Jun 2027 20:13:00.066            29.047                Anadyr2           907.719
       268   02 Jun 2027 20:15:02.994   02 Jun 2027 20:17:00.096           117.102               Magadan2          3659.437
       269   02 Jun 2027 20:17:16.683   02 Jun 2027 20:19:01.005           104.322                Norilsk          3260.063
       270   02 Jun 2027 20:19:10.400   02 Jun 2027 20:20:42.622            92.222                Irkutsk          2881.938
       271   02 Jun 2027 20:21:08.502   02 Jun 2027 20:21:32.866            24.364                Irkutsk           761.375
       272   02 Jun 2027 20:28:33.530   02 Jun 2027 20:28:36.598             3.068                Irkutsk            95.875
       273   02 Jun 2027 20:33:21.030   02 Jun 2027 20:36:27.166           186.136                Sumatra          5816.750
       274   02 Jun 2027 20:40:05.608   02 Jun 2027 20:40:13.917             8.309                Sumatra           259.656
       275   02 Jun 2027 21:51:09.485   02 Jun 2027 21:52:08.314            58.829               Magadan2          1838.406
       276   02 Jun 2027 21:54:48.294   02 Jun 2027 21:55:55.621            67.327                Novosib          2103.969
       277   02 Jun 2027 21:56:08.059   02 Jun 2027 21:56:17.340             9.281                Novosib           290.031
       278   02 Jun 2027 21:58:10.546   02 Jun 2027 21:58:43.738            33.192                Novosib          1037.250
       279   02 Jun 2027 22:01:42.045   02 Jun 2027 22:02:06.369            24.324                Novosib           760.125
       280   02 Jun 2027 22:03:21.498   02 Jun 2027 22:04:35.063            73.565                  Delhi          2298.906
       281   02 Jun 2027 22:04:50.977   02 Jun 2027 22:07:32.733           161.756                  Delhi          5054.875
       282   02 Jun 2027 23:26:06.799   02 Jun 2027 23:26:47.328            40.529                Anadyr1          1266.531
       283   02 Jun 2027 23:26:58.295   02 Jun 2027 23:27:33.300            35.005               Magadan2          1093.906
       284   02 Jun 2027 23:27:58.668   02 Jun 2027 23:29:10.179            71.511               Magadan1          2234.719
       285   02 Jun 2027 23:30:05.061   02 Jun 2027 23:31:25.686            80.625              Murmansk1          2519.531
       286   02 Jun 2027 23:31:54.855   02 Jun 2027 23:32:53.922            59.067              Murmansk2          1845.844
       287   02 Jun 2027 23:34:52.725   02 Jun 2027 23:35:08.731            16.006              Murmansk2           500.187
       288   02 Jun 2027 23:35:42.894   02 Jun 2027 23:36:18.394            35.500              Murmansk1          1109.375
       289   02 Jun 2027 23:42:03.478   02 Jun 2027 23:42:19.214            15.736                  Delhi           491.750
       290   02 Jun 2027 23:44:10.983   02 Jun 2027 23:45:06.306            55.323                  Delhi          1728.844
       291   03 Jun 2027 00:54:41.837   03 Jun 2027 00:54:57.207            15.370                Anadyr1           480.312
       292   03 Jun 2027 00:55:36.287   03 Jun 2027 00:56:05.672            29.385                Anadyr1           918.281
       293   03 Jun 2027 00:56:05.672   03 Jun 2027 00:56:49.831            44.159                Anadyr2          1379.969
       294   03 Jun 2027 00:57:26.688   03 Jun 2027 00:57:43.183            16.495                Anadyr2           515.469
       295   03 Jun 2027 00:57:47.897   03 Jun 2027 00:57:55.476             7.579                Anadyr1           236.844
       296   03 Jun 2027 00:59:59.772   03 Jun 2027 01:00:23.549            23.777                Anadyr1           743.031
       297   03 Jun 2027 01:00:42.224   03 Jun 2027 01:00:45.138             2.914                Anadyr2            91.062
       298   03 Jun 2027 01:00:50.580   03 Jun 2027 01:01:27.935            37.355               Magadan2          1167.344
       299   03 Jun 2027 01:01:28.660   03 Jun 2027 01:02:52.509            83.849               Magadan1          2620.281
       300   03 Jun 2027 01:03:10.255   03 Jun 2027 01:03:26.405            16.150               Magadan2           504.688
       301   03 Jun 2027 01:03:44.345   03 Jun 2027 01:04:08.235            23.890               Magadan2           746.563
       302   03 Jun 2027 01:04:41.399   03 Jun 2027 01:05:43.391            61.992              Murmansk2          1937.250
       303   03 Jun 2027 01:05:46.987   03 Jun 2027 01:05:57.877            10.890              Murmansk1           340.313
       304   03 Jun 2027 01:06:16.852   03 Jun 2027 01:06:29.807            12.955              Murmansk1           404.844
       305   03 Jun 2027 01:07:00.669   03 Jun 2027 01:07:32.644            31.975                Novosib           999.219
       306   03 Jun 2027 01:09:51.505   03 Jun 2027 01:09:59.996             8.491                 Moscow           265.344
       307   03 Jun 2027 01:11:00.454   03 Jun 2027 01:12:30.735            90.281                Novosib          2821.281
       308   03 Jun 2027 01:34:12.462   03 Jun 2027 01:34:35.470            23.008               CapeTown           719.000
       309   03 Jun 2027 01:37:36.049   03 Jun 2027 01:38:48.663            72.614               CapeTown          2269.188
       310   03 Jun 2027 02:28:50.004   03 Jun 2027 02:29:12.828            22.824                Anadyr2           713.250
       311   03 Jun 2027 02:30:01.244   03 Jun 2027 02:31:18.870            77.626                Anadyr2          2425.812
       312   03 Jun 2027 02:32:04.126   03 Jun 2027 02:32:06.406             2.280               Magadan1            71.250
       313   03 Jun 2027 02:32:49.737   03 Jun 2027 02:33:12.980            23.243               Magadan2           726.344
       314   03 Jun 2027 02:33:20.543   03 Jun 2027 02:34:08.966            48.423               Magadan1          1513.219
       315   03 Jun 2027 02:38:04.196   03 Jun 2027 02:38:35.502            31.306                Norilsk           978.313
       316   03 Jun 2027 02:40:38.654   03 Jun 2027 02:42:15.021            96.367              Murmansk2          3011.469
       317   03 Jun 2027 02:43:35.428   03 Jun 2027 02:43:54.964            19.536                Novosib           610.500
       318   03 Jun 2027 02:47:18.273   03 Jun 2027 02:47:38.043            19.770                Novosib           617.813
       319   03 Jun 2027 02:49:43.781   03 Jun 2027 02:50:47.939            64.158                 Moscow          2004.938
       320   03 Jun 2027 03:13:16.483   03 Jun 2027 03:13:25.239             8.756               CapeTown           273.625
       321   03 Jun 2027 03:14:18.724   03 Jun 2027 03:15:59.236           100.512               CapeTown          3141.000
       322   03 Jun 2027 04:11:31.361   03 Jun 2027 04:11:41.581            10.220                Anadyr2           319.375
       323   03 Jun 2027 04:11:57.411   03 Jun 2027 04:11:58.531             1.120               Magadan2            35.000
       324   03 Jun 2027 04:12:11.672   03 Jun 2027 04:12:23.845            12.173                Anadyr1           380.406
       325   03 Jun 2027 04:12:58.691   03 Jun 2027 04:14:24.353            85.662               Magadan1          2676.937
       326   03 Jun 2027 04:14:24.353   03 Jun 2027 04:14:38.665            14.312               Magadan2           447.250
       327   03 Jun 2027 04:14:38.665   03 Jun 2027 04:14:43.968             5.303               Magadan1           165.719
       328   03 Jun 2027 04:14:47.049   03 Jun 2027 04:15:53.883            66.834                Anadyr2          2088.562
       329   03 Jun 2027 04:15:53.883   03 Jun 2027 04:17:23.409            89.526                Anadyr1          2797.688
       330   03 Jun 2027 04:20:08.161   03 Jun 2027 04:20:11.256             3.095                Norilsk            96.719
       331   03 Jun 2027 05:49:07.131   03 Jun 2027 05:49:25.385            18.254               Magadan1           570.438
       332   03 Jun 2027 05:49:43.990   03 Jun 2027 05:52:51.652           187.662                Anadyr2          5864.438
       333   03 Jun 2027 05:52:51.652   03 Jun 2027 05:53:01.785            10.133                Anadyr1           316.656
       334   03 Jun 2027 07:22:38.964   03 Jun 2027 07:23:15.845            36.881                Norilsk          1152.531
       335   03 Jun 2027 07:23:17.064   03 Jun 2027 07:24:01.752            44.688                Novosib          1396.500
       336   03 Jun 2027 07:24:15.972   03 Jun 2027 07:24:52.689            36.717                Novosib          1147.406
       337   03 Jun 2027 07:24:54.589   03 Jun 2027 07:25:26.048            31.459                Irkutsk           983.094
       338   03 Jun 2027 07:25:35.884   03 Jun 2027 07:26:02.024            26.140                Irkutsk           816.875
       339   03 Jun 2027 07:26:28.282   03 Jun 2027 07:27:16.208            47.926                Irkutsk          1497.688
       340   03 Jun 2027 07:27:19.907   03 Jun 2027 07:27:55.376            35.469              Murmansk2          1108.406
       341   03 Jun 2027 07:28:06.469   03 Jun 2027 07:28:09.426             2.957               Magadan2            92.406
       342   03 Jun 2027 07:28:12.962   03 Jun 2027 07:28:25.725            12.763               Magadan1           398.844
       343   03 Jun 2027 07:28:41.441   03 Jun 2027 07:28:47.460             6.019              Murmansk2           188.094
       344   03 Jun 2027 07:29:16.056   03 Jun 2027 07:29:55.825            39.769                Norilsk          1242.781
       345   03 Jun 2027 07:30:03.506   03 Jun 2027 07:30:38.192            34.686              Murmansk1          1083.937
       346   03 Jun 2027 08:03:25.713   03 Jun 2027 08:04:19.007            53.294            RioGallegos          1665.437
       347   03 Jun 2027 08:39:07.706   03 Jun 2027 08:39:54.604            46.898                Sumatra          1465.563
       348   03 Jun 2027 08:40:42.482   03 Jun 2027 08:41:36.800            54.318                Sumatra          1697.437
       349   03 Jun 2027 08:58:47.648   03 Jun 2027 08:59:15.658            28.010                Norilsk           875.313
       350   03 Jun 2027 09:00:05.260   03 Jun 2027 09:00:05.278             0.018                Norilsk             0.562
       351   03 Jun 2027 09:00:47.100   03 Jun 2027 09:00:48.567             1.467                Norilsk            45.844
       352   03 Jun 2027 09:00:48.849   03 Jun 2027 09:00:49.463             0.614                Irkutsk            19.187
       353   03 Jun 2027 09:00:53.726   03 Jun 2027 09:01:09.459            15.733                Norilsk           491.656
       354   03 Jun 2027 09:01:31.370   03 Jun 2027 09:02:38.638            67.268                Irkutsk          2102.125
       355   03 Jun 2027 09:02:47.866   03 Jun 2027 09:03:25.594            37.728                Irkutsk          1179.000
       356   03 Jun 2027 09:03:32.799   03 Jun 2027 09:04:21.630            48.831                Irkutsk          1525.969
       357   03 Jun 2027 09:04:33.185   03 Jun 2027 09:04:42.901             9.716              Murmansk2           303.625
       358   03 Jun 2027 09:05:18.691   03 Jun 2027 09:06:08.270            49.579              Murmansk1          1549.344
       359   03 Jun 2027 09:40:48.563   03 Jun 2027 09:41:21.991            33.428            RioGallegos          1044.625
       360   03 Jun 2027 09:42:40.786   03 Jun 2027 09:43:06.481            25.695            RioGallegos           802.969
       361   03 Jun 2027 10:15:00.854   03 Jun 2027 10:16:05.225            64.371                Sumatra          2011.594
       362   03 Jun 2027 10:22:45.014   03 Jun 2027 10:23:37.378            52.364                  Delhi          1636.375
       363   03 Jun 2027 10:35:54.748   03 Jun 2027 10:36:35.059            40.311              Murmansk1          1259.719
       364   03 Jun 2027 10:37:11.519   03 Jun 2027 10:37:52.089            40.570                 Moscow          1267.812
       365   03 Jun 2027 10:37:58.814   03 Jun 2027 10:38:47.282            48.468              Murmansk2          1514.625
       366   03 Jun 2027 10:39:04.035   03 Jun 2027 10:39:07.319             3.284              Murmansk2           102.625
       367   03 Jun 2027 10:39:09.149   03 Jun 2027 10:39:28.205            19.056              Murmansk2           595.500
       368   03 Jun 2027 10:39:32.772   03 Jun 2027 10:40:07.368            34.596              Murmansk1          1081.125
       369   03 Jun 2027 10:40:11.511   03 Jun 2027 10:40:13.004             1.493                Novosib            46.656
       370   03 Jun 2027 10:40:14.049   03 Jun 2027 10:41:29.853            75.804                Novosib          2368.875
       371   03 Jun 2027 12:00:06.096   03 Jun 2027 12:00:31.991            25.895                  Delhi           809.219
       372   03 Jun 2027 12:01:07.847   03 Jun 2027 12:02:29.226            81.379                  Delhi          2543.094
       373   03 Jun 2027 12:07:36.644   03 Jun 2027 12:07:43.212             6.568                 Moscow           205.250
       374   03 Jun 2027 12:08:35.522   03 Jun 2027 12:09:15.246            39.724                Novosib          1241.375
       375   03 Jun 2027 12:10:07.581   03 Jun 2027 12:10:52.839            45.258                Novosib          1414.312
       376   03 Jun 2027 12:11:05.562   03 Jun 2027 12:11:53.888            48.326              Murmansk1          1510.188
       377   03 Jun 2027 12:16:22.726   03 Jun 2027 12:16:39.451            16.725              Murmansk1           522.656
       378   03 Jun 2027 12:19:10.463   03 Jun 2027 12:19:13.985             3.522              Murmansk2           110.062
       379   03 Jun 2027 12:19:24.323   03 Jun 2027 12:19:58.816            34.493              Murmansk2          1077.906
       380   03 Jun 2027 13:43:06.903   03 Jun 2027 13:44:41.760            94.857                 Moscow          2964.281
       381   03 Jun 2027 13:46:37.291   03 Jun 2027 13:50:27.084           229.793              Murmansk1          7181.031
       382   03 Jun 2027 13:50:42.586   03 Jun 2027 13:51:07.808            25.222              Murmansk2           788.188
       383   03 Jun 2027 13:53:30.637   03 Jun 2027 13:53:55.293            24.656              Murmansk2           770.500
       384   03 Jun 2027 13:54:22.012   03 Jun 2027 13:55:22.899            60.887                Norilsk          1902.719
       385   03 Jun 2027 14:02:16.412   03 Jun 2027 14:05:35.764           199.352                Anadyr1          6229.750
       386   03 Jun 2027 14:07:06.761   03 Jun 2027 14:07:19.143            12.382                Anadyr2           386.938
       387   03 Jun 2027 15:22:48.378   03 Jun 2027 15:22:53.638             5.260                 Moscow           164.375
       388   03 Jun 2027 15:24:44.338   03 Jun 2027 15:25:08.360            24.022              Murmansk1           750.688
       389   03 Jun 2027 15:25:34.258   03 Jun 2027 15:26:42.780            68.522              Murmansk1          2141.312
       390   03 Jun 2027 15:29:28.325   03 Jun 2027 15:29:44.258            15.933              Murmansk1           497.906
       391   03 Jun 2027 15:37:04.376   03 Jun 2027 15:39:36.720           152.344                Anadyr2          4760.750
       392   03 Jun 2027 15:43:11.741   03 Jun 2027 15:43:30.658            18.917                Anadyr2           591.156
       393   03 Jun 2027 15:43:54.406   03 Jun 2027 15:45:15.662            81.256                Anadyr2          2539.250
       394   03 Jun 2027 17:05:53.786   03 Jun 2027 17:09:06.172           192.386              Murmansk2          6012.063
       395   03 Jun 2027 17:12:52.859   03 Jun 2027 17:13:37.722            44.863                Anadyr2          1401.969
       396   03 Jun 2027 17:14:31.417   03 Jun 2027 17:15:31.854            60.437                Anadyr2          1888.656
       397   03 Jun 2027 17:15:32.094   03 Jun 2027 17:15:49.465            17.371               Magadan1           542.844
       398   03 Jun 2027 17:16:47.075   03 Jun 2027 17:16:57.073             9.998               Magadan1           312.438
       399   03 Jun 2027 17:19:03.456   03 Jun 2027 17:19:17.855            14.399               Magadan2           449.969
       400   03 Jun 2027 17:20:59.481   03 Jun 2027 17:21:28.173            28.692               Magadan1           896.625
       401   03 Jun 2027 17:23:41.175   03 Jun 2027 17:23:50.815             9.640               Magadan2           301.250
       402   03 Jun 2027 17:26:15.756   03 Jun 2027 17:26:22.441             6.685               Magadan2           208.906
       403   03 Jun 2027 18:48:48.063   03 Jun 2027 18:50:39.575           111.512                Anadyr2          3484.750
       404   03 Jun 2027 18:51:04.857   03 Jun 2027 18:54:22.765           197.908               Magadan2          6184.625
       405   03 Jun 2027 18:54:22.765   03 Jun 2027 18:55:36.660            73.895               Magadan1          2309.219
       406   03 Jun 2027 19:43:34.659   03 Jun 2027 19:46:07.963           153.304            RioGallegos          4790.750
       407   03 Jun 2027 19:46:59.190   03 Jun 2027 19:48:29.167            89.977            RioGallegos          2811.781
       408   03 Jun 2027 19:49:33.023   03 Jun 2027 19:49:57.861            24.838            RioGallegos           776.187
       409   03 Jun 2027 20:26:40.279   03 Jun 2027 20:30:27.525           227.246                Norilsk          7101.438
       410   03 Jun 2027 20:32:06.720   03 Jun 2027 20:33:09.620            62.900                Irkutsk          1965.625
       411   03 Jun 2027 20:44:56.465   03 Jun 2027 20:47:50.391           173.926                Sumatra          5435.187
       412   03 Jun 2027 20:49:12.815   03 Jun 2027 20:50:14.609            61.794                Sumatra          1931.063
       413   03 Jun 2027 22:05:18.164   03 Jun 2027 22:05:36.767            18.603                Norilsk           581.344
       414   03 Jun 2027 22:05:56.818   03 Jun 2027 22:06:10.209            13.391                Norilsk           418.469
       415   03 Jun 2027 22:06:35.695   03 Jun 2027 22:07:12.033            36.338               Magadan2          1135.563
       416   03 Jun 2027 22:07:17.101   03 Jun 2027 22:07:59.275            42.174                Novosib          1317.938
       417   03 Jun 2027 22:08:21.654   03 Jun 2027 22:08:28.731             7.077                Novosib           221.156
       418   03 Jun 2027 22:08:34.343   03 Jun 2027 22:09:23.934            49.591                Novosib          1549.719
       419   03 Jun 2027 22:14:51.133   03 Jun 2027 22:17:31.425           160.292                  Delhi          5009.125
       420   03 Jun 2027 22:19:15.732   03 Jun 2027 22:19:25.788            10.056                  Delhi           314.250
       421   03 Jun 2027 22:20:32.724   03 Jun 2027 22:21:49.011            76.287                  Delhi          2383.969
       422   03 Jun 2027 23:38:34.420   03 Jun 2027 23:38:37.528             3.108                Norilsk            97.125
       423   03 Jun 2027 23:38:53.236   03 Jun 2027 23:39:28.022            34.786               Magadan2          1087.062
       424   03 Jun 2027 23:39:28.022   03 Jun 2027 23:39:59.743            31.721               Magadan1           991.281
       425   03 Jun 2027 23:40:38.083   03 Jun 2027 23:40:55.629            17.546               Magadan1           548.312
       426   03 Jun 2027 23:41:03.142   03 Jun 2027 23:43:52.409           169.267              Murmansk2          5289.594
       427   03 Jun 2027 23:45:15.561   03 Jun 2027 23:46:53.250            97.689              Murmansk1          3052.781
       428   03 Jun 2027 23:49:00.186   03 Jun 2027 23:49:10.677            10.491                 Moscow           327.844
       429   03 Jun 2027 23:50:20.434   03 Jun 2027 23:50:52.118            31.684                 Moscow           990.125
       430   04 Jun 2027 01:06:25.578   04 Jun 2027 01:06:57.518            31.940                Anadyr2           998.125
       431   04 Jun 2027 01:07:30.035   04 Jun 2027 01:08:04.703            34.668                Anadyr1          1083.375
       432   04 Jun 2027 01:08:42.180   04 Jun 2027 01:09:14.239            32.059                Anadyr1          1001.844
       433   04 Jun 2027 01:09:42.589   04 Jun 2027 01:09:54.020            11.431                Anadyr1           357.219
       434   04 Jun 2027 01:11:23.498   04 Jun 2027 01:11:35.063            11.565                Anadyr1           361.406
       435   04 Jun 2027 01:11:51.136   04 Jun 2027 01:13:45.241           114.105               Magadan1          3565.781
       436   04 Jun 2027 01:14:26.963   04 Jun 2027 01:15:13.457            46.494               Magadan2          1452.938
       437   04 Jun 2027 01:16:42.502   04 Jun 2027 01:17:28.120            45.618              Murmansk1          1425.562
       438   04 Jun 2027 01:17:28.213   04 Jun 2027 01:18:30.758            62.545              Murmansk2          1954.531
       439   04 Jun 2027 01:20:09.726   04 Jun 2027 01:20:19.946            10.220                 Moscow           319.375
       440   04 Jun 2027 01:20:31.491   04 Jun 2027 01:20:42.038            10.547              Murmansk2           329.594
       441   04 Jun 2027 01:22:12.952   04 Jun 2027 01:22:22.741             9.789                 Moscow           305.906
       442   04 Jun 2027 01:26:02.360   04 Jun 2027 01:26:34.674            32.314                 Moscow          1009.813
       443   04 Jun 2027 01:30:17.876   04 Jun 2027 01:30:57.932            40.056                 Moscow          1251.750
       444   04 Jun 2027 01:45:31.856   04 Jun 2027 01:46:00.835            28.979               CapeTown           905.594
       445   04 Jun 2027 01:48:01.292   04 Jun 2027 01:49:30.105            88.813               CapeTown          2775.406
       446   04 Jun 2027 02:40:44.297   04 Jun 2027 02:41:13.156            28.859                Anadyr1           901.844
       447   04 Jun 2027 02:42:01.019   04 Jun 2027 02:42:22.573            21.554                Anadyr1           673.563
       448   04 Jun 2027 02:43:10.470   04 Jun 2027 02:43:16.063             5.593                Anadyr2           174.781
       449   04 Jun 2027 02:43:34.601   04 Jun 2027 02:44:40.739            66.138               Magadan1          2066.812
       450   04 Jun 2027 02:44:48.232   04 Jun 2027 02:45:07.692            19.460               Magadan2           608.125
       451   04 Jun 2027 02:47:18.619   04 Jun 2027 02:47:24.368             5.749               Magadan1           179.656
       452   04 Jun 2027 02:49:00.570   04 Jun 2027 02:49:13.692            13.122               Magadan1           410.062
       453   04 Jun 2027 02:50:01.521   04 Jun 2027 02:50:33.345            31.824                Norilsk           994.500
       454   04 Jun 2027 02:52:40.373   04 Jun 2027 02:53:48.502            68.129              Murmansk1          2129.031
       455   04 Jun 2027 02:54:13.330   04 Jun 2027 02:54:26.549            13.219              Murmansk1           413.094
       456   04 Jun 2027 02:54:26.549   04 Jun 2027 02:54:29.378             2.829              Murmansk2            88.406
       457   04 Jun 2027 02:54:41.872   04 Jun 2027 02:55:18.131            36.259              Murmansk1          1133.094
       458   04 Jun 2027 02:57:38.109   04 Jun 2027 02:58:22.606            44.497                Novosib          1390.531
       459   04 Jun 2027 03:00:18.674   04 Jun 2027 03:00:44.340            25.666              Murmansk1           802.063
       460   04 Jun 2027 03:01:30.914   04 Jun 2027 03:02:11.750            40.836              Murmansk1          1276.125
       461   04 Jun 2027 04:24:09.684   04 Jun 2027 04:25:30.922            81.238                Anadyr2          2538.687
       462   04 Jun 2027 04:26:04.765   04 Jun 2027 04:26:21.592            16.827                Anadyr2           525.844
       463   04 Jun 2027 04:26:22.661   04 Jun 2027 04:26:29.524             6.863               Magadan1           214.469
       464   04 Jun 2027 06:01:08.479   04 Jun 2027 06:02:53.973           105.494               Magadan2          3296.688
       465   04 Jun 2027 06:02:55.685   04 Jun 2027 06:03:21.804            26.119                Irkutsk           816.219
       466   04 Jun 2027 07:34:06.840   04 Jun 2027 07:34:12.417             5.577               Magadan2           174.281
       467   04 Jun 2027 07:34:40.542   04 Jun 2027 07:35:02.759            22.217                Norilsk           694.281
       468   04 Jun 2027 07:35:09.639   04 Jun 2027 07:36:00.080            50.441                Irkutsk          1576.281
       469   04 Jun 2027 07:36:09.113   04 Jun 2027 07:36:21.041            11.928               Magadan2           372.750
       470   04 Jun 2027 07:36:32.760   04 Jun 2027 07:37:16.550            43.790                Irkutsk          1368.438
       471   04 Jun 2027 07:37:22.686   04 Jun 2027 07:37:48.505            25.819               Magadan1           806.844
       472   04 Jun 2027 07:37:58.453   04 Jun 2027 07:38:12.269            13.816                Irkutsk           431.750
       473   04 Jun 2027 07:38:23.744   04 Jun 2027 07:39:14.184            50.440                Irkutsk          1576.250
       474   04 Jun 2027 07:39:17.511   04 Jun 2027 07:40:01.088            43.577              Murmansk1          1361.781
       475   04 Jun 2027 07:40:01.088   04 Jun 2027 07:40:06.765             5.677              Murmansk2           177.406
       476   04 Jun 2027 07:40:07.176   04 Jun 2027 07:40:23.995            16.819              Murmansk1           525.594
       477   04 Jun 2027 07:40:38.954   04 Jun 2027 07:40:55.300            16.346                Norilsk           510.812
       478   04 Jun 2027 07:41:26.654   04 Jun 2027 07:41:45.349            18.695              Murmansk2           584.219
       479   04 Jun 2027 07:42:40.459   04 Jun 2027 07:42:56.159            15.700              Murmansk2           490.625
       480   04 Jun 2027 07:45:23.842   04 Jun 2027 07:45:28.090             4.248              Murmansk2           132.750
       481   04 Jun 2027 08:15:25.116   04 Jun 2027 08:16:15.634            50.518            RioGallegos          1578.688
       482   04 Jun 2027 08:50:47.099   04 Jun 2027 08:51:04.191            17.092                Sumatra           534.125
