uniorb/output/strategy_2/Drop/Drop_KinoSat_111409.txt

KinoSat_111409
-------------------------
    Access    *     Start Time (UTCG)     *     Stop Time (UTCG)  *   Duration (s)        *       Station  *  Data (Mbytes)
         1   01 Jun 2027 04:24:25.965   01 Jun 2027 04:25:11.408            45.443              Murmansk2          1420.094
         2   01 Jun 2027 04:25:12.974   01 Jun 2027 04:25:26.086            13.112              Murmansk2           409.750
         3   01 Jun 2027 04:25:41.597   01 Jun 2027 04:25:51.858            10.261              Murmansk2           320.656
         4   01 Jun 2027 04:26:11.721   01 Jun 2027 04:26:30.757            19.036              Murmansk2           594.875
         5   01 Jun 2027 04:26:30.757   01 Jun 2027 04:26:59.742            28.985              Murmansk1           905.781
         6   01 Jun 2027 04:27:14.744   01 Jun 2027 04:27:15.797             1.053              Murmansk2            32.906
         7   01 Jun 2027 05:46:30.351   01 Jun 2027 05:47:27.202            56.851                Anadyr1          1776.594
         8   01 Jun 2027 05:47:46.847   01 Jun 2027 05:50:31.226           164.379               Magadan1          5136.844
         9   01 Jun 2027 05:50:41.268   01 Jun 2027 05:52:21.208            99.940                Anadyr1          3123.125
        10   01 Jun 2027 07:24:37.802   01 Jun 2027 07:25:14.175            36.373                Anadyr1          1136.656
        11   01 Jun 2027 08:58:52.468   01 Jun 2027 08:59:27.660            35.192                Irkutsk          1099.750
        12   01 Jun 2027 08:59:53.868   01 Jun 2027 09:00:18.706            24.838                Novosib           776.188
        13   01 Jun 2027 09:00:24.227   01 Jun 2027 09:03:23.555           179.328               Magadan2          5604.000
        14   01 Jun 2027 10:35:55.046   01 Jun 2027 10:41:06.817           311.771                Novosib          9742.844
        15   01 Jun 2027 10:42:37.051   01 Jun 2027 10:42:55.643            18.592                Norilsk           581.000
        16   01 Jun 2027 10:45:10.108   01 Jun 2027 10:45:58.685            48.577              Murmansk2          1518.031
        17   01 Jun 2027 11:15:28.210   01 Jun 2027 11:15:59.927            31.717            RioGallegos           991.156
        18   01 Jun 2027 11:17:43.780   01 Jun 2027 11:18:29.047            45.267            RioGallegos          1414.594
        19   01 Jun 2027 11:20:28.919   01 Jun 2027 11:20:29.357             0.438            RioGallegos            13.687
        20   01 Jun 2027 11:22:13.760   01 Jun 2027 11:23:13.613            59.853            RioGallegos          1870.406
        21   01 Jun 2027 11:49:43.116   01 Jun 2027 11:51:12.297            89.181                Sumatra          2786.906
        22   01 Jun 2027 12:04:56.481   01 Jun 2027 12:06:16.370            79.889                Irkutsk          2496.531
        23   01 Jun 2027 12:07:57.770   01 Jun 2027 12:08:18.056            20.286                Irkutsk           633.938
        24   01 Jun 2027 12:09:02.187   01 Jun 2027 12:09:58.721            56.534                Irkutsk          1766.687
        25   01 Jun 2027 12:13:53.505   01 Jun 2027 12:14:41.485            47.980                Irkutsk          1499.375
        26   01 Jun 2027 13:37:53.302   01 Jun 2027 13:39:48.093           114.791                  Delhi          3587.219
        27   01 Jun 2027 13:43:14.401   01 Jun 2027 13:43:46.504            32.103                Novosib          1003.219
        28   01 Jun 2027 13:44:24.998   01 Jun 2027 13:45:22.630            57.632                Novosib          1801.000
        29   01 Jun 2027 13:47:36.752   01 Jun 2027 13:47:58.622            21.870                Novosib           683.437
        30   01 Jun 2027 13:48:37.297   01 Jun 2027 13:48:57.113            19.816                Novosib           619.250
        31   01 Jun 2027 13:51:19.250   01 Jun 2027 13:52:03.621            44.371                Novosib          1386.594
        32   01 Jun 2027 13:54:19.872   01 Jun 2027 13:54:55.785            35.913                Norilsk          1122.281
        33   01 Jun 2027 15:22:13.561   01 Jun 2027 15:23:12.101            58.540                 Moscow          1829.375
        34   01 Jun 2027 15:24:36.494   01 Jun 2027 15:25:29.408            52.914              Murmansk2          1653.563
        35   01 Jun 2027 15:25:37.155   01 Jun 2027 15:26:25.406            48.251              Murmansk1          1507.844
        36   01 Jun 2027 15:26:28.526   01 Jun 2027 15:26:51.406            22.880                 Moscow           715.000
        37   01 Jun 2027 15:28:13.198   01 Jun 2027 15:31:28.649           195.451                Norilsk          6107.844
        38   01 Jun 2027 16:38:16.906   01 Jun 2027 16:38:55.583            38.677               CapeTown          1208.656
        39   01 Jun 2027 16:39:34.021   01 Jun 2027 16:40:15.827            41.806               CapeTown          1306.437
        40   01 Jun 2027 16:59:42.722   01 Jun 2027 17:01:07.335            84.613                 Moscow          2644.156
        41   01 Jun 2027 17:02:21.520   01 Jun 2027 17:02:57.876            36.356                 Moscow          1136.125
        42   01 Jun 2027 17:05:45.301   01 Jun 2027 17:06:24.997            39.696              Murmansk1          1240.500
        43   01 Jun 2027 17:07:55.249   01 Jun 2027 17:08:29.646            34.397              Murmansk2          1074.906
        44   01 Jun 2027 17:16:50.514   01 Jun 2027 17:17:01.853            11.339                Anadyr2           354.344
        45   01 Jun 2027 17:17:25.260   01 Jun 2027 17:17:58.896            33.636                Anadyr1          1051.125
        46   01 Jun 2027 17:19:13.749   01 Jun 2027 17:20:15.761            62.012                Anadyr2          1937.875
        47   01 Jun 2027 17:22:20.216   01 Jun 2027 17:22:29.034             8.818                Anadyr1           275.562
        48   01 Jun 2027 17:22:35.634   01 Jun 2027 17:22:58.160            22.526                Anadyr1           703.937
        49   01 Jun 2027 18:17:35.043   01 Jun 2027 18:17:42.632             7.589               CapeTown           237.156
        50   01 Jun 2027 18:40:09.508   01 Jun 2027 18:45:19.910           310.402              Murmansk2          9700.063
        51   01 Jun 2027 18:59:07.689   01 Jun 2027 19:00:10.942            63.253               Magadan1          1976.656
        52   01 Jun 2027 19:00:57.923   01 Jun 2027 19:01:07.980            10.057               Magadan1           314.281
        53   01 Jun 2027 20:23:46.050   01 Jun 2027 20:25:27.222           101.172                Anadyr2          3161.625
        54   01 Jun 2027 20:25:52.658   01 Jun 2027 20:26:35.168            42.510                Anadyr1          1328.438
        55   01 Jun 2027 20:26:35.656   01 Jun 2027 20:26:49.779            14.123                Anadyr2           441.344
        56   01 Jun 2027 20:27:04.247   01 Jun 2027 20:27:09.935             5.688                Anadyr2           177.750
        57   01 Jun 2027 20:27:09.935   01 Jun 2027 20:27:30.070            20.135                Anadyr1           629.219
        58   01 Jun 2027 20:28:14.771   01 Jun 2027 20:28:23.672             8.901               Magadan2           278.156
        59   01 Jun 2027 20:28:23.672   01 Jun 2027 20:28:35.130            11.458               Magadan1           358.063
        60   01 Jun 2027 20:29:17.794   01 Jun 2027 20:29:52.656            34.862               Magadan1          1089.437
        61   01 Jun 2027 20:30:35.045   01 Jun 2027 20:30:44.442             9.397               Magadan2           293.656
        62   01 Jun 2027 20:30:45.835   01 Jun 2027 20:30:56.419            10.584               Magadan1           330.750
        63   01 Jun 2027 20:31:08.098   01 Jun 2027 20:31:11.300             3.202                Anadyr1           100.063
        64   01 Jun 2027 20:31:16.983   01 Jun 2027 20:31:50.118            33.135               Magadan1          1035.469
        65   01 Jun 2027 20:32:37.047   01 Jun 2027 20:33:06.923            29.876               Magadan2           933.625
        66   01 Jun 2027 20:34:58.720   01 Jun 2027 20:35:17.414            18.694               Magadan1           584.188
        67   01 Jun 2027 20:35:53.056   01 Jun 2027 20:36:27.848            34.792               Magadan2          1087.250
        68   01 Jun 2027 20:36:34.637   01 Jun 2027 20:36:44.327             9.690               Magadan2           302.812
        69   01 Jun 2027 20:37:13.645   01 Jun 2027 20:37:29.081            15.436               Magadan2           482.375
        70   01 Jun 2027 21:21:14.231   01 Jun 2027 21:21:34.052            19.821            RioGallegos           619.406
        71   01 Jun 2027 21:21:44.827   01 Jun 2027 21:22:53.342            68.515            RioGallegos          2141.094
        72   01 Jun 2027 21:23:54.349   01 Jun 2027 21:24:34.905            40.556            RioGallegos          1267.375
        73   01 Jun 2027 21:26:31.820   01 Jun 2027 21:27:15.299            43.479            RioGallegos          1358.719
        74   01 Jun 2027 22:02:02.609   01 Jun 2027 22:02:17.075            14.466               Magadan1           452.062
        75   01 Jun 2027 22:02:51.738   01 Jun 2027 22:03:38.012            46.274               Magadan1          1446.063
        76   01 Jun 2027 22:05:12.053   01 Jun 2027 22:05:26.142            14.089               Magadan2           440.281
        77   01 Jun 2027 22:06:03.989   01 Jun 2027 22:06:17.995            14.006                Irkutsk           437.687
        78   01 Jun 2027 22:06:37.175   01 Jun 2027 22:06:48.389            11.214                Anadyr2           350.438
        79   01 Jun 2027 22:06:52.012   01 Jun 2027 22:08:33.933           101.921                Irkutsk          3185.031
        80   01 Jun 2027 22:14:25.768   01 Jun 2027 22:14:47.317            21.549                Irkutsk           673.406
        81   01 Jun 2027 22:15:05.802   01 Jun 2027 22:15:31.091            25.289                Irkutsk           790.281
        82   01 Jun 2027 22:23:57.155   01 Jun 2027 22:26:00.130           122.975                Sumatra          3842.969
        83   01 Jun 2027 23:04:43.373   01 Jun 2027 23:05:03.969            20.596            RioGallegos           643.625
        84   01 Jun 2027 23:34:29.693   01 Jun 2027 23:34:37.514             7.821                Anadyr2           244.406
        85   01 Jun 2027 23:34:46.682   01 Jun 2027 23:35:30.064            43.382                Anadyr1          1355.687
        86   01 Jun 2027 23:35:41.652   01 Jun 2027 23:36:50.452            68.800                Anadyr1          2150.000
        87   01 Jun 2027 23:37:31.206   01 Jun 2027 23:38:16.796            45.590                Norilsk          1424.687
        88   01 Jun 2027 23:38:59.589   01 Jun 2027 23:39:19.667            20.078               Magadan2           627.437
        89   01 Jun 2027 23:41:23.200   01 Jun 2027 23:41:56.956            33.756                Irkutsk          1054.875
        90   01 Jun 2027 23:42:12.201   01 Jun 2027 23:43:40.644            88.443                Irkutsk          2763.844
        91   01 Jun 2027 23:48:22.577   01 Jun 2027 23:48:26.395             3.818                Novosib           119.313
        92   01 Jun 2027 23:48:57.039   01 Jun 2027 23:49:54.907            57.868                Novosib          1808.375
        93   01 Jun 2027 23:53:45.197   01 Jun 2027 23:54:35.105            49.908                  Delhi          1559.625
        94   01 Jun 2027 23:59:13.415   01 Jun 2027 23:59:57.252            43.837                  Delhi          1369.906
        95   02 Jun 2027 00:35:24.265   02 Jun 2027 00:35:39.761            15.496            RioGallegos           484.250
        96   02 Jun 2027 00:36:54.869   02 Jun 2027 00:37:20.018            25.149            RioGallegos           785.906
        97   02 Jun 2027 00:39:20.806   02 Jun 2027 00:40:36.577            75.771            RioGallegos          2367.844
        98   02 Jun 2027 01:08:16.611   02 Jun 2027 01:08:25.720             9.109                Anadyr2           284.656
        99   02 Jun 2027 01:09:23.536   02 Jun 2027 01:10:03.998            40.462                Anadyr2          1264.437
       100   02 Jun 2027 01:10:39.542   02 Jun 2027 01:11:02.907            23.365                Anadyr2           730.156
       101   02 Jun 2027 01:13:31.634   02 Jun 2027 01:14:09.102            37.468                Norilsk          1170.875
       102   02 Jun 2027 01:14:43.375   02 Jun 2027 01:15:44.836            61.461               Magadan2          1920.656
       103   02 Jun 2027 01:16:02.937   02 Jun 2027 01:16:56.398            53.461              Murmansk1          1670.656
       104   02 Jun 2027 01:18:41.666   02 Jun 2027 01:19:37.421            55.755              Murmansk2          1742.344
       105   02 Jun 2027 01:22:57.323   02 Jun 2027 01:23:09.202            11.879                 Moscow           371.219
       106   02 Jun 2027 01:23:28.934   02 Jun 2027 01:23:33.340             4.406              Murmansk2           137.688
       107   02 Jun 2027 01:24:58.514   02 Jun 2027 01:26:26.887            88.373                Novosib          2761.656
       108   02 Jun 2027 01:36:23.754   02 Jun 2027 01:37:02.229            38.475                  Delhi          1202.344
       109   02 Jun 2027 02:07:33.551   02 Jun 2027 02:08:17.180            43.629            RioGallegos          1363.406
       110   02 Jun 2027 02:09:20.935   02 Jun 2027 02:09:39.265            18.330            RioGallegos           572.812
       111   02 Jun 2027 02:10:33.335   02 Jun 2027 02:10:52.505            19.170            RioGallegos           599.063
       112   02 Jun 2027 02:11:18.262   02 Jun 2027 02:11:22.020             3.758            RioGallegos           117.438
       113   02 Jun 2027 02:41:34.857   02 Jun 2027 02:41:51.372            16.515                Anadyr1           516.094
       114   02 Jun 2027 02:41:58.453   02 Jun 2027 02:43:01.697            63.244                Anadyr2          1976.375
       115   02 Jun 2027 02:47:06.623   02 Jun 2027 02:47:50.397            43.774                Anadyr2          1367.938
       116   02 Jun 2027 02:48:05.876   02 Jun 2027 02:48:07.935             2.059               Magadan1            64.344
       117   02 Jun 2027 02:48:28.780   02 Jun 2027 02:49:11.580            42.800               Magadan2          1337.500
       118   02 Jun 2027 02:50:21.959   02 Jun 2027 02:51:09.493            47.534                Norilsk          1485.438
       119   02 Jun 2027 02:52:42.134   02 Jun 2027 02:53:23.316            41.182              Murmansk1          1286.937
       120   02 Jun 2027 02:55:07.805   02 Jun 2027 02:55:26.368            18.563                Novosib           580.094
       121   02 Jun 2027 02:58:41.299   02 Jun 2027 02:58:55.622            14.323              Murmansk2           447.594
       122   02 Jun 2027 02:59:06.926   02 Jun 2027 02:59:13.728             6.802                Novosib           212.562
       123   02 Jun 2027 02:59:56.734   02 Jun 2027 03:00:21.663            24.929                Novosib           779.031
       124   02 Jun 2027 03:00:43.765   02 Jun 2027 03:01:11.758            27.993              Murmansk1           874.781
       125   02 Jun 2027 03:01:36.049   02 Jun 2027 03:02:04.012            27.963                Novosib           873.844
       126   02 Jun 2027 04:36:35.587   02 Jun 2027 04:37:13.312            37.725              Murmansk2          1178.906
       127   02 Jun 2027 04:37:13.992   02 Jun 2027 04:37:44.443            30.451                 Moscow           951.594
       128   02 Jun 2027 04:37:45.145   02 Jun 2027 04:37:58.979            13.834              Murmansk2           432.313
       129   02 Jun 2027 05:58:19.488   02 Jun 2027 06:00:04.295           104.807               Magadan1          3275.219
       130   02 Jun 2027 06:00:18.927   02 Jun 2027 06:00:38.448            19.521                Anadyr2           610.031
       131   02 Jun 2027 06:00:38.448   02 Jun 2027 06:00:44.570             6.122                Anadyr1           191.313
       132   02 Jun 2027 07:36:25.155   02 Jun 2027 07:38:37.671           132.516                Anadyr1          4141.125
       133   02 Jun 2027 09:10:26.828   02 Jun 2027 09:10:31.376             4.548                Irkutsk           142.125
       134   02 Jun 2027 09:11:20.815   02 Jun 2027 09:15:19.898           239.083               Magadan1          7471.344
       135   02 Jun 2027 09:15:47.630   02 Jun 2027 09:17:23.899            96.269              Murmansk1          3008.406
       136   02 Jun 2027 09:50:23.510   02 Jun 2027 09:51:57.764            94.254            RioGallegos          2945.438
       137   02 Jun 2027 10:25:57.711   02 Jun 2027 10:27:26.625            88.914                Sumatra          2778.563
       138   02 Jun 2027 10:45:45.647   02 Jun 2027 10:47:10.735            85.088                Irkutsk          2659.000
       139   02 Jun 2027 10:47:23.618   02 Jun 2027 10:47:43.345            19.727                Novosib           616.469
       140   02 Jun 2027 10:47:47.254   02 Jun 2027 10:48:32.527            45.273                Irkutsk          1414.781
       141   02 Jun 2027 10:48:37.652   02 Jun 2027 10:49:00.165            22.513              Murmansk1           703.531
       142   02 Jun 2027 10:49:05.556   02 Jun 2027 10:49:41.962            36.406              Murmansk2          1137.688
       143   02 Jun 2027 10:49:53.848   02 Jun 2027 10:50:10.894            17.046              Murmansk2           532.687
       144   02 Jun 2027 10:50:22.246   02 Jun 2027 10:51:06.629            44.383                Novosib          1386.969
       145   02 Jun 2027 10:51:13.014   02 Jun 2027 10:51:13.590             0.576                Novosib            18.000
       146   02 Jun 2027 10:51:15.597   02 Jun 2027 10:51:37.828            22.231              Murmansk2           694.719
       147   02 Jun 2027 10:52:07.131   02 Jun 2027 10:52:24.197            17.066              Murmansk1           533.313
       148   02 Jun 2027 10:52:28.156   02 Jun 2027 10:53:03.193            35.037                Novosib          1094.906
       149   02 Jun 2027 11:27:57.492   02 Jun 2027 11:28:44.143            46.651            RioGallegos          1457.844
       150   02 Jun 2027 12:02:10.005   02 Jun 2027 12:03:19.805            69.800                Sumatra          2181.250
       151   02 Jun 2027 12:10:31.187   02 Jun 2027 12:11:22.447            51.260                  Delhi          1601.875
       152   02 Jun 2027 12:17:13.537   02 Jun 2027 12:17:49.939            36.402                Novosib          1137.563
       153   02 Jun 2027 12:19:32.988   02 Jun 2027 12:20:36.353            63.365                Novosib          1980.156
       154   02 Jun 2027 12:20:37.200   02 Jun 2027 12:21:21.013            43.813                Norilsk          1369.156
       155   02 Jun 2027 12:24:50.943   02 Jun 2027 12:25:12.067            21.124              Murmansk1           660.125
       156   02 Jun 2027 12:27:07.922   02 Jun 2027 12:27:39.130            31.208                Norilsk           975.250
       157   02 Jun 2027 13:47:20.568   02 Jun 2027 13:49:13.516           112.948                  Delhi          3529.625
       158   02 Jun 2027 13:49:42.158   02 Jun 2027 13:52:14.480           152.322                  Delhi          4760.062
       159   02 Jun 2027 13:57:18.067   02 Jun 2027 13:59:36.712           138.645                Novosib          4332.656
       160   02 Jun 2027 14:00:11.804   02 Jun 2027 14:01:08.600            56.796                Norilsk          1774.875
       161   02 Jun 2027 15:12:07.947   02 Jun 2027 15:12:53.509            45.562               CapeTown          1423.812
       162   02 Jun 2027 15:13:31.972   02 Jun 2027 15:14:06.933            34.961               CapeTown          1092.531
       163   02 Jun 2027 15:30:09.514   02 Jun 2027 15:31:26.335            76.821                 Moscow          2400.656
       164   02 Jun 2027 15:33:39.091   02 Jun 2027 15:36:36.283           177.192              Murmansk1          5537.250
       165   02 Jun 2027 15:49:05.356   02 Jun 2027 15:50:06.161            60.805                Anadyr2          1900.156
       166   02 Jun 2027 15:50:47.864   02 Jun 2027 15:50:49.670             1.806                Anadyr2            56.437
       167   02 Jun 2027 15:51:04.272   02 Jun 2027 15:52:11.356            67.084                Anadyr2          2096.375
       168   02 Jun 2027 16:46:25.982   02 Jun 2027 16:47:05.127            39.145               CapeTown          1223.281
       169   02 Jun 2027 17:10:06.980   02 Jun 2027 17:10:14.649             7.669                 Moscow           239.656
       170   02 Jun 2027 17:10:43.852   02 Jun 2027 17:11:41.668            57.816                 Moscow          1806.750
       171   02 Jun 2027 17:11:51.680   02 Jun 2027 17:12:34.580            42.900              Murmansk1          1340.625
       172   02 Jun 2027 17:16:14.387   02 Jun 2027 17:16:42.601            28.214              Murmansk2           881.688
       173   02 Jun 2027 17:20:31.654   02 Jun 2027 17:22:08.102            96.448              Murmansk1          3014.000
       174   02 Jun 2027 17:24:01.776   02 Jun 2027 17:24:02.050             0.274                Anadyr1             8.563
       175   02 Jun 2027 17:24:07.824   02 Jun 2027 17:24:48.298            40.474                Anadyr2          1264.812
       176   02 Jun 2027 17:25:21.606   02 Jun 2027 17:25:43.845            22.239                Anadyr2           694.969
       177   02 Jun 2027 18:20:13.046   02 Jun 2027 18:21:28.502            75.456               CapeTown          2358.000
       178   02 Jun 2027 18:25:19.633   02 Jun 2027 18:25:36.555            16.922               CapeTown           528.813
       179   02 Jun 2027 18:29:24.175   02 Jun 2027 18:29:50.118            25.943               CapeTown           810.719
       180   02 Jun 2027 18:53:13.227   02 Jun 2027 18:56:59.320           226.093              Murmansk2          7065.406
       181   02 Jun 2027 18:59:51.670   02 Jun 2027 19:01:01.930            70.260                Anadyr2          2195.625
       182   02 Jun 2027 19:02:40.339   02 Jun 2027 19:02:54.649            14.310               Magadan2           447.188
       183   02 Jun 2027 19:03:16.008   02 Jun 2027 19:03:39.591            23.583               Magadan2           736.969
       184   02 Jun 2027 19:04:48.214   02 Jun 2027 19:05:13.494            25.280               Magadan1           790.000
       185   02 Jun 2027 19:08:15.585   02 Jun 2027 19:08:42.460            26.875               Magadan1           839.844
       186   02 Jun 2027 20:35:47.151   02 Jun 2027 20:39:30.504           223.353                Anadyr2          6979.781
       187   02 Jun 2027 20:39:33.325   02 Jun 2027 20:41:42.548           129.223                Norilsk          4038.219
       188   02 Jun 2027 20:42:27.634   02 Jun 2027 20:42:30.043             2.409               Magadan2            75.281
       189   02 Jun 2027 20:43:41.681   02 Jun 2027 20:44:11.075            29.394               Magadan2           918.563
       190   02 Jun 2027 20:47:07.611   02 Jun 2027 20:47:18.625            11.014               Magadan1           344.187
       191   02 Jun 2027 20:48:26.290   02 Jun 2027 20:48:37.667            11.377               Magadan1           355.531
       192   02 Jun 2027 20:48:40.847   02 Jun 2027 20:48:52.821            11.974               Magadan1           374.188
       193   02 Jun 2027 20:50:32.686   02 Jun 2027 20:50:57.986            25.300               Magadan1           790.625
       194   02 Jun 2027 21:30:26.473   02 Jun 2027 21:33:43.486           197.013            RioGallegos          6156.656
       195   02 Jun 2027 22:11:27.143   02 Jun 2027 22:12:00.643            33.500                Anadyr2          1046.875
       196   02 Jun 2027 22:13:37.552   02 Jun 2027 22:13:45.740             8.188                Norilsk           255.875
       197   02 Jun 2027 22:14:05.487   02 Jun 2027 22:16:01.811           116.324               Magadan1          3635.125
       198   02 Jun 2027 22:17:55.102   02 Jun 2027 22:19:23.461            88.359                Irkutsk          2761.219
       199   02 Jun 2027 22:19:56.769   02 Jun 2027 22:20:27.058            30.289                Irkutsk           946.531
       200   02 Jun 2027 22:20:50.624   02 Jun 2027 22:21:25.289            34.665                Novosib          1083.281
       201   02 Jun 2027 22:23:10.178   02 Jun 2027 22:23:18.549             8.371                Novosib           261.594
       202   02 Jun 2027 22:31:47.876   02 Jun 2027 22:33:13.611            85.735                Sumatra          2679.219
       203   02 Jun 2027 22:35:05.541   02 Jun 2027 22:35:41.120            35.579                Sumatra          1111.844
       204   02 Jun 2027 23:46:19.111   02 Jun 2027 23:47:48.402            89.291                Anadyr1          2790.344
       205   02 Jun 2027 23:48:02.723   02 Jun 2027 23:48:36.273            33.550                Anadyr2          1048.437
       206   02 Jun 2027 23:49:33.340   02 Jun 2027 23:49:53.091            19.751                Norilsk           617.219
       207   02 Jun 2027 23:50:12.422   02 Jun 2027 23:51:40.712            88.290               Magadan2          2759.063
       208   02 Jun 2027 23:52:59.148   02 Jun 2027 23:53:50.907            51.759               Magadan1          1617.469
       209   02 Jun 2027 23:54:16.013   02 Jun 2027 23:54:33.641            17.628                Irkutsk           550.875
       210   02 Jun 2027 23:55:41.342   02 Jun 2027 23:56:21.491            40.149                Novosib          1254.656
       211   02 Jun 2027 23:57:09.638   02 Jun 2027 23:57:14.245             4.607                Novosib           143.969
       212   02 Jun 2027 23:58:30.131   02 Jun 2027 23:59:35.975            65.844                Novosib          2057.625
       213   03 Jun 2027 00:01:40.364   03 Jun 2027 00:02:31.136            50.772                  Delhi          1586.625
       214   03 Jun 2027 00:04:19.180   03 Jun 2027 00:04:45.734            26.554                  Delhi           829.813
       215   03 Jun 2027 00:07:07.836   03 Jun 2027 00:07:29.668            21.832                  Delhi           682.250
       216   03 Jun 2027 00:14:47.598   03 Jun 2027 00:15:11.133            23.535                Sumatra           735.469
       217   03 Jun 2027 00:41:48.085   03 Jun 2027 00:43:01.976            73.891            RioGallegos          2309.094
       218   03 Jun 2027 01:20:17.013   03 Jun 2027 01:20:49.943            32.930                Anadyr1          1029.063
       219   03 Jun 2027 01:21:24.066   03 Jun 2027 01:22:05.340            41.274                Anadyr2          1289.812
       220   03 Jun 2027 01:22:24.171   03 Jun 2027 01:22:27.660             3.489                Anadyr1           109.031
       221   03 Jun 2027 01:25:33.390   03 Jun 2027 01:25:58.968            25.578                Norilsk           799.313
       222   03 Jun 2027 01:26:06.647   03 Jun 2027 01:27:50.117           103.470               Magadan2          3233.438
       223   03 Jun 2027 01:27:58.609   03 Jun 2027 01:28:53.320            54.711              Murmansk1          1709.719
       224   03 Jun 2027 01:28:53.320   03 Jun 2027 01:29:33.620            40.300              Murmansk2          1259.375
       225   03 Jun 2027 01:29:50.007   03 Jun 2027 01:30:28.457            38.450                Novosib          1201.563
       226   03 Jun 2027 01:30:36.367   03 Jun 2027 01:30:52.124            15.757              Murmansk1           492.406
       227   03 Jun 2027 01:32:53.286   03 Jun 2027 01:33:29.216            35.930                Irkutsk          1122.813
       228   03 Jun 2027 01:36:50.000   03 Jun 2027 01:37:37.666            47.666                  Delhi          1489.562
       229   03 Jun 2027 01:45:39.459   03 Jun 2027 01:46:06.279            26.820                  Delhi           838.125
       230   03 Jun 2027 02:53:18.956   03 Jun 2027 02:55:53.990           155.034                Anadyr2          4844.812
       231   03 Jun 2027 02:57:48.023   03 Jun 2027 02:57:56.605             8.582                Anadyr1           268.187
       232   03 Jun 2027 02:58:40.581   03 Jun 2027 03:00:04.264            83.683               Magadan1          2615.094
       233   03 Jun 2027 03:11:05.185   03 Jun 2027 03:11:07.533             2.348              Murmansk2            73.375
       234   03 Jun 2027 03:11:15.225   03 Jun 2027 03:11:29.992            14.767              Murmansk2           461.469
       235   03 Jun 2027 03:11:40.863   03 Jun 2027 03:12:47.212            66.349              Murmansk2          2073.406
       236   03 Jun 2027 03:12:47.212   03 Jun 2027 03:13:54.115            66.903              Murmansk1          2090.719
       237   03 Jun 2027 03:15:07.338   03 Jun 2027 03:15:19.587            12.249                Novosib           382.781
       238   03 Jun 2027 03:15:38.390   03 Jun 2027 03:15:43.851             5.461                 Moscow           170.656
       239   03 Jun 2027 03:15:48.913   03 Jun 2027 03:16:38.670            49.757                 Moscow          1554.906
       240   03 Jun 2027 03:31:41.428   03 Jun 2027 03:33:59.181           137.753               CapeTown          4304.781
       241   03 Jun 2027 03:34:38.405   03 Jun 2027 03:34:46.163             7.758               CapeTown           242.438
       242   03 Jun 2027 04:27:41.244   03 Jun 2027 04:29:30.921           109.677                Anadyr2          3427.406
       243   03 Jun 2027 04:48:09.257   03 Jun 2027 04:50:14.140           124.883              Murmansk1          3902.594
       244   03 Jun 2027 04:51:59.593   03 Jun 2027 04:52:29.175            29.582                 Moscow           924.437
       245   03 Jun 2027 04:53:28.370   03 Jun 2027 04:53:54.021            25.651                 Moscow           801.594
       246   03 Jun 2027 05:07:15.006   03 Jun 2027 05:08:51.232            96.226               CapeTown          3007.063
       247   03 Jun 2027 06:10:11.740   03 Jun 2027 06:12:02.778           111.038                Anadyr2          3469.937
       248   03 Jun 2027 06:12:06.224   03 Jun 2027 06:12:09.787             3.563               Magadan1           111.344
       249   03 Jun 2027 06:12:15.931   03 Jun 2027 06:13:13.675            57.744               Magadan1          1804.500
       250   03 Jun 2027 06:13:36.229   03 Jun 2027 06:13:40.446             4.217                Anadyr1           131.781
       251   03 Jun 2027 06:13:49.222   03 Jun 2027 06:14:14.698            25.476               Magadan1           796.125
       252   03 Jun 2027 06:14:39.321   03 Jun 2027 06:14:53.227            13.906               Magadan1           434.562
       253   03 Jun 2027 06:15:13.002   03 Jun 2027 06:15:30.476            17.474                Anadyr2           546.062
       254   03 Jun 2027 06:58:28.866   03 Jun 2027 06:58:55.914            27.048            RioGallegos           845.250
       255   03 Jun 2027 07:45:50.628   03 Jun 2027 07:46:52.290            61.662                Anadyr2          1926.938
       256   03 Jun 2027 07:47:11.190   03 Jun 2027 07:47:19.541             8.351               Magadan1           260.969
       257   03 Jun 2027 07:47:37.551   03 Jun 2027 07:47:52.990            15.439                Anadyr1           482.469
       258   03 Jun 2027 07:47:57.328   03 Jun 2027 07:48:22.341            25.013               Magadan2           781.656
       259   03 Jun 2027 07:48:23.225   03 Jun 2027 07:48:57.092            33.867                Anadyr2          1058.344
       260   03 Jun 2027 07:48:58.465   03 Jun 2027 07:49:45.274            46.809               Magadan1          1462.781
       261   03 Jun 2027 07:50:38.179   03 Jun 2027 07:51:54.953            76.774                Anadyr2          2399.188
       262   03 Jun 2027 09:20:58.469   03 Jun 2027 09:21:01.582             3.113               Magadan1            97.281
       263   03 Jun 2027 09:21:41.963   03 Jun 2027 09:21:54.640            12.677                Irkutsk           396.156
       264   03 Jun 2027 09:22:00.195   03 Jun 2027 09:22:41.182            40.987                Norilsk          1280.844
       265   03 Jun 2027 09:22:53.879   03 Jun 2027 09:23:50.305            56.426               Magadan2          1763.312
       266   03 Jun 2027 09:23:50.305   03 Jun 2027 09:24:18.639            28.334               Magadan1           885.438
       267   03 Jun 2027 09:24:53.210   03 Jun 2027 09:25:17.054            23.844                Irkutsk           745.125
       268   03 Jun 2027 09:25:21.989   03 Jun 2027 09:25:25.716             3.727                Novosib           116.469
       269   03 Jun 2027 09:25:38.304   03 Jun 2027 09:26:22.614            44.310                Irkutsk          1384.687
       270   03 Jun 2027 09:26:26.583   03 Jun 2027 09:26:47.275            20.692              Murmansk2           646.625
       271   03 Jun 2027 09:26:47.275   03 Jun 2027 09:27:08.321            21.046              Murmansk1           657.688
       272   03 Jun 2027 09:27:19.225   03 Jun 2027 09:27:40.319            21.094              Murmansk1           659.188
       273   03 Jun 2027 09:27:47.718   03 Jun 2027 09:28:52.564            64.846                Norilsk          2026.438
       274   03 Jun 2027 10:02:24.178   03 Jun 2027 10:03:16.742            52.564            RioGallegos          1642.625
       275   03 Jun 2027 10:10:20.103   03 Jun 2027 10:10:25.128             5.025            RioGallegos           157.031
       276   03 Jun 2027 10:37:39.815   03 Jun 2027 10:38:19.724            39.909                Sumatra          1247.156
       277   03 Jun 2027 10:40:10.251   03 Jun 2027 10:41:04.553            54.302                Sumatra          1696.938
       278   03 Jun 2027 10:57:28.047   03 Jun 2027 10:57:46.321            18.274                Norilsk           571.063
       279   03 Jun 2027 10:57:52.890   03 Jun 2027 10:57:55.682             2.792                Norilsk            87.250
       280   03 Jun 2027 10:57:59.868   03 Jun 2027 10:59:01.265            61.397                Irkutsk          1918.656
       281   03 Jun 2027 10:59:10.791   03 Jun 2027 10:59:17.015             6.224                Novosib           194.500
       282   03 Jun 2027 10:59:26.278   03 Jun 2027 10:59:56.216            29.938                Novosib           935.563
       283   03 Jun 2027 10:59:57.290   03 Jun 2027 11:01:11.713            74.423                Irkutsk          2325.719
       284   03 Jun 2027 11:01:28.932   03 Jun 2027 11:02:01.358            32.426                Irkutsk          1013.313
       285   03 Jun 2027 11:02:10.827   03 Jun 2027 11:02:13.275             2.448                Novosib            76.500
       286   03 Jun 2027 11:02:22.675   03 Jun 2027 11:03:13.765            51.090                Novosib          1596.562
       287   03 Jun 2027 11:03:17.172   03 Jun 2027 11:03:43.848            26.676              Murmansk2           833.625
       288   03 Jun 2027 11:04:52.688   03 Jun 2027 11:04:56.596             3.908                Norilsk           122.125
       289   03 Jun 2027 11:05:02.155   03 Jun 2027 11:05:06.578             4.423              Murmansk2           138.219
       290   03 Jun 2027 11:05:06.578   03 Jun 2027 11:05:16.335             9.757              Murmansk1           304.906
       291   03 Jun 2027 11:40:33.097   03 Jun 2027 11:40:59.796            26.699            RioGallegos           834.344
       292   03 Jun 2027 11:41:52.711   03 Jun 2027 11:42:28.170            35.459            RioGallegos          1108.094
       293   03 Jun 2027 12:14:48.211   03 Jun 2027 12:15:23.420            35.209                Sumatra          1100.281
       294   03 Jun 2027 12:18:23.506   03 Jun 2027 12:19:22.552            59.046                Sumatra          1845.187
       295   03 Jun 2027 12:28:41.704   03 Jun 2027 12:29:32.574            50.870                Novosib          1589.687
       296   03 Jun 2027 12:29:56.402   03 Jun 2027 12:31:31.968            95.566                Novosib          2986.437
       297   03 Jun 2027 12:33:23.142   03 Jun 2027 12:33:58.490            35.348                Norilsk          1104.625
       298   03 Jun 2027 12:34:36.457   03 Jun 2027 12:34:40.690             4.233              Murmansk2           132.281
       299   03 Jun 2027 12:34:45.777   03 Jun 2027 12:35:34.437            48.660              Murmansk2          1520.625
       300   03 Jun 2027 14:00:18.869   03 Jun 2027 14:01:36.505            77.636                  Delhi          2426.125
       301   03 Jun 2027 14:02:26.715   03 Jun 2027 14:04:46.512           139.797                  Delhi          4368.656
       302   03 Jun 2027 14:07:36.283   03 Jun 2027 14:07:57.381            21.098                 Moscow           659.313
       303   03 Jun 2027 14:09:22.265   03 Jun 2027 14:11:28.071           125.806              Murmansk1          3931.438
       304   03 Jun 2027 14:11:45.966   03 Jun 2027 14:13:10.251            84.285                Norilsk          2633.906
       305   03 Jun 2027 14:14:37.716   03 Jun 2027 14:15:10.846            33.130                Norilsk          1035.313
       306   03 Jun 2027 15:22:17.637   03 Jun 2027 15:24:22.638           125.001               CapeTown          3906.281
       307   03 Jun 2027 15:42:24.388   03 Jun 2027 15:43:29.148            64.760                 Moscow          2023.750
       308   03 Jun 2027 15:45:50.675   03 Jun 2027 15:46:38.049            47.374              Murmansk2          1480.437
       309   03 Jun 2027 15:46:58.673   03 Jun 2027 15:48:33.678            95.005              Murmansk2          2968.906
       310   03 Jun 2027 16:00:50.336   03 Jun 2027 16:01:54.284            63.948                Anadyr1          1998.375
       311   03 Jun 2027 16:02:16.525   03 Jun 2027 16:02:23.388             6.863                Anadyr1           214.469
       312   03 Jun 2027 16:02:31.291   03 Jun 2027 16:03:01.970            30.679                Anadyr1           958.719
       313   03 Jun 2027 16:55:21.954   03 Jun 2027 16:56:05.063            43.109               CapeTown          1347.156
       314   03 Jun 2027 16:58:56.941   03 Jun 2027 16:59:09.253            12.312               CapeTown           384.750
       315   03 Jun 2027 17:04:13.199   03 Jun 2027 17:04:23.279            10.080               CapeTown           315.000
       316   03 Jun 2027 17:23:21.390   03 Jun 2027 17:25:04.944           103.554                 Moscow          3236.062
       317   03 Jun 2027 17:25:42.310   03 Jun 2027 17:25:55.819            13.509              Murmansk1           422.156
       318   03 Jun 2027 17:26:43.718   03 Jun 2027 17:27:13.421            29.703              Murmansk1           928.219
       319   03 Jun 2027 17:28:12.660   03 Jun 2027 17:28:44.755            32.095              Murmansk1          1002.969
       320   03 Jun 2027 17:32:33.551   03 Jun 2027 17:34:07.710            94.159              Murmansk2          2942.469
       321   03 Jun 2027 17:38:13.079   03 Jun 2027 17:38:45.838            32.759                Anadyr1          1023.719
       322   03 Jun 2027 17:40:57.858   03 Jun 2027 17:42:23.119            85.261               Magadan1          2664.406
       323   03 Jun 2027 18:32:40.967   03 Jun 2027 18:32:48.231             7.264               CapeTown           227.000
       324   03 Jun 2027 18:33:27.690   03 Jun 2027 18:33:37.956            10.266               CapeTown           320.813
       325   03 Jun 2027 19:06:50.461   03 Jun 2027 19:08:07.260            76.799              Murmansk2          2399.969
       326   03 Jun 2027 19:11:53.276   03 Jun 2027 19:12:54.702            61.426                Anadyr1          1919.563
       327   03 Jun 2027 19:12:54.702   03 Jun 2027 19:13:33.875            39.173                Anadyr2          1224.156
       328   03 Jun 2027 19:14:03.980   03 Jun 2027 19:15:38.929            94.949                Anadyr2          2967.156
       329   03 Jun 2027 19:16:06.212   03 Jun 2027 19:18:13.489           127.277               Magadan2          3977.406
       330   03 Jun 2027 20:47:48.028   03 Jun 2027 20:49:55.998           127.970                Anadyr1          3999.062
       331   03 Jun 2027 20:50:05.026   03 Jun 2027 20:54:21.618           256.592               Magadan2          8018.500
       332   03 Jun 2027 20:54:38.154   03 Jun 2027 20:54:51.709            13.555                Norilsk           423.594
       333   03 Jun 2027 21:01:22.441   03 Jun 2027 21:02:02.786            40.345               Magadan1          1260.781
       334   03 Jun 2027 21:42:13.682   03 Jun 2027 21:44:42.227           148.545            RioGallegos          4642.031
       335   03 Jun 2027 21:45:37.110   03 Jun 2027 21:45:39.952             2.842            RioGallegos            88.813
       336   03 Jun 2027 21:51:04.211   03 Jun 2027 21:51:40.243            36.032            RioGallegos          1126.000
       337   03 Jun 2027 22:23:24.136   03 Jun 2027 22:24:05.847            41.711                Anadyr1          1303.469
       338   03 Jun 2027 22:25:38.042   03 Jun 2027 22:25:47.660             9.618                Norilsk           300.563
       339   03 Jun 2027 22:26:08.455   03 Jun 2027 22:28:31.204           142.749               Magadan1          4460.906
       340   03 Jun 2027 22:29:31.884   03 Jun 2027 22:29:54.381            22.497               Magadan1           703.031
       341   03 Jun 2027 22:30:03.099   03 Jun 2027 22:30:16.434            13.335                Irkutsk           416.719
       342   03 Jun 2027 22:30:40.382   03 Jun 2027 22:31:14.776            34.394                Irkutsk          1074.813
       343   03 Jun 2027 22:31:41.368   03 Jun 2027 22:32:41.135            59.767                Novosib          1867.719
       344   03 Jun 2027 22:32:58.295   03 Jun 2027 22:33:22.633            24.338                Novosib           760.562
       345   03 Jun 2027 22:34:18.294   03 Jun 2027 22:35:05.380            47.086                Novosib          1471.437
       346   03 Jun 2027 22:43:33.398   03 Jun 2027 22:44:15.570            42.172                Sumatra          1317.875
       347   03 Jun 2027 22:47:17.718   03 Jun 2027 22:47:22.885             5.167                Sumatra           161.469
       348   03 Jun 2027 23:58:07.216   04 Jun 2027 00:00:23.344           136.128                Anadyr1          4254.000
       349   04 Jun 2027 00:00:50.205   04 Jun 2027 00:01:03.488            13.283                Anadyr1           415.094
       350   04 Jun 2027 00:01:35.520   04 Jun 2027 00:01:52.343            16.823                Norilsk           525.719
       351   04 Jun 2027 00:02:14.750   04 Jun 2027 00:03:34.248            79.498               Magadan2          2484.312
       352   04 Jun 2027 00:03:34.248   04 Jun 2027 00:03:38.373             4.125               Magadan1           128.906
       353   04 Jun 2027 00:04:46.476   04 Jun 2027 00:04:53.230             6.754               Magadan1           211.063
       354   04 Jun 2027 00:05:27.983   04 Jun 2027 00:06:37.450            69.467                Irkutsk          2170.844
       355   04 Jun 2027 00:07:29.366   04 Jun 2027 00:08:01.883            32.517                Novosib          1016.156
       356   04 Jun 2027 00:08:04.961   04 Jun 2027 00:08:30.039            25.078                Novosib           783.688
       357   04 Jun 2027 00:09:53.368   04 Jun 2027 00:10:29.451            36.083                Novosib          1127.594
       358   04 Jun 2027 00:13:21.063   04 Jun 2027 00:14:39.169            78.106                  Delhi          2440.812
       359   04 Jun 2027 00:17:32.808   04 Jun 2027 00:17:43.920            11.112                  Delhi           347.250
       360   04 Jun 2027 00:19:33.522   04 Jun 2027 00:20:02.285            28.763                  Delhi           898.844
       361   04 Jun 2027 00:22:53.859   04 Jun 2027 00:23:30.018            36.159                  Delhi          1129.969
       362   04 Jun 2027 00:57:25.060   04 Jun 2027 00:57:34.998             9.938            RioGallegos           310.562
       363   04 Jun 2027 00:58:27.658   04 Jun 2027 00:59:30.578            62.920            RioGallegos          1966.250
       364   04 Jun 2027 01:32:50.157   04 Jun 2027 01:33:24.285            34.128                Anadyr1          1066.500
       365   04 Jun 2027 01:33:24.285   04 Jun 2027 01:34:06.426            42.141                Anadyr2          1316.906
       366   04 Jun 2027 01:37:13.771   04 Jun 2027 01:37:38.819            25.048                Anadyr1           782.750
       367   04 Jun 2027 01:37:43.693   04 Jun 2027 01:38:53.203            69.510               Magadan2          2172.188
       368   04 Jun 2027 01:39:13.469   04 Jun 2027 01:39:30.549            17.080                Norilsk           533.750
       369   04 Jun 2027 01:39:55.847   04 Jun 2027 01:41:56.618           120.771              Murmansk1          3774.094
       370   04 Jun 2027 01:42:35.176   04 Jun 2027 01:43:23.857            48.681                Novosib          1521.281
       371   04 Jun 2027 01:48:23.838   04 Jun 2027 01:50:28.128           124.290                 Moscow          3884.063
       372   04 Jun 2027 03:12:34.676   04 Jun 2027 03:13:24.465            49.789               Magadan1          1555.906
       373   04 Jun 2027 03:22:56.022   04 Jun 2027 03:24:14.876            78.854                Norilsk          2464.188
       374   04 Jun 2027 03:24:40.520   04 Jun 2027 03:25:28.588            48.068                Norilsk          1502.125
       375   04 Jun 2027 03:25:36.190   04 Jun 2027 03:26:01.466            25.276                Novosib           789.875
       376   04 Jun 2027 03:26:30.020   04 Jun 2027 03:27:09.042            39.022                Novosib          1219.438
       377   04 Jun 2027 03:27:24.520   04 Jun 2027 03:27:49.221            24.701              Murmansk2           771.906
       378   04 Jun 2027 03:27:56.836   04 Jun 2027 03:30:22.066           145.230                 Moscow          4538.438
       379   04 Jun 2027 03:43:21.931   04 Jun 2027 03:44:59.189            97.258               CapeTown          3039.313
       380   04 Jun 2027 04:46:49.982   04 Jun 2027 04:48:20.151            90.169                Anadyr1          2817.781
       381   04 Jun 2027 04:59:34.950   04 Jun 2027 05:00:01.095            26.145              Murmansk1           817.031
       382   04 Jun 2027 05:00:17.960   04 Jun 2027 05:01:08.396            50.436                 Moscow          1576.125
       383   04 Jun 2027 05:19:39.149   04 Jun 2027 05:20:33.706            54.557               CapeTown          1704.906
       384   04 Jun 2027 06:20:26.659   04 Jun 2027 06:20:57.006            30.347                Anadyr1           948.344
       385   04 Jun 2027 06:21:24.723   04 Jun 2027 06:21:33.049             8.326               Magadan2           260.188
       386   04 Jun 2027 06:21:39.334   04 Jun 2027 06:21:44.269             4.935                Anadyr1           154.219
       387   04 Jun 2027 06:22:01.126   04 Jun 2027 06:22:16.236            15.110               Magadan1           472.187
       388   04 Jun 2027 06:22:16.939   04 Jun 2027 06:22:25.815             8.876               Magadan2           277.375
       389   04 Jun 2027 06:22:31.308   04 Jun 2027 06:23:25.893            54.585                Anadyr2          1705.781
       390   04 Jun 2027 06:23:25.893   04 Jun 2027 06:23:55.260            29.367                Anadyr1           917.719
       391   04 Jun 2027 06:24:08.632   04 Jun 2027 06:24:53.341            44.709               Magadan1          1397.156
       392   04 Jun 2027 06:24:53.341   04 Jun 2027 06:25:01.562             8.221               Magadan2           256.906
       393   04 Jun 2027 06:25:07.225   04 Jun 2027 06:25:34.592            27.367                Anadyr1           855.219
       394   04 Jun 2027 06:25:34.592   04 Jun 2027 06:25:41.750             7.158                Anadyr2           223.687
       395   04 Jun 2027 06:25:52.554   04 Jun 2027 06:25:54.013             1.459               Magadan2            45.594
       396   04 Jun 2027 06:26:04.824   04 Jun 2027 06:26:10.858             6.034               Magadan2           188.562
       397   04 Jun 2027 06:27:26.468   04 Jun 2027 06:27:34.331             7.863                Norilsk           245.719
       398   04 Jun 2027 06:37:28.766   04 Jun 2027 06:37:33.560             4.794              Murmansk1           149.812
       399   04 Jun 2027 07:08:58.952   04 Jun 2027 07:10:02.337            63.385            RioGallegos          1980.781
       400   04 Jun 2027 07:56:34.392   04 Jun 2027 07:57:05.481            31.089               Magadan2           971.531
       401   04 Jun 2027 07:57:25.196   04 Jun 2027 07:58:53.316            88.120                Anadyr2          2753.750
       402   04 Jun 2027 07:59:05.596   04 Jun 2027 07:59:07.635             2.039               Magadan1            63.719
       403   04 Jun 2027 08:00:09.043   04 Jun 2027 08:00:20.299            11.256                Anadyr1           351.750
       404   04 Jun 2027 08:00:22.973   04 Jun 2027 08:01:10.869            47.896               Magadan2          1496.750
       405   04 Jun 2027 08:01:12.110   04 Jun 2027 08:01:38.948            26.838               Magadan1           838.688
       406   04 Jun 2027 08:01:41.440   04 Jun 2027 08:02:23.589            42.149               Magadan2          1317.156
       407   04 Jun 2027 08:02:38.255   04 Jun 2027 08:03:48.286            70.031                Anadyr2          2188.469
       408   04 Jun 2027 09:32:36.793   04 Jun 2027 09:33:01.158            24.365               Magadan2           761.406
       409   04 Jun 2027 09:33:07.248   04 Jun 2027 09:33:37.508            30.260                Norilsk           945.625
       410   04 Jun 2027 09:34:22.407   04 Jun 2027 09:35:14.226            51.819                Norilsk          1619.344
       411   04 Jun 2027 09:35:27.023   04 Jun 2027 09:35:44.081            17.058               Magadan1           533.063
       412   04 Jun 2027 09:35:51.324   04 Jun 2027 09:36:15.750            24.426                Irkutsk           763.313
       413   04 Jun 2027 09:36:20.780   04 Jun 2027 09:36:32.730            11.950               Magadan2           373.437
       414   04 Jun 2027 09:36:47.533   04 Jun 2027 09:36:51.656             4.123                Norilsk           128.844
       415   04 Jun 2027 09:36:54.206   04 Jun 2027 09:37:29.254            35.048                Irkutsk          1095.250
       416   04 Jun 2027 09:37:38.814   04 Jun 2027 09:38:15.279            36.465                Norilsk          1139.531
       417   04 Jun 2027 09:38:19.376   04 Jun 2027 09:39:25.801            66.425                Irkutsk          2075.781
       418   04 Jun 2027 09:39:33.758   04 Jun 2027 09:40:02.230            28.472              Murmansk1           889.750
       419   04 Jun 2027 09:41:19.429   04 Jun 2027 09:41:27.924             8.495              Murmansk1           265.469
       420   04 Jun 2027 09:43:11.168   04 Jun 2027 09:44:00.098            48.930              Murmansk2          1529.063
       421   04 Jun 2027 10:15:08.079   04 Jun 2027 10:15:24.900            16.821            RioGallegos           525.656
       422   04 Jun 2027 10:17:42.756   04 Jun 2027 10:18:07.757            25.001            RioGallegos           781.281
       423   04 Jun 2027 10:49:28.533   04 Jun 2027 10:50:09.918            41.385                Sumatra          1293.281
       424   04 Jun 2027 10:56:59.926   04 Jun 2027 10:57:20.427            20.501                Sumatra           640.656
       425   04 Jun 2027 11:05:36.736   04 Jun 2027 11:06:28.453            51.717                  Delhi          1616.156
       426   04 Jun 2027 11:09:37.778   04 Jun 2027 11:10:54.902            77.124                Irkutsk          2410.125
       427   04 Jun 2027 11:11:02.287   04 Jun 2027 11:11:15.359            13.072                Novosib           408.500
       428   04 Jun 2027 11:11:18.052   04 Jun 2027 11:11:30.432            12.380                Norilsk           386.875
       429   04 Jun 2027 11:11:36.394   04 Jun 2027 11:11:59.787            23.393                Irkutsk           731.031
       430   04 Jun 2027 11:12:00.543   04 Jun 2027 11:12:12.216            11.673              Murmansk2           364.781
       431   04 Jun 2027 11:12:12.216   04 Jun 2027 11:12:39.394            27.178              Murmansk1           849.313
       432   04 Jun 2027 11:12:45.178   04 Jun 2027 11:13:00.112            14.934              Murmansk1           466.687
       433   04 Jun 2027 11:13:10.836   04 Jun 2027 11:13:25.307            14.471                Novosib           452.219
       434   04 Jun 2027 11:13:28.550   04 Jun 2027 11:13:59.728            31.178                Novosib           974.312
       435   04 Jun 2027 11:14:04.362   04 Jun 2027 11:14:29.310            24.948                 Moscow           779.625
       436   04 Jun 2027 11:14:34.325   04 Jun 2027 11:15:24.969            50.644                Irkutsk          1582.625
       437   04 Jun 2027 11:15:28.784   04 Jun 2027 11:15:49.313            20.529                Norilsk           641.531
       438   04 Jun 2027 11:15:49.380   04 Jun 2027 11:15:56.271             6.891              Murmansk1           215.344
       439   04 Jun 2027 11:16:11.864   04 Jun 2027 11:16:14.099             2.235                Novosib            69.844
       440   04 Jun 2027 11:17:02.838   04 Jun 2027 11:17:26.509            23.671              Murmansk1           739.719
       441   04 Jun 2027 11:53:16.588   04 Jun 2027 11:53:19.773             3.185            RioGallegos            99.531
       442   04 Jun 2027 11:53:55.862   04 Jun 2027 11:54:32.818            36.956            RioGallegos          1154.875
       443   04 Jun 2027 11:57:46.721   04 Jun 2027 11:58:06.768            20.047            RioGallegos           626.469
       444   04 Jun 2027 12:27:44.818   04 Jun 2027 12:29:31.157           106.339                Sumatra          3323.094
       445   04 Jun 2027 12:40:57.330   04 Jun 2027 12:42:28.068            90.738                Novosib          2835.562
       446   04 Jun 2027 12:43:29.968   04 Jun 2027 12:44:10.068            40.100                Novosib          1253.125
       447   04 Jun 2027 12:45:01.105   04 Jun 2027 12:46:16.546            75.441                Norilsk          2357.531
       448   04 Jun 2027 12:46:27.603   04 Jun 2027 12:46:41.084            13.481              Murmansk2           421.281
       449   04 Jun 2027 12:48:53.279   04 Jun 2027 12:49:12.721            19.442                Norilsk           607.563
       450   04 Jun 2027 14:13:51.310   04 Jun 2027 14:16:11.296           139.986                  Delhi          4374.562
       451   04 Jun 2027 14:19:11.134   04 Jun 2027 14:20:10.283            59.149                 Moscow          1848.406
       452   04 Jun 2027 14:21:13.578   04 Jun 2027 14:21:41.406            27.828                 Moscow           869.625
       453   04 Jun 2027 14:21:53.996   04 Jun 2027 14:23:38.569           104.573              Murmansk2          3267.906
       454   04 Jun 2027 14:24:22.190   04 Jun 2027 14:26:00.312            98.122                Norilsk          3066.313
       455   04 Jun 2027 14:28:53.816   04 Jun 2027 14:29:43.241            49.425                Norilsk          1544.531
       456   04 Jun 2027 15:33:24.943   04 Jun 2027 15:36:00.420           155.477               CapeTown          4858.656
       457   04 Jun 2027 15:58:04.160   04 Jun 2027 15:59:00.582            56.422              Murmansk1          1763.188
       458   04 Jun 2027 16:00:29.661   04 Jun 2027 16:00:42.281            12.620              Murmansk1           394.375
       459   04 Jun 2027 16:01:26.312   04 Jun 2027 16:02:25.597            59.285              Murmansk1          1852.656
       460   04 Jun 2027 16:12:39.925   04 Jun 2027 16:13:56.120            76.195                Anadyr2          2381.094
       461   04 Jun 2027 16:14:09.241   04 Jun 2027 16:14:23.379            14.138                Anadyr1           441.813
       462   04 Jun 2027 16:15:12.896   04 Jun 2027 16:15:53.574            40.678                Anadyr1          1271.187
       463   04 Jun 2027 17:07:22.430   04 Jun 2027 17:09:49.366           146.936               CapeTown          4591.750
       464   04 Jun 2027 17:36:52.689   04 Jun 2027 17:37:16.653            23.964              Murmansk2           748.875
       465   04 Jun 2027 17:37:24.505   04 Jun 2027 17:37:24.783             0.278              Murmansk2             8.688
       466   04 Jun 2027 17:38:09.722   04 Jun 2027 17:38:45.047            35.325              Murmansk1          1103.906
       467   04 Jun 2027 17:39:19.665   04 Jun 2027 17:40:09.774            50.109              Murmansk1          1565.906
       468   04 Jun 2027 17:40:46.845   04 Jun 2027 17:41:04.740            17.895              Murmansk1           559.219
       469   04 Jun 2027 17:42:33.856   04 Jun 2027 17:42:35.365             1.509              Murmansk2            47.156
       470   04 Jun 2027 17:48:01.467   04 Jun 2027 17:48:58.402            56.935                Anadyr1          1779.219
       471   04 Jun 2027 17:49:25.181   04 Jun 2027 17:49:49.471            24.290                Anadyr1           759.062
       472   04 Jun 2027 17:50:54.617   04 Jun 2027 17:51:02.157             7.540                Anadyr2           235.625
       473   04 Jun 2027 17:51:02.157   04 Jun 2027 17:51:11.657             9.500                Anadyr1           296.875
       474   04 Jun 2027 17:51:34.858   04 Jun 2027 17:51:44.991            10.133                Anadyr2           316.656
       475   04 Jun 2027 17:52:06.501   04 Jun 2027 17:52:43.538            37.037               Magadan1          1157.406
       476   04 Jun 2027 17:52:43.538   04 Jun 2027 17:53:46.260            62.722               Magadan2          1960.062
       477   04 Jun 2027 17:57:12.660   04 Jun 2027 17:57:30.590            17.930               Magadan1           560.313
       478   04 Jun 2027 19:23:54.915   04 Jun 2027 19:27:46.838           231.923                Anadyr2          7247.594
       479   04 Jun 2027 19:28:02.118   04 Jun 2027 19:28:51.376            49.258               Magadan1          1539.313
       480   04 Jun 2027 19:28:55.543   04 Jun 2027 19:29:59.939            64.396               Magadan2          2012.375
       481   04 Jun 2027 19:30:26.432   04 Jun 2027 19:31:18.023            51.591               Magadan1          1612.219
       482   04 Jun 2027 20:59:48.624   04 Jun 2027 21:01:57.524           128.900                Anadyr2          4028.125
