uniorb/output/strategy_2/Drop/Drop_KinoSat_110401.txt

KinoSat_110401
-------------------------
    Access    *     Start Time (UTCG)     *     Stop Time (UTCG)  *   Duration (s)        *       Station  *  Data (Mbytes)
         1   01 Jun 2027 04:29:58.866   01 Jun 2027 04:30:22.127            23.261                Norilsk           520.500
         2   01 Jun 2027 04:30:34.400   01 Jun 2027 04:31:37.406            63.006                Norilsk          6136.500
         3   01 Jun 2027 04:31:38.672   01 Jun 2027 04:32:06.345            27.673               Magadan1           633.000
         4   01 Jun 2027 04:32:09.041   01 Jun 2027 04:32:50.922            41.881               Magadan2          1348.000
         5   01 Jun 2027 04:33:07.653   01 Jun 2027 04:34:33.048            85.395               Magadan2          8365.500
         6   01 Jun 2027 04:34:43.279   01 Jun 2027 04:36:48.528           125.249                Irkutsk          5115.500
         7   01 Jun 2027 04:36:48.698   01 Jun 2027 04:37:36.696            47.998                Novosib            85.000
         8   01 Jun 2027 06:07:05.911   01 Jun 2027 06:07:42.508            36.597                Norilsk          3606.000
         9   01 Jun 2027 06:08:03.823   01 Jun 2027 06:09:45.724           101.901                Novosib         10657.500
        10   01 Jun 2027 06:09:49.800   01 Jun 2027 06:10:12.511            22.711              Murmansk2          2038.000
        11   01 Jun 2027 06:10:22.152   01 Jun 2027 06:11:11.869            49.717                Novosib          4820.500
        12   01 Jun 2027 06:11:13.121   01 Jun 2027 06:11:53.907            40.786                Novosib           626.000
        13   01 Jun 2027 06:11:53.957   01 Jun 2027 06:12:02.040             8.083                Norilsk            25.000
        14   01 Jun 2027 06:12:08.196   01 Jun 2027 06:12:37.228            29.032                Norilsk          3078.000
        15   01 Jun 2027 06:12:41.319   01 Jun 2027 06:13:20.625            39.306                 Moscow          2045.500
        16   01 Jun 2027 07:45:07.742   01 Jun 2027 07:46:29.446            81.704                Norilsk          4286.000
        17   01 Jun 2027 07:46:33.379   01 Jun 2027 07:46:49.681            16.302                Norilsk          1966.500
        18   01 Jun 2027 07:46:50.186   01 Jun 2027 07:47:05.440            15.254                Irkutsk           252.500
        19   01 Jun 2027 07:47:06.953   01 Jun 2027 07:47:14.586             7.633                Norilsk           756.500
        20   01 Jun 2027 07:47:16.953   01 Jun 2027 07:48:21.129            64.176                Novosib          1183.500
        21   01 Jun 2027 07:48:23.584   01 Jun 2027 07:49:17.523            53.939                Novosib          1227.500
        22   01 Jun 2027 09:18:41.308   01 Jun 2027 09:21:23.291           161.983                 Moscow         14119.500
        23   01 Jun 2027 09:21:27.157   01 Jun 2027 09:22:01.108            33.951              Murmansk2          1933.000
        24   01 Jun 2027 09:22:05.337   01 Jun 2027 09:22:31.831            26.494                Norilsk          2114.500
        25   01 Jun 2027 09:22:33.625   01 Jun 2027 09:22:57.838            24.213                Norilsk           897.000
        26   01 Jun 2027 09:23:09.143   01 Jun 2027 09:24:15.985            66.842                Novosib          5652.500
        27   01 Jun 2027 09:24:16.990   01 Jun 2027 09:24:23.545             6.555                Norilsk           502.500
        28   01 Jun 2027 09:24:26.603   01 Jun 2027 09:24:59.392            32.789                 Moscow          1529.000
        29   01 Jun 2027 09:25:02.399   01 Jun 2027 09:25:16.373            13.974                Norilsk          1503.500
        30   01 Jun 2027 09:25:20.666   01 Jun 2027 09:27:18.429           117.763                 Moscow          2146.500
        31   02 Jun 2027 03:05:00.578   02 Jun 2027 03:05:16.081            15.503               Magadan2          1937.875
        32   02 Jun 2027 03:05:16.081   02 Jun 2027 03:05:30.345            14.264               Magadan1          1191.625
        33   02 Jun 2027 03:05:38.710   02 Jun 2027 03:06:01.260            22.550               Magadan2          2818.750
        34   02 Jun 2027 03:06:01.260   02 Jun 2027 03:06:38.322            37.062               Magadan1          1363.750
        35   02 Jun 2027 03:06:57.688   02 Jun 2027 03:07:34.777            37.089                Anadyr1           911.000
        36   02 Jun 2027 03:07:47.733   02 Jun 2027 03:08:52.326            64.593                Anadyr1          6478.000
        37   02 Jun 2027 03:08:53.423   02 Jun 2027 03:09:11.273            17.850                Norilsk           548.500
        38   02 Jun 2027 03:09:16.677   02 Jun 2027 03:09:38.978            22.301               Magadan2          2702.000
        39   02 Jun 2027 03:09:39.908   02 Jun 2027 03:09:56.325            16.417                Anadyr2           465.000
        40   02 Jun 2027 03:10:08.825   02 Jun 2027 03:11:04.252            55.427               Magadan2          6250.000
        41   02 Jun 2027 03:11:07.239   02 Jun 2027 03:11:22.358            15.119               Magadan2          1493.500
        42   02 Jun 2027 03:11:28.981   02 Jun 2027 03:11:40.426            11.445                Irkutsk          1430.625
        43   02 Jun 2027 03:11:41.120   02 Jun 2027 03:12:13.297            32.177               Magadan2          2227.875
        44   02 Jun 2027 03:12:52.482   02 Jun 2027 03:13:16.699            24.217                Novosib          1179.500
        45   02 Jun 2027 04:42:23.380   02 Jun 2027 04:43:27.059            63.679                Norilsk          7959.875
        46   02 Jun 2027 04:43:32.369   02 Jun 2027 04:43:56.828            24.459                Novosib          3029.625
        47   02 Jun 2027 04:44:03.046   02 Jun 2027 04:44:49.902            46.856                Novosib          3109.000
        48   02 Jun 2027 04:44:52.409   02 Jun 2027 04:45:11.657            19.248                Irkutsk          1253.500
        49   02 Jun 2027 04:45:14.518   02 Jun 2027 04:45:38.010            23.492                Norilsk          1430.500
        50   02 Jun 2027 04:45:52.096   02 Jun 2027 04:47:10.692            78.596                Novosib          7043.000
        51   02 Jun 2027 04:47:17.845   02 Jun 2027 04:47:24.876             7.031                Norilsk           878.875
        52   02 Jun 2027 04:47:25.942   02 Jun 2027 04:47:58.251            32.309               Magadan1          3230.625
        53   02 Jun 2027 04:48:03.155   02 Jun 2027 04:48:29.359            26.204              Murmansk1          2452.000
        54   02 Jun 2027 04:48:31.737   02 Jun 2027 04:48:53.787            22.050              Murmansk2          1189.000
        55   02 Jun 2027 04:49:05.351   02 Jun 2027 04:49:32.077            26.726                Irkutsk          3340.750
        56   02 Jun 2027 04:50:09.760   02 Jun 2027 04:50:34.957            25.197              Murmansk2          2667.750
        57   02 Jun 2027 06:19:31.092   02 Jun 2027 06:21:32.755           121.663                Norilsk         13602.000
        58   02 Jun 2027 06:21:36.893   02 Jun 2027 06:21:57.069            20.176              Murmansk2          2069.000
        59   02 Jun 2027 06:22:06.457   02 Jun 2027 06:22:57.295            50.838                Novosib          4694.000
        60   02 Jun 2027 06:23:00.353   02 Jun 2027 06:23:13.362            13.009              Murmansk2          1529.000
        61   02 Jun 2027 06:23:19.817   02 Jun 2027 06:23:49.124            29.307                Novosib          3227.500
        62   02 Jun 2027 06:24:10.066   02 Jun 2027 06:25:43.625            93.559                Novosib         10471.000
        63   02 Jun 2027 07:56:58.740   02 Jun 2027 07:57:40.333            41.593              Murmansk2           906.000
        64   02 Jun 2027 07:57:41.464   02 Jun 2027 07:57:46.908             5.444                Irkutsk           565.500
        65   02 Jun 2027 07:57:56.379   02 Jun 2027 07:58:26.290            29.911                Irkutsk          3738.875
        66   02 Jun 2027 07:58:26.833   02 Jun 2027 07:59:03.084            36.251                Norilsk          1268.125
        67   02 Jun 2027 07:59:19.873   02 Jun 2027 08:00:44.261            84.388                Novosib          8394.500
        68   02 Jun 2027 08:00:46.945   02 Jun 2027 08:01:44.465            57.520                Novosib          1342.000
        69   02 Jun 2027 09:30:39.071   02 Jun 2027 09:31:25.705            46.634                 Moscow          3887.000
        70   02 Jun 2027 09:31:31.869   02 Jun 2027 09:32:10.051            38.182              Murmansk1          3082.000
        71   02 Jun 2027 09:32:21.514   02 Jun 2027 09:33:11.399            49.885                 Moscow          5731.500
        72   02 Jun 2027 09:33:13.155   02 Jun 2027 09:34:31.490            78.335                 Moscow           878.000
        73   02 Jun 2027 09:34:32.339   02 Jun 2027 09:34:54.144            21.805                Norilsk           424.500
        74   02 Jun 2027 09:35:03.064   02 Jun 2027 09:35:52.680            49.616                 Moscow          4460.000
        75   02 Jun 2027 09:35:56.913   02 Jun 2027 09:36:16.112            19.199              Murmansk1          2116.500
        76   02 Jun 2027 09:36:16.405   02 Jun 2027 09:36:45.649            29.244                Norilsk           146.500
        77   02 Jun 2027 09:36:52.719   02 Jun 2027 09:37:50.856            58.137                Norilsk          3535.000
        78   02 Jun 2027 09:37:52.472   02 Jun 2027 09:38:21.841            29.369                Norilsk           808.000
        79   03 Jun 2027 03:16:28.647   03 Jun 2027 03:16:54.006            25.359               Magadan1          2374.000
        80   03 Jun 2027 03:16:56.639   03 Jun 2027 03:17:26.968            30.329                Irkutsk          1316.500
        81   03 Jun 2027 03:17:39.541   03 Jun 2027 03:18:16.351            36.810               Magadan2          4601.250
        82   03 Jun 2027 03:18:16.351   03 Jun 2027 03:18:32.517            16.166               Magadan1          1685.250
        83   03 Jun 2027 03:18:38.719   03 Jun 2027 03:19:50.541            71.822                Anadyr1          3101.000
        84   03 Jun 2027 03:20:03.649   03 Jun 2027 03:21:08.187            64.538                Anadyr1          6554.000
        85   03 Jun 2027 03:21:13.375   03 Jun 2027 03:21:58.126            44.751               Magadan1          2594.000
        86   03 Jun 2027 03:22:03.489   03 Jun 2027 03:23:07.510            64.021               Magadan2          2681.500
        87   03 Jun 2027 03:23:08.419   03 Jun 2027 03:23:21.289            12.870               Magadan2           454.500
        88   03 Jun 2027 03:23:25.097   03 Jun 2027 03:23:41.419            16.322               Magadan2          1904.000
        89   03 Jun 2027 03:23:43.074   03 Jun 2027 03:24:00.506            17.432                Irkutsk           827.500
        90   03 Jun 2027 03:24:08.438   03 Jun 2027 03:24:18.335             9.897                Norilsk          1237.125
        91   03 Jun 2027 03:24:34.845   03 Jun 2027 03:25:00.389            25.544               Magadan2          2728.875
        92   03 Jun 2027 03:25:17.343   03 Jun 2027 03:26:26.993            69.650              Murmansk2          8477.000
        93   03 Jun 2027 04:54:09.994   03 Jun 2027 04:54:36.143            26.149                Irkutsk           743.000
        94   03 Jun 2027 04:54:42.052   03 Jun 2027 04:55:17.273            35.221                Norilsk          2954.500
        95   03 Jun 2027 04:55:21.759   03 Jun 2027 04:55:41.020            19.261               Magadan2          2243.000
        96   03 Jun 2027 04:56:05.327   03 Jun 2027 04:57:49.963           104.636                Norilsk         12153.500
        97   03 Jun 2027 04:57:57.005   03 Jun 2027 04:58:44.335            47.330                Norilsk          3521.000
        98   03 Jun 2027 04:59:04.969   03 Jun 2027 05:00:17.596            72.627                Novosib          9078.375
        99   03 Jun 2027 05:00:19.149   03 Jun 2027 05:00:35.774            16.625              Murmansk1          2015.125
       100   03 Jun 2027 05:00:53.969   03 Jun 2027 05:02:12.450            78.481              Murmansk2          9097.500
       101   03 Jun 2027 06:30:58.227   03 Jun 2027 06:31:12.566            14.339                Novosib           950.500
       102   03 Jun 2027 06:31:19.840   03 Jun 2027 06:31:48.906            29.066                Norilsk          3633.250
       103   03 Jun 2027 06:32:16.925   03 Jun 2027 06:34:14.417           117.492                Norilsk         14013.250
       104   03 Jun 2027 06:34:16.709   03 Jun 2027 06:34:29.755            13.046                Novosib          1146.000
       105   03 Jun 2027 06:34:33.402   03 Jun 2027 06:35:02.546            29.144              Murmansk1          1823.500
       106   03 Jun 2027 06:35:03.927   03 Jun 2027 06:35:46.328            42.401                Novosib           690.500
       107   03 Jun 2027 06:35:47.106   03 Jun 2027 06:36:29.092            41.986                Novosib           389.000
       108   03 Jun 2027 06:36:30.856   03 Jun 2027 06:36:57.602            26.746                Norilsk           882.000
       109   03 Jun 2027 06:36:58.985   03 Jun 2027 06:37:27.923            28.938                Norilsk           630.000
       110   03 Jun 2027 06:37:28.529   03 Jun 2027 06:37:58.718            30.189              Murmansk1           303.000
       111   03 Jun 2027 08:09:10.065   03 Jun 2027 08:10:23.886            73.821                Novosib          5009.000
       112   03 Jun 2027 08:10:24.746   03 Jun 2027 08:10:36.015            11.269                Norilsk           430.000
       113   03 Jun 2027 08:10:38.726   03 Jun 2027 08:10:57.767            19.041              Murmansk2          1355.500
       114   03 Jun 2027 08:11:08.655   03 Jun 2027 08:12:20.945            72.290                 Moscow          5444.000
       115   03 Jun 2027 08:12:22.060   03 Jun 2027 08:13:09.767            47.707                 Moscow           557.500
       116   03 Jun 2027 09:43:01.590   03 Jun 2027 09:44:10.764            69.174                 Moscow          5510.500
       117   03 Jun 2027 09:44:12.031   03 Jun 2027 09:44:33.983            21.952                 Moscow           633.500
       118   03 Jun 2027 09:44:40.817   03 Jun 2027 09:45:02.162            21.345                 Moscow          2668.125
       119   03 Jun 2027 09:45:07.504   03 Jun 2027 09:45:35.598            28.094              Murmansk2          3419.875
       120   03 Jun 2027 09:45:51.820   03 Jun 2027 09:47:10.061            78.241                 Moscow          8111.000
       121   03 Jun 2027 09:47:11.507   03 Jun 2027 09:48:05.068            53.561              Murmansk2           723.000
       122   03 Jun 2027 09:48:09.693   03 Jun 2027 09:48:29.447            19.754              Murmansk2          2312.500
       123   03 Jun 2027 09:48:36.661   03 Jun 2027 09:49:11.883            35.222                Norilsk          3607.000
       124   03 Jun 2027 09:49:11.884   03 Jun 2027 09:49:40.256            28.372              Murmansk2             0.500
       125   04 Jun 2027 03:29:13.140   04 Jun 2027 03:29:39.267            26.127               Magadan1          2395.500
       126   04 Jun 2027 03:29:56.186   04 Jun 2027 03:30:54.871            58.685               Magadan2          7335.625
       127   04 Jun 2027 03:30:54.871   04 Jun 2027 03:31:24.719            29.848               Magadan1          1123.875
       128   04 Jun 2027 03:31:25.789   04 Jun 2027 03:31:58.731            32.942               Magadan1           535.000
       129   04 Jun 2027 03:32:04.159   04 Jun 2027 03:32:40.594            36.435                Anadyr1          2714.000
       130   04 Jun 2027 03:32:43.094   04 Jun 2027 03:33:07.059            23.965               Magadan1          1250.000
       131   04 Jun 2027 03:33:09.231   04 Jun 2027 03:33:12.415             3.184                Irkutsk           398.000
       132   04 Jun 2027 03:33:16.561   04 Jun 2027 03:33:42.471            25.910                Anadyr1          2761.000
       133   04 Jun 2027 03:33:44.857   04 Jun 2027 03:33:59.747            14.890                Novosib          1193.000
       134   04 Jun 2027 03:34:02.697   04 Jun 2027 03:34:17.913            15.216                Anadyr1          1475.000
       135   04 Jun 2027 03:34:21.778   04 Jun 2027 03:34:44.675            22.897                Norilsk          1932.500
       136   04 Jun 2027 03:34:55.956   04 Jun 2027 03:36:07.010            71.054                Irkutsk          5640.500
       137   04 Jun 2027 03:36:07.793   04 Jun 2027 03:36:18.626            10.833                Novosib           391.500
       138   04 Jun 2027 03:36:21.182   04 Jun 2027 03:36:34.548            13.366                Irkutsk          1278.000
       139   04 Jun 2027 03:36:38.855   04 Jun 2027 03:36:56.391            17.536                Anadyr1           308.500
       140   04 Jun 2027 03:36:59.801   04 Jun 2027 03:37:35.306            35.505              Murmansk1          1705.000
       141   04 Jun 2027 03:37:36.732   04 Jun 2027 03:38:03.305            26.573                Novosib           713.000
       142   04 Jun 2027 05:06:21.643   04 Jun 2027 05:07:08.646            47.003                Irkutsk          5095.000
       143   04 Jun 2027 05:07:24.757   04 Jun 2027 05:09:16.092           111.335               Magadan2          8055.500
       144   04 Jun 2027 05:09:18.490   04 Jun 2027 05:10:22.116            63.626                Irkutsk          1199.000
       145   04 Jun 2027 05:10:47.625   04 Jun 2027 05:12:41.983           114.358                Novosib         12754.500
       146   04 Jun 2027 05:12:51.285   04 Jun 2027 05:13:18.983            27.698                Norilsk          3462.250
       147   04 Jun 2027 05:13:22.607   04 Jun 2027 05:14:02.079            39.472              Murmansk2          3000.750
       148   04 Jun 2027 06:43:21.938   04 Jun 2027 06:44:56.401            94.463                Irkutsk          8005.500
       149   04 Jun 2027 06:44:56.872   04 Jun 2027 06:45:34.661            37.789                Norilsk           235.500
       150   04 Jun 2027 06:45:40.954   04 Jun 2027 06:46:21.133            40.179                 Moscow          3146.500
       151   04 Jun 2027 06:46:26.744   04 Jun 2027 06:46:45.593            18.849                Norilsk          2356.125
       152   04 Jun 2027 06:46:45.888   04 Jun 2027 06:46:54.291             8.403                 Moscow           596.875
       153   04 Jun 2027 06:46:56.001   04 Jun 2027 06:47:16.391            20.390                Irkutsk           855.000
       154   04 Jun 2027 06:47:22.554   04 Jun 2027 06:47:47.850            25.296                 Moscow          3081.500
       155   04 Jun 2027 06:47:47.919   04 Jun 2027 06:47:57.858             9.939                Novosib            34.500
       156   04 Jun 2027 06:47:58.875   04 Jun 2027 06:48:32.272            33.397                Irkutsk           508.500
       157   04 Jun 2027 06:48:33.137   04 Jun 2027 06:49:22.738            49.601                 Moscow           432.500
       158   04 Jun 2027 06:49:27.347   04 Jun 2027 06:49:46.129            18.782              Murmansk1          1895.500
       159   04 Jun 2027 08:20:13.967   04 Jun 2027 08:20:33.936            19.969              Murmansk2           874.000
       160   04 Jun 2027 08:20:38.344   04 Jun 2027 08:20:49.714            11.370                 Moscow          1421.250
       161   04 Jun 2027 08:20:53.693   04 Jun 2027 08:21:53.026            59.333                Novosib          2772.250
       162   04 Jun 2027 08:22:10.212   04 Jun 2027 08:23:24.188            73.976                Novosib          8593.000
       163   04 Jun 2027 08:23:31.679   04 Jun 2027 08:24:10.555            38.876              Murmansk2          3745.500
       164   04 Jun 2027 08:24:20.755   04 Jun 2027 08:25:11.984            51.229                 Moscow          5100.000
       165   04 Jun 2027 09:55:13.628   04 Jun 2027 09:55:59.784            46.156              Murmansk2            12.500
       166   04 Jun 2027 09:56:56.585   04 Jun 2027 09:57:22.891            26.306              Murmansk1          1566.000
       167   04 Jun 2027 09:57:42.232   04 Jun 2027 09:59:12.065            89.833              Murmansk2          9670.500
       168   04 Jun 2027 09:59:41.275   04 Jun 2027 09:59:56.472            15.197                 Moscow          1899.625
       169   04 Jun 2027 09:59:58.274   04 Jun 2027 10:01:49.174           110.900                Norilsk         13606.375
       170   05 Jun 2027 03:41:21.539   05 Jun 2027 03:42:24.323            62.784               Magadan2          7623.500
       171   05 Jun 2027 03:42:25.740   05 Jun 2027 03:42:30.624             4.884               Magadan1           610.500
       172   05 Jun 2027 03:42:45.354   05 Jun 2027 03:43:29.788            44.434                Norilsk          5554.250
       173   05 Jun 2027 03:43:36.334   05 Jun 2027 03:44:09.969            33.635                Irkutsk          4204.375
       174   05 Jun 2027 03:44:11.420   05 Jun 2027 03:44:35.502            24.082               Magadan2          1702.875
       175   05 Jun 2027 03:44:43.395   05 Jun 2027 03:45:17.433            34.038                Anadyr1          3946.500
       176   05 Jun 2027 03:45:17.553   05 Jun 2027 03:45:39.463            21.910                Norilsk            60.000
       177   05 Jun 2027 03:45:43.860   05 Jun 2027 03:46:04.142            20.282               Magadan1          2198.500
       178   05 Jun 2027 03:46:07.690   05 Jun 2027 03:46:22.684            14.994                Norilsk          1774.000
       179   05 Jun 2027 03:46:25.698   05 Jun 2027 03:47:47.281            81.583                Anadyr1          1507.000
       180   05 Jun 2027 03:47:51.918   05 Jun 2027 03:48:19.888            27.970                Anadyr2          2318.500
       181   05 Jun 2027 03:48:26.491   05 Jun 2027 03:49:01.264            34.773              Murmansk1          3301.500
       182   05 Jun 2027 03:49:04.324   05 Jun 2027 03:49:18.924            14.600               Magadan2          1530.000
       183   05 Jun 2027 03:49:35.273   05 Jun 2027 03:50:05.842            30.569                Norilsk          3821.125
       184   05 Jun 2027 03:50:10.268   05 Jun 2027 03:50:55.708            45.440              Murmansk1          4353.375
       185   05 Jun 2027 05:18:59.756   05 Jun 2027 05:20:44.041           104.285                Norilsk         11314.000
       186   05 Jun 2027 05:20:47.918   05 Jun 2027 05:21:03.786            15.868                Norilsk          1938.500
       187   05 Jun 2027 05:21:05.243   05 Jun 2027 05:21:39.772            34.529                Norilsk           728.500
       188   05 Jun 2027 05:21:40.462   05 Jun 2027 05:22:11.568            31.106                Novosib           345.000
       189   05 Jun 2027 05:22:12.739   05 Jun 2027 05:22:21.223             8.484                Novosib           585.500
       190   05 Jun 2027 05:22:21.233   05 Jun 2027 05:23:21.827            60.594                Irkutsk             5.000
       191   05 Jun 2027 05:23:26.895   05 Jun 2027 05:23:37.332            10.437                Norilsk          1304.625
       192   05 Jun 2027 05:23:50.329   05 Jun 2027 05:24:59.945            69.616              Murmansk1          7727.875
       193   05 Jun 2027 05:25:11.765   05 Jun 2027 05:26:13.318            61.553              Murmansk2          5910.000
       194   05 Jun 2027 06:55:40.670   05 Jun 2027 06:56:07.716            27.046                Norilsk          3380.750
       195   05 Jun 2027 06:56:41.508   05 Jun 2027 06:59:01.551           140.043                Norilsk         17169.750
       196   05 Jun 2027 06:59:01.924   05 Jun 2027 06:59:06.713             4.789              Murmansk2           186.500
       197   05 Jun 2027 06:59:10.302   05 Jun 2027 06:59:17.960             7.658                 Moscow           957.250
       198   05 Jun 2027 06:59:20.714   05 Jun 2027 06:59:47.823            27.109                 Moscow          2214.250
       199   05 Jun 2027 06:59:51.652   05 Jun 2027 07:00:07.613            15.961                Novosib          1914.500
       200   05 Jun 2027 07:00:10.183   05 Jun 2027 07:00:11.988             1.805                Irkutsk           225.625
       201   05 Jun 2027 07:00:17.544   05 Jun 2027 07:00:53.749            36.205              Murmansk1          3837.375
       202   05 Jun 2027 07:00:54.167   05 Jun 2027 07:01:10.399            16.232              Murmansk1           209.000
       203   05 Jun 2027 07:01:19.895   05 Jun 2027 07:02:28.184            68.289                Novosib          4748.000
       204   05 Jun 2027 08:32:29.336   05 Jun 2027 08:32:51.867            22.531                Norilsk          2778.000
       205   05 Jun 2027 08:32:52.366   05 Jun 2027 08:33:08.257            15.891              Murmansk2           249.500
       206   05 Jun 2027 08:33:16.163   05 Jun 2027 08:34:12.541            56.378              Murmansk2          3953.000
       207   05 Jun 2027 08:34:18.208   05 Jun 2027 08:35:24.929            66.721                Novosib          2833.500
       208   05 Jun 2027 08:35:25.514   05 Jun 2027 08:36:39.826            74.312                Novosib           292.500
       209   05 Jun 2027 08:36:40.356   05 Jun 2027 08:36:47.800             7.444                Norilsk           265.000
       210   05 Jun 2027 08:36:48.301   05 Jun 2027 08:37:31.265            42.964                Norilsk           250.500
       211   05 Jun 2027 10:10:17.063   05 Jun 2027 10:11:33.273            76.210                 Moscow          8100.500
       212   05 Jun 2027 10:11:45.486   05 Jun 2027 10:12:55.891            70.405              Murmansk2          5193.500
       213   06 Jun 2027 03:53:57.911   06 Jun 2027 03:54:10.794            12.883               Magadan2           984.500
       214   06 Jun 2027 03:54:36.183   06 Jun 2027 03:56:25.098           108.915                Norilsk         12694.500
       215   06 Jun 2027 03:56:25.321   06 Jun 2027 03:56:28.506             3.185                Norilsk           111.500
       216   06 Jun 2027 03:56:28.728   06 Jun 2027 03:56:41.177            12.449                Irkutsk           111.000
       217   06 Jun 2027 03:56:43.314   06 Jun 2027 03:56:57.332            14.018               Magadan1          1068.500
       218   06 Jun 2027 03:57:02.184   06 Jun 2027 03:58:02.197            60.013                Norilsk          2426.000
       219   06 Jun 2027 03:58:04.817   06 Jun 2027 03:58:15.865            11.048               Magadan1          1310.000
       220   06 Jun 2027 03:58:17.772   06 Jun 2027 03:59:07.531            49.759                Novosib           953.500
       221   06 Jun 2027 03:59:12.433   06 Jun 2027 03:59:27.221            14.788               Magadan1          1848.500
       222   06 Jun 2027 03:59:27.221   06 Jun 2027 03:59:32.837             5.616               Magadan2           602.500
       223   06 Jun 2027 03:59:35.611   06 Jun 2027 03:59:49.858            14.247               Magadan2          1387.000
       224   06 Jun 2027 03:59:59.006   06 Jun 2027 04:00:09.248            10.242                Norilsk          1280.250
       225   06 Jun 2027 04:00:19.307   06 Jun 2027 04:01:30.337            71.030              Murmansk1          8323.250
       226   06 Jun 2027 04:01:45.938   06 Jun 2027 04:01:54.578             8.640                Norilsk          1019.000
       227   06 Jun 2027 05:30:52.200   06 Jun 2027 05:31:28.525            36.325                Norilsk          4196.500
       228   06 Jun 2027 05:31:48.191   06 Jun 2027 05:33:32.116           103.925                Norilsk          9833.000
       229   06 Jun 2027 05:33:46.752   06 Jun 2027 05:34:54.512            67.760                Norilsk          7318.000
       230   06 Jun 2027 05:34:55.298   06 Jun 2027 05:35:09.434            14.136              Murmansk1           393.000
       231   06 Jun 2027 05:35:18.021   06 Jun 2027 05:36:10.561            52.540                Norilsk          4293.500
       232   06 Jun 2027 05:36:12.623   06 Jun 2027 05:36:38.847            26.224                Novosib          1031.000
       233   06 Jun 2027 05:36:43.154   06 Jun 2027 05:37:40.296            57.142                Irkutsk          2153.500
       234   06 Jun 2027 07:08:41.154   06 Jun 2027 07:10:01.885            80.731                Novosib          8164.500
       235   06 Jun 2027 07:10:05.113   06 Jun 2027 07:10:31.315            26.202              Murmansk1          1614.000
       236   06 Jun 2027 07:10:31.815   06 Jun 2027 07:11:08.229            36.414                Irkutsk           250.000
       237   06 Jun 2027 07:11:08.638   06 Jun 2027 07:11:54.873            46.235              Murmansk2           204.500
       238   06 Jun 2027 07:11:58.411   06 Jun 2027 07:12:16.078            17.667                Novosib          1769.000
       239   06 Jun 2027 07:12:19.365   06 Jun 2027 07:12:44.529            25.164              Murmansk1          1643.500
       240   06 Jun 2027 07:12:44.749   06 Jun 2027 07:13:36.198            51.449                 Moscow           110.000
       241   06 Jun 2027 08:44:30.502   06 Jun 2027 08:45:47.036            76.534                Novosib          2109.500
       242   06 Jun 2027 08:45:54.180   06 Jun 2027 08:47:26.218            92.038                Novosib          3572.000
       243   06 Jun 2027 08:47:28.054   06 Jun 2027 08:48:31.877            63.823              Murmansk1           918.000
       244   06 Jun 2027 08:48:32.764   06 Jun 2027 08:48:37.900             5.136                Norilsk           443.500
       245   06 Jun 2027 08:48:41.405   06 Jun 2027 08:49:33.664            52.259                Novosib          1752.500
       246   07 Jun 2027 04:06:58.972   07 Jun 2027 04:07:06.625             7.653               Magadan2           935.500
       247   07 Jun 2027 04:07:16.506   07 Jun 2027 04:08:14.791            58.285                Novosib          4940.500
       248   07 Jun 2027 04:08:18.596   07 Jun 2027 04:08:34.643            16.047               Magadan1          1902.500
       249   07 Jun 2027 04:08:38.863   07 Jun 2027 04:09:06.270            27.407               Magadan2          2110.000
       250   07 Jun 2027 04:09:12.857   07 Jun 2027 04:10:09.822            56.965               Magadan2          3293.500
       251   07 Jun 2027 04:10:16.370   07 Jun 2027 04:11:27.053            70.683                Irkutsk          3274.000
       252   07 Jun 2027 04:11:35.172   07 Jun 2027 04:12:23.231            48.059               Magadan1          4059.500
       253   07 Jun 2027 04:12:39.245   07 Jun 2027 04:12:56.972            17.727                Novosib          2215.875
       254   07 Jun 2027 04:13:04.770   07 Jun 2027 04:14:46.075           101.305              Murmansk2          9690.125
       255   07 Jun 2027 05:43:38.706   07 Jun 2027 05:44:06.052            27.346                Novosib          3418.250
       256   07 Jun 2027 05:44:06.475   07 Jun 2027 05:45:09.681            63.206                Irkutsk          6346.750
       257   07 Jun 2027 05:45:20.096   07 Jun 2027 05:46:09.046            48.950                Novosib          5207.500
       258   07 Jun 2027 05:46:14.559   07 Jun 2027 05:47:29.571            75.012                Irkutsk          2756.500
       259   07 Jun 2027 05:47:36.012   07 Jun 2027 05:48:19.975            43.963              Murmansk1          3220.500
       260   07 Jun 2027 05:48:25.198   07 Jun 2027 05:48:45.598            20.400                Irkutsk          2550.000
       261   07 Jun 2027 05:48:52.338   07 Jun 2027 05:49:26.537            34.199              Murmansk1          3431.500
       262   07 Jun 2027 05:49:33.555   07 Jun 2027 05:50:22.519            48.964                Novosib          3057.500
       263   07 Jun 2027 07:20:36.760   07 Jun 2027 07:20:51.865            15.105                Norilsk           924.500
       264   07 Jun 2027 07:20:52.168   07 Jun 2027 07:21:08.636            16.468                Irkutsk           151.500
       265   07 Jun 2027 07:21:17.137   07 Jun 2027 07:22:18.428            61.291                 Moscow          4250.500
       266   07 Jun 2027 07:22:25.706   07 Jun 2027 07:22:57.216            31.510              Murmansk2          3639.000
       267   07 Jun 2027 07:23:12.265   07 Jun 2027 07:23:21.811             9.546                 Moscow          1193.250
       268   07 Jun 2027 07:23:24.456   07 Jun 2027 07:25:01.269            96.813                Novosib          7653.750
       269   07 Jun 2027 07:25:07.625   07 Jun 2027 07:25:57.929            50.304              Murmansk1          3178.000
       270   07 Jun 2027 08:56:58.061   07 Jun 2027 08:58:06.961            68.900                Novosib          4255.000
       271   07 Jun 2027 08:58:09.042   07 Jun 2027 08:58:20.971            11.929                Norilsk          1040.500
       272   07 Jun 2027 08:58:28.888   07 Jun 2027 08:59:23.286            54.398              Murmansk2          3958.500
       273   07 Jun 2027 08:59:24.175   07 Jun 2027 09:00:12.717            48.542                Norilsk           444.500
       274   07 Jun 2027 09:00:12.899   07 Jun 2027 09:00:28.610            15.711                Norilsk            91.000
       275   07 Jun 2027 09:00:35.968   07 Jun 2027 09:01:17.369            41.401                Norilsk          3679.000
       276   07 Jun 2027 09:01:27.309   07 Jun 2027 09:02:35.252            67.943                Norilsk          4970.000
       277   08 Jun 2027 04:19:04.423   08 Jun 2027 04:20:15.732            71.309               Magadan1          8913.625
       278   08 Jun 2027 04:20:15.732   08 Jun 2027 04:21:03.421            47.689               Magadan2          3862.375
       279   08 Jun 2027 04:21:09.590   08 Jun 2027 04:21:34.854            25.264                Irkutsk          3084.500
       280   08 Jun 2027 04:21:35.954   08 Jun 2027 04:22:17.579            41.625               Magadan2           550.000
       281   08 Jun 2027 04:22:20.603   08 Jun 2027 04:23:10.883            50.280                Irkutsk          1512.000
       282   08 Jun 2027 04:23:17.579   08 Jun 2027 04:23:37.324            19.745               Magadan2          2468.125
       283   08 Jun 2027 04:23:37.324   08 Jun 2027 04:23:38.706             1.382               Magadan1           172.750
       284   08 Jun 2027 04:23:49.678   08 Jun 2027 04:24:15.452            25.774                Norilsk          3221.750
       285   08 Jun 2027 04:24:19.635   08 Jun 2027 04:24:33.140            13.505                Irkutsk          1688.125
       286   08 Jun 2027 04:24:49.473   08 Jun 2027 04:26:47.830           118.357              Murmansk2         11541.250
       287   08 Jun 2027 05:55:01.194   08 Jun 2027 05:55:58.232            57.038                Novosib          4849.000
       288   08 Jun 2027 05:56:10.310   08 Jun 2027 05:56:32.011            21.701                Norilsk          2712.625
       289   08 Jun 2027 05:56:33.912   08 Jun 2027 05:57:18.800            44.888                Norilsk          4276.875
       290   08 Jun 2027 05:57:20.200   08 Jun 2027 05:57:51.097            30.897                Irkutsk           700.000
       291   08 Jun 2027 05:58:05.525   08 Jun 2027 05:59:35.147            89.622                Novosib          7214.000
       292   08 Jun 2027 05:59:38.890   08 Jun 2027 06:00:07.246            28.356              Murmansk1          1871.500
       293   08 Jun 2027 06:00:15.513   08 Jun 2027 06:00:23.126             7.613                Norilsk           951.625
       294   08 Jun 2027 06:00:30.184   08 Jun 2027 06:01:07.340            37.156                Irkutsk          4644.500
       295   08 Jun 2027 06:01:15.736   08 Jun 2027 06:02:13.273            57.537              Murmansk2          6264.375
       296   08 Jun 2027 07:33:12.415   08 Jun 2027 07:33:29.381            16.966                Norilsk          2120.750
       297   08 Jun 2027 07:33:30.958   08 Jun 2027 07:33:59.228            28.270                Irkutsk          2846.750
       298   08 Jun 2027 07:34:04.755   08 Jun 2027 07:34:31.531            26.776                 Moscow          2763.500
       299   08 Jun 2027 07:34:33.407   08 Jun 2027 07:35:25.053            51.646                 Moscow           938.000
       300   08 Jun 2027 07:35:26.102   08 Jun 2027 07:35:39.317            13.215                 Moscow           524.500
       301   08 Jun 2027 07:35:42.788   08 Jun 2027 07:36:21.604            38.816                Novosib          1735.500
       302   08 Jun 2027 07:36:23.665   08 Jun 2027 07:36:34.122            10.457                Norilsk          1030.500
       303   08 Jun 2027 07:36:37.531   08 Jun 2027 07:36:54.145            16.614              Murmansk2          1704.500
       304   08 Jun 2027 07:36:54.937   08 Jun 2027 07:37:48.988            54.051              Murmansk1           396.000
       305   08 Jun 2027 09:08:39.296   08 Jun 2027 09:09:52.856            73.560              Murmansk2          3579.500
       306   08 Jun 2027 09:09:58.370   08 Jun 2027 09:10:22.333            23.963                Novosib          2757.000
       307   08 Jun 2027 09:10:29.924   08 Jun 2027 09:11:14.932            45.008              Murmansk1          3795.500
       308   08 Jun 2027 09:11:19.248   08 Jun 2027 09:12:14.416            55.168                Norilsk          2158.000
       309   08 Jun 2027 09:12:16.124   08 Jun 2027 09:12:37.793            21.669              Murmansk2           854.000
       310   08 Jun 2027 09:12:48.714   08 Jun 2027 09:13:26.068            37.354                Novosib          4669.250
       311   08 Jun 2027 09:13:37.871   08 Jun 2027 09:14:24.377            46.506                 Moscow          5813.250
       312   08 Jun 2027 09:14:28.317   08 Jun 2027 09:14:54.138            25.821                Norilsk           879.500
       313   09 Jun 2027 04:30:13.433   09 Jun 2027 04:30:50.342            36.909                Norilsk           575.000
       314   09 Jun 2027 04:30:57.385   09 Jun 2027 04:31:32.968            35.583               Magadan2          3521.500
       315   09 Jun 2027 04:31:38.050   09 Jun 2027 04:32:22.787            44.737               Magadan1          2541.000
       316   09 Jun 2027 04:32:23.976   09 Jun 2027 04:32:34.393            10.417               Magadan2           594.500
       317   09 Jun 2027 04:32:36.426   09 Jun 2027 04:32:49.541            13.115                Irkutsk          1016.500
       318   09 Jun 2027 04:32:51.313   09 Jun 2027 04:34:03.158            71.845                Irkutsk           886.000
       319   09 Jun 2027 04:34:05.204   09 Jun 2027 04:34:31.683            26.479                Norilsk          1023.000
       320   09 Jun 2027 04:34:31.796   09 Jun 2027 04:34:40.093             8.297                Norilsk            56.500
       321   09 Jun 2027 04:34:40.909   09 Jun 2027 04:35:40.527            59.618                Norilsk           408.000
       322   09 Jun 2027 04:35:45.174   09 Jun 2027 04:36:11.146            25.972                Norilsk          2323.500
       323   09 Jun 2027 04:36:20.502   09 Jun 2027 04:37:08.743            48.241              Murmansk2          4678.000
       324   09 Jun 2027 04:37:34.025   09 Jun 2027 04:37:42.788             8.763                Irkutsk          1095.375
       325   09 Jun 2027 04:37:49.145   09 Jun 2027 04:39:37.695           108.550                Norilsk         13238.625
       326   09 Jun 2027 06:07:22.950   09 Jun 2027 06:07:58.837            35.887                Norilsk          4485.875
       327   09 Jun 2027 06:08:18.259   09 Jun 2027 06:10:00.601           102.342                Novosib          9977.125
       328   09 Jun 2027 06:10:04.280   09 Jun 2027 06:10:28.900            24.620              Murmansk1          1839.500
       329   09 Jun 2027 06:10:36.823   09 Jun 2027 06:11:26.134            49.311                Novosib          3961.500
       330   09 Jun 2027 06:11:28.676   09 Jun 2027 06:12:08.471            39.795                Novosib          1271.000
       331   09 Jun 2027 06:12:08.579   09 Jun 2027 06:12:19.106            10.527                Norilsk            54.000
       332   09 Jun 2027 06:12:29.770   09 Jun 2027 06:13:58.741            88.971              Murmansk2          5332.000
       333   09 Jun 2027 07:45:22.783   09 Jun 2027 07:45:42.332            19.549                Norilsk          2443.625
       334   09 Jun 2027 07:45:45.684   09 Jun 2027 07:46:37.753            52.069                 Moscow          3810.375
       335   09 Jun 2027 07:46:39.456   09 Jun 2027 07:46:54.463            15.007              Murmansk1           851.500
       336   09 Jun 2027 07:46:55.433   09 Jun 2027 07:47:02.314             6.881                Irkutsk           485.000
       337   09 Jun 2027 07:47:13.432   09 Jun 2027 07:48:00.491            47.059              Murmansk2          5559.000
       338   09 Jun 2027 07:48:06.748   09 Jun 2027 07:48:31.817            25.069              Murmansk2          3128.500
       339   09 Jun 2027 07:48:31.882   09 Jun 2027 07:49:02.852            30.970                 Moscow            32.500
       340   09 Jun 2027 07:49:05.587   09 Jun 2027 07:49:31.068            25.481                Norilsk          1367.500
       341   09 Jun 2027 09:18:56.108   09 Jun 2027 09:21:37.750           161.642                 Moscow         14423.000
       342   09 Jun 2027 09:21:42.932   09 Jun 2027 09:22:14.694            31.762                 Moscow          2591.000
       343   09 Jun 2027 09:22:17.349   09 Jun 2027 09:22:29.945            12.596              Murmansk2          1327.500
       344   09 Jun 2027 09:22:32.289   09 Jun 2027 09:22:42.442            10.153              Murmansk2          1172.000
       345   09 Jun 2027 09:22:46.697   09 Jun 2027 09:23:14.975            28.278                Norilsk          2127.500
       346   09 Jun 2027 09:23:15.963   09 Jun 2027 09:23:26.231            10.268                 Moscow           494.000
       347   09 Jun 2027 09:23:51.104   09 Jun 2027 09:25:35.258           104.154                 Moscow         12436.500
       348   09 Jun 2027 09:25:46.382   09 Jun 2027 09:26:12.123            25.741              Murmansk1          3217.625
       349   09 Jun 2027 09:26:12.123   09 Jun 2027 09:26:42.051            29.928              Murmansk2          2344.375
       350   10 Jun 2027 03:05:15.516   10 Jun 2027 03:05:44.844            29.328               Magadan2          3410.000
       351   10 Jun 2027 03:05:56.663   10 Jun 2027 03:06:52.907            56.244               Magadan1          5909.500
       352   10 Jun 2027 03:07:13.550   10 Jun 2027 03:07:49.049            35.499                Anadyr2          1606.000
       353   10 Jun 2027 03:07:50.119   10 Jun 2027 03:08:22.844            32.725                Irkutsk           535.000
       354   10 Jun 2027 03:08:26.155   10 Jun 2027 03:08:45.977            19.822                Norilsk          1655.500
       355   10 Jun 2027 03:08:47.772   10 Jun 2027 03:09:08.239            20.467                Norilsk           897.500
       356   10 Jun 2027 03:09:12.593   10 Jun 2027 03:09:39.632            27.039                Norilsk          2177.000
       357   10 Jun 2027 03:09:46.312   10 Jun 2027 03:10:23.578            37.266               Magadan1          3340.000
       358   10 Jun 2027 03:10:26.696   10 Jun 2027 03:10:39.812            13.116                Anadyr1          1559.000
       359   10 Jun 2027 03:10:41.202   10 Jun 2027 03:11:07.331            26.129                Novosib           695.000
       360   10 Jun 2027 03:11:14.123   10 Jun 2027 03:11:35.524            21.401                Novosib          2675.125
       361   10 Jun 2027 03:11:37.434   10 Jun 2027 03:11:56.052            18.618               Magadan1          1675.875
       362   10 Jun 2027 03:12:01.606   10 Jun 2027 03:13:03.457            61.851                Anadyr2          2777.000
       363   10 Jun 2027 03:13:03.864   10 Jun 2027 03:13:10.026             6.162                Anadyr1           203.500
       364   10 Jun 2027 03:13:11.180   10 Jun 2027 03:13:32.355            21.175                Anadyr2           577.000
       365   10 Jun 2027 04:42:39.304   10 Jun 2027 04:43:55.869            76.565                Norilsk          8920.000
       366   10 Jun 2027 04:44:06.706   10 Jun 2027 04:44:59.717            53.011               Magadan1          5418.500
       367   10 Jun 2027 04:45:02.675   10 Jun 2027 04:45:23.098            20.423                Irkutsk          1479.000
       368   10 Jun 2027 04:45:26.368   10 Jun 2027 04:45:46.621            20.253               Magadan1          1635.000
       369   10 Jun 2027 04:46:06.538   10 Jun 2027 04:47:32.368            85.830                Norilsk          9958.500
       370   10 Jun 2027 04:47:36.274   10 Jun 2027 04:48:05.546            29.272                Novosib          1953.000
       371   10 Jun 2027 04:48:05.760   10 Jun 2027 04:48:49.416            43.656                Norilsk           107.000
       372   10 Jun 2027 04:48:51.453   10 Jun 2027 04:49:10.814            19.361              Murmansk1          1018.500
       373   10 Jun 2027 04:49:27.270   10 Jun 2027 04:49:49.254            21.984                Norilsk          2748.000
       374   10 Jun 2027 04:50:10.682   10 Jun 2027 04:51:00.133            49.451                Novosib          5480.000
       375   10 Jun 2027 06:19:47.435   10 Jun 2027 06:21:47.409           119.974                Norilsk         14605.000
       376   10 Jun 2027 06:21:47.824   10 Jun 2027 06:21:53.937             6.113                Novosib           207.500
       377   10 Jun 2027 06:22:01.510   10 Jun 2027 06:22:54.971            53.461                Irkutsk          3786.500
       378   10 Jun 2027 06:22:57.217   10 Jun 2027 06:23:12.129            14.912                Novosib          1123.000
       379   10 Jun 2027 06:23:18.240   10 Jun 2027 06:23:52.921            34.681              Murmansk2          3055.500
       380   10 Jun 2027 06:23:55.877   10 Jun 2027 06:24:41.128            45.251                 Moscow          1478.000
       381   10 Jun 2027 06:24:44.266   10 Jun 2027 06:25:08.363            24.097              Murmansk1          1569.000
       382   10 Jun 2027 06:25:17.500   10 Jun 2027 06:25:33.500            16.000                Irkutsk          2000.000
       383   10 Jun 2027 06:25:52.089   10 Jun 2027 06:26:26.053            33.964              Murmansk1          2568.500
       384   10 Jun 2027 07:57:12.566   10 Jun 2027 07:57:55.156            42.590              Murmansk1           457.000
       385   10 Jun 2027 07:57:56.137   10 Jun 2027 07:58:00.064             3.927                Irkutsk           490.500
       386   10 Jun 2027 07:58:13.564   10 Jun 2027 07:58:39.945            26.381                Irkutsk          3297.625
       387   10 Jun 2027 07:58:42.597   10 Jun 2027 07:59:44.689            62.092                 Moscow          4778.375
       388   10 Jun 2027 07:59:48.843   10 Jun 2027 08:00:29.324            40.481                 Moscow          2077.000
       389   10 Jun 2027 08:00:30.442   10 Jun 2027 08:00:52.097            21.655              Murmansk1           559.000
       390   10 Jun 2027 08:00:55.295   10 Jun 2027 08:01:16.763            21.468                 Moscow          1599.000
       391   10 Jun 2027 09:30:53.854   10 Jun 2027 09:31:40.418            46.564                 Moscow          3961.500
       392   10 Jun 2027 09:31:46.908   10 Jun 2027 09:32:24.613            37.705              Murmansk2          3245.000
       393   10 Jun 2027 09:32:37.853   10 Jun 2027 09:34:47.201           129.348                 Moscow          6620.000
       394   10 Jun 2027 09:34:48.014   10 Jun 2027 09:35:11.332            23.318                Norilsk           406.500
       395   10 Jun 2027 09:35:17.869   10 Jun 2027 09:35:52.095            34.226                 Moscow          3268.500
       396   10 Jun 2027 09:36:07.021   10 Jun 2027 09:37:29.716            82.695                 Moscow          7463.000
       397   10 Jun 2027 09:37:32.698   10 Jun 2027 09:38:10.758            38.060                 Moscow          1491.000
       398   10 Jun 2027 09:38:33.589   10 Jun 2027 09:39:23.215            49.626              Murmansk2          3616.500
       399   11 Jun 2027 03:16:43.683   11 Jun 2027 03:17:08.668            24.985               Magadan1          2735.000
       400   11 Jun 2027 03:17:12.376   11 Jun 2027 03:17:41.946            29.570                Irkutsk          1854.000
       401   11 Jun 2027 03:17:57.400   11 Jun 2027 03:19:16.485            79.085               Magadan2          7727.000
       402   11 Jun 2027 03:19:20.064   11 Jun 2027 03:20:01.503            41.439                Norilsk          1789.500
       403   11 Jun 2027 03:20:05.782   11 Jun 2027 03:20:48.924            43.142                Anadyr2          2139.500
       404   11 Jun 2027 03:21:08.147   11 Jun 2027 03:22:32.351            84.204                Norilsk          9611.500
       405   11 Jun 2027 03:22:37.026   11 Jun 2027 03:24:01.984            84.958                Anadyr1          2337.500
       406   11 Jun 2027 03:24:04.803   11 Jun 2027 03:24:54.067            49.264                Anadyr2          1409.500
       407   11 Jun 2027 03:24:54.886   11 Jun 2027 03:25:00.811             5.925               Magadan1           409.500
       408   11 Jun 2027 03:25:01.161   11 Jun 2027 03:25:04.261             3.100                Novosib           175.000
       409   11 Jun 2027 03:25:07.607   11 Jun 2027 03:25:41.443            33.836               Magadan2          1673.000
       410   11 Jun 2027 03:25:53.687   11 Jun 2027 03:25:55.869             2.182               Magadan2           272.750
       411   11 Jun 2027 03:25:56.819   11 Jun 2027 03:26:41.881            45.062                Norilsk          3040.750
       412   11 Jun 2027 04:54:28.002   11 Jun 2027 04:54:49.682            21.680                Norilsk          2326.000
       413   11 Jun 2027 04:54:59.064   11 Jun 2027 04:55:31.793            32.729                Norilsk          4091.125
       414   11 Jun 2027 04:55:37.212   11 Jun 2027 04:56:22.609            45.397               Magadan2          3309.375
       415   11 Jun 2027 04:56:31.814   11 Jun 2027 04:57:13.188            41.374                Novosib          4602.500
       416   11 Jun 2027 04:57:14.052   11 Jun 2027 04:57:29.179            15.127               Magadan1           432.000
       417   11 Jun 2027 04:57:39.508   11 Jun 2027 04:58:26.632            47.124               Magadan1          5164.500
       418   11 Jun 2027 04:58:26.679   11 Jun 2027 04:59:26.403            59.724               Magadan1            23.500
       419   11 Jun 2027 04:59:32.464   11 Jun 2027 05:00:15.686            43.222              Murmansk1          3030.500
       420   11 Jun 2027 05:00:17.135   11 Jun 2027 05:00:33.663            16.528              Murmansk2           724.500
       421   11 Jun 2027 05:00:51.872   11 Jun 2027 05:01:16.342            24.470                Norilsk          3058.750
       422   11 Jun 2027 05:01:18.876   11 Jun 2027 05:02:13.525            54.649                Novosib          6831.125
       423   11 Jun 2027 05:02:21.850   11 Jun 2027 05:03:05.263            43.413                Novosib           481.625
       424   11 Jun 2027 06:31:17.354   11 Jun 2027 06:31:54.360            37.006                Irkutsk          3157.500
       425   11 Jun 2027 06:32:02.191   11 Jun 2027 06:33:12.662            70.471                Irkutsk          3915.500
       426   11 Jun 2027 06:33:20.209   11 Jun 2027 06:34:00.163            39.954                Novosib          3773.500
       427   11 Jun 2027 06:34:05.540   11 Jun 2027 06:35:02.299            56.759                Irkutsk          2688.500
       428   11 Jun 2027 06:35:03.640   11 Jun 2027 06:35:28.461            24.821                Irkutsk           670.500
       429   11 Jun 2027 06:35:28.677   11 Jun 2027 06:35:41.058            12.381              Murmansk2           108.000
       430   11 Jun 2027 06:35:48.858   11 Jun 2027 06:36:34.876            46.018                 Moscow          3900.000
       431   11 Jun 2027 06:36:44.272   11 Jun 2027 06:37:40.172            55.900                Novosib          4698.000
       432   11 Jun 2027 06:37:44.385   11 Jun 2027 06:38:13.770            29.385              Murmansk1          2106.500
       433   11 Jun 2027 08:09:24.584   11 Jun 2027 08:10:38.480            73.896                Novosib          4890.500
       434   11 Jun 2027 08:10:40.406   11 Jun 2027 08:10:52.830            12.424                Novosib           963.000
       435   11 Jun 2027 08:10:53.362   11 Jun 2027 08:11:15.515            22.153              Murmansk1           266.000
       436   11 Jun 2027 08:11:23.054   11 Jun 2027 08:11:58.729            35.675                 Moscow          3769.500
       437   11 Jun 2027 08:11:58.981   11 Jun 2027 08:12:38.277            39.296                 Moscow           126.000
       438   11 Jun 2027 08:12:39.213   11 Jun 2027 08:12:46.600             7.387                Novosib           468.000
       439   11 Jun 2027 08:12:50.343   11 Jun 2027 08:13:26.633            36.290              Murmansk1          1871.500
       440   11 Jun 2027 09:43:16.249   11 Jun 2027 09:44:24.712            68.463                 Moscow          5583.500
       441   11 Jun 2027 09:44:27.032   11 Jun 2027 09:44:48.834            21.802                 Moscow          1160.000
       442   11 Jun 2027 09:44:55.100   11 Jun 2027 09:45:16.687            21.587                 Moscow          2698.375
       443   11 Jun 2027 09:45:24.438   11 Jun 2027 09:46:08.031            43.593              Murmansk2          4310.125
       444   11 Jun 2027 09:46:14.674   11 Jun 2027 09:46:45.207            30.533              Murmansk1          3321.500
       445   11 Jun 2027 09:46:54.397   11 Jun 2027 09:47:57.211            62.814              Murmansk2          4595.000
       446   11 Jun 2027 09:48:17.676   11 Jun 2027 09:49:41.653            83.977                 Moscow         10232.500
       447   11 Jun 2027 09:49:54.858   11 Jun 2027 09:50:32.738            37.880              Murmansk2          2052.500
       448   12 Jun 2027 03:29:28.903   12 Jun 2027 03:29:56.990            28.087               Magadan1          2937.000
       449   12 Jun 2027 03:30:10.869   12 Jun 2027 03:31:09.461            58.592               Magadan1          6939.500
       450   12 Jun 2027 03:31:12.252   12 Jun 2027 03:31:40.011            27.759               Magadan1          1395.500
       451   12 Jun 2027 03:31:41.657   12 Jun 2027 03:32:13.496            31.839                Irkutsk           823.000
       452   12 Jun 2027 03:32:13.921   12 Jun 2027 03:32:39.058            25.137               Magadan2           212.500
       453   12 Jun 2027 03:32:39.482   12 Jun 2027 03:32:45.456             5.974                Norilsk           212.000
       454   12 Jun 2027 03:32:47.123   12 Jun 2027 03:33:03.701            16.578                Novosib           833.500
       455   12 Jun 2027 03:33:04.205   12 Jun 2027 03:33:08.368             4.163                Norilsk           252.000
       456   12 Jun 2027 03:33:16.640   12 Jun 2027 03:34:28.990            72.350                Norilsk          4136.000
       457   12 Jun 2027 03:34:29.184   12 Jun 2027 03:34:34.977             5.793                Anadyr1            97.000
       458   12 Jun 2027 03:34:36.767   12 Jun 2027 03:34:44.309             7.542                Norilsk           895.000
       459   12 Jun 2027 03:34:50.884   12 Jun 2027 03:35:23.614            32.730               Magadan2          3287.500
       460   12 Jun 2027 03:35:25.023   12 Jun 2027 03:35:42.839            17.816               Magadan1           704.500
       461   12 Jun 2027 03:35:56.573   12 Jun 2027 03:36:51.771            55.198               Magadan2          6867.000
       462   12 Jun 2027 03:36:54.846   12 Jun 2027 03:37:10.765            15.919                Anadyr1           988.000
       463   12 Jun 2027 03:37:16.791   12 Jun 2027 03:37:52.305            35.514              Murmansk1          3013.000
       464   12 Jun 2027 03:38:10.263   12 Jun 2027 03:38:29.494            19.231              Murmansk1            93.500
       465   12 Jun 2027 05:06:29.273   12 Jun 2027 05:07:16.895            47.622                Novosib          1521.000
       466   12 Jun 2027 05:07:22.674   12 Jun 2027 05:07:43.089            20.415                Norilsk          2551.875
       467   12 Jun 2027 05:07:44.413   12 Jun 2027 05:07:54.126             9.713               Magadan2           999.625
       468   12 Jun 2027 05:07:56.603   12 Jun 2027 05:08:10.774            14.171                Irkutsk          1238.500
       469   12 Jun 2027 05:08:18.074   12 Jun 2027 05:09:03.299            45.225                Norilsk          3650.000
       470   12 Jun 2027 05:09:06.102   12 Jun 2027 05:09:11.099             4.997                Norilsk           624.625
       471   12 Jun 2027 05:09:14.843   12 Jun 2027 05:10:03.106            48.263                Norilsk          2648.875
       472   12 Jun 2027 05:10:03.254   12 Jun 2027 05:10:30.991            27.737                Norilsk            74.000
       473   12 Jun 2027 05:10:31.369   12 Jun 2027 05:11:11.435            40.066                Norilsk           189.000
       474   12 Jun 2027 05:11:11.718   12 Jun 2027 05:11:29.452            17.734               Magadan1           141.500
       475   12 Jun 2027 05:11:30.475   12 Jun 2027 05:11:52.021            21.546                Norilsk           511.500
       476   12 Jun 2027 05:11:56.544   12 Jun 2027 05:12:51.675            55.131                Novosib          2261.500
       477   12 Jun 2027 05:13:05.847   12 Jun 2027 05:14:01.332            55.485                Norilsk          6935.625
       478   12 Jun 2027 05:14:16.571   12 Jun 2027 05:14:29.918            13.347              Murmansk1           150.375
       479   12 Jun 2027 06:43:38.835   12 Jun 2027 06:44:38.598            59.763                Irkutsk          7470.375
       480   12 Jun 2027 06:45:00.032   12 Jun 2027 06:46:42.982           102.950                Norilsk         12359.625
       481   12 Jun 2027 06:46:44.877   12 Jun 2027 06:46:57.604            12.727              Murmansk1           947.500
       482   12 Jun 2027 06:47:00.430   12 Jun 2027 06:47:19.949            19.519                Norilsk          1413.000
