uniorb/output/strategy_2/Drop/Drop_KinoSat_110301.txt

KinoSat_110301
-------------------------
    Access    *     Start Time (UTCG)     *     Stop Time (UTCG)  *   Duration (s)        *       Station  *  Data (Mbytes)
         1   01 Jun 2027 03:00:12.057   01 Jun 2027 03:01:40.056            87.999                Norilsk          6028.500
         2   01 Jun 2027 03:01:41.989   01 Jun 2027 03:02:26.641            44.652               Magadan2           966.500
         3   01 Jun 2027 03:02:31.407   01 Jun 2027 03:02:46.871            15.464                Norilsk          1933.000
         4   01 Jun 2027 03:02:50.277   01 Jun 2027 03:03:11.353            21.076               Magadan2          2153.000
         5   01 Jun 2027 03:03:12.647   01 Jun 2027 03:03:28.455            15.808               Magadan1           647.000
         6   01 Jun 2027 03:03:31.576   01 Jun 2027 03:03:51.308            19.732                Norilsk          1560.500
         7   01 Jun 2027 03:03:51.803   01 Jun 2027 03:04:13.851            22.048                Anadyr1           247.500
         8   01 Jun 2027 03:04:17.469   01 Jun 2027 03:04:37.025            19.556               Magadan2          1809.000
         9   01 Jun 2027 03:04:39.513   01 Jun 2027 03:04:52.381            12.868                Irkutsk          1244.000
        10   01 Jun 2027 03:05:02.934   01 Jun 2027 03:05:38.131            35.197              Murmansk1          4399.625
        11   01 Jun 2027 03:05:38.131   01 Jun 2027 03:05:50.583            12.452              Murmansk2           876.875
        12   01 Jun 2027 03:06:03.095   01 Jun 2027 03:06:45.683            42.588                Novosib          5323.500
        13   01 Jun 2027 03:06:48.051   01 Jun 2027 03:07:00.245            12.194                Norilsk           932.500
        14   01 Jun 2027 04:35:10.012   01 Jun 2027 04:35:46.740            36.728                Novosib          3767.500
        15   01 Jun 2027 04:35:53.877   01 Jun 2027 04:36:35.679            41.802                Norilsk          3568.500
        16   01 Jun 2027 04:36:48.528   01 Jun 2027 04:38:32.043           103.515                Irkutsk          6424.500
        17   01 Jun 2027 04:38:38.851   01 Jun 2027 04:39:15.880            37.029                Novosib          3404.000
        18   01 Jun 2027 04:39:23.027   01 Jun 2027 04:40:00.016            36.989                Norilsk          3573.500
        19   01 Jun 2027 04:40:05.360   01 Jun 2027 04:40:32.174            26.814                Irkutsk          2672.000
        20   01 Jun 2027 04:40:37.606   01 Jun 2027 04:40:59.321            21.715              Murmansk1          2714.375
        21   01 Jun 2027 04:40:59.321   01 Jun 2027 04:41:00.719             1.398              Murmansk2             1.625
        22   01 Jun 2027 04:41:03.636   01 Jun 2027 04:41:16.947            13.311                Norilsk          1458.500
        23   01 Jun 2027 04:41:21.434   01 Jun 2027 04:41:42.412            20.978                Novosib          2243.500
        24   01 Jun 2027 04:41:43.666   01 Jun 2027 04:42:19.229            35.563                Norilsk           627.000
        25   01 Jun 2027 06:12:28.728   01 Jun 2027 06:13:39.604            70.876                Novosib          8859.500
        26   01 Jun 2027 06:13:42.775   01 Jun 2027 06:14:22.832            40.057              Murmansk2          4076.000
        27   01 Jun 2027 06:14:23.537   01 Jun 2027 06:14:50.738            27.201              Murmansk1           352.500
        28   01 Jun 2027 06:14:52.758   01 Jun 2027 06:14:55.040             2.282                Norilsk           285.250
        29   01 Jun 2027 06:14:55.886   01 Jun 2027 06:15:17.918            22.032                Irkutsk          1147.750
        30   01 Jun 2027 06:15:18.831   01 Jun 2027 06:15:36.845            18.014              Murmansk2           456.500
        31   01 Jun 2027 06:15:43.588   01 Jun 2027 06:16:30.910            47.322                Irkutsk          3371.500
        32   01 Jun 2027 06:16:32.459   01 Jun 2027 06:16:40.330             7.871                Norilsk           774.500
        33   01 Jun 2027 06:16:43.010   01 Jun 2027 06:17:07.646            24.636              Murmansk2           284.000
        34   01 Jun 2027 06:17:07.730   01 Jun 2027 06:17:33.614            25.884                Norilsk            42.000
        35   01 Jun 2027 06:17:36.295   01 Jun 2027 06:18:09.531            33.236              Murmansk2          1340.500
        36   01 Jun 2027 07:48:56.062   01 Jun 2027 07:49:16.142            20.080                Norilsk          2355.000
        37   01 Jun 2027 07:49:17.523   01 Jun 2027 07:49:35.263            17.740                Novosib           690.500
        38   01 Jun 2027 07:49:48.866   01 Jun 2027 07:50:45.215            56.349              Murmansk1          6801.500
        39   01 Jun 2027 07:50:47.157   01 Jun 2027 07:51:03.723            16.566                Norilsk           971.000
        40   01 Jun 2027 07:51:05.146   01 Jun 2027 07:51:11.554             6.408              Murmansk1           711.500
        41   01 Jun 2027 07:51:12.571   01 Jun 2027 07:51:22.385             9.814              Murmansk1           508.500
        42   01 Jun 2027 07:51:31.920   01 Jun 2027 07:52:26.856            54.936                Norilsk          4767.500
        43   01 Jun 2027 07:52:27.858   01 Jun 2027 07:52:47.539            19.681                Norilsk           501.000
        44   01 Jun 2027 07:52:54.269   01 Jun 2027 07:53:30.456            36.187                Novosib          3365.000
        45   01 Jun 2027 07:53:42.132   01 Jun 2027 07:54:26.907            44.775                 Moscow          4267.500
        46   01 Jun 2027 09:24:19.033   01 Jun 2027 09:24:52.531            33.498              Murmansk2          3502.500
        47   01 Jun 2027 09:25:57.547   01 Jun 2027 09:27:06.826            69.279              Murmansk1          4224.500
        48   01 Jun 2027 09:27:09.585   01 Jun 2027 09:27:32.565            22.980              Murmansk1          1379.500
        49   01 Jun 2027 09:28:11.046   01 Jun 2027 09:30:53.981           162.935              Murmansk2         19240.500
        50   02 Jun 2027 03:10:19.939   02 Jun 2027 03:11:04.252            44.313               Magadan1          3931.500
        51   02 Jun 2027 03:11:07.239   02 Jun 2027 03:11:22.358            15.119               Magadan1          1493.500
        52   02 Jun 2027 03:11:40.426   02 Jun 2027 03:13:04.376            83.950                Irkutsk          9034.000
        53   02 Jun 2027 03:13:05.228   02 Jun 2027 03:13:31.562            26.334               Magadan1           426.000
        54   02 Jun 2027 03:13:36.726   02 Jun 2027 03:14:35.440            58.714                Irkutsk          2582.000
        55   02 Jun 2027 03:14:39.024   02 Jun 2027 03:15:13.663            34.639               Magadan2          1792.000
        56   02 Jun 2027 03:15:25.241   02 Jun 2027 03:16:21.448            56.207                Norilsk          5789.000
        57   02 Jun 2027 03:16:28.630   02 Jun 2027 03:17:10.133            41.503                Irkutsk          3591.000
        58   02 Jun 2027 03:17:14.438   02 Jun 2027 03:17:57.006            42.568                Irkutsk          2152.500
        59   02 Jun 2027 03:18:01.136   02 Jun 2027 03:18:25.182            24.046              Murmansk2          2065.000
        60   02 Jun 2027 04:47:19.611   02 Jun 2027 04:47:50.843            31.232                Novosib          2231.500
        61   02 Jun 2027 04:48:33.241   02 Jun 2027 04:48:53.173            19.932                Norilsk          2491.500
        62   02 Jun 2027 04:48:54.374   02 Jun 2027 04:52:29.625           215.251                Novosib         19308.000
        63   02 Jun 2027 04:52:33.521   02 Jun 2027 04:52:36.428             2.907                Irkutsk           363.375
        64   02 Jun 2027 04:52:39.605   02 Jun 2027 04:53:09.618            30.013              Murmansk2          3173.124
        65   02 Jun 2027 04:53:16.768   02 Jun 2027 04:54:27.956            71.188                Novosib          3575.000
        66   02 Jun 2027 06:24:19.500   02 Jun 2027 06:24:35.924            16.424                  Delhi          2053.000
        67   02 Jun 2027 06:24:56.533   02 Jun 2027 06:27:02.233           125.700                 Moscow         11977.500
        68   02 Jun 2027 06:27:02.578   02 Jun 2027 06:27:24.695            22.117                Irkutsk           172.500
        69   02 Jun 2027 06:27:29.487   02 Jun 2027 06:28:07.203            37.716                Novosib          2396.000
        70   02 Jun 2027 06:28:07.256   02 Jun 2027 06:28:34.670            27.414              Murmansk2            26.500
        71   02 Jun 2027 06:28:35.953   02 Jun 2027 06:28:58.688            22.735              Murmansk1           641.500
        72   02 Jun 2027 06:29:05.756   02 Jun 2027 06:29:24.775            19.019                Irkutsk          2377.375
        73   02 Jun 2027 06:29:24.970   02 Jun 2027 06:29:29.539             4.569                Norilsk           571.125
        74   02 Jun 2027 06:29:29.820   02 Jun 2027 06:30:03.486            33.666              Murmansk1           585.500
        75   02 Jun 2027 08:00:58.892   02 Jun 2027 08:01:16.694            17.802                 Moscow           555.500
        76   02 Jun 2027 08:01:18.607   02 Jun 2027 08:02:05.556            46.949              Murmansk2           956.500
        77   02 Jun 2027 08:02:06.656   02 Jun 2027 08:02:17.691            11.035                Norilsk           550.000
        78   02 Jun 2027 08:02:26.106   02 Jun 2027 08:03:39.211            73.105                Novosib          4207.500
        79   02 Jun 2027 08:03:49.442   02 Jun 2027 08:05:08.021            78.579              Murmansk1          5115.500
        80   02 Jun 2027 08:05:09.419   02 Jun 2027 08:06:04.261            54.842                 Moscow           699.000
        81   02 Jun 2027 08:06:09.477   02 Jun 2027 08:06:23.146            13.669              Murmansk1           434.500
        82   02 Jun 2027 09:39:33.416   02 Jun 2027 09:41:17.091           103.675              Murmansk2         10888.500
        83   03 Jun 2027 03:23:25.097   03 Jun 2027 03:23:41.419            16.322               Magadan1           750.000
        84   03 Jun 2027 03:24:00.506   03 Jun 2027 03:25:03.778            63.272                Irkutsk          7909.000
        85   03 Jun 2027 03:25:12.801   03 Jun 2027 03:26:12.221            59.420                Irkutsk          6146.000
        86   03 Jun 2027 03:26:29.581   03 Jun 2027 03:27:48.660            79.079               Magadan2          8680.000
        87   03 Jun 2027 03:27:50.375   03 Jun 2027 03:28:21.309            30.934               Magadan2           857.500
        88   03 Jun 2027 03:28:32.780   03 Jun 2027 03:28:58.629            25.849               Magadan2          3231.125
        89   03 Jun 2027 03:29:00.252   03 Jun 2027 03:30:00.360            60.108               Magadan2          3315.875
        90   03 Jun 2027 03:30:03.969   03 Jun 2027 03:30:26.055            22.086                Norilsk          1804.500
        91   03 Jun 2027 05:00:17.596   03 Jun 2027 05:02:50.446           152.850                Novosib         15923.500
        92   03 Jun 2027 05:03:00.313   03 Jun 2027 05:03:43.594            43.281                Irkutsk          4933.500
        93   03 Jun 2027 05:03:48.082   03 Jun 2027 05:03:58.853            10.771                Irkutsk          1346.375
        94   03 Jun 2027 05:04:05.534   03 Jun 2027 05:04:41.548            36.014              Murmansk1          4238.125
        95   03 Jun 2027 05:04:44.301   03 Jun 2027 05:05:26.459            42.158              Murmansk2          1376.500
        96   03 Jun 2027 05:05:33.032   03 Jun 2027 05:06:14.158            41.126                Irkutsk          3286.500
        97   03 Jun 2027 06:37:14.574   03 Jun 2027 06:37:28.529            13.955              Murmansk1           517.000
        98   03 Jun 2027 06:37:35.587   03 Jun 2027 06:37:58.055            22.468                Norilsk          2808.500
        99   03 Jun 2027 06:37:58.718   03 Jun 2027 06:38:19.845            21.127              Murmansk2          1052.000
       100   03 Jun 2027 06:38:20.581   03 Jun 2027 06:38:39.412            18.831                Novosib           368.000
       101   03 Jun 2027 06:38:40.397   03 Jun 2027 06:38:54.736            14.339              Murmansk2           492.500
       102   03 Jun 2027 06:39:05.359   03 Jun 2027 06:40:14.294            68.935                Novosib          5311.500
       103   03 Jun 2027 06:40:15.020   03 Jun 2027 06:40:22.535             7.515                 Moscow           363.000
       104   03 Jun 2027 06:40:29.642   03 Jun 2027 06:40:48.874            19.232              Murmansk2          2404.000
       105   03 Jun 2027 06:40:48.874   03 Jun 2027 06:41:16.953            28.079              Murmansk1          1149.500
       106   03 Jun 2027 06:41:16.968   03 Jun 2027 06:41:22.448             5.480                Norilsk             7.500
       107   03 Jun 2027 06:41:28.971   03 Jun 2027 06:42:11.358            42.387                 Moscow          3261.500
       108   03 Jun 2027 08:13:22.957   03 Jun 2027 08:13:57.789            34.832                Norilsk          1301.000
       109   03 Jun 2027 08:14:00.619   03 Jun 2027 08:14:26.963            26.344              Murmansk1          1415.000
       110   03 Jun 2027 08:14:33.647   03 Jun 2027 08:15:17.762            44.115                 Moscow          3342.000
       111   03 Jun 2027 08:15:17.770   03 Jun 2027 08:16:06.756            48.986                Norilsk             4.000
       112   03 Jun 2027 08:16:08.269   03 Jun 2027 08:17:03.410            55.141              Murmansk1           756.500
       113   03 Jun 2027 08:17:04.687   03 Jun 2027 08:17:13.768             9.081              Murmansk1           638.500
       114   03 Jun 2027 08:17:19.784   03 Jun 2027 08:18:00.494            40.710                Novosib          3008.000
       115   04 Jun 2027 03:35:41.657   04 Jun 2027 03:36:35.536            53.879               Magadan2          4726.000
       116   04 Jun 2027 03:36:37.077   04 Jun 2027 03:37:03.187            26.110               Magadan2           770.500
       117   04 Jun 2027 03:37:08.506   04 Jun 2027 03:37:36.732            28.226                Novosib          2659.500
       118   04 Jun 2027 03:37:38.723   04 Jun 2027 03:38:30.571            51.848               Magadan1           995.500
       119   04 Jun 2027 03:38:36.028   04 Jun 2027 03:39:57.635            81.607                Novosib          2728.500
       120   04 Jun 2027 03:40:01.977   04 Jun 2027 03:40:30.361            28.384               Magadan1          2171.000
       121   04 Jun 2027 03:40:30.446   04 Jun 2027 03:40:41.673            11.227                Novosib            42.500
       122   04 Jun 2027 03:40:44.557   04 Jun 2027 03:41:11.078            26.521              Murmansk2          1442.000
       123   04 Jun 2027 03:41:15.349   04 Jun 2027 03:41:45.331            29.982                Novosib          2135.500
       124   04 Jun 2027 03:41:52.366   04 Jun 2027 03:41:52.621             0.255               Magadan2            31.875
       125   04 Jun 2027 03:41:53.933   04 Jun 2027 03:42:28.863            34.930              Murmansk1          4141.625
       126   04 Jun 2027 05:11:35.007   04 Jun 2027 05:12:11.285            36.278                Norilsk          2156.500
       127   04 Jun 2027 05:12:17.546   04 Jun 2027 05:13:10.432            52.886                Irkutsk          3130.500
       128   04 Jun 2027 05:13:12.318   04 Jun 2027 05:13:41.821            29.503                Novosib           943.000
       129   04 Jun 2027 05:13:42.046   04 Jun 2027 05:14:06.724            24.678                Norilsk           112.500
       130   04 Jun 2027 05:14:16.974   04 Jun 2027 05:15:08.006            51.032                Irkutsk          5125.000
       131   04 Jun 2027 05:15:13.428   04 Jun 2027 05:15:50.740            37.312                Norilsk          2711.000
       132   04 Jun 2027 05:16:01.199   04 Jun 2027 05:16:41.912            40.713                Novosib          5089.125
       133   04 Jun 2027 05:16:43.404   04 Jun 2027 05:17:41.278            57.874              Murmansk2           886.375
       134   04 Jun 2027 05:17:52.574   04 Jun 2027 05:18:20.382            27.808              Murmansk1          2530.000
       135   04 Jun 2027 06:49:22.738   04 Jun 2027 06:49:39.539            16.801                 Moscow          1364.500
       136   04 Jun 2027 06:49:39.990   04 Jun 2027 06:50:18.907            38.917                 Moscow           225.500
       137   04 Jun 2027 06:50:20.424   04 Jun 2027 06:50:28.884             8.460              Murmansk1           758.500
       138   04 Jun 2027 06:50:32.892   04 Jun 2027 06:50:46.694            13.802                 Moscow          1725.250
       139   04 Jun 2027 06:50:53.468   04 Jun 2027 06:51:31.531            38.063                Norilsk          3665.750
       140   04 Jun 2027 06:51:33.647   04 Jun 2027 06:51:45.322            11.675                 Moscow          1058.000
       141   04 Jun 2027 06:51:48.621   04 Jun 2027 06:52:06.424            17.803                Norilsk          1649.500
       142   04 Jun 2027 06:52:14.973   04 Jun 2027 06:52:49.726            34.753                Novosib          4274.500
       143   04 Jun 2027 06:52:54.363   04 Jun 2027 06:53:09.627            15.264                Norilsk          1908.000
       144   04 Jun 2027 06:53:10.805   04 Jun 2027 06:53:58.438            47.633              Murmansk2           999.500
       145   04 Jun 2027 08:25:28.242   04 Jun 2027 08:25:59.704            31.462                Novosib          3176.500
       146   04 Jun 2027 08:26:05.047   04 Jun 2027 08:26:15.560            10.513                Norilsk          1314.125
       147   04 Jun 2027 08:26:22.103   04 Jun 2027 08:28:11.578           109.475                 Moscow          4628.875
       148   04 Jun 2027 08:28:18.197   04 Jun 2027 08:28:27.873             9.676                Norilsk          1209.500
       149   04 Jun 2027 08:28:30.811   04 Jun 2027 08:29:20.478            49.667                 Moscow          3569.000
       150   04 Jun 2027 08:29:22.075   04 Jun 2027 08:29:44.739            22.664              Murmansk2           798.500
       151   04 Jun 2027 08:29:45.137   04 Jun 2027 08:29:53.401             8.264                 Moscow           199.000
       152   04 Jun 2027 08:29:58.906   04 Jun 2027 08:30:27.003            28.097              Murmansk2          2752.500
       153   05 Jun 2027 03:47:03.690   05 Jun 2027 03:47:44.717            41.027                Novosib          4236.500
       154   05 Jun 2027 03:47:47.178   05 Jun 2027 03:48:05.661            18.483               Magadan1          1230.500
       155   05 Jun 2027 03:48:09.625   05 Jun 2027 03:48:49.102            39.477                Novosib          1982.000
       156   05 Jun 2027 03:49:04.324   05 Jun 2027 03:50:31.178            86.854               Magadan1          7611.000
       157   05 Jun 2027 03:50:37.730   05 Jun 2027 03:50:40.539             2.809                Norilsk           351.125
       158   05 Jun 2027 03:50:48.509   05 Jun 2027 03:51:31.227            42.718                Novosib          5339.750
       159   05 Jun 2027 03:51:36.428   05 Jun 2027 03:51:58.760            22.332                Norilsk          2791.500
       160   05 Jun 2027 03:52:17.393   05 Jun 2027 03:53:42.315            84.922               Magadan2         10615.250
       161   05 Jun 2027 03:53:49.365   05 Jun 2027 03:54:30.622            41.257              Murmansk1          3605.375
       162   05 Jun 2027 05:23:41.375   05 Jun 2027 05:24:54.269            72.894                Novosib          4244.500
       163   05 Jun 2027 05:25:04.442   05 Jun 2027 05:25:31.575            27.133                Irkutsk          3391.625
       164   05 Jun 2027 05:25:39.446   05 Jun 2027 05:26:31.926            52.480                Norilsk          5630.375
       165   05 Jun 2027 05:26:43.227   05 Jun 2027 05:27:18.939            35.712              Murmansk2          4464.000
       166   05 Jun 2027 05:27:18.939   05 Jun 2027 05:27:36.657            17.718              Murmansk1          1186.500
       167   05 Jun 2027 05:27:37.759   05 Jun 2027 05:29:00.432            82.673                Irkutsk           551.000
       168   05 Jun 2027 05:29:23.884   05 Jun 2027 05:31:08.073           104.189                Norilsk         11726.000
       169   05 Jun 2027 07:01:59.379   05 Jun 2027 07:02:34.600            35.221                Norilsk          4303.500
       170   05 Jun 2027 07:02:37.255   05 Jun 2027 07:03:07.292            30.037                Novosib          1327.500
       171   05 Jun 2027 07:03:17.027   05 Jun 2027 07:04:07.041            50.014                Irkutsk          4867.500
       172   05 Jun 2027 07:04:19.170   05 Jun 2027 07:05:56.453            97.283              Murmansk2          6064.500
       173   05 Jun 2027 08:35:17.358   05 Jun 2027 08:35:51.270            33.912                 Moscow          3710.500
       174   05 Jun 2027 08:35:55.339   05 Jun 2027 08:36:20.303            24.964              Murmansk2          2034.500
       175   05 Jun 2027 08:36:39.826   05 Jun 2027 08:38:06.148            86.322                Novosib          8711.000
       176   05 Jun 2027 08:38:12.597   05 Jun 2027 08:38:52.411            39.814                 Moscow          3224.500
       177   05 Jun 2027 08:38:57.119   05 Jun 2027 08:39:37.377            40.258                Novosib          2354.000
       178   05 Jun 2027 08:39:38.865   05 Jun 2027 08:40:02.856            23.991                Novosib           744.000
       179   05 Jun 2027 08:40:09.440   05 Jun 2027 08:40:16.379             6.939                Norilsk           867.375
       180   05 Jun 2027 08:40:31.901   05 Jun 2027 08:42:10.839            98.938                 Moscow         10185.625
       181   05 Jun 2027 08:42:25.095   05 Jun 2027 08:43:27.858            62.763              Murmansk1          7128.000
       182   06 Jun 2027 03:58:54.668   06 Jun 2027 03:59:12.433            17.765               Magadan2          1809.000
       183   06 Jun 2027 03:59:27.221   06 Jun 2027 04:00:33.670            66.449               Magadan1          7394.000
       184   06 Jun 2027 04:00:34.510   06 Jun 2027 04:01:08.894            34.384               Magadan2           420.000
       185   06 Jun 2027 04:01:18.492   06 Jun 2027 04:02:21.999            63.507               Magadan2          4799.000
       186   06 Jun 2027 04:02:22.102   06 Jun 2027 04:02:27.039             4.937                Norilsk            51.500
       187   06 Jun 2027 04:02:28.406   06 Jun 2027 04:02:53.570            25.164                Novosib           683.500
       188   06 Jun 2027 04:03:00.599   06 Jun 2027 04:03:37.445            36.846               Magadan2          3514.500
       189   06 Jun 2027 04:03:39.945   06 Jun 2027 04:04:32.714            52.769               Magadan2          1250.000
       190   06 Jun 2027 04:04:35.585   06 Jun 2027 04:04:47.641            12.056               Magadan2          1435.500
       191   06 Jun 2027 04:04:48.293   06 Jun 2027 04:05:03.280            14.987              Murmansk2           326.000
       192   06 Jun 2027 04:05:06.917   06 Jun 2027 04:05:28.403            21.486               Magadan2          1818.500
       193   06 Jun 2027 04:05:44.481   06 Jun 2027 04:06:52.564            68.083              Murmansk1          8039.000
       194   06 Jun 2027 05:36:10.561   06 Jun 2027 05:37:06.375            55.814                Norilsk          6976.750
       195   06 Jun 2027 05:37:10.784   06 Jun 2027 05:39:01.284           110.500                Novosib          3625.250
       196   06 Jun 2027 05:39:01.896   06 Jun 2027 05:39:09.846             7.950              Murmansk1           306.000
       197   06 Jun 2027 05:39:16.064   06 Jun 2027 05:40:05.484            49.420                Norilsk          3109.000
       198   06 Jun 2027 05:40:18.857   06 Jun 2027 05:41:07.132            48.275                 Moscow          6034.375
       199   06 Jun 2027 05:41:16.438   06 Jun 2027 05:41:29.943            13.505                Norilsk          1688.125
       200   06 Jun 2027 05:41:37.472   06 Jun 2027 05:42:52.721            75.249                Novosib          7381.500
       201   06 Jun 2027 07:13:52.775   06 Jun 2027 07:14:13.213            20.438                 Moscow          2460.000
       202   06 Jun 2027 07:14:15.898   06 Jun 2027 07:14:29.995            14.097              Murmansk1          1342.500
       203   06 Jun 2027 07:14:31.060   06 Jun 2027 07:14:55.260            24.200                Norilsk           532.500
       204   06 Jun 2027 07:14:59.682   06 Jun 2027 07:15:22.267            22.585              Murmansk2          2211.000
       205   06 Jun 2027 07:15:24.372   06 Jun 2027 07:15:45.652            21.280                Novosib          1052.500
       206   06 Jun 2027 07:15:47.455   06 Jun 2027 07:16:14.950            27.495              Murmansk1           901.500
       207   06 Jun 2027 07:16:15.309   06 Jun 2027 07:16:34.659            19.350              Murmansk1           179.500
       208   06 Jun 2027 07:16:36.299   06 Jun 2027 07:16:54.512            18.213                Novosib           820.000
       209   06 Jun 2027 07:16:56.972   06 Jun 2027 07:17:43.260            46.288                Norilsk          1230.000
       210   06 Jun 2027 07:17:48.207   06 Jun 2027 07:18:15.213            27.006              Murmansk1          2063.000
       211   06 Jun 2027 08:47:15.365   06 Jun 2027 08:48:15.279            59.914                 Moscow          6659.000
       212   06 Jun 2027 08:48:31.877   06 Jun 2027 08:49:39.086            67.209              Murmansk1          8299.000
       213   06 Jun 2027 08:49:49.337   06 Jun 2027 08:51:01.892            72.555                 Moscow          5125.500
       214   06 Jun 2027 08:51:17.028   06 Jun 2027 08:52:41.871            84.843              Murmansk1          7568.000
       215   06 Jun 2027 08:52:43.949   06 Jun 2027 08:52:55.879            11.930                 Moscow          1039.000
       216   06 Jun 2027 08:52:58.334   06 Jun 2027 08:53:27.714            29.380                Norilsk          1227.500
       217   06 Jun 2027 08:53:45.887   06 Jun 2027 08:54:55.016            69.129                 Moscow          3169.500
       218   07 Jun 2027 04:11:14.888   07 Jun 2027 04:12:23.231            68.343               Magadan2          6787.000
       219   07 Jun 2027 04:12:52.751   07 Jun 2027 04:15:10.122           137.371                Norilsk         14760.000
       220   07 Jun 2027 04:15:16.915   07 Jun 2027 04:17:32.442           135.527                Irkutsk          3396.500
       221   07 Jun 2027 04:17:35.084   07 Jun 2027 04:18:05.361            30.277              Murmansk2          1321.000
       222   07 Jun 2027 04:18:16.091   07 Jun 2027 04:18:22.602             6.511                Irkutsk           813.875
       223   07 Jun 2027 04:18:30.103   07 Jun 2027 04:19:16.097            45.994                Novosib          4807.125
       224   07 Jun 2027 05:47:49.373   07 Jun 2027 05:48:11.510            22.137                Novosib          2645.000
       225   07 Jun 2027 05:48:23.338   07 Jun 2027 05:49:42.825            79.487                Norilsk          5914.000
       226   07 Jun 2027 05:49:47.659   07 Jun 2027 05:50:07.909            20.250                Norilsk          2417.000
       227   07 Jun 2027 05:50:15.581   07 Jun 2027 05:50:54.319            38.738                Irkutsk          3836.000
       228   07 Jun 2027 05:50:59.908   07 Jun 2027 05:51:34.443            34.535              Murmansk2          2794.500
       229   07 Jun 2027 05:51:42.785   07 Jun 2027 05:52:17.386            34.601                 Moscow          4171.000
       230   07 Jun 2027 05:52:20.208   07 Jun 2027 05:52:55.791            35.583                 Moscow          1411.000
       231   07 Jun 2027 05:53:08.162   07 Jun 2027 05:53:46.970            38.808                Norilsk          4851.000
       232   07 Jun 2027 05:53:52.459   07 Jun 2027 05:54:51.119            58.660                Novosib          4079.000
       233   07 Jun 2027 07:25:57.929   07 Jun 2027 07:27:23.569            85.640              Murmansk2          5026.000
       234   07 Jun 2027 07:27:26.569   07 Jun 2027 07:28:05.243            38.674                Norilsk          1500.000
       235   07 Jun 2027 07:28:08.697   07 Jun 2027 07:28:19.012            10.315                Norilsk          1289.375
       236   07 Jun 2027 07:28:26.469   07 Jun 2027 07:29:40.715            74.246              Murmansk2          4166.125
       237   07 Jun 2027 07:29:47.364   07 Jun 2027 07:30:22.598            35.234                Novosib          3324.500
       238   07 Jun 2027 08:59:37.113   07 Jun 2027 09:00:20.296            43.183                 Moscow          3592.500
       239   07 Jun 2027 09:00:25.246   07 Jun 2027 09:01:13.699            48.453                 Moscow          2475.000
       240   07 Jun 2027 09:01:26.697   07 Jun 2027 09:02:44.207            77.510                 Moscow          6499.000
       241   07 Jun 2027 09:02:54.212   07 Jun 2027 09:03:46.205            51.993              Murmansk1          5002.500
       242   07 Jun 2027 09:04:12.716   07 Jun 2027 09:06:26.991           134.275                Norilsk         13255.500
       243   08 Jun 2027 04:22:58.776   08 Jun 2027 04:23:22.415            23.639                Novosib          1479.000
       244   08 Jun 2027 04:23:37.324   08 Jun 2027 04:25:14.541            97.217               Magadan2          7454.500
       245   08 Jun 2027 04:25:15.038   08 Jun 2027 04:25:17.350             2.312               Magadan2           248.500
       246   08 Jun 2027 04:25:20.525   08 Jun 2027 04:25:44.104            23.579               Magadan1          1587.500
       247   08 Jun 2027 04:26:01.345   08 Jun 2027 04:27:05.445            64.100                Novosib          8012.500
       248   08 Jun 2027 04:27:06.336   08 Jun 2027 04:27:27.497            21.161               Magadan2          1053.500
       249   08 Jun 2027 04:27:42.005   08 Jun 2027 04:28:48.090            66.085                Norilsk          7254.000
       250   08 Jun 2027 04:28:48.764   08 Jun 2027 04:28:52.298             3.534              Murmansk2           337.000
       251   08 Jun 2027 04:29:00.815   08 Jun 2027 04:30:08.967            68.152              Murmansk1          4258.500
       252   08 Jun 2027 04:30:15.525   08 Jun 2027 04:30:19.852             4.327                Irkutsk           540.875
       253   08 Jun 2027 04:30:20.980   08 Jun 2027 04:31:28.871            67.891                Novosib          3302.125
       254   08 Jun 2027 05:59:57.911   08 Jun 2027 06:01:35.034            97.123                Novosib          2834.500
       255   08 Jun 2027 06:01:35.706   08 Jun 2027 06:01:44.900             9.194                Novosib           336.000
       256   08 Jun 2027 06:01:49.326   08 Jun 2027 06:02:08.819            19.493                Norilsk          2213.000
       257   08 Jun 2027 06:02:13.273   08 Jun 2027 06:02:39.723            26.450              Murmansk1          2227.000
       258   08 Jun 2027 06:02:41.106   08 Jun 2027 06:03:07.884            26.778                Norilsk           691.500
       259   08 Jun 2027 06:03:12.938   08 Jun 2027 06:03:33.050            20.112                Novosib          2514.000
       260   08 Jun 2027 06:03:33.410   08 Jun 2027 06:03:37.430             4.020                 Moscow           193.000
       261   08 Jun 2027 06:03:41.683   08 Jun 2027 06:04:17.193            35.510                Irkutsk          2126.500
       262   08 Jun 2027 06:04:24.347   08 Jun 2027 06:05:09.939            45.592                 Moscow          3577.000
       263   08 Jun 2027 06:05:31.313   08 Jun 2027 06:06:01.171            29.858              Murmansk2          1284.000
       264   08 Jun 2027 06:06:09.920   08 Jun 2027 06:06:55.097            45.177              Murmansk1          4374.500
       265   08 Jun 2027 07:37:34.812   08 Jun 2027 07:38:25.674            50.862                Norilsk          4571.500
       266   08 Jun 2027 07:38:29.176   08 Jun 2027 07:39:01.957            32.781              Murmansk2          1751.000
       267   08 Jun 2027 07:39:04.715   08 Jun 2027 07:39:19.446            14.731                Novosib          1379.000
       268   08 Jun 2027 07:39:25.018   08 Jun 2027 07:39:50.555            25.537              Murmansk2          2786.000
       269   08 Jun 2027 07:39:50.828   08 Jun 2027 07:40:46.754            55.926                Novosib           136.500
       270   08 Jun 2027 07:40:46.988   08 Jun 2027 07:41:02.710            15.722                Norilsk           117.000
       271   08 Jun 2027 07:41:33.972   08 Jun 2027 07:43:41.175           127.203              Murmansk1         15631.000
       272   08 Jun 2027 09:11:50.923   08 Jun 2027 09:12:06.712            15.789                 Moscow           686.000
       273   08 Jun 2027 09:12:16.124   08 Jun 2027 09:13:00.779            44.655              Murmansk1          4706.000
       274   08 Jun 2027 09:13:42.266   08 Jun 2027 09:14:22.065            39.799              Murmansk2          4227.500
       275   08 Jun 2027 09:14:24.377   08 Jun 2027 09:15:25.921            61.544                 Moscow          1156.000
       276   08 Jun 2027 09:15:46.567   08 Jun 2027 09:17:07.553            80.986              Murmansk2         10123.250
       277   08 Jun 2027 09:17:07.553   08 Jun 2027 09:17:16.811             9.258              Murmansk1           199.750
       278   09 Jun 2027 03:00:16.737   09 Jun 2027 03:01:55.048            98.311                Norilsk          8368.500
       279   09 Jun 2027 03:01:57.790   09 Jun 2027 03:02:36.925            39.135                Novosib          1371.000
       280   09 Jun 2027 03:02:41.309   09 Jun 2027 03:03:06.362            25.053               Magadan2          2192.000
       281   09 Jun 2027 03:03:11.438   09 Jun 2027 03:03:17.083             5.645                Irkutsk           705.625
       282   09 Jun 2027 03:03:25.853   09 Jun 2027 03:04:32.045            66.192               Magadan1          6217.375
       283   09 Jun 2027 03:04:35.851   09 Jun 2027 03:05:00.825            24.974                Novosib          1903.000
       284   09 Jun 2027 03:05:08.343   09 Jun 2027 03:05:51.718            43.375               Magadan1          3759.000
       285   09 Jun 2027 03:05:58.598   09 Jun 2027 03:06:22.285            23.687                Norilsk          2960.875
       286   09 Jun 2027 03:06:22.300   09 Jun 2027 03:06:31.109             8.809              Murmansk1           486.625
       287   09 Jun 2027 04:35:25.049   09 Jun 2027 04:36:00.902            35.853                Novosib          3880.000
       288   09 Jun 2027 04:36:11.146   09 Jun 2027 04:36:53.092            41.946                Norilsk          5122.000
       289   09 Jun 2027 04:36:59.830   09 Jun 2027 04:37:20.061            20.231                Norilsk          2528.875
       290   09 Jun 2027 04:37:22.476   09 Jun 2027 04:38:00.916            38.440               Magadan2          2047.625
       291   09 Jun 2027 04:38:12.818   09 Jun 2027 04:39:09.299            56.481               Magadan2          5951.000
       292   09 Jun 2027 04:39:09.671   09 Jun 2027 04:40:20.873            71.202                Irkutsk           186.000
       293   09 Jun 2027 04:40:35.228   09 Jun 2027 04:41:18.148            42.920                Norilsk          5365.000
       294   09 Jun 2027 04:41:21.435   09 Jun 2027 04:42:11.023            49.588              Murmansk2          3456.000
       295   09 Jun 2027 04:42:33.381   09 Jun 2027 04:42:57.088            23.707              Murmansk1           338.500
       296   09 Jun 2027 06:12:41.452   09 Jun 2027 06:14:18.512            97.060                Novosib         10298.500
       297   09 Jun 2027 06:14:22.677   09 Jun 2027 06:15:10.862            48.185                Irkutsk          2082.500
       298   09 Jun 2027 06:15:15.808   09 Jun 2027 06:15:38.914            23.106                Novosib          2473.000
       299   09 Jun 2027 06:15:45.258   09 Jun 2027 06:16:46.063            60.805                Irkutsk          3172.000
       300   09 Jun 2027 06:16:50.502   09 Jun 2027 06:16:57.539             7.037              Murmansk1           879.625
       301   09 Jun 2027 06:16:57.539   09 Jun 2027 06:17:23.252            25.713              Murmansk2           954.375
       302   09 Jun 2027 06:17:28.641   09 Jun 2027 06:18:22.019            53.378                 Moscow          2694.500
       303   09 Jun 2027 07:49:07.286   09 Jun 2027 07:49:37.865            30.579                 Moscow           368.000
       304   09 Jun 2027 07:49:40.783   09 Jun 2027 07:49:50.985            10.202              Murmansk1          1275.250
       305   09 Jun 2027 07:49:51.065   09 Jun 2027 07:50:28.471            37.406                Novosib           223.750
       306   09 Jun 2027 07:50:41.827   09 Jun 2027 07:51:46.615            64.788                 Moscow          6678.000
       307   09 Jun 2027 07:51:48.537   09 Jun 2027 07:52:10.374            21.837                Norilsk           961.000
       308   09 Jun 2027 07:52:18.379   09 Jun 2027 07:52:51.208            32.829                Novosib          4002.500
       309   09 Jun 2027 07:52:54.205   09 Jun 2027 07:53:27.962            33.757              Murmansk2          1498.500
       310   09 Jun 2027 07:53:41.628   09 Jun 2027 07:54:42.023            60.395                Norilsk          6833.000
       311   09 Jun 2027 09:24:33.608   09 Jun 2027 09:25:09.269            35.661              Murmansk1          3235.000
       312   09 Jun 2027 09:26:12.123   09 Jun 2027 09:27:21.560            69.437              Murmansk1          4038.000
       313   09 Jun 2027 09:27:24.607   09 Jun 2027 09:27:47.197            22.590              Murmansk1          1523.500
       314   09 Jun 2027 09:28:03.971   09 Jun 2027 09:29:18.910            74.939              Murmansk2          8387.000
       315   10 Jun 2027 03:08:49.868   10 Jun 2027 03:09:46.312            56.444               Magadan1          5900.000
       316   10 Jun 2027 03:10:35.850   10 Jun 2027 03:11:19.089            43.239               Magadan2          3866.500
       317   10 Jun 2027 03:11:23.582   10 Jun 2027 03:11:56.052            32.470               Magadan2          2246.500
       318   10 Jun 2027 03:12:02.570   10 Jun 2027 03:12:51.521            48.951                Irkutsk          3259.000
       319   10 Jun 2027 03:12:56.772   10 Jun 2027 03:13:55.813            59.041                Norilsk          2625.500
       320   10 Jun 2027 03:13:57.542   10 Jun 2027 03:14:24.461            26.919               Magadan2           864.500
       321   10 Jun 2027 03:14:42.158   10 Jun 2027 03:16:04.033            81.875                Norilsk          8848.500
       322   10 Jun 2027 03:16:07.641   10 Jun 2027 03:16:32.088            24.447                Anadyr1          1804.000
       323   10 Jun 2027 03:16:32.792   10 Jun 2027 03:16:36.118             3.326                Anadyr2           352.000
       324   10 Jun 2027 03:16:43.029   10 Jun 2027 03:17:25.053            42.024                Irkutsk          3455.500
       325   10 Jun 2027 03:17:32.752   10 Jun 2027 03:18:11.813            39.061                Irkutsk          3849.500
       326   10 Jun 2027 03:18:15.715   10 Jun 2027 03:18:40.961            25.246              Murmansk1          1951.000
       327   10 Jun 2027 04:47:32.368   10 Jun 2027 04:47:39.635             7.267                Norilsk           908.375
       328   10 Jun 2027 04:48:05.546   10 Jun 2027 04:49:12.566            67.020                Novosib          8377.500
       329   10 Jun 2027 04:49:19.645   10 Jun 2027 04:49:32.367            12.722                Irkutsk          1590.250
       330   10 Jun 2027 04:49:46.757   10 Jun 2027 04:51:47.612           120.855                Irkutsk         14302.375
       331   10 Jun 2027 04:51:51.178   10 Jun 2027 04:52:04.684            13.506                Norilsk          1688.250
       332   10 Jun 2027 04:52:13.900   10 Jun 2027 04:52:56.308            42.408              Murmansk1          4702.750
       333   10 Jun 2027 04:53:01.349   10 Jun 2027 04:53:28.499            27.150              Murmansk2          2520.500
       334   10 Jun 2027 04:53:32.016   10 Jun 2027 04:54:14.990            42.974                Novosib          1758.500
       335   10 Jun 2027 06:24:34.188   10 Jun 2027 06:24:50.784            16.596                  Delhi          2074.500
       336   10 Jun 2027 06:25:10.719   10 Jun 2027 06:26:31.185            80.466                 Moscow         10058.250
       337   10 Jun 2027 06:26:31.528   10 Jun 2027 06:27:07.034            35.506              Murmansk1          1409.250
       338   10 Jun 2027 06:27:07.416   10 Jun 2027 06:27:30.026            22.610                Norilsk           191.000
       339   10 Jun 2027 06:27:33.990   10 Jun 2027 06:28:23.968            49.978              Murmansk2          1982.000
       340   10 Jun 2027 06:28:29.160   10 Jun 2027 06:28:37.801             8.641                Norilsk          1080.125
       341   10 Jun 2027 06:28:41.792   10 Jun 2027 06:29:29.589            47.797                Novosib          3511.375
       342   10 Jun 2027 08:01:16.763   10 Jun 2027 08:02:11.339            54.576                 Moscow          2265.000
       343   10 Jun 2027 08:02:14.976   10 Jun 2027 08:02:53.170            38.194                Norilsk          1818.500
       344   10 Jun 2027 08:02:57.957   10 Jun 2027 08:03:53.866            55.909                Novosib          2393.500
       345   10 Jun 2027 08:04:04.042   10 Jun 2027 08:04:50.369            46.327              Murmansk1          5088.000
       346   10 Jun 2027 08:04:55.180   10 Jun 2027 08:05:19.067            23.887                Novosib          2405.500
       347   10 Jun 2027 08:05:20.091   10 Jun 2027 08:06:09.869            49.778                Novosib           512.000
       348   10 Jun 2027 08:06:18.086   10 Jun 2027 08:07:08.542            50.456                Norilsk          4108.500
       349   10 Jun 2027 09:39:48.046   10 Jun 2027 09:41:32.154           104.108              Murmansk2         10446.500
       350   11 Jun 2027 03:23:40.168   11 Jun 2027 03:23:55.976            15.808               Magadan2           539.000
       351   11 Jun 2027 03:24:18.972   11 Jun 2027 03:25:31.258            72.286                Irkutsk          9035.750
       352   11 Jun 2027 03:25:39.426   11 Jun 2027 03:26:27.721            48.295                Irkutsk          6036.875
       353   11 Jun 2027 03:26:41.881   11 Jun 2027 03:27:15.031            33.150                Norilsk          4143.750
       354   11 Jun 2027 03:27:17.301   11 Jun 2027 03:28:22.547            65.246                Irkutsk          4580.625
       355   11 Jun 2027 03:28:25.535   11 Jun 2027 03:28:52.829            27.294                Norilsk          1494.000
       356   11 Jun 2027 03:29:01.733   11 Jun 2027 03:29:44.944            43.211                Irkutsk          4452.000
       357   11 Jun 2027 03:29:46.002   11 Jun 2027 03:30:18.604            32.602                Irkutsk           529.000
       358   11 Jun 2027 03:30:20.151   11 Jun 2027 03:30:40.844            20.693                Norilsk           773.500
       359   11 Jun 2027 05:00:14.766   11 Jun 2027 05:00:51.872            37.106                Norilsk          4638.250
       360   11 Jun 2027 05:01:16.342   11 Jun 2027 05:03:21.713           125.371                Norilsk         14547.250
       361   11 Jun 2027 05:03:23.357   11 Jun 2027 05:03:49.500            26.143              Murmansk1           822.000
       362   11 Jun 2027 05:03:53.253   11 Jun 2027 05:04:15.924            22.671                Norilsk          1876.500
       363   11 Jun 2027 05:04:22.962   11 Jun 2027 05:04:58.244            35.282              Murmansk2          3519.000
       364   11 Jun 2027 05:05:02.347   11 Jun 2027 05:05:45.171            42.824              Murmansk2          2051.500
       365   11 Jun 2027 05:05:47.781   11 Jun 2027 05:06:28.866            41.085                Irkutsk          1305.000
       366   11 Jun 2027 06:37:29.129   11 Jun 2027 06:37:44.385            15.256              Murmansk1           480.000
       367   11 Jun 2027 06:37:44.452   11 Jun 2027 06:37:50.326             5.874                Norilsk            33.500
       368   11 Jun 2027 06:37:53.066   11 Jun 2027 06:38:11.434            18.368                Norilsk          1370.000
       369   11 Jun 2027 06:38:13.770   11 Jun 2027 06:38:37.819            24.049              Murmansk2          1168.000
       370   11 Jun 2027 06:38:38.034   11 Jun 2027 06:38:55.044            17.010              Murmansk2           107.500
       371   11 Jun 2027 06:38:59.044   11 Jun 2027 06:39:37.342            38.298                Norilsk          2000.000
       372   11 Jun 2027 06:39:45.608   11 Jun 2027 06:40:27.350            41.742                 Moscow          4133.000
       373   11 Jun 2027 06:40:28.240   11 Jun 2027 06:40:52.644            24.404                Novosib           445.000
       374   11 Jun 2027 06:40:57.871   11 Jun 2027 06:41:24.816            26.945                Irkutsk          2613.500
       375   11 Jun 2027 06:41:31.834   11 Jun 2027 06:42:16.824            44.990              Murmansk1          3509.000
       376   11 Jun 2027 08:13:46.580   11 Jun 2027 08:14:12.424            25.844                Norilsk          3230.500
       377   11 Jun 2027 08:14:17.824   11 Jun 2027 08:14:59.925            42.101              Murmansk1          4864.500
       378   11 Jun 2027 08:15:01.546   11 Jun 2027 08:15:33.251            31.705                 Moscow           810.500
       379   11 Jun 2027 08:15:42.454   11 Jun 2027 08:16:24.620            42.166              Murmansk2          4601.500
       380   11 Jun 2027 08:16:30.178   11 Jun 2027 08:17:05.838            35.660                Norilsk          2779.000
       381   11 Jun 2027 08:17:18.075   11 Jun 2027 08:17:47.526            29.451              Murmansk1          3681.375
       382   11 Jun 2027 08:17:47.526   11 Jun 2027 08:18:05.686            18.160              Murmansk2          2270.000
       383   11 Jun 2027 08:18:07.224   11 Jun 2027 08:18:08.827             1.603                Norilsk           167.125
       384   12 Jun 2027 03:35:56.573   12 Jun 2027 03:36:30.211            33.638               Magadan1          4204.750
       385   12 Jun 2027 03:36:31.620   12 Jun 2027 03:36:51.319            19.699               Magadan1          1308.250
       386   12 Jun 2027 03:36:51.771   12 Jun 2027 03:37:18.740            26.969               Magadan2           226.000
       387   12 Jun 2027 03:37:24.908   12 Jun 2027 03:38:00.757            35.849                Irkutsk          3084.000
       388   12 Jun 2027 03:38:18.139   12 Jun 2027 03:40:14.954           116.815                Novosib          8691.000
       389   12 Jun 2027 03:40:17.169   12 Jun 2027 03:40:45.059            27.890               Magadan2          1107.500
       390   12 Jun 2027 03:40:53.604   12 Jun 2027 03:41:49.302            55.698                Norilsk          4272.500
       391   12 Jun 2027 03:41:59.042   12 Jun 2027 03:42:44.634            45.592              Murmansk1          4870.000
       392   12 Jun 2027 05:11:44.977   12 Jun 2027 05:11:56.544            11.567                Novosib            59.000
       393   12 Jun 2027 05:12:03.610   12 Jun 2027 05:12:46.604            42.994                Norilsk          3533.000
       394   12 Jun 2027 05:12:51.675   12 Jun 2027 05:13:25.839            34.164                Novosib          2535.500
       395   12 Jun 2027 05:13:26.715   12 Jun 2027 05:13:57.258            30.543                Novosib           438.000
       396   12 Jun 2027 05:14:01.332   12 Jun 2027 05:14:21.341            20.009                Norilsk          2037.000
       397   12 Jun 2027 05:14:32.134   12 Jun 2027 05:14:42.893            10.759                Irkutsk          1344.875
       398   12 Jun 2027 05:14:49.671   12 Jun 2027 05:16:06.091            76.420                Norilsk          7440.625
       399   12 Jun 2027 05:16:19.510   12 Jun 2027 05:16:56.086            36.576                Novosib          4572.000
       400   12 Jun 2027 05:17:00.090   12 Jun 2027 05:17:58.241            58.151              Murmansk1          4139.500
       401   12 Jun 2027 06:49:35.713   12 Jun 2027 06:50:01.173            25.460              Murmansk2           514.500
       402   12 Jun 2027 06:50:14.281   12 Jun 2027 06:50:54.291            40.010                Norilsk          5001.250
       403   12 Jun 2027 06:51:03.454   12 Jun 2027 06:52:00.122            56.668                 Moscow          6134.250
       404   12 Jun 2027 06:52:03.273   12 Jun 2027 06:52:17.513            14.240                Norilsk          1575.500
       405   12 Jun 2027 06:52:30.980   12 Jun 2027 06:53:05.203            34.223                Irkutsk          4277.875
       406   12 Jun 2027 06:53:09.561   12 Jun 2027 06:54:00.247            50.686                Norilsk          4634.625
       407   12 Jun 2027 06:54:13.997   12 Jun 2027 06:54:34.860            20.863              Murmansk2          2588.500
       408   12 Jun 2027 08:25:40.924   12 Jun 2027 08:26:35.023            54.099                 Moscow          2099.000
       409   12 Jun 2027 08:26:42.983   12 Jun 2027 08:27:46.641            63.658                 Moscow          3980.000
       410   12 Jun 2027 08:27:54.376   12 Jun 2027 08:28:35.436            41.060                Novosib          3867.500
       411   12 Jun 2027 08:28:42.688   12 Jun 2027 08:29:31.819            49.131                Norilsk          3626.000
       412   12 Jun 2027 08:29:35.051   12 Jun 2027 08:29:59.345            24.294                 Moscow          1616.000
       413   12 Jun 2027 08:30:00.168   12 Jun 2027 08:30:07.452             7.284                Norilsk           411.500
       414   12 Jun 2027 08:30:12.472   12 Jun 2027 08:30:31.815            19.343                 Moscow          2417.875
       415   12 Jun 2027 08:30:38.029   12 Jun 2027 08:31:11.787            33.758                 Moscow          3199.125
       416   13 Jun 2027 03:47:21.235   13 Jun 2027 03:48:27.555            66.320                Novosib          8251.500
       417   13 Jun 2027 03:48:30.257   13 Jun 2027 03:48:44.926            14.669               Magadan2          1351.000
       418   13 Jun 2027 03:48:57.550   13 Jun 2027 03:49:52.457            54.907                Irkutsk          6312.000
       419   13 Jun 2027 03:50:07.790   13 Jun 2027 03:51:16.861            69.071                Novosib          7666.500
       420   13 Jun 2027 03:51:26.044   13 Jun 2027 03:52:04.070            38.026               Magadan2          4591.500
       421   13 Jun 2027 03:52:13.393   13 Jun 2027 03:52:21.538             8.145                Norilsk          1018.125
       422   13 Jun 2027 03:52:32.211   13 Jun 2027 03:53:56.862            84.651               Magadan2          8979.875
       423   13 Jun 2027 03:54:03.919   13 Jun 2027 03:54:46.388            42.469              Murmansk1          3528.500
       424   13 Jun 2027 05:23:52.214   13 Jun 2027 05:24:16.046            23.832                Norilsk          2088.000
       425   13 Jun 2027 05:24:36.130   13 Jun 2027 05:24:48.830            12.700                Norilsk          1587.500
       426   13 Jun 2027 05:24:55.883   13 Jun 2027 05:26:49.818           113.935                Norilsk         11981.000
       427   13 Jun 2027 05:26:57.756   13 Jun 2027 05:27:34.105            36.349              Murmansk1          3969.000
       428   13 Jun 2027 05:27:34.152   13 Jun 2027 05:27:45.248            11.096                Irkutsk            23.500
       429   13 Jun 2027 05:27:51.601   13 Jun 2027 05:28:23.650            32.049              Murmansk2          3176.500
       430   13 Jun 2027 05:28:25.311   13 Jun 2027 05:28:35.901            10.590              Murmansk2           830.500
       431   13 Jun 2027 05:28:38.473   13 Jun 2027 05:29:01.834            23.361              Murmansk2          1286.000
       432   13 Jun 2027 05:29:05.328   13 Jun 2027 05:29:47.621            42.293              Murmansk1          1747.000
       433   13 Jun 2027 05:29:54.803   13 Jun 2027 05:30:25.434            30.631                 Moscow          3591.000
       434   13 Jun 2027 07:02:15.976   13 Jun 2027 07:02:50.168            34.192                Norilsk          4274.000
       435   13 Jun 2027 07:03:01.429   13 Jun 2027 07:04:06.351            64.922                 Moscow          6364.000
       436   13 Jun 2027 07:04:10.635   13 Jun 2027 07:04:33.736            23.101              Murmansk1          2142.000
       437   13 Jun 2027 07:04:34.382   13 Jun 2027 07:04:40.775             6.393                Norilsk           323.000
       438   13 Jun 2027 07:04:42.554   13 Jun 2027 07:04:51.752             9.198              Murmansk1           889.500
       439   13 Jun 2027 07:04:52.981   13 Jun 2027 07:05:16.930            23.949                 Moscow           614.500
       440   13 Jun 2027 07:05:18.925   13 Jun 2027 07:05:32.930            14.005                Norilsk           997.500
       441   13 Jun 2027 07:05:33.277   13 Jun 2027 07:06:04.162            30.885                 Moscow           173.500
       442   13 Jun 2027 08:35:29.270   13 Jun 2027 08:35:56.066            26.796                 Moscow          2444.000
       443   13 Jun 2027 08:35:57.450   13 Jun 2027 08:35:59.490             2.040                 Moscow           255.000
       444   13 Jun 2027 08:36:05.964   13 Jun 2027 08:36:18.356            12.392                 Moscow          1549.000
       445   13 Jun 2027 08:36:35.507   13 Jun 2027 08:38:04.312            88.805              Murmansk1         10700.500
       446   13 Jun 2027 08:38:21.803   13 Jun 2027 08:39:53.487            91.684                Novosib          8745.500
       447   13 Jun 2027 08:39:53.867   13 Jun 2027 08:40:17.608            23.741                Novosib           190.000
       448   13 Jun 2027 08:40:24.470   13 Jun 2027 08:40:57.005            32.535                Norilsk          3431.000
       449   13 Jun 2027 08:40:57.584   13 Jun 2027 08:41:03.176             5.592                 Moscow           289.500
       450   13 Jun 2027 08:41:04.208   13 Jun 2027 08:41:20.537            16.329                Novosib           516.000
       451   13 Jun 2027 08:41:23.651   13 Jun 2027 08:41:52.149            28.498                Norilsk          1557.000
       452   13 Jun 2027 08:42:02.765   13 Jun 2027 08:42:48.892            46.127              Murmansk1          2211.500
       453   13 Jun 2027 08:42:52.387   13 Jun 2027 08:43:23.673            31.286                 Moscow          1747.500
