uniorb/output/strategy_2/Drop/Drop_KinoSat_111110.txt

KinoSat_111110
-------------------------
    Access    *     Start Time (UTCG)     *     Stop Time (UTCG)  *   Duration (s)        *       Station  *  Data (Mbytes)
         1   01 Jun 2027 04:12:41.127   01 Jun 2027 04:13:12.854            31.727                Anadyr1           991.469
         2   01 Jun 2027 04:13:21.893   01 Jun 2027 04:14:57.084            95.191                Anadyr2          2974.719
         3   01 Jun 2027 04:14:57.084   01 Jun 2027 04:16:09.672            72.588                Anadyr1          2268.375
         4   01 Jun 2027 05:50:15.228   01 Jun 2027 05:50:41.268            26.040                Anadyr1           813.750
         5   01 Jun 2027 05:50:41.268   01 Jun 2027 05:51:53.274            72.006                Anadyr2          2250.188
         6   01 Jun 2027 07:23:20.215   01 Jun 2027 07:23:46.853            26.638                Irkutsk           832.438
         7   01 Jun 2027 07:24:26.291   01 Jun 2027 07:24:37.802            11.511                Anadyr1           359.719
         8   01 Jun 2027 07:24:42.116   01 Jun 2027 07:25:31.864            49.748               Magadan2          1554.625
         9   01 Jun 2027 07:25:49.740   01 Jun 2027 07:28:44.448           174.708               Magadan2          5459.625
        10   01 Jun 2027 07:28:44.448   01 Jun 2027 07:28:51.317             6.869               Magadan1           214.656
        11   01 Jun 2027 07:29:09.492   01 Jun 2027 07:29:38.484            28.992              Murmansk1           906.000
        12   01 Jun 2027 07:30:30.507   01 Jun 2027 07:31:03.934            33.427              Murmansk2          1044.594
        13   01 Jun 2027 07:32:55.089   01 Jun 2027 07:33:24.866            29.777                Norilsk           930.531
        14   01 Jun 2027 08:04:30.706   01 Jun 2027 08:04:59.538            28.832            RioGallegos           901.000
        15   01 Jun 2027 08:05:57.680   01 Jun 2027 08:06:11.531            13.851            RioGallegos           432.844
        16   01 Jun 2027 08:41:18.041   01 Jun 2027 08:41:33.868            15.827                Sumatra           494.594
        17   01 Jun 2027 09:00:34.298   01 Jun 2027 09:00:52.042            17.744               Magadan1           554.500
        18   01 Jun 2027 09:01:33.760   01 Jun 2027 09:02:15.529            41.769                Norilsk          1305.281
        19   01 Jun 2027 09:02:15.712   01 Jun 2027 09:02:40.417            24.705                Norilsk           772.031
        20   01 Jun 2027 09:02:51.222   01 Jun 2027 09:03:12.329            21.107              Murmansk1           659.594
        21   01 Jun 2027 09:03:12.329   01 Jun 2027 09:05:17.244           124.915              Murmansk2          3903.594
        22   01 Jun 2027 09:05:17.244   01 Jun 2027 09:06:25.110            67.866              Murmansk1          2120.812
        23   01 Jun 2027 09:07:55.255   01 Jun 2027 09:07:58.289             3.034              Murmansk1            94.813
        24   01 Jun 2027 09:08:22.620   01 Jun 2027 09:09:21.379            58.759              Murmansk1          1836.219
        25   01 Jun 2027 09:40:48.256   01 Jun 2027 09:41:09.342            21.086            RioGallegos           658.938
        26   01 Jun 2027 09:41:18.651   01 Jun 2027 09:41:19.577             0.926            RioGallegos            28.938
        27   01 Jun 2027 09:42:42.483   01 Jun 2027 09:43:14.275            31.792            RioGallegos           993.500
        28   01 Jun 2027 10:15:11.991   01 Jun 2027 10:15:44.683            32.692                Sumatra          1021.625
        29   01 Jun 2027 10:18:02.749   01 Jun 2027 10:19:56.002           113.253                Sumatra          3539.156
        30   01 Jun 2027 10:37:27.848   01 Jun 2027 10:38:40.775            72.927                Irkutsk          2278.969
        31   01 Jun 2027 10:38:50.564   01 Jun 2027 10:40:54.094           123.530                Irkutsk          3860.312
        32   01 Jun 2027 10:41:06.817   01 Jun 2027 10:43:01.563           114.746                Novosib          3585.812
        33   01 Jun 2027 12:00:27.229   01 Jun 2027 12:00:44.060            16.831                  Delhi           525.969
        34   01 Jun 2027 12:08:00.426   01 Jun 2027 12:09:12.472            72.046                Novosib          2251.438
        35   01 Jun 2027 12:11:55.000   01 Jun 2027 12:12:51.754            56.754                Norilsk          1773.563
        36   01 Jun 2027 12:16:52.088   01 Jun 2027 12:16:56.527             4.439                Norilsk           138.719
        37   01 Jun 2027 12:17:50.414   01 Jun 2027 12:18:06.007            15.593              Murmansk2           487.281
        38   01 Jun 2027 12:18:37.085   01 Jun 2027 12:18:54.868            17.783                Norilsk           555.719
        39   01 Jun 2027 12:20:36.410   01 Jun 2027 12:20:50.471            14.061                Norilsk           439.406
        40   01 Jun 2027 12:21:20.054   01 Jun 2027 12:22:26.999            66.945                Norilsk          2092.031
        41   01 Jun 2027 13:47:46.349   01 Jun 2027 13:47:55.217             8.868                 Moscow           277.125
        42   01 Jun 2027 13:48:29.590   01 Jun 2027 13:48:46.711            17.121                 Moscow           535.031
        43   01 Jun 2027 13:48:47.580   01 Jun 2027 13:49:18.726            31.146              Murmansk2           973.312
        44   01 Jun 2027 13:49:18.726   01 Jun 2027 13:50:13.883            55.157              Murmansk1          1723.656
        45   01 Jun 2027 13:50:46.198   01 Jun 2027 13:51:26.310            40.112              Murmansk2          1253.500
        46   01 Jun 2027 13:52:24.618   01 Jun 2027 13:52:51.859            27.241              Murmansk2           851.281
        47   01 Jun 2027 13:52:52.005   01 Jun 2027 13:54:19.872            87.867                Norilsk          2745.844
        48   01 Jun 2027 13:56:34.328   01 Jun 2027 13:57:00.205            25.877                Norilsk           808.656
        49   01 Jun 2027 14:59:44.112   01 Jun 2027 15:00:27.979            43.867               CapeTown          1370.844
        50   01 Jun 2027 15:01:38.565   01 Jun 2027 15:02:23.622            45.057               CapeTown          1408.031
        51   01 Jun 2027 15:04:35.216   01 Jun 2027 15:05:04.667            29.451               CapeTown           920.344
        52   01 Jun 2027 15:07:09.856   01 Jun 2027 15:08:14.915            65.059               CapeTown          2033.094
        53   01 Jun 2027 15:28:22.896   01 Jun 2027 15:28:31.380             8.484              Murmansk2           265.125
        54   01 Jun 2027 15:29:10.052   01 Jun 2027 15:29:38.452            28.400              Murmansk2           887.500
        55   01 Jun 2027 15:30:44.719   01 Jun 2027 15:31:11.314            26.595              Murmansk1           831.094
        56   01 Jun 2027 15:34:11.178   01 Jun 2027 15:34:12.434             1.256              Murmansk2            39.250
        57   01 Jun 2027 15:34:28.208   01 Jun 2027 15:34:58.827            30.619              Murmansk1           956.844
        58   01 Jun 2027 15:38:22.498   01 Jun 2027 15:38:33.010            10.512                Anadyr2           328.500
        59   01 Jun 2027 15:38:33.010   01 Jun 2027 15:38:37.185             4.175                Anadyr1           130.469
        60   01 Jun 2027 15:39:02.933   01 Jun 2027 15:40:10.415            67.482                Anadyr1          2108.812
        61   01 Jun 2027 15:42:56.997   01 Jun 2027 15:43:12.140            15.143                Anadyr2           473.219
        62   01 Jun 2027 15:43:27.432   01 Jun 2027 15:43:35.089             7.657                Anadyr2           239.281
        63   01 Jun 2027 15:46:31.640   01 Jun 2027 15:46:43.638            11.998                Anadyr1           374.938
        64   01 Jun 2027 15:47:32.216   01 Jun 2027 15:47:39.947             7.731                Anadyr1           241.594
        65   01 Jun 2027 15:48:13.069   01 Jun 2027 15:48:27.836            14.767                Anadyr1           461.469
        66   01 Jun 2027 16:40:59.572   01 Jun 2027 16:41:33.345            33.773               CapeTown          1055.406
        67   01 Jun 2027 16:44:36.507   01 Jun 2027 16:44:39.023             2.516               CapeTown            78.625
        68   01 Jun 2027 17:04:46.816   01 Jun 2027 17:07:07.729           140.913              Murmansk2          4403.531
        69   01 Jun 2027 17:07:55.249   01 Jun 2027 17:08:29.646            34.397              Murmansk1          1074.906
        70   01 Jun 2027 17:16:40.998   01 Jun 2027 17:17:14.782            33.784               Magadan2          1055.750
        71   01 Jun 2027 17:18:17.156   01 Jun 2027 17:18:19.801             2.645                Anadyr2            82.656
        72   01 Jun 2027 17:18:19.801   01 Jun 2027 17:18:36.679            16.878                Anadyr1           527.437
        73   01 Jun 2027 17:19:12.420   01 Jun 2027 17:20:13.500            61.080               Magadan2          1908.750
        74   01 Jun 2027 17:21:41.580   01 Jun 2027 17:22:24.731            43.151               Magadan1          1348.469
        75   01 Jun 2027 17:25:50.876   01 Jun 2027 17:26:11.128            20.252               Magadan2           632.875
        76   01 Jun 2027 18:49:38.276   01 Jun 2027 18:50:09.783            31.507                Anadyr1           984.594
        77   01 Jun 2027 18:50:09.783   01 Jun 2027 18:50:26.692            16.909                Anadyr2           528.406
        78   01 Jun 2027 18:50:41.888   01 Jun 2027 18:51:07.106            25.218                Anadyr1           788.063
        79   01 Jun 2027 18:51:49.053   01 Jun 2027 18:51:54.108             5.055                Anadyr1           157.969
        80   01 Jun 2027 18:51:56.242   01 Jun 2027 18:52:26.196            29.954               Magadan1           936.062
        81   01 Jun 2027 18:52:46.322   01 Jun 2027 18:53:18.608            32.286               Magadan2          1008.938
        82   01 Jun 2027 18:53:52.361   01 Jun 2027 18:54:04.884            12.523               Magadan1           391.344
        83   01 Jun 2027 18:54:19.101   01 Jun 2027 18:54:31.067            11.966               Magadan1           373.937
        84   01 Jun 2027 18:54:54.474   01 Jun 2027 18:55:56.387            61.913               Magadan2          1934.781
        85   01 Jun 2027 18:56:13.159   01 Jun 2027 18:56:46.116            32.957                Anadyr2          1029.906
        86   01 Jun 2027 18:57:47.588   01 Jun 2027 18:58:03.869            16.281               Magadan1           508.781
        87   01 Jun 2027 18:58:33.417   01 Jun 2027 18:59:07.689            34.272               Magadan2          1071.000
        88   01 Jun 2027 19:00:26.059   01 Jun 2027 19:01:07.980            41.921               Magadan2          1310.031
        89   01 Jun 2027 19:01:56.928   01 Jun 2027 19:02:22.392            25.464               Magadan2           795.750
        90   01 Jun 2027 19:04:13.518   01 Jun 2027 19:04:41.349            27.831               Magadan1           869.719
        91   01 Jun 2027 19:45:20.119   01 Jun 2027 19:47:55.679           155.560            RioGallegos          4861.250
        92   01 Jun 2027 20:27:53.299   01 Jun 2027 20:28:09.268            15.969                Norilsk           499.031
        93   01 Jun 2027 20:28:46.245   01 Jun 2027 20:29:50.474            64.229                Norilsk          2007.156
        94   01 Jun 2027 20:32:18.993   01 Jun 2027 20:33:05.448            46.455                Irkutsk          1451.719
        95   01 Jun 2027 20:33:44.950   01 Jun 2027 20:34:41.444            56.494                Irkutsk          1765.437
        96   01 Jun 2027 20:36:16.661   01 Jun 2027 20:36:53.805            37.144                Irkutsk          1160.750
        97   01 Jun 2027 20:37:47.511   01 Jun 2027 20:38:42.341            54.830                Irkutsk          1713.438
        98   01 Jun 2027 20:41:10.715   01 Jun 2027 20:41:41.879            31.164                Irkutsk           973.875
        99   01 Jun 2027 20:51:46.911   01 Jun 2027 20:53:03.097            76.186                Sumatra          2380.813
       100   01 Jun 2027 20:55:06.279   01 Jun 2027 20:55:59.722            53.443                Sumatra          1670.094
       101   01 Jun 2027 22:05:23.225   01 Jun 2027 22:05:47.299            24.074                Norilsk           752.313
       102   01 Jun 2027 22:06:36.533   01 Jun 2027 22:06:48.389            11.856                Anadyr1           370.500
       103   01 Jun 2027 22:07:13.232   01 Jun 2027 22:07:22.722             9.490                Anadyr1           296.563
       104   01 Jun 2027 22:07:40.226   01 Jun 2027 22:07:56.194            15.968               Magadan1           499.000
       105   01 Jun 2027 22:08:03.639   01 Jun 2027 22:08:26.981            23.342                Norilsk           729.438
       106   01 Jun 2027 22:09:28.759   01 Jun 2027 22:09:31.773             3.014                Irkutsk            94.187
       107   01 Jun 2027 22:09:54.621   01 Jun 2027 22:10:32.653            38.032                Norilsk          1188.500
       108   01 Jun 2027 22:12:02.572   01 Jun 2027 22:12:16.819            14.247                Irkutsk           445.219
       109   01 Jun 2027 22:12:52.893   01 Jun 2027 22:13:01.886             8.993                Novosib           281.031
       110   01 Jun 2027 22:13:16.087   01 Jun 2027 22:13:26.857            10.770                Novosib           336.562
       111   01 Jun 2027 22:13:47.374   01 Jun 2027 22:15:04.981            77.607                Novosib          2425.219
       112   01 Jun 2027 22:18:01.087   01 Jun 2027 22:19:25.126            84.039                  Delhi          2626.219
       113   01 Jun 2027 23:34:37.514   01 Jun 2027 23:35:30.064            52.550                Anadyr2          1642.187
       114   01 Jun 2027 23:35:30.064   01 Jun 2027 23:35:41.652            11.588                Anadyr1           362.125
       115   01 Jun 2027 23:36:50.452   01 Jun 2027 23:37:11.558            21.106                Anadyr1           659.563
       116   01 Jun 2027 23:39:23.217   01 Jun 2027 23:39:53.876            30.659                Norilsk           958.094
       117   01 Jun 2027 23:39:54.566   01 Jun 2027 23:40:11.293            16.727               Magadan2           522.719
       118   01 Jun 2027 23:40:11.293   01 Jun 2027 23:41:12.330            61.037               Magadan1          1907.406
       119   01 Jun 2027 23:42:10.472   01 Jun 2027 23:44:01.228           110.756              Murmansk2          3461.125
       120   01 Jun 2027 23:44:51.724   01 Jun 2027 23:46:47.865           116.141              Murmansk1          3629.406
       121   01 Jun 2027 23:48:10.620   01 Jun 2027 23:48:15.843             5.223              Murmansk1           163.219
       122   01 Jun 2027 23:57:16.907   01 Jun 2027 23:59:13.415           116.508                  Delhi          3640.875
       123   02 Jun 2027 01:07:54.737   02 Jun 2027 01:08:25.046            30.309                Anadyr1           947.156
       124   02 Jun 2027 01:08:25.720   02 Jun 2027 01:08:58.371            32.651                Anadyr2          1020.344
       125   02 Jun 2027 01:10:03.998   02 Jun 2027 01:10:39.542            35.544                Anadyr2          1110.750
       126   02 Jun 2027 01:10:39.542   02 Jun 2027 01:10:42.517             2.975                Anadyr1            92.969
       127   02 Jun 2027 01:13:50.174   02 Jun 2027 01:14:43.375            53.201               Magadan2          1662.531
       128   02 Jun 2027 01:14:43.375   02 Jun 2027 01:15:44.836            61.461               Magadan1          1920.656
       129   02 Jun 2027 01:16:07.153   02 Jun 2027 01:16:22.152            14.999               Magadan2           468.719
       130   02 Jun 2027 01:17:32.816   02 Jun 2027 01:18:08.374            35.558              Murmansk2          1111.187
       131   02 Jun 2027 01:18:22.238   02 Jun 2027 01:18:41.666            19.428              Murmansk2           607.125
       132   02 Jun 2027 01:21:03.989   02 Jun 2027 01:21:26.867            22.878                Irkutsk           714.938
       133   02 Jun 2027 01:22:19.906   02 Jun 2027 01:22:50.143            30.237                 Moscow           944.906
       134   02 Jun 2027 01:23:43.982   02 Jun 2027 01:25:11.187            87.205              Murmansk2          2725.156
       135   02 Jun 2027 01:34:22.368   02 Jun 2027 01:34:46.126            23.758                  Delhi           742.437
       136   02 Jun 2027 01:51:20.644   02 Jun 2027 01:51:39.077            18.433               CapeTown           576.031
       137   02 Jun 2027 01:52:41.319   02 Jun 2027 01:54:07.104            85.785               CapeTown          2680.781
       138   02 Jun 2027 02:41:51.372   02 Jun 2027 02:43:01.697            70.325                Anadyr1          2197.656
       139   02 Jun 2027 02:44:24.804   02 Jun 2027 02:44:43.716            18.912                Anadyr1           591.000
       140   02 Jun 2027 02:45:27.605   02 Jun 2027 02:46:06.670            39.065               Magadan2          1220.781
       141   02 Jun 2027 02:48:05.876   02 Jun 2027 02:48:28.780            22.904               Magadan2           715.750
       142   02 Jun 2027 02:50:21.637   02 Jun 2027 02:50:56.059            34.422               Magadan2          1075.688
       143   02 Jun 2027 02:53:29.034   02 Jun 2027 02:54:40.296            71.262              Murmansk2          2226.938
       144   02 Jun 2027 02:56:08.605   02 Jun 2027 02:56:45.388            36.783                Novosib          1149.469
       145   02 Jun 2027 02:59:27.962   02 Jun 2027 02:59:56.734            28.772                Novosib           899.125
       146   02 Jun 2027 03:00:39.145   02 Jun 2027 03:00:59.101            19.956                Novosib           623.625
       147   02 Jun 2027 03:01:10.606   02 Jun 2027 03:02:19.281            68.675                 Moscow          2146.094
       148   02 Jun 2027 03:03:02.802   02 Jun 2027 03:03:04.934             2.132              Murmansk1            66.625
       149   02 Jun 2027 03:03:12.605   02 Jun 2027 03:03:53.468            40.863              Murmansk2          1276.969
       150   02 Jun 2027 03:04:11.552   02 Jun 2027 03:05:41.652            90.100                 Moscow          2815.625
       151   02 Jun 2027 03:20:36.688   02 Jun 2027 03:22:58.344           141.656               CapeTown          4426.750
       152   02 Jun 2027 04:17:23.812   02 Jun 2027 04:18:32.273            68.461                Anadyr1          2139.406
       153   02 Jun 2027 04:18:37.951   02 Jun 2027 04:19:24.581            46.630               Magadan1          1457.188
       154   02 Jun 2027 04:23:43.475   02 Jun 2027 04:23:55.130            11.655               Magadan2           364.219
       155   02 Jun 2027 04:24:12.357   02 Jun 2027 04:25:02.295            49.938               Magadan2          1560.562
       156   02 Jun 2027 04:25:02.295   02 Jun 2027 04:25:27.830            25.535               Magadan1           797.969
       157   02 Jun 2027 04:26:47.010   02 Jun 2027 04:28:25.022            98.012                Norilsk          3062.875
       158   02 Jun 2027 06:01:23.819   02 Jun 2027 06:01:47.930            24.111                Anadyr1           753.469
       159   02 Jun 2027 06:02:11.465   02 Jun 2027 06:04:41.318           149.853               Magadan1          4682.906
       160   02 Jun 2027 06:05:07.574   02 Jun 2027 06:05:38.784            31.210                Anadyr2           975.313
       161   02 Jun 2027 07:36:09.456   02 Jun 2027 07:39:59.324           229.868               Magadan2          7183.375
       162   02 Jun 2027 07:39:59.324   02 Jun 2027 07:40:23.590            24.266               Magadan1           758.313
       163   02 Jun 2027 07:40:57.853   02 Jun 2027 07:41:25.888            28.035               Magadan2           876.094
       164   02 Jun 2027 07:43:36.288   02 Jun 2027 07:44:02.225            25.937              Murmansk2           810.531
       165   02 Jun 2027 08:16:23.119   02 Jun 2027 08:17:48.040            84.921            RioGallegos          2653.781
       166   02 Jun 2027 08:18:24.825   02 Jun 2027 08:19:17.724            52.899            RioGallegos          1653.094
       167   02 Jun 2027 08:52:35.442   02 Jun 2027 08:53:43.915            68.473                Sumatra          2139.781
       168   02 Jun 2027 09:12:45.867   02 Jun 2027 09:12:52.429             6.562                Irkutsk           205.063
       169   02 Jun 2027 09:13:18.143   02 Jun 2027 09:13:20.635             2.492                Irkutsk            77.875
       170   02 Jun 2027 09:13:20.890   02 Jun 2027 09:13:43.307            22.417                Irkutsk           700.531
       171   02 Jun 2027 09:14:09.470   02 Jun 2027 09:14:21.601            12.131                Novosib           379.094
       172   02 Jun 2027 09:14:31.273   02 Jun 2027 09:16:48.239           136.966                Norilsk          4280.187
       173   02 Jun 2027 09:17:00.907   02 Jun 2027 09:17:15.350            14.443                Irkutsk           451.344
       174   02 Jun 2027 09:17:25.517   02 Jun 2027 09:17:25.630             0.113                Novosib             3.531
       175   02 Jun 2027 09:17:50.355   02 Jun 2027 09:17:57.251             6.896              Murmansk2           215.500
       176   02 Jun 2027 09:18:28.164   02 Jun 2027 09:18:54.340            26.176              Murmansk2           818.000
       177   02 Jun 2027 09:19:59.770   02 Jun 2027 09:20:23.087            23.317              Murmansk2           728.656
       178   02 Jun 2027 09:22:40.892   02 Jun 2027 09:23:04.015            23.123              Murmansk2           722.594
       179   02 Jun 2027 09:53:09.532   02 Jun 2027 09:53:40.420            30.888            RioGallegos           965.250
       180   02 Jun 2027 09:53:46.060   02 Jun 2027 09:54:02.513            16.453            RioGallegos           514.156
       181   02 Jun 2027 09:55:37.817   02 Jun 2027 09:56:22.217            44.400            RioGallegos          1387.500
       182   02 Jun 2027 10:27:26.625   02 Jun 2027 10:29:07.945           101.320                Sumatra          3166.250
       183   02 Jun 2027 10:38:15.372   02 Jun 2027 10:38:24.716             9.344                  Delhi           292.000
       184   02 Jun 2027 10:48:28.056   02 Jun 2027 10:48:54.974            26.918                Norilsk           841.187
       185   02 Jun 2027 10:49:00.165   02 Jun 2027 10:49:05.556             5.391              Murmansk1           168.469
       186   02 Jun 2027 10:49:11.265   02 Jun 2027 10:49:34.955            23.690                Norilsk           740.312
       187   02 Jun 2027 10:49:56.944   02 Jun 2027 10:50:24.784            27.840                Irkutsk           870.000
       188   02 Jun 2027 10:50:29.521   02 Jun 2027 10:50:50.363            20.842                Norilsk           651.312
       189   02 Jun 2027 10:50:53.610   02 Jun 2027 10:51:02.421             8.811              Murmansk2           275.344
       190   02 Jun 2027 10:51:02.421   02 Jun 2027 10:51:15.597            13.176              Murmansk1           411.750
       191   02 Jun 2027 10:51:17.506   02 Jun 2027 10:51:19.860             2.354                Norilsk            73.562
       192   02 Jun 2027 10:51:32.631   02 Jun 2027 10:51:40.522             7.891                Irkutsk           246.594
       193   02 Jun 2027 10:51:51.545   02 Jun 2027 10:52:47.319            55.774                 Moscow          1742.937
       194   02 Jun 2027 12:12:15.557   02 Jun 2027 12:15:53.768           218.211                  Delhi          6819.094
       195   02 Jun 2027 12:20:36.353   02 Jun 2027 12:20:45.600             9.247                Novosib           288.969
       196   02 Jun 2027 12:20:59.064   02 Jun 2027 12:21:41.978            42.914                Novosib          1341.063
       197   02 Jun 2027 12:23:22.516   02 Jun 2027 12:24:50.943            88.427              Murmansk2          2763.344
       198   02 Jun 2027 12:30:56.974   02 Jun 2027 12:31:21.325            24.351                Norilsk           760.969
       199   02 Jun 2027 13:55:47.814   02 Jun 2027 13:58:58.040           190.226                 Moscow          5944.562
       200   02 Jun 2027 13:59:19.367   02 Jun 2027 14:02:29.638           190.271              Murmansk2          5945.969
       201   02 Jun 2027 14:05:33.750   02 Jun 2027 14:06:15.063            41.313                Norilsk          1291.031
       202   02 Jun 2027 14:07:44.277   02 Jun 2027 14:08:34.363            50.086                Norilsk          1565.187
       203   02 Jun 2027 14:15:45.065   02 Jun 2027 14:16:28.841            43.776                Anadyr1          1368.000
       204   02 Jun 2027 14:17:00.400   02 Jun 2027 14:19:03.727           123.327                Anadyr2          3853.969
       205   02 Jun 2027 15:35:14.114   02 Jun 2027 15:35:46.740            32.626                 Moscow          1019.562
       206   02 Jun 2027 15:37:06.932   02 Jun 2027 15:37:51.283            44.351              Murmansk1          1385.969
       207   02 Jun 2027 15:43:18.890   02 Jun 2027 15:43:22.511             3.621              Murmansk1           113.156
       208   02 Jun 2027 15:44:32.573   02 Jun 2027 15:45:01.349            28.776              Murmansk2           899.250
       209   02 Jun 2027 15:47:00.287   02 Jun 2027 15:47:36.044            35.757              Murmansk1          1117.406
       210   02 Jun 2027 15:49:58.553   02 Jun 2027 15:52:19.319           140.766                Anadyr1          4398.937
       211   02 Jun 2027 16:47:23.661   02 Jun 2027 16:49:27.361           123.700               CapeTown          3865.625
       212   02 Jun 2027 17:17:36.446   02 Jun 2027 17:17:59.944            23.498              Murmansk2           734.312
       213   02 Jun 2027 17:18:26.173   02 Jun 2027 17:19:51.712            85.539              Murmansk1          2673.094
       214   02 Jun 2027 17:25:43.845   02 Jun 2027 17:26:22.065            38.220                Anadyr2          1194.375
       215   02 Jun 2027 17:26:29.428   02 Jun 2027 17:27:56.784            87.356                Anadyr1          2729.875
       216   02 Jun 2027 17:28:32.123   02 Jun 2027 17:30:40.681           128.558               Magadan1          4017.438
       217   02 Jun 2027 19:01:39.485   02 Jun 2027 19:03:37.357           117.872                Anadyr2          3683.500
       218   02 Jun 2027 19:03:37.574   02 Jun 2027 19:05:32.497           114.923                Anadyr1          3591.344
       219   02 Jun 2027 19:05:59.183   02 Jun 2027 19:07:36.015            96.832               Magadan2          3026.000
       220   02 Jun 2027 19:14:37.369   02 Jun 2027 19:14:57.966            20.597               Magadan1           643.656
       221   02 Jun 2027 19:15:52.478   02 Jun 2027 19:16:47.963            55.485               Magadan2          1733.906
       222   02 Jun 2027 19:56:50.706   02 Jun 2027 19:59:51.034           180.328            RioGallegos          5635.250
       223   02 Jun 2027 20:37:24.044   02 Jun 2027 20:37:54.365            30.321                Anadyr1           947.531
       224   02 Jun 2027 20:39:55.148   02 Jun 2027 20:42:27.634           152.486               Magadan2          4765.188
       225   02 Jun 2027 20:44:04.880   02 Jun 2027 20:45:44.673            99.793                Irkutsk          3118.531
       226   02 Jun 2027 20:46:50.742   02 Jun 2027 20:47:33.767            43.025                Irkutsk          1344.531
       227   02 Jun 2027 20:52:59.255   02 Jun 2027 20:53:07.663             8.408                Irkutsk           262.750
       228   02 Jun 2027 20:54:21.726   02 Jun 2027 20:54:29.284             7.558                Irkutsk           236.188
       229   02 Jun 2027 20:58:18.840   02 Jun 2027 21:01:18.021           179.181                Sumatra          5599.406
       230   02 Jun 2027 22:15:49.802   02 Jun 2027 22:15:54.183             4.381                Norilsk           136.906
       231   02 Jun 2027 22:16:15.347   02 Jun 2027 22:16:57.358            42.011               Magadan1          1312.844
       232   02 Jun 2027 22:18:14.569   02 Jun 2027 22:19:20.826            66.257                Norilsk          2070.531
       233   02 Jun 2027 22:19:23.461   02 Jun 2027 22:19:56.769            33.308                Irkutsk          1040.875
       234   02 Jun 2027 22:19:59.990   02 Jun 2027 22:20:50.624            50.634                Novosib          1582.312
       235   02 Jun 2027 22:21:25.289   02 Jun 2027 22:23:10.178           104.889                Novosib          3277.781
       236   02 Jun 2027 22:29:31.494   02 Jun 2027 22:31:05.843            94.349                  Delhi          2948.406
       237   02 Jun 2027 22:32:50.561   02 Jun 2027 22:34:34.567           104.006                  Delhi          3250.187
       238   02 Jun 2027 23:51:52.079   02 Jun 2027 23:52:59.148            67.069               Magadan1          2095.906
       239   02 Jun 2027 23:53:11.338   02 Jun 2027 23:53:20.439             9.101                Norilsk           284.406
       240   02 Jun 2027 23:54:01.886   02 Jun 2027 23:56:01.650           119.764              Murmansk1          3742.625
       241   02 Jun 2027 23:56:32.066   02 Jun 2027 23:58:46.898           134.832              Murmansk2          4213.500
       242   03 Jun 2027 00:12:12.075   03 Jun 2027 00:12:33.070            20.995                  Delhi           656.094
       243   03 Jun 2027 00:45:04.992   03 Jun 2027 00:45:33.398            28.406            RioGallegos           887.688
       244   03 Jun 2027 00:46:30.714   03 Jun 2027 00:47:03.926            33.212            RioGallegos          1037.875
       245   03 Jun 2027 01:19:37.502   03 Jun 2027 01:20:12.269            34.767                Anadyr2          1086.469
       246   03 Jun 2027 01:20:49.943   03 Jun 2027 01:20:54.935             4.992                Anadyr2           156.000
       247   03 Jun 2027 01:20:54.935   03 Jun 2027 01:20:58.289             3.354                Anadyr1           104.813
       248   03 Jun 2027 01:21:24.066   03 Jun 2027 01:22:24.171            60.105                Anadyr1          1878.281
       249   03 Jun 2027 01:25:20.820   03 Jun 2027 01:28:08.054           167.234               Magadan1          5226.062
       250   03 Jun 2027 01:29:33.620   03 Jun 2027 01:30:43.327            69.707              Murmansk2          2178.344
       251   03 Jun 2027 01:31:23.924   03 Jun 2027 01:32:33.737            69.813                Novosib          2181.656
       252   03 Jun 2027 01:34:48.082   03 Jun 2027 01:35:30.400            42.318                 Moscow          1322.437
       253   03 Jun 2027 01:42:50.043   03 Jun 2027 01:44:27.922            97.879                  Delhi          3058.719
       254   03 Jun 2027 02:53:43.779   03 Jun 2027 02:56:15.020           151.241                Anadyr1          4726.281
       255   03 Jun 2027 02:56:59.135   03 Jun 2027 02:57:42.326            43.191               Magadan1          1349.719
       256   03 Jun 2027 03:14:47.603   03 Jun 2027 03:15:38.390            50.787                 Moscow          1587.094
       257   03 Jun 2027 03:15:43.851   03 Jun 2027 03:15:48.913             5.062                 Moscow           158.188
       258   03 Jun 2027 03:16:21.179   03 Jun 2027 03:18:23.599           122.420              Murmansk2          3825.625
       259   03 Jun 2027 03:33:59.181   03 Jun 2027 03:34:38.405            39.224               CapeTown          1225.750
       260   03 Jun 2027 04:29:30.921   03 Jun 2027 04:30:14.498            43.577                Anadyr2          1361.781
       261   03 Jun 2027 04:30:19.746   03 Jun 2027 04:30:24.672             4.926               Magadan1           153.938
       262   03 Jun 2027 04:30:24.672   03 Jun 2027 04:30:39.992            15.320               Magadan2           478.750
       263   03 Jun 2027 04:35:52.639   03 Jun 2027 04:36:41.286            48.647               Magadan2          1520.219
       264   03 Jun 2027 04:36:43.734   03 Jun 2027 04:37:06.062            22.328                Anadyr2           697.750
       265   03 Jun 2027 04:37:12.838   03 Jun 2027 04:38:50.302            97.464                Anadyr1          3045.750
       266   03 Jun 2027 04:38:53.987   03 Jun 2027 04:39:56.423            62.436               Magadan2          1951.125
       267   03 Jun 2027 04:40:15.954   03 Jun 2027 04:40:53.777            37.823               Magadan2          1181.969
       268   03 Jun 2027 06:13:09.148   03 Jun 2027 06:13:13.675             4.527               Magadan2           141.469
       269   03 Jun 2027 06:13:34.781   03 Jun 2027 06:14:23.298            48.517                Norilsk          1516.156
       270   03 Jun 2027 06:14:34.886   03 Jun 2027 06:15:14.833            39.947                Irkutsk          1248.344
       271   03 Jun 2027 06:15:18.002   03 Jun 2027 06:15:22.826             4.824                Norilsk           150.750
       272   03 Jun 2027 06:15:30.476   03 Jun 2027 06:16:23.240            52.764                Anadyr2          1648.875
       273   03 Jun 2027 06:16:36.758   03 Jun 2027 06:17:53.117            76.359               Magadan1          2386.219
       274   03 Jun 2027 06:57:13.843   03 Jun 2027 06:57:26.599            12.756            RioGallegos           398.625
       275   03 Jun 2027 07:47:19.541   03 Jun 2027 07:47:57.328            37.787               Magadan2          1180.844
       276   03 Jun 2027 07:48:03.968   03 Jun 2027 07:49:09.259            65.291                Norilsk          2040.344
       277   03 Jun 2027 07:49:45.274   03 Jun 2027 07:50:21.259            35.985               Magadan1          1124.531
       278   03 Jun 2027 07:50:33.793   03 Jun 2027 07:50:37.347             3.554                Irkutsk           111.063
       279   03 Jun 2027 07:50:48.633   03 Jun 2027 07:51:59.629            70.996               Magadan1          2218.625
       280   03 Jun 2027 07:52:07.425   03 Jun 2027 07:52:30.514            23.089              Murmansk1           721.531
       281   03 Jun 2027 07:52:30.514   03 Jun 2027 07:52:44.353            13.839              Murmansk2           432.469
       282   03 Jun 2027 07:52:46.801   03 Jun 2027 07:52:48.255             1.454                Irkutsk            45.437
       283   03 Jun 2027 07:52:54.417   03 Jun 2027 07:53:25.759            31.342                Irkutsk           979.438
       284   03 Jun 2027 07:53:29.582   03 Jun 2027 07:53:40.445            10.863                Norilsk           339.469
       285   03 Jun 2027 07:54:13.935   03 Jun 2027 07:54:22.939             9.004              Murmansk2           281.375
       286   03 Jun 2027 07:54:59.404   03 Jun 2027 07:55:36.925            37.521              Murmansk2          1172.531
       287   03 Jun 2027 08:02:20.459   03 Jun 2027 08:02:22.937             2.478              Murmansk2            77.438
       288   03 Jun 2027 08:28:18.719   03 Jun 2027 08:29:20.381            61.662            RioGallegos          1926.938
       289   03 Jun 2027 09:04:04.725   03 Jun 2027 09:04:38.013            33.288                Sumatra          1040.250
       290   03 Jun 2027 09:08:12.949   03 Jun 2027 09:10:08.843           115.894                Sumatra          3621.687
       291   03 Jun 2027 09:23:49.038   03 Jun 2027 09:23:54.692             5.654                Irkutsk           176.688
       292   03 Jun 2027 09:24:11.596   03 Jun 2027 09:24:34.473            22.877                Norilsk           714.906
       293   03 Jun 2027 09:24:45.456   03 Jun 2027 09:25:12.598            27.142                Novosib           848.187
       294   03 Jun 2027 09:25:17.054   03 Jun 2027 09:25:38.304            21.250                Irkutsk           664.063
       295   03 Jun 2027 09:25:41.398   03 Jun 2027 09:26:08.449            27.051                Novosib           845.344
       296   03 Jun 2027 09:26:18.747   03 Jun 2027 09:26:22.861             4.114                Norilsk           128.562
       297   03 Jun 2027 09:26:26.583   03 Jun 2027 09:26:47.275            20.692              Murmansk1           646.625
       298   03 Jun 2027 09:26:56.767   03 Jun 2027 09:27:23.574            26.807                Norilsk           837.719
       299   03 Jun 2027 09:27:33.325   03 Jun 2027 09:27:39.973             6.648                Irkutsk           207.750
       300   03 Jun 2027 09:27:49.706   03 Jun 2027 09:28:25.017            35.311                Irkutsk          1103.469
       301   03 Jun 2027 09:28:33.403   03 Jun 2027 09:29:25.156            51.753                Irkutsk          1617.281
       302   03 Jun 2027 09:29:59.566   03 Jun 2027 09:30:01.528             1.962              Murmansk2            61.313
       303   03 Jun 2027 09:30:17.933   03 Jun 2027 09:30:44.713            26.780              Murmansk1           836.875
       304   03 Jun 2027 10:05:35.773   03 Jun 2027 10:06:21.165            45.392            RioGallegos          1418.500
       305   03 Jun 2027 10:09:23.811   03 Jun 2027 10:10:20.103            56.292            RioGallegos          1759.125
       306   03 Jun 2027 10:43:46.779   03 Jun 2027 10:44:03.569            16.790                Sumatra           524.688
       307   03 Jun 2027 10:48:45.556   03 Jun 2027 10:50:04.509            78.953                  Delhi          2467.281
       308   03 Jun 2027 11:00:55.034   03 Jun 2027 11:01:49.449            54.415              Murmansk2          1700.469
       309   03 Jun 2027 11:01:56.591   03 Jun 2027 11:01:58.843             2.252                Norilsk            70.375
       310   03 Jun 2027 11:02:01.358   03 Jun 2027 11:02:02.408             1.050                Irkutsk            32.812
       311   03 Jun 2027 11:02:07.044   03 Jun 2027 11:02:33.706            26.662                 Moscow           833.187
       312   03 Jun 2027 11:02:37.095   03 Jun 2027 11:02:51.580            14.485              Murmansk2           452.656
       313   03 Jun 2027 11:02:52.290   03 Jun 2027 11:02:58.903             6.613                Norilsk           206.656
       314   03 Jun 2027 11:03:02.418   03 Jun 2027 11:03:17.172            14.754              Murmansk2           461.062
       315   03 Jun 2027 11:03:17.475   03 Jun 2027 11:03:20.569             3.094                Norilsk            96.687
       316   03 Jun 2027 11:03:40.184   03 Jun 2027 11:04:01.180            20.996                Novosib           656.125
       317   03 Jun 2027 11:04:15.283   03 Jun 2027 11:05:02.155            46.872              Murmansk1          1464.750
       318   03 Jun 2027 11:05:06.578   03 Jun 2027 11:05:16.335             9.757              Murmansk2           304.906
       319   03 Jun 2027 11:05:16.335   03 Jun 2027 11:06:18.090            61.755              Murmansk1          1929.844
       320   03 Jun 2027 12:24:51.076   03 Jun 2027 12:25:21.054            29.978                  Delhi           936.813
       321   03 Jun 2027 12:25:29.145   03 Jun 2027 12:26:10.912            41.767                  Delhi          1305.219
       322   03 Jun 2027 12:27:38.045   03 Jun 2027 12:28:24.705            46.660                  Delhi          1458.125
       323   03 Jun 2027 12:32:44.463   03 Jun 2027 12:33:23.491            39.028                 Moscow          1219.625
       324   03 Jun 2027 12:34:15.070   03 Jun 2027 12:34:18.582             3.512                 Moscow           109.750
       325   03 Jun 2027 12:35:07.108   03 Jun 2027 12:35:41.032            33.924                Novosib          1060.125
       326   03 Jun 2027 12:36:14.379   03 Jun 2027 12:37:50.054            95.675              Murmansk1          2989.844
       327   03 Jun 2027 12:37:56.002   03 Jun 2027 12:39:07.064            71.062              Murmansk2          2220.688
       328   03 Jun 2027 14:07:57.381   03 Jun 2027 14:09:41.115           103.734                 Moscow          3241.687
       329   03 Jun 2027 14:11:28.071   03 Jun 2027 14:15:18.311           230.240              Murmansk1          7195.000
       330   03 Jun 2027 14:16:54.310   03 Jun 2027 14:17:08.450            14.140              Murmansk2           441.875
       331   03 Jun 2027 14:17:16.712   03 Jun 2027 14:18:26.697            69.985              Murmansk2          2187.031
       332   03 Jun 2027 14:18:59.978   03 Jun 2027 14:20:04.477            64.499                Norilsk          2015.594
       333   03 Jun 2027 14:27:12.545   03 Jun 2027 14:28:26.583            74.038                Anadyr2          2313.687
       334   03 Jun 2027 14:28:49.984   03 Jun 2027 14:29:41.661            51.677                Anadyr1          1614.906
       335   03 Jun 2027 15:28:20.736   03 Jun 2027 15:28:38.830            18.094               CapeTown           565.438
       336   03 Jun 2027 15:29:34.846   03 Jun 2027 15:30:52.162            77.316               CapeTown          2416.125
       337   03 Jun 2027 15:49:32.021   03 Jun 2027 15:50:07.399            35.378              Murmansk1          1105.563
       338   03 Jun 2027 15:53:49.749   03 Jun 2027 15:54:16.789            27.040              Murmansk1           845.000
       339   03 Jun 2027 16:01:56.998   03 Jun 2027 16:04:12.473           135.475                Anadyr2          4233.594
       340   03 Jun 2027 16:08:13.807   03 Jun 2027 16:08:23.442             9.635                Anadyr2           301.094
       341   03 Jun 2027 16:57:54.887   03 Jun 2027 16:58:56.941            62.054               CapeTown          1939.187
       342   03 Jun 2027 17:03:04.954   03 Jun 2027 17:03:14.920             9.966               CapeTown           311.438
       343   03 Jun 2027 17:30:34.117   03 Jun 2027 17:34:07.710           213.593              Murmansk1          6674.781
       344   03 Jun 2027 17:37:45.157   03 Jun 2027 17:38:18.531            33.374                Anadyr2          1042.937
       345   03 Jun 2027 17:38:45.838   03 Jun 2027 17:39:44.147            58.309                Anadyr1          1822.156
       346   03 Jun 2027 17:40:25.481   03 Jun 2027 17:42:09.164           103.683               Magadan2          3240.094
       347   03 Jun 2027 19:13:40.539   03 Jun 2027 19:17:32.890           232.351                Anadyr1          7260.969
       348   03 Jun 2027 19:18:01.885   03 Jun 2027 19:18:34.612            32.727                Norilsk          1022.719
       349   03 Jun 2027 19:19:14.530   03 Jun 2027 19:19:52.140            37.610               Magadan1          1175.313
       350   03 Jun 2027 19:19:52.140   03 Jun 2027 19:20:23.776            31.636               Magadan2           988.625
       351   03 Jun 2027 19:21:11.878   03 Jun 2027 19:21:17.391             5.513               Magadan2           172.281
       352   03 Jun 2027 19:21:23.132   03 Jun 2027 19:21:43.723            20.591               Magadan2           643.469
       353   03 Jun 2027 19:25:58.964   03 Jun 2027 19:26:17.589            18.625               Magadan2           582.031
       354   03 Jun 2027 19:27:29.674   03 Jun 2027 19:28:51.973            82.299               Magadan1          2571.844
       355   03 Jun 2027 20:08:30.049   03 Jun 2027 20:11:23.199           173.150            RioGallegos          5410.938
       356   03 Jun 2027 20:13:25.558   03 Jun 2027 20:14:01.357            35.799            RioGallegos          1118.719
       357   03 Jun 2027 20:49:27.646   03 Jun 2027 20:50:52.813            85.167                Anadyr2          2661.469
       358   03 Jun 2027 20:51:21.401   03 Jun 2027 20:51:31.750            10.349                Anadyr2           323.406
       359   03 Jun 2027 20:51:32.647   03 Jun 2027 20:53:53.834           141.187                Norilsk          4412.094
       360   03 Jun 2027 20:54:51.709   03 Jun 2027 20:55:24.629            32.920                Norilsk          1028.750
       361   03 Jun 2027 20:55:54.303   03 Jun 2027 20:56:44.770            50.467                Irkutsk          1577.094
       362   03 Jun 2027 21:09:52.774   03 Jun 2027 21:12:11.585           138.811                Sumatra          4337.844
       363   03 Jun 2027 21:14:02.978   03 Jun 2027 21:15:15.105            72.127                Sumatra          2253.969
       364   03 Jun 2027 22:28:31.204   03 Jun 2027 22:29:31.884            60.680               Magadan1          1896.250
       365   03 Jun 2027 22:31:04.966   03 Jun 2027 22:31:48.171            43.205               Magadan1          1350.156
       366   03 Jun 2027 22:31:49.416   03 Jun 2027 22:32:00.030            10.614                Irkutsk           331.687
       367   03 Jun 2027 22:32:14.228   03 Jun 2027 22:32:40.913            26.685                Irkutsk           833.906
       368   03 Jun 2027 22:32:41.135   03 Jun 2027 22:32:58.295            17.160                Novosib           536.250
       369   03 Jun 2027 22:33:22.633   03 Jun 2027 22:34:18.294            55.661                Novosib          1739.406
       370   03 Jun 2027 22:36:58.377   03 Jun 2027 22:37:13.125            14.748                Novosib           460.875
       371   03 Jun 2027 22:39:48.264   03 Jun 2027 22:42:52.141           183.877                  Delhi          5746.156
       372   04 Jun 2027 00:03:26.701   04 Jun 2027 00:03:39.493            12.792                Norilsk           399.750
       373   04 Jun 2027 00:03:46.283   04 Jun 2027 00:03:52.520             6.237                Anadyr2           194.906
       374   04 Jun 2027 00:04:23.046   04 Jun 2027 00:05:22.558            59.512                Norilsk          1859.750
       375   04 Jun 2027 00:05:29.210   04 Jun 2027 00:05:59.828            30.618               Magadan2           956.812
       376   04 Jun 2027 00:06:02.525   04 Jun 2027 00:08:02.427           119.902              Murmansk1          3746.938
       377   04 Jun 2027 00:08:04.693   04 Jun 2027 00:08:57.786            53.093              Murmansk2          1659.156
       378   04 Jun 2027 00:10:55.867   04 Jun 2027 00:11:21.735            25.868              Murmansk1           808.375
       379   04 Jun 2027 00:11:53.048   04 Jun 2027 00:12:19.904            26.856                 Moscow           839.250
       380   04 Jun 2027 00:13:23.547   04 Jun 2027 00:14:24.232            60.685                 Moscow          1896.406
       381   04 Jun 2027 00:23:30.018   04 Jun 2027 00:24:18.003            47.985                  Delhi          1499.531
       382   04 Jun 2027 01:31:21.088   04 Jun 2027 01:32:50.157            89.069                Anadyr2          2783.406
       383   04 Jun 2027 01:33:24.285   04 Jun 2027 01:34:06.426            42.141                Anadyr1          1316.906
       384   04 Jun 2027 01:36:47.601   04 Jun 2027 01:36:51.999             4.398                Anadyr1           137.437
       385   04 Jun 2027 01:37:35.396   04 Jun 2027 01:39:18.058           102.662               Magadan1          3208.188
       386   04 Jun 2027 01:39:35.111   04 Jun 2027 01:40:09.517            34.406               Magadan2          1075.187
       387   04 Jun 2027 01:41:34.723   04 Jun 2027 01:42:28.756            54.033              Murmansk2          1688.531
       388   04 Jun 2027 01:42:48.581   04 Jun 2027 01:44:52.417           123.836              Murmansk1          3869.875
       389   04 Jun 2027 01:55:47.425   04 Jun 2027 01:55:53.651             6.226                 Moscow           194.563
       390   04 Jun 2027 01:56:00.602   04 Jun 2027 01:56:21.378            20.776                 Moscow           649.250
       391   04 Jun 2027 02:09:48.301   04 Jun 2027 02:10:13.515            25.214               CapeTown           787.938
       392   04 Jun 2027 02:13:03.013   04 Jun 2027 02:14:10.357            67.344               CapeTown          2104.500
       393   04 Jun 2027 03:27:54.656   04 Jun 2027 03:28:11.350            16.694              Murmansk2           521.687
       394   04 Jun 2027 03:29:00.027   04 Jun 2027 03:29:04.518             4.491              Murmansk2           140.344
       395   04 Jun 2027 04:48:17.029   04 Jun 2027 04:48:32.071            15.042               Magadan1           470.062
       396   04 Jun 2027 04:48:45.251   04 Jun 2027 04:49:10.941            25.690                Anadyr2           802.812
       397   04 Jun 2027 04:49:10.941   04 Jun 2027 04:50:27.289            76.348                Anadyr1          2385.875
       398   04 Jun 2027 04:50:53.475   04 Jun 2027 04:51:08.104            14.629               Magadan2           457.156
       399   04 Jun 2027 04:52:27.855   04 Jun 2027 04:52:29.955             2.100                Anadyr2            65.625
       400   04 Jun 2027 04:52:29.955   04 Jun 2027 04:52:52.299            22.344                Anadyr1           698.250
       401   04 Jun 2027 06:24:47.017   04 Jun 2027 06:25:07.225            20.208                Anadyr1           631.500
       402   04 Jun 2027 06:25:34.592   04 Jun 2027 06:25:41.750             7.158                Anadyr1           223.687
       403   04 Jun 2027 06:25:49.459   04 Jun 2027 06:26:39.385            49.926                Irkutsk          1560.188
       404   04 Jun 2027 06:26:46.659   04 Jun 2027 06:27:10.604            23.945                Anadyr2           748.281
       405   04 Jun 2027 06:27:19.147   04 Jun 2027 06:28:23.834            64.687                Anadyr1          2021.469
       406   04 Jun 2027 06:28:42.215   04 Jun 2027 06:29:14.647            32.432                Anadyr2          1013.500
       407   04 Jun 2027 07:07:10.303   04 Jun 2027 07:08:17.737            67.434            RioGallegos          2107.313
       408   04 Jun 2027 07:59:07.635   04 Jun 2027 08:00:16.262            68.627               Magadan1          2144.594
       409   04 Jun 2027 08:00:22.973   04 Jun 2027 08:01:10.869            47.896               Magadan1          1496.750
       410   04 Jun 2027 08:01:22.150   04 Jun 2027 08:01:44.711            22.561                Norilsk           705.031
       411   04 Jun 2027 08:02:11.226   04 Jun 2027 08:02:21.182             9.956                Norilsk           311.125
       412   04 Jun 2027 08:02:23.589   04 Jun 2027 08:02:50.731            27.142               Magadan2           848.187
       413   04 Jun 2027 08:02:54.044   04 Jun 2027 08:02:56.285             2.241                Irkutsk            70.031
       414   04 Jun 2027 08:03:07.528   04 Jun 2027 08:04:14.302            66.774                Irkutsk          2086.687
       415   04 Jun 2027 08:04:23.294   04 Jun 2027 08:04:27.006             3.712              Murmansk1           116.000
       416   04 Jun 2027 08:04:43.496   04 Jun 2027 08:04:50.552             7.056              Murmansk1           220.500
       417   04 Jun 2027 08:04:52.214   04 Jun 2027 08:05:26.062            33.848              Murmansk1          1057.750
       418   04 Jun 2027 08:05:26.062   04 Jun 2027 08:06:06.778            40.716              Murmansk2          1272.375
       419   04 Jun 2027 08:40:17.562   04 Jun 2027 08:40:24.901             7.339            RioGallegos           229.344
       420   04 Jun 2027 08:41:28.539   04 Jun 2027 08:41:34.842             6.303            RioGallegos           196.969
       421   04 Jun 2027 08:43:21.626   04 Jun 2027 08:43:35.467            13.841            RioGallegos           432.531
       422   04 Jun 2027 08:48:49.991   04 Jun 2027 08:48:55.589             5.598            RioGallegos           174.937
       423   04 Jun 2027 09:15:42.772   04 Jun 2027 09:17:54.604           131.832                Sumatra          4119.750
       424   04 Jun 2027 09:31:21.900   04 Jun 2027 09:32:10.802            48.902                  Delhi          1528.188
       425   04 Jun 2027 09:36:55.583   04 Jun 2027 09:36:55.606             0.023                Novosib             0.719
       426   04 Jun 2027 09:36:59.101   04 Jun 2027 09:37:14.699            15.598                Norilsk           487.438
       427   04 Jun 2027 09:37:28.114   04 Jun 2027 09:37:30.321             2.207                Norilsk            68.969
       428   04 Jun 2027 09:37:40.104   04 Jun 2027 09:38:00.773            20.669                Novosib           645.906
       429   04 Jun 2027 09:38:10.544   04 Jun 2027 09:38:19.376             8.832                Irkutsk           276.000
       430   04 Jun 2027 09:38:19.950   04 Jun 2027 09:38:57.513            37.563                Norilsk          1173.844
       431   04 Jun 2027 09:39:10.094   04 Jun 2027 09:39:54.566            44.472                Novosib          1389.750
       432   04 Jun 2027 09:40:02.230   04 Jun 2027 09:40:50.931            48.701              Murmansk2          1521.906
       433   04 Jun 2027 09:40:54.376   04 Jun 2027 09:41:07.596            13.220                Norilsk           413.125
       434   04 Jun 2027 09:41:19.429   04 Jun 2027 09:41:27.924             8.495              Murmansk2           265.469
       435   04 Jun 2027 09:41:27.924   04 Jun 2027 09:41:46.977            19.053              Murmansk1           595.406
       436   04 Jun 2027 09:42:21.970   04 Jun 2027 09:42:35.965            13.995              Murmansk1           437.344
       437   04 Jun 2027 10:18:07.757   04 Jun 2027 10:18:51.909            44.152            RioGallegos          1379.750
       438   04 Jun 2027 10:19:44.143   04 Jun 2027 10:20:16.858            32.715            RioGallegos          1022.344
       439   04 Jun 2027 10:52:20.035   04 Jun 2027 10:53:05.315            45.280                Sumatra          1415.000
       440   04 Jun 2027 10:56:13.316   04 Jun 2027 10:56:59.926            46.610                Sumatra          1456.563
       441   04 Jun 2027 11:12:59.002   04 Jun 2027 11:13:13.695            14.693                Norilsk           459.156
       442   04 Jun 2027 11:13:30.595   04 Jun 2027 11:13:46.317            15.722              Murmansk1           491.312
       443   04 Jun 2027 11:13:52.957   04 Jun 2027 11:14:42.837            49.880                Norilsk          1558.750
       444   04 Jun 2027 11:14:50.045   04 Jun 2027 11:15:01.842            11.797              Murmansk2           368.656
       445   04 Jun 2027 11:15:06.236   04 Jun 2027 11:15:17.796            11.560                Norilsk           361.250
       446   04 Jun 2027 11:15:18.650   04 Jun 2027 11:15:31.763            13.113              Murmansk1           409.781
       447   04 Jun 2027 11:15:47.906   04 Jun 2027 11:16:06.114            18.208                Irkutsk           569.000
       448   04 Jun 2027 11:16:07.125   04 Jun 2027 11:17:02.838            55.713              Murmansk2          1741.031
       449   04 Jun 2027 11:17:14.906   04 Jun 2027 11:17:27.023            12.117                Norilsk           378.656
       450   04 Jun 2027 11:17:45.148   04 Jun 2027 11:17:54.168             9.020                Novosib           281.875
       451   04 Jun 2027 11:18:27.737   04 Jun 2027 11:18:38.955            11.218              Murmansk2           350.563
       452   04 Jun 2027 11:20:09.669   04 Jun 2027 11:20:11.882             2.213                 Moscow            69.156
       453   04 Jun 2027 12:37:39.472   04 Jun 2027 12:40:19.030           159.558                  Delhi          4986.187
       454   04 Jun 2027 12:44:51.927   04 Jun 2027 12:45:24.633            32.706                 Moscow          1022.062
       455   04 Jun 2027 12:46:11.717   04 Jun 2027 12:46:28.290            16.573                Novosib           517.906
       456   04 Jun 2027 12:46:28.525   04 Jun 2027 12:46:29.056             0.531                 Moscow            16.594
       457   04 Jun 2027 12:47:01.940   04 Jun 2027 12:47:29.021            27.081                Novosib           846.281
       458   04 Jun 2027 12:47:36.032   04 Jun 2027 12:50:05.386           149.354              Murmansk2          4667.313
       459   04 Jun 2027 12:50:11.050   04 Jun 2027 12:50:28.600            17.550                Norilsk           548.437
       460   04 Jun 2027 14:00:57.018   04 Jun 2027 14:02:34.758            97.740               CapeTown          3054.375
       461   04 Jun 2027 14:03:53.207   04 Jun 2027 14:04:03.709            10.502               CapeTown           328.187
       462   04 Jun 2027 14:04:17.162   04 Jun 2027 14:05:15.612            58.450               CapeTown          1826.562
       463   04 Jun 2027 14:20:10.283   04 Jun 2027 14:21:13.578            63.295                 Moscow          1977.969
       464   04 Jun 2027 14:23:38.569   04 Jun 2027 14:26:33.253           174.684              Murmansk2          5458.875
       465   04 Jun 2027 14:38:53.314   04 Jun 2027 14:41:18.742           145.428                Anadyr1          4544.625
       466   04 Jun 2027 14:42:06.039   04 Jun 2027 14:43:02.210            56.171                Anadyr1          1755.344
       467   04 Jun 2027 15:33:17.110   04 Jun 2027 15:33:24.943             7.833               CapeTown           244.781
       468   04 Jun 2027 16:00:33.916   04 Jun 2027 16:01:17.625            43.709                 Moscow          1365.906
       469   04 Jun 2027 16:01:59.623   04 Jun 2027 16:03:30.349            90.726              Murmansk2          2835.188
       470   04 Jun 2027 16:13:56.120   04 Jun 2027 16:16:13.706           137.586                Anadyr2          4299.562
       471   04 Jun 2027 16:22:05.827   04 Jun 2027 16:22:08.191             2.364                Anadyr1            73.875
       472   04 Jun 2027 16:23:42.900   04 Jun 2027 16:23:57.640            14.740                Anadyr2           460.625
       473   04 Jun 2027 16:24:54.508   04 Jun 2027 16:25:15.463            20.955                Anadyr2           654.844
       474   04 Jun 2027 17:10:18.455   04 Jun 2027 17:11:16.215            57.760               CapeTown          1805.000
       475   04 Jun 2027 17:12:09.361   04 Jun 2027 17:13:16.259            66.898               CapeTown          2090.562
       476   04 Jun 2027 17:43:48.149   04 Jun 2027 17:46:30.499           162.350              Murmansk2          5073.438
       477   04 Jun 2027 17:49:46.572   04 Jun 2027 17:50:54.617            68.045                Anadyr2          2126.406
       478   04 Jun 2027 17:51:02.157   04 Jun 2027 17:51:11.657             9.500                Anadyr2           296.875
       479   04 Jun 2027 17:51:34.858   04 Jun 2027 17:51:44.991            10.133                Anadyr1           316.656
       480   04 Jun 2027 17:52:13.696   04 Jun 2027 17:52:26.150            12.454                Anadyr2           389.187
       481   04 Jun 2027 17:52:43.538   04 Jun 2027 17:54:25.657           102.119               Magadan1          3191.219
       482   04 Jun 2027 17:57:30.590   04 Jun 2027 17:57:39.978             9.388               Magadan2           293.375
