uniorb/output/strategy_2/Drop/Drop_KinoSat_111310.txt

KinoSat_111310
-------------------------
    Access    *     Start Time (UTCG)     *     Stop Time (UTCG)  *   Duration (s)        *       Station  *  Data (Mbytes)
         1   01 Jun 2027 04:19:37.017   01 Jun 2027 04:19:51.033            14.016                 Moscow           438.000
         2   01 Jun 2027 04:19:51.895   01 Jun 2027 04:20:15.365            23.470              Murmansk2           733.437
         3   01 Jun 2027 04:20:15.365   01 Jun 2027 04:20:44.897            29.532              Murmansk1           922.875
         4   01 Jun 2027 04:21:07.622   01 Jun 2027 04:21:34.867            27.245              Murmansk2           851.406
         5   01 Jun 2027 05:41:32.224   01 Jun 2027 05:44:51.892           199.668                Anadyr1          6239.625
         6   01 Jun 2027 05:45:56.453   01 Jun 2027 05:46:30.351            33.898                Anadyr1          1059.312
         7   01 Jun 2027 07:18:38.645   01 Jun 2027 07:19:01.476            22.831               Magadan1           713.469
         8   01 Jun 2027 07:19:01.476   01 Jun 2027 07:19:58.641            57.165               Magadan2          1786.406
         9   01 Jun 2027 07:20:45.691   01 Jun 2027 07:22:04.552            78.861                Anadyr1          2464.406
        10   01 Jun 2027 08:53:14.107   01 Jun 2027 08:53:36.469            22.362               Magadan2           698.813
        11   01 Jun 2027 08:53:54.050   01 Jun 2027 08:56:20.886           146.836               Magadan2          4588.625
        12   01 Jun 2027 08:56:20.886   01 Jun 2027 08:57:09.574            48.688               Magadan1          1521.500
        13   01 Jun 2027 08:57:16.243   01 Jun 2027 08:58:27.707            71.464                Novosib          2233.250
        14   01 Jun 2027 08:58:37.308   01 Jun 2027 08:58:41.302             3.994                Novosib           124.812
        15   01 Jun 2027 10:28:24.366   01 Jun 2027 10:29:39.266            74.900                Irkutsk          2340.625
        16   01 Jun 2027 10:30:00.374   01 Jun 2027 10:30:05.679             5.305                Irkutsk           165.781
        17   01 Jun 2027 10:30:45.605   01 Jun 2027 10:32:40.611           115.006                Irkutsk          3593.938
        18   01 Jun 2027 10:33:18.724   01 Jun 2027 10:34:07.430            48.706                Novosib          1522.062
        19   01 Jun 2027 11:10:24.051   01 Jun 2027 11:10:58.652            34.601            RioGallegos          1081.281
        20   01 Jun 2027 11:11:50.800   01 Jun 2027 11:12:04.475            13.675            RioGallegos           427.344
        21   01 Jun 2027 11:13:35.721   01 Jun 2027 11:14:08.260            32.539            RioGallegos          1016.844
        22   01 Jun 2027 11:17:11.576   01 Jun 2027 11:17:43.780            32.204            RioGallegos          1006.375
        23   01 Jun 2027 11:44:36.952   01 Jun 2027 11:45:29.295            52.343                Sumatra          1635.719
        24   01 Jun 2027 11:46:51.454   01 Jun 2027 11:47:57.205            65.751                Sumatra          2054.719
        25   01 Jun 2027 11:48:33.075   01 Jun 2027 11:49:17.009            43.934                Sumatra          1372.938
        26   01 Jun 2027 12:00:44.060   01 Jun 2027 12:01:14.220            30.160                  Delhi           942.500
        27   01 Jun 2027 12:02:14.143   01 Jun 2027 12:03:05.946            51.803                Irkutsk          1618.844
        28   01 Jun 2027 12:06:51.475   01 Jun 2027 12:07:15.820            24.345                Irkutsk           760.781
        29   01 Jun 2027 12:11:44.956   01 Jun 2027 12:11:55.000            10.044                Norilsk           313.875
        30   01 Jun 2027 13:35:45.855   01 Jun 2027 13:37:53.302           127.447                  Delhi          3982.719
        31   01 Jun 2027 13:41:46.108   01 Jun 2027 13:43:14.401            88.293                Novosib          2759.156
        32   01 Jun 2027 13:43:46.504   01 Jun 2027 13:44:24.998            38.494                Novosib          1202.938
        33   01 Jun 2027 13:45:22.630   01 Jun 2027 13:45:37.407            14.777                Novosib           461.781
        34   01 Jun 2027 13:50:39.076   01 Jun 2027 13:50:41.307             2.231                Norilsk            69.719
        35   01 Jun 2027 13:51:26.310   01 Jun 2027 13:52:03.460            37.150              Murmansk1          1160.937
        36   01 Jun 2027 14:56:12.908   01 Jun 2027 14:57:39.909            87.001               CapeTown          2718.781
        37   01 Jun 2027 15:21:53.691   01 Jun 2027 15:22:35.140            41.449              Murmansk2          1295.281
        38   01 Jun 2027 15:23:12.101   01 Jun 2027 15:24:42.061            89.960                 Moscow          2811.250
        39   01 Jun 2027 15:25:29.408   01 Jun 2027 15:25:37.155             7.747              Murmansk2           242.094
        40   01 Jun 2027 15:26:25.406   01 Jun 2027 15:27:04.407            39.001              Murmansk2          1218.781
        41   01 Jun 2027 15:27:04.407   01 Jun 2027 15:27:11.147             6.740              Murmansk1           210.625
        42   01 Jun 2027 15:33:28.772   01 Jun 2027 15:33:42.038            13.266                Anadyr2           414.563
        43   01 Jun 2027 15:33:42.038   01 Jun 2027 15:34:24.867            42.829                Anadyr1          1338.406
        44   01 Jun 2027 15:34:45.295   01 Jun 2027 15:35:27.109            41.814                Anadyr1          1306.687
        45   01 Jun 2027 15:37:01.591   01 Jun 2027 15:37:28.664            27.073                Anadyr1           846.031
        46   01 Jun 2027 15:37:59.412   01 Jun 2027 15:38:00.228             0.816                Anadyr1            25.500
        47   01 Jun 2027 16:34:25.647   01 Jun 2027 16:35:03.746            38.099               CapeTown          1190.594
        48   01 Jun 2027 16:35:44.239   01 Jun 2027 16:37:38.353           114.114               CapeTown          3566.063
        49   01 Jun 2027 17:00:16.803   01 Jun 2027 17:00:47.901            31.098              Murmansk2           971.813
        50   01 Jun 2027 17:01:33.714   01 Jun 2027 17:02:00.412            26.698              Murmansk2           834.313
        51   01 Jun 2027 17:02:40.390   01 Jun 2027 17:03:05.853            25.463              Murmansk1           795.719
        52   01 Jun 2027 17:03:05.853   01 Jun 2027 17:04:15.238            69.385              Murmansk2          2168.281
        53   01 Jun 2027 17:14:27.083   01 Jun 2027 17:14:47.992            20.909                Anadyr1           653.406
        54   01 Jun 2027 17:15:20.686   01 Jun 2027 17:15:43.424            22.738                Anadyr2           710.563
        55   01 Jun 2027 17:16:05.554   01 Jun 2027 17:16:50.514            44.960                Anadyr1          1405.000
        56   01 Jun 2027 18:11:32.019   01 Jun 2027 18:11:33.550             1.531               CapeTown            47.844
        57   01 Jun 2027 18:36:06.988   01 Jun 2027 18:38:45.345           158.357              Murmansk2          4948.656
        58   01 Jun 2027 18:46:02.266   01 Jun 2027 18:46:13.459            11.193               Magadan1           349.781
        59   01 Jun 2027 18:50:09.783   01 Jun 2027 18:50:41.888            32.105                Anadyr1          1003.281
        60   01 Jun 2027 18:50:59.989   01 Jun 2027 18:51:29.468            29.479               Magadan2           921.219
        61   01 Jun 2027 18:51:46.416   01 Jun 2027 18:51:56.242             9.826               Magadan1           307.063
        62   01 Jun 2027 18:52:26.196   01 Jun 2027 18:52:46.322            20.126               Magadan2           628.937
        63   01 Jun 2027 18:53:10.576   01 Jun 2027 18:53:29.978            19.402                Anadyr1           606.313
        64   01 Jun 2027 18:53:30.634   01 Jun 2027 18:53:52.361            21.727               Magadan1           678.969
        65   01 Jun 2027 18:54:26.473   01 Jun 2027 18:54:56.482            30.009                Anadyr2           937.781
        66   01 Jun 2027 20:17:55.108   01 Jun 2027 20:18:18.045            22.937                Anadyr2           716.781
        67   01 Jun 2027 20:18:18.045   01 Jun 2027 20:19:07.266            49.221                Anadyr1          1538.156
        68   01 Jun 2027 20:19:36.013   01 Jun 2027 20:20:01.869            25.856                Anadyr1           808.000
        69   01 Jun 2027 20:20:11.889   01 Jun 2027 20:20:45.778            33.889               Magadan2          1059.031
        70   01 Jun 2027 20:21:09.481   01 Jun 2027 20:21:49.387            39.906                Norilsk          1247.063
        71   01 Jun 2027 20:21:54.817   01 Jun 2027 20:23:36.620           101.803                Norilsk          3181.344
        72   01 Jun 2027 20:25:42.397   01 Jun 2027 20:26:13.556            31.159               Magadan2           973.719
        73   01 Jun 2027 20:26:32.582   01 Jun 2027 20:27:09.105            36.523               Magadan1          1141.344
        74   01 Jun 2027 20:27:52.611   01 Jun 2027 20:28:14.771            22.160               Magadan2           692.500
        75   01 Jun 2027 20:28:35.130   01 Jun 2027 20:29:17.794            42.664               Magadan2          1333.250
        76   01 Jun 2027 20:30:25.042   01 Jun 2027 20:30:35.045            10.003               Magadan1           312.594
        77   01 Jun 2027 20:30:44.442   01 Jun 2027 20:30:45.835             1.393               Magadan2            43.531
        78   01 Jun 2027 20:30:56.419   01 Jun 2027 20:31:16.983            20.564               Magadan2           642.625
        79   01 Jun 2027 20:31:50.118   01 Jun 2027 20:32:05.544            15.426               Magadan1           482.063
        80   01 Jun 2027 20:32:37.047   01 Jun 2027 20:33:06.923            29.876               Magadan1           933.625
        81   01 Jun 2027 21:17:32.961   01 Jun 2027 21:18:34.921            61.960            RioGallegos          1936.250
        82   01 Jun 2027 21:19:25.980   01 Jun 2027 21:20:53.878            87.898            RioGallegos          2746.813
        83   01 Jun 2027 21:57:21.092   01 Jun 2027 21:57:26.954             5.862                Anadyr2           183.188
        84   01 Jun 2027 21:57:39.092   01 Jun 2027 21:57:59.627            20.535                Anadyr2           641.719
        85   01 Jun 2027 21:58:27.426   01 Jun 2027 21:58:28.250             0.824               Magadan2            25.750
        86   01 Jun 2027 21:58:40.565   01 Jun 2027 21:58:51.902            11.337                Anadyr1           354.281
        87   01 Jun 2027 21:59:02.777   01 Jun 2027 21:59:42.327            39.550               Magadan2          1235.937
        88   01 Jun 2027 22:00:33.574   01 Jun 2027 22:00:36.883             3.309                Anadyr1           103.406
        89   01 Jun 2027 22:00:41.811   01 Jun 2027 22:00:49.159             7.348               Magadan2           229.625
        90   01 Jun 2027 22:01:13.506   01 Jun 2027 22:01:15.452             1.946               Magadan1            60.813
        91   01 Jun 2027 22:01:17.122   01 Jun 2027 22:01:45.134            28.012                Anadyr1           875.375
        92   01 Jun 2027 22:02:28.802   01 Jun 2027 22:02:51.738            22.936               Magadan1           716.750
        93   01 Jun 2027 22:03:28.940   01 Jun 2027 22:04:52.450            83.510                Novosib          2609.688
        94   01 Jun 2027 22:08:33.933   01 Jun 2027 22:09:28.759            54.826                Irkutsk          1713.313
        95   01 Jun 2027 22:10:30.509   01 Jun 2027 22:10:32.061             1.552                Irkutsk            48.500
        96   01 Jun 2027 22:11:10.203   01 Jun 2027 22:11:39.154            28.951                Irkutsk           904.719
        97   01 Jun 2027 22:21:18.474   01 Jun 2027 22:21:36.341            17.867                Sumatra           558.344
        98   01 Jun 2027 22:23:11.795   01 Jun 2027 22:23:57.155            45.360                Sumatra          1417.500
        99   01 Jun 2027 22:57:57.673   01 Jun 2027 22:58:26.301            28.628            RioGallegos           894.625
       100   01 Jun 2027 23:28:19.909   01 Jun 2027 23:29:58.922            99.013                Anadyr2          3094.156
       101   01 Jun 2027 23:31:42.196   01 Jun 2027 23:32:57.720            75.524                Norilsk          2360.125
       102   01 Jun 2027 23:33:36.281   01 Jun 2027 23:33:45.423             9.142                Norilsk           285.687
       103   01 Jun 2027 23:34:53.911   01 Jun 2027 23:35:09.884            15.973               Magadan2           499.156
       104   01 Jun 2027 23:35:09.884   01 Jun 2027 23:35:13.294             3.410               Magadan1           106.562
       105   01 Jun 2027 23:35:44.233   01 Jun 2027 23:36:02.007            17.774                Novosib           555.438
       106   01 Jun 2027 23:36:49.580   01 Jun 2027 23:37:57.105            67.525                Novosib          2110.156
       107   01 Jun 2027 23:40:10.429   01 Jun 2027 23:40:46.260            35.831                Novosib          1119.719
       108   01 Jun 2027 23:42:59.640   01 Jun 2027 23:43:16.544            16.904                Novosib           528.250
       109   01 Jun 2027 23:44:27.983   01 Jun 2027 23:44:36.451             8.468                Novosib           264.625
       110   01 Jun 2027 23:44:57.811   01 Jun 2027 23:45:21.620            23.809                Irkutsk           744.031
       111   01 Jun 2027 23:46:27.925   01 Jun 2027 23:46:59.904            31.979                Novosib           999.344
       112   01 Jun 2027 23:49:22.477   01 Jun 2027 23:49:37.773            15.296                  Delhi           478.000
       113   01 Jun 2027 23:49:45.452   01 Jun 2027 23:50:07.172            21.720                  Delhi           678.750
       114   01 Jun 2027 23:51:02.011   01 Jun 2027 23:52:57.759           115.748                  Delhi          3617.125
       115   02 Jun 2027 01:01:54.886   02 Jun 2027 01:02:08.658            13.772                Anadyr2           430.375
       116   02 Jun 2027 01:02:41.415   02 Jun 2027 01:03:13.989            32.574                Anadyr2          1017.937
       117   02 Jun 2027 01:04:23.452   02 Jun 2027 01:04:53.011            29.559                Anadyr1           923.719
       118   02 Jun 2027 01:06:27.760   02 Jun 2027 01:06:44.263            16.503                Anadyr1           515.719
       119   02 Jun 2027 01:07:08.795   02 Jun 2027 01:07:29.788            20.993                Anadyr1           656.031
       120   02 Jun 2027 01:07:29.788   02 Jun 2027 01:07:39.654             9.866                Anadyr2           308.312
       121   02 Jun 2027 01:07:41.832   02 Jun 2027 01:07:58.321            16.489                Norilsk           515.281
       122   02 Jun 2027 01:08:22.171   02 Jun 2027 01:09:15.173            53.002               Magadan2          1656.313
       123   02 Jun 2027 01:09:33.700   02 Jun 2027 01:09:46.004            12.304                Norilsk           384.500
       124   02 Jun 2027 01:10:04.839   02 Jun 2027 01:10:18.961            14.122              Murmansk1           441.313
       125   02 Jun 2027 01:10:36.338   02 Jun 2027 01:10:59.740            23.402               Magadan1           731.312
       126   02 Jun 2027 01:11:50.982   02 Jun 2027 01:12:36.488            45.506              Murmansk2          1422.063
       127   02 Jun 2027 01:15:09.172   02 Jun 2027 01:15:40.865            31.693                Irkutsk           990.406
       128   02 Jun 2027 01:17:22.996   02 Jun 2027 01:17:43.897            20.901                 Moscow           653.156
       129   02 Jun 2027 01:18:08.374   02 Jun 2027 01:18:22.238            13.864              Murmansk2           433.250
       130   02 Jun 2027 01:20:30.035   02 Jun 2027 01:20:46.010            15.975                Irkutsk           499.219
       131   02 Jun 2027 01:21:13.149   02 Jun 2027 01:21:45.663            32.514                Novosib          1016.062
       132   02 Jun 2027 01:23:23.896   02 Jun 2027 01:24:08.434            44.538                Novosib          1391.813
       133   02 Jun 2027 01:28:49.170   02 Jun 2027 01:29:44.318            55.148                  Delhi          1723.375
       134   02 Jun 2027 02:35:18.012   02 Jun 2027 02:37:09.857           111.845                Anadyr1          3495.156
       135   02 Jun 2027 02:37:31.074   02 Jun 2027 02:38:22.314            51.240                Anadyr2          1601.250
       136   02 Jun 2027 02:40:29.705   02 Jun 2027 02:40:46.863            17.158               Magadan2           536.188
       137   02 Jun 2027 02:41:19.545   02 Jun 2027 02:41:52.152            32.607               Magadan2          1018.969
       138   02 Jun 2027 02:43:30.268   02 Jun 2027 02:43:33.505             3.237                Norilsk           101.156
       139   02 Jun 2027 02:44:14.341   02 Jun 2027 02:44:25.241            10.900               Magadan2           340.625
       140   02 Jun 2027 02:44:38.144   02 Jun 2027 02:44:55.930            17.786                Norilsk           555.812
       141   02 Jun 2027 02:45:45.374   02 Jun 2027 02:46:13.216            27.842                Norilsk           870.063
       142   02 Jun 2027 02:47:24.701   02 Jun 2027 02:47:56.493            31.792              Murmansk2           993.500
       143   02 Jun 2027 02:48:51.780   02 Jun 2027 02:49:23.143            31.363              Murmansk1           980.094
       144   02 Jun 2027 02:51:45.988   02 Jun 2027 02:51:48.555             2.567              Murmansk2            80.219
       145   02 Jun 2027 02:51:53.769   02 Jun 2027 02:52:27.288            33.519                Novosib          1047.469
       146   02 Jun 2027 02:53:33.289   02 Jun 2027 02:53:57.592            24.303                Novosib           759.469
       147   02 Jun 2027 02:56:45.388   02 Jun 2027 02:57:21.657            36.269                Novosib          1133.406
       148   02 Jun 2027 04:30:23.228   02 Jun 2027 04:33:17.648           174.420              Murmansk1          5450.625
       149   02 Jun 2027 04:33:30.093   02 Jun 2027 04:34:45.106            75.013              Murmansk2          2344.156
       150   02 Jun 2027 05:52:11.057   02 Jun 2027 05:52:25.669            14.612               Magadan2           456.625
       151   02 Jun 2027 05:52:34.651   02 Jun 2027 05:55:09.836           155.185               Magadan2          4849.531
       152   02 Jun 2027 05:55:09.836   02 Jun 2027 05:56:16.010            66.174               Magadan1          2067.938
       153   02 Jun 2027 07:30:17.069   02 Jun 2027 07:30:27.327            10.258                Irkutsk           320.562
       154   02 Jun 2027 07:30:32.378   02 Jun 2027 07:31:55.145            82.767               Magadan2          2586.469
       155   02 Jun 2027 07:31:56.022   02 Jun 2027 07:32:03.739             7.717               Magadan2           241.156
       156   02 Jun 2027 07:32:03.739   02 Jun 2027 07:32:30.395            26.656               Magadan1           833.000
       157   02 Jun 2027 09:02:55.461   02 Jun 2027 09:03:17.800            22.339               Magadan1           698.094
       158   02 Jun 2027 09:05:03.940   02 Jun 2027 09:05:20.766            16.826                Novosib           525.813
       159   02 Jun 2027 09:05:21.747   02 Jun 2027 09:06:21.195            59.448                Norilsk          1857.750
       160   02 Jun 2027 09:06:27.583   02 Jun 2027 09:06:57.972            30.389                Novosib           949.656
       161   02 Jun 2027 09:07:06.571   02 Jun 2027 09:07:32.126            25.555                Irkutsk           798.594
       162   02 Jun 2027 09:07:51.017   02 Jun 2027 09:07:59.338             8.321                Irkutsk           260.031
       163   02 Jun 2027 09:08:02.707   02 Jun 2027 09:08:48.160            45.453              Murmansk2          1420.406
       164   02 Jun 2027 09:09:02.362   02 Jun 2027 09:09:51.715            49.353              Murmansk1          1542.281
       165   02 Jun 2027 09:09:55.586   02 Jun 2027 09:09:58.357             2.771                Norilsk            86.594
       166   02 Jun 2027 09:10:21.028   02 Jun 2027 09:10:24.096             3.068              Murmansk2            95.875
       167   02 Jun 2027 09:10:30.240   02 Jun 2027 09:11:00.253            30.013                Novosib           937.906
       168   02 Jun 2027 09:11:14.416   02 Jun 2027 09:11:15.260             0.844                Norilsk            26.375
       169   02 Jun 2027 09:11:21.478   02 Jun 2027 09:11:57.966            36.488              Murmansk2          1140.250
       170   02 Jun 2027 09:12:05.032   02 Jun 2027 09:12:21.793            16.761              Murmansk2           523.781
       171   02 Jun 2027 09:13:12.404   02 Jun 2027 09:13:32.894            20.490              Murmansk2           640.312
       172   02 Jun 2027 09:17:12.319   02 Jun 2027 09:17:23.899            11.580              Murmansk2           361.875
       173   02 Jun 2027 09:44:33.535   02 Jun 2027 09:45:33.062            59.527            RioGallegos          1860.219
       174   02 Jun 2027 09:47:19.037   02 Jun 2027 09:47:31.841            12.804            RioGallegos           400.125
       175   02 Jun 2027 09:48:05.325   02 Jun 2027 09:48:16.415            11.090            RioGallegos           346.562
       176   02 Jun 2027 10:19:40.368   02 Jun 2027 10:20:26.200            45.832                Sumatra          1432.250
       177   02 Jun 2027 10:22:26.023   02 Jun 2027 10:22:28.230             2.207                Sumatra            68.969
       178   02 Jun 2027 10:31:28.392   02 Jun 2027 10:32:02.667            34.275                  Delhi          1071.094
       179   02 Jun 2027 10:39:41.192   02 Jun 2027 10:39:43.119             1.927                Novosib            60.219
       180   02 Jun 2027 10:39:43.146   02 Jun 2027 10:39:49.224             6.078                Irkutsk           189.937
       181   02 Jun 2027 10:40:01.384   02 Jun 2027 10:40:30.087            28.703                Norilsk           896.969
       182   02 Jun 2027 10:40:36.756   02 Jun 2027 10:40:42.575             5.819                Norilsk           181.844
       183   02 Jun 2027 10:41:05.110   02 Jun 2027 10:41:51.113            46.003                Irkutsk          1437.594
       184   02 Jun 2027 10:42:06.320   02 Jun 2027 10:43:17.556            71.236                Irkutsk          2226.125
       185   02 Jun 2027 10:43:27.940   02 Jun 2027 10:43:40.592            12.652              Murmansk2           395.375
       186   02 Jun 2027 10:43:40.592   02 Jun 2027 10:44:07.945            27.353              Murmansk1           854.781
       187   02 Jun 2027 10:44:11.290   02 Jun 2027 10:45:27.049            75.759                Irkutsk          2367.469
       188   02 Jun 2027 10:45:48.698   02 Jun 2027 10:46:11.342            22.644              Murmansk2           707.625
       189   02 Jun 2027 11:23:03.736   02 Jun 2027 11:23:16.493            12.757            RioGallegos           398.656
       190   02 Jun 2027 11:23:32.277   02 Jun 2027 11:24:07.855            35.578            RioGallegos          1111.813
       191   02 Jun 2027 11:25:38.377   02 Jun 2027 11:26:50.864            72.487            RioGallegos          2265.219
       192   02 Jun 2027 11:58:00.284   02 Jun 2027 11:59:44.399           104.115                Sumatra          3253.594
       193   02 Jun 2027 12:12:05.764   02 Jun 2027 12:13:38.415            92.651                Novosib          2895.344
       194   02 Jun 2027 12:19:18.206   02 Jun 2027 12:19:31.883            13.677                Norilsk           427.406
       195   02 Jun 2027 12:22:02.553   02 Jun 2027 12:22:18.008            15.455              Murmansk2           482.969
       196   02 Jun 2027 12:25:28.552   02 Jun 2027 12:25:52.375            23.823              Murmansk1           744.469
       197   02 Jun 2027 13:43:10.790   02 Jun 2027 13:46:33.164           202.374                  Delhi          6324.187
       198   02 Jun 2027 13:50:02.881   02 Jun 2027 13:50:23.469            20.588                 Moscow           643.375
       199   02 Jun 2027 13:51:29.640   02 Jun 2027 13:53:27.865           118.225              Murmansk2          3694.531
       200   02 Jun 2027 13:53:44.558   02 Jun 2027 13:55:38.423           113.865                Novosib          3558.281
       201   02 Jun 2027 15:03:53.298   02 Jun 2027 15:06:18.070           144.772               CapeTown          4524.125
       202   02 Jun 2027 15:09:20.573   02 Jun 2027 15:10:39.543            78.970               CapeTown          2467.813
       203   02 Jun 2027 15:28:05.486   02 Jun 2027 15:28:51.163            45.677              Murmansk2          1427.406
       204   02 Jun 2027 15:36:36.283   02 Jun 2027 15:36:38.463             2.180              Murmansk1            68.125
       205   02 Jun 2027 15:36:54.169   02 Jun 2027 15:37:31.576            37.407              Murmansk2          1168.969
       206   02 Jun 2027 15:42:52.086   02 Jun 2027 15:44:12.774            80.688                Anadyr2          2521.500
       207   02 Jun 2027 15:44:48.087   02 Jun 2027 15:45:22.378            34.291                Anadyr1          1071.594
       208   02 Jun 2027 15:45:39.633   02 Jun 2027 15:45:53.125            13.492                Anadyr1           421.625
       209   02 Jun 2027 15:46:01.421   02 Jun 2027 15:46:05.034             3.613                Anadyr1           112.906
       210   02 Jun 2027 16:37:29.405   02 Jun 2027 16:38:06.067            36.662               CapeTown          1145.688
       211   02 Jun 2027 16:42:27.111   02 Jun 2027 16:43:24.336            57.225               CapeTown          1788.281
       212   02 Jun 2027 17:06:28.741   02 Jun 2027 17:07:13.135            44.394                 Moscow          1387.313
       213   02 Jun 2027 17:07:45.161   02 Jun 2027 17:10:20.218           155.057              Murmansk2          4845.531
       214   02 Jun 2027 17:18:09.027   02 Jun 2027 17:18:31.288            22.261                Anadyr2           695.656
       215   02 Jun 2027 17:18:31.288   02 Jun 2027 17:19:17.781            46.493                Anadyr1          1452.906
       216   02 Jun 2027 17:22:32.979   02 Jun 2027 17:24:07.505            94.526               Magadan2          2953.938
       217   02 Jun 2027 17:24:45.841   02 Jun 2027 17:24:58.419            12.578               Magadan1           393.063
       218   02 Jun 2027 18:54:01.691   02 Jun 2027 18:57:49.322           227.631                Anadyr1          7113.469
       219   02 Jun 2027 18:58:14.646   02 Jun 2027 18:59:16.961            62.315                Anadyr2          1947.344
       220   02 Jun 2027 18:59:31.397   02 Jun 2027 19:00:59.411            88.014               Magadan2          2750.438
       221   02 Jun 2027 19:05:21.297   02 Jun 2027 19:05:28.116             6.819               Magadan2           213.094
       222   02 Jun 2027 19:07:36.015   02 Jun 2027 19:08:15.585            39.570               Magadan2          1236.563
       223   02 Jun 2027 20:29:55.782   02 Jun 2027 20:33:39.806           224.024                Anadyr1          7000.750
       224   02 Jun 2027 20:33:42.025   02 Jun 2027 20:35:52.085           130.060                Norilsk          4064.375
       225   02 Jun 2027 20:36:06.882   02 Jun 2027 20:36:27.013            20.131               Magadan2           629.094
       226   02 Jun 2027 20:39:08.724   02 Jun 2027 20:39:35.084            26.360               Magadan2           823.750
       227   02 Jun 2027 20:39:40.281   02 Jun 2027 20:41:35.178           114.897                Irkutsk          3590.531
       228   02 Jun 2027 21:24:15.767   02 Jun 2027 21:24:47.972            32.205            RioGallegos          1006.406
       229   02 Jun 2027 21:25:25.524   02 Jun 2027 21:26:10.623            45.099            RioGallegos          1409.344
       230   02 Jun 2027 21:26:57.980   02 Jun 2027 21:27:36.010            38.030            RioGallegos          1188.437
       231   02 Jun 2027 22:06:05.898   02 Jun 2027 22:06:16.029            10.131                Anadyr1           316.594
       232   02 Jun 2027 22:07:46.276   02 Jun 2027 22:09:44.767           118.491                Norilsk          3702.844
       233   02 Jun 2027 22:10:00.516   02 Jun 2027 22:10:26.778            26.262               Magadan1           820.687
       234   02 Jun 2027 22:10:41.401   02 Jun 2027 22:11:48.200            66.799               Magadan1          2087.469
       235   02 Jun 2027 22:11:53.371   02 Jun 2027 22:12:46.342            52.971                Irkutsk          1655.344
       236   02 Jun 2027 22:13:28.179   02 Jun 2027 22:13:48.733            20.554                Novosib           642.313
       237   02 Jun 2027 22:15:19.469   02 Jun 2027 22:15:33.543            14.074                Novosib           439.813
       238   02 Jun 2027 22:15:56.810   02 Jun 2027 22:17:26.800            89.990                Novosib          2812.187
       239   02 Jun 2027 22:34:00.984   02 Jun 2027 22:35:05.541            64.557                Sumatra          2017.406
       240   02 Jun 2027 23:40:07.268   02 Jun 2027 23:41:58.008           110.740                Anadyr2          3460.625
       241   02 Jun 2027 23:43:44.334   02 Jun 2027 23:44:05.450            21.116                Norilsk           659.875
       242   02 Jun 2027 23:44:22.959   02 Jun 2027 23:45:34.356            71.397               Magadan2          2231.156
       243   02 Jun 2027 23:45:34.356   02 Jun 2027 23:45:57.890            23.534               Magadan1           735.438
       244   02 Jun 2027 23:47:37.308   02 Jun 2027 23:48:53.381            76.073                Irkutsk          2377.281
       245   02 Jun 2027 23:48:54.154   02 Jun 2027 23:50:15.751            81.597                Novosib          2549.906
       246   02 Jun 2027 23:55:20.512   02 Jun 2027 23:56:31.754            71.242                  Delhi          2226.313
       247   02 Jun 2027 23:57:02.732   02 Jun 2027 23:57:20.437            17.705                  Delhi           553.281
       248   03 Jun 2027 00:36:09.697   03 Jun 2027 00:36:46.764            37.067            RioGallegos          1158.344
       249   03 Jun 2027 00:39:46.248   03 Jun 2027 00:40:07.275            21.027            RioGallegos           657.094
       250   03 Jun 2027 00:45:43.567   03 Jun 2027 00:45:49.144             5.577            RioGallegos           174.281
       251   03 Jun 2027 01:13:35.919   03 Jun 2027 01:14:36.145            60.226                Anadyr1          1882.062
       252   03 Jun 2027 01:14:36.145   03 Jun 2027 01:15:13.305            37.160                Anadyr2          1161.250
       253   03 Jun 2027 01:16:08.022   03 Jun 2027 01:16:34.544            26.522                Anadyr2           828.813
       254   03 Jun 2027 01:16:54.193   03 Jun 2027 01:16:59.739             5.546                Anadyr1           173.313
       255   03 Jun 2027 01:19:43.274   03 Jun 2027 01:20:00.632            17.358                Norilsk           542.438
       256   03 Jun 2027 01:20:21.766   03 Jun 2027 01:21:10.722            48.956               Magadan2          1529.875
       257   03 Jun 2027 01:21:18.348   03 Jun 2027 01:21:47.386            29.038                Norilsk           907.438
       258   03 Jun 2027 01:22:02.668   03 Jun 2027 01:24:35.084           152.416              Murmansk1          4763.000
       259   03 Jun 2027 01:25:55.079   03 Jun 2027 01:26:29.049            33.970                Novosib          1061.562
       260   03 Jun 2027 01:29:08.343   03 Jun 2027 01:29:22.958            14.615                 Moscow           456.719
       261   03 Jun 2027 01:31:18.089   03 Jun 2027 01:31:35.400            17.311                  Delhi           540.969
       262   03 Jun 2027 01:32:54.965   03 Jun 2027 01:33:12.257            17.292                  Delhi           540.375
       263   03 Jun 2027 01:38:48.766   03 Jun 2027 01:39:16.522            27.756                  Delhi           867.375
       264   03 Jun 2027 02:47:03.751   03 Jun 2027 02:50:16.448           192.697                Anadyr2          6021.781
       265   03 Jun 2027 02:51:23.219   03 Jun 2027 02:52:39.537            76.318                Anadyr1          2384.937
       266   03 Jun 2027 02:55:29.326   03 Jun 2027 02:56:01.430            32.104                Norilsk          1003.250
       267   03 Jun 2027 02:57:50.999   03 Jun 2027 02:58:18.682            27.683              Murmansk2           865.094
       268   03 Jun 2027 02:59:03.732   03 Jun 2027 03:00:14.780            71.048              Murmansk1          2220.250
       269   03 Jun 2027 03:04:48.165   03 Jun 2027 03:05:37.213            49.048                Norilsk          1532.750
       270   03 Jun 2027 03:06:08.702   03 Jun 2027 03:06:09.892             1.190                 Moscow            37.187
       271   03 Jun 2027 03:06:18.171   03 Jun 2027 03:08:44.203           146.032              Murmansk2          4563.500
       272   03 Jun 2027 03:08:50.256   03 Jun 2027 03:08:59.746             9.490                Novosib           296.563
       273   03 Jun 2027 03:09:15.257   03 Jun 2027 03:10:04.922            49.665              Murmansk1          1552.031
       274   03 Jun 2027 03:10:44.032   03 Jun 2027 03:12:00.539            76.507                 Moscow          2390.844
       275   03 Jun 2027 03:25:21.030   03 Jun 2027 03:28:46.700           205.670               CapeTown          6427.188
       276   03 Jun 2027 04:21:44.345   03 Jun 2027 04:25:30.138           225.793                Anadyr1          7056.031
       277   03 Jun 2027 04:25:40.828   03 Jun 2027 04:26:57.446            76.618                Anadyr2          2394.312
       278   03 Jun 2027 04:29:15.529   03 Jun 2027 04:31:18.170           122.641                Anadyr1          3832.531
       279   03 Jun 2027 04:31:26.067   03 Jun 2027 04:31:59.584            33.517               Magadan2          1047.406
       280   03 Jun 2027 04:33:11.224   03 Jun 2027 04:33:27.298            16.074               Magadan1           502.313
       281   03 Jun 2027 04:33:30.806   03 Jun 2027 04:34:08.807            38.001               Magadan1          1187.531
       282   03 Jun 2027 04:40:55.457   03 Jun 2027 04:41:09.246            13.789              Murmansk2           430.906
       283   03 Jun 2027 04:46:04.804   03 Jun 2027 04:46:46.605            41.801              Murmansk2          1306.281
       284   03 Jun 2027 06:03:04.412   03 Jun 2027 06:04:40.345            95.933                Anadyr1          2997.906
       285   03 Jun 2027 06:05:00.413   03 Jun 2027 06:07:05.800           125.387               Magadan2          3918.344
       286   03 Jun 2027 06:07:39.049   03 Jun 2027 06:08:55.362            76.313                Anadyr2          2384.781
       287   03 Jun 2027 06:09:40.451   03 Jun 2027 06:09:43.947             3.496              Murmansk2           109.250
       288   03 Jun 2027 06:10:07.187   03 Jun 2027 06:10:26.203            19.016              Murmansk2           594.250
       289   03 Jun 2027 06:50:30.419   03 Jun 2027 06:51:15.442            45.023            RioGallegos          1406.969
       290   03 Jun 2027 07:37:41.365   03 Jun 2027 07:37:53.510            12.145               Magadan2           379.531
       291   03 Jun 2027 07:38:13.886   03 Jun 2027 07:38:35.967            22.081               Magadan1           690.031
       292   03 Jun 2027 07:38:41.862   03 Jun 2027 07:40:13.076            91.214               Magadan2          2850.437
       293   03 Jun 2027 07:40:25.012   03 Jun 2027 07:41:03.523            38.511                Anadyr2          1203.469
       294   03 Jun 2027 07:41:03.523   03 Jun 2027 07:41:37.737            34.214                Anadyr1          1069.187
       295   03 Jun 2027 07:42:25.055   03 Jun 2027 07:42:35.674            10.619               Magadan2           331.844
       296   03 Jun 2027 07:42:55.255   03 Jun 2027 07:43:26.567            31.312               Magadan1           978.500
       297   03 Jun 2027 07:43:31.173   03 Jun 2027 07:44:45.658            74.485                Anadyr1          2327.656
       298   03 Jun 2027 08:21:39.482   03 Jun 2027 08:21:52.263            12.781            RioGallegos           399.406
       299   03 Jun 2027 08:23:16.689   03 Jun 2027 08:23:40.188            23.499            RioGallegos           734.344
       300   03 Jun 2027 08:26:02.377   03 Jun 2027 08:26:51.714            49.337            RioGallegos          1541.781
       301   03 Jun 2027 09:14:42.546   03 Jun 2027 09:17:46.222           183.676               Magadan2          5739.875
       302   03 Jun 2027 09:18:01.226   03 Jun 2027 09:18:03.377             2.151                Irkutsk            67.219
       303   03 Jun 2027 09:18:12.640   03 Jun 2027 09:19:21.005            68.365               Magadan1          2136.406
       304   03 Jun 2027 09:19:51.411   03 Jun 2027 09:20:07.879            16.468                Novosib           514.625
       305   03 Jun 2027 09:20:12.272   03 Jun 2027 09:20:13.903             1.631              Murmansk2            50.969
       306   03 Jun 2027 09:20:18.055   03 Jun 2027 09:20:58.469            40.414               Magadan2          1262.938
       307   03 Jun 2027 09:21:06.925   03 Jun 2027 09:21:07.598             0.673                Norilsk            21.031
       308   03 Jun 2027 09:21:11.110   03 Jun 2027 09:21:41.963            30.853                Irkutsk           964.156
       309   03 Jun 2027 09:21:45.700   03 Jun 2027 09:22:22.598            36.898              Murmansk1          1153.063
       310   03 Jun 2027 09:22:22.598   03 Jun 2027 09:22:25.555             2.957              Murmansk2            92.406
       311   03 Jun 2027 09:26:14.898   03 Jun 2027 09:26:26.583            11.685              Murmansk2           365.156
       312   03 Jun 2027 09:56:39.473   03 Jun 2027 09:57:33.227            53.754            RioGallegos          1679.812
       313   03 Jun 2027 09:59:50.138   03 Jun 2027 10:00:34.034            43.896            RioGallegos          1371.750
       314   03 Jun 2027 10:31:32.388   03 Jun 2027 10:32:12.134            39.746                Sumatra          1242.063
       315   03 Jun 2027 10:45:00.608   03 Jun 2027 10:45:43.524            42.916                  Delhi          1341.125
       316   03 Jun 2027 10:51:43.397   03 Jun 2027 10:52:23.637            40.240                Irkutsk          1257.500
       317   03 Jun 2027 10:52:45.811   03 Jun 2027 10:53:08.541            22.730                Novosib           710.313
       318   03 Jun 2027 10:53:16.358   03 Jun 2027 10:53:43.214            26.856                Norilsk           839.250
       319   03 Jun 2027 10:54:00.194   03 Jun 2027 10:54:06.000             5.806                Irkutsk           181.437
       320   03 Jun 2027 10:54:18.829   03 Jun 2027 10:54:56.752            37.923                Novosib          1185.094
       321   03 Jun 2027 10:55:05.340   03 Jun 2027 10:55:10.091             4.751                Irkutsk           148.469
       322   03 Jun 2027 10:55:14.982   03 Jun 2027 10:55:45.030            30.048                Irkutsk           939.000
       323   03 Jun 2027 10:55:55.847   03 Jun 2027 10:56:12.233            16.386                Novosib           512.062
       324   03 Jun 2027 10:56:14.433   03 Jun 2027 10:56:42.822            28.389                Irkutsk           887.156
       325   03 Jun 2027 10:56:52.705   03 Jun 2027 10:57:05.070            12.365                Norilsk           386.406
       326   03 Jun 2027 10:57:05.614   03 Jun 2027 10:57:36.877            31.263              Murmansk2           976.969
       327   03 Jun 2027 10:58:55.454   03 Jun 2027 10:59:29.552            34.098                 Moscow          1065.562
       328   03 Jun 2027 11:35:52.694   03 Jun 2027 11:36:10.349            17.655            RioGallegos           551.719
       329   03 Jun 2027 11:37:32.959   03 Jun 2027 11:37:49.534            16.575            RioGallegos           517.969
       330   03 Jun 2027 11:39:56.489   03 Jun 2027 11:40:33.097            36.608            RioGallegos          1144.000
       331   03 Jun 2027 12:10:38.647   03 Jun 2027 12:11:37.712            59.065                Sumatra          1845.781
       332   03 Jun 2027 12:18:46.497   03 Jun 2027 12:19:52.650            66.153                  Delhi          2067.281
       333   03 Jun 2027 12:23:15.123   03 Jun 2027 12:24:08.106            52.983                Novosib          1655.719
       334   03 Jun 2027 12:26:31.587   03 Jun 2027 12:27:36.693            65.106                Novosib          2034.562
       335   03 Jun 2027 12:27:39.538   03 Jun 2027 12:28:11.176            31.638                Norilsk           988.687
       336   03 Jun 2027 12:32:08.324   03 Jun 2027 12:32:52.970            44.646              Murmansk2          1395.187
       337   03 Jun 2027 14:00:08.516   03 Jun 2027 14:03:07.049           178.533                 Moscow          5579.156
       338   03 Jun 2027 14:03:13.045   03 Jun 2027 14:03:22.533             9.488                 Moscow           296.500
       339   03 Jun 2027 14:03:30.496   03 Jun 2027 14:06:02.709           152.213              Murmansk1          4756.656
       340   03 Jun 2027 14:06:05.115   03 Jun 2027 14:07:45.723           100.608                Novosib          3144.000
       341   03 Jun 2027 15:15:11.896   03 Jun 2027 15:16:28.381            76.485               CapeTown          2390.156
       342   03 Jun 2027 15:17:35.209   03 Jun 2027 15:17:59.693            24.484               CapeTown           765.125
       343   03 Jun 2027 15:19:36.425   03 Jun 2027 15:19:40.264             3.839               CapeTown           119.969
       344   03 Jun 2027 15:21:21.273   03 Jun 2027 15:22:17.637            56.364               CapeTown          1761.375
       345   03 Jun 2027 15:37:02.521   03 Jun 2027 15:37:40.144            37.623                 Moscow          1175.719
       346   03 Jun 2027 15:40:20.015   03 Jun 2027 15:41:09.388            49.373              Murmansk1          1542.906
       347   03 Jun 2027 15:42:06.327   03 Jun 2027 15:42:49.809            43.482              Murmansk1          1358.812
       348   03 Jun 2027 15:54:43.362   03 Jun 2027 15:56:12.281            88.919                Anadyr1          2778.719
       349   03 Jun 2027 15:57:21.661   03 Jun 2027 15:57:54.181            32.520                Anadyr2          1016.250
       350   03 Jun 2027 15:57:57.529   03 Jun 2027 15:58:15.270            17.741                Anadyr2           554.406
       351   03 Jun 2027 15:58:35.572   03 Jun 2027 15:58:56.997            21.425                Anadyr1           669.531
       352   03 Jun 2027 16:49:31.346   03 Jun 2027 16:51:51.249           139.903               CapeTown          4371.969
       353   03 Jun 2027 17:19:19.337   03 Jun 2027 17:20:28.951            69.614              Murmansk2          2175.438
       354   03 Jun 2027 17:22:57.773   03 Jun 2027 17:24:33.698            95.925              Murmansk2          2997.656
       355   03 Jun 2027 17:30:19.826   03 Jun 2027 17:30:32.458            12.632                Anadyr1           394.750
       356   03 Jun 2027 17:31:19.366   03 Jun 2027 17:31:24.968             5.602                Anadyr2           175.062
       357   03 Jun 2027 17:32:16.735   03 Jun 2027 17:32:22.084             5.349                Anadyr1           167.156
       358   03 Jun 2027 17:33:57.501   03 Jun 2027 17:36:21.909           144.408               Magadan1          4512.750
       359   03 Jun 2027 17:36:23.133   03 Jun 2027 17:38:24.312           121.179               Magadan1          3786.844
       360   03 Jun 2027 19:06:03.280   03 Jun 2027 19:07:58.119           114.839                Anadyr2          3588.719
       361   03 Jun 2027 19:08:04.379   03 Jun 2027 19:08:08.679             4.300                Anadyr1           134.375
       362   03 Jun 2027 19:08:23.324   03 Jun 2027 19:08:41.363            18.039                Anadyr1           563.719
       363   03 Jun 2027 19:08:56.192   03 Jun 2027 19:10:36.665           100.473               Magadan1          3139.781
       364   03 Jun 2027 19:13:35.361   03 Jun 2027 19:13:56.617            21.256               Magadan2           664.250
       365   03 Jun 2027 19:19:14.530   03 Jun 2027 19:19:52.140            37.610               Magadan2          1175.313
       366   03 Jun 2027 20:41:56.155   03 Jun 2027 20:45:39.180           223.025                Anadyr1          6969.531
       367   03 Jun 2027 20:45:42.589   03 Jun 2027 20:46:58.959            76.370                Norilsk          2386.563
       368   03 Jun 2027 20:47:25.471   03 Jun 2027 20:48:04.600            39.129               Magadan1          1222.781
       369   03 Jun 2027 20:49:20.925   03 Jun 2027 20:49:48.094            27.169                Norilsk           849.031
       370   03 Jun 2027 20:50:08.266   03 Jun 2027 20:51:26.744            78.478                Irkutsk          2452.437
       371   03 Jun 2027 20:52:04.901   03 Jun 2027 20:52:22.141            17.240                Irkutsk           538.750
       372   03 Jun 2027 20:52:38.544   03 Jun 2027 20:52:40.079             1.535                Irkutsk            47.969
       373   03 Jun 2027 20:53:44.805   03 Jun 2027 20:55:32.146           107.341                Irkutsk          3354.406
       374   03 Jun 2027 21:45:39.952   03 Jun 2027 21:45:47.993             8.041            RioGallegos           251.281
       375   03 Jun 2027 22:17:24.995   03 Jun 2027 22:17:50.871            25.876                Anadyr2           808.625
       376   03 Jun 2027 22:18:08.891   03 Jun 2027 22:18:17.273             8.382                Anadyr1           261.937
       377   03 Jun 2027 22:18:32.694   03 Jun 2027 22:19:49.250            76.556                Anadyr2          2392.375
       378   03 Jun 2027 22:20:07.929   03 Jun 2027 22:21:46.752            98.823                Norilsk          3088.219
       379   03 Jun 2027 22:22:24.264   03 Jun 2027 22:23:16.567            52.303               Magadan1          1634.469
       380   03 Jun 2027 22:23:49.497   03 Jun 2027 22:25:00.779            71.282                Irkutsk          2227.562
       381   03 Jun 2027 22:25:41.573   03 Jun 2027 22:26:22.188            40.615                Novosib          1269.219
       382   03 Jun 2027 22:31:24.066   03 Jun 2027 22:31:41.368            17.302                Novosib           540.688
       383   03 Jun 2027 22:37:30.565   03 Jun 2027 22:38:02.546            31.981                Sumatra           999.406
       384   03 Jun 2027 22:41:45.328   03 Jun 2027 22:43:33.398           108.070                Sumatra          3377.188
       385   03 Jun 2027 23:51:59.142   03 Jun 2027 23:52:29.743            30.601                Anadyr1           956.281
       386   03 Jun 2027 23:52:59.960   03 Jun 2027 23:53:56.526            56.566                Anadyr1          1767.688
       387   03 Jun 2027 23:55:46.477   03 Jun 2027 23:56:05.872            19.395                Norilsk           606.094
       388   03 Jun 2027 23:56:24.568   03 Jun 2027 23:58:03.843            99.275               Magadan1          3102.344
       389   03 Jun 2027 23:59:39.566   04 Jun 2027 00:00:55.768            76.202                Novosib          2381.313
       390   04 Jun 2027 00:01:12.148   04 Jun 2027 00:01:17.717             5.569              Murmansk1           174.031
       391   04 Jun 2027 00:01:57.581   04 Jun 2027 00:02:33.634            36.053                Novosib          1126.656
       392   04 Jun 2027 00:07:09.426   04 Jun 2027 00:09:15.550           126.124                  Delhi          3941.375
       393   04 Jun 2027 00:48:20.856   04 Jun 2027 00:48:54.372            33.516            RioGallegos          1047.375
       394   04 Jun 2027 00:52:41.368   04 Jun 2027 00:53:45.662            64.294            RioGallegos          2009.187
       395   04 Jun 2027 01:25:16.965   04 Jun 2027 01:25:41.501            24.536                Anadyr1           766.750
       396   04 Jun 2027 01:26:32.573   04 Jun 2027 01:27:13.056            40.483                Anadyr2          1265.094
       397   04 Jun 2027 01:27:32.233   04 Jun 2027 01:27:51.700            19.467                Anadyr1           608.344
       398   04 Jun 2027 01:28:10.435   04 Jun 2027 01:28:21.829            11.394                Anadyr2           356.063
       399   04 Jun 2027 01:31:09.688   04 Jun 2027 01:31:36.206            26.518                Anadyr1           828.687
       400   04 Jun 2027 01:31:44.513   04 Jun 2027 01:32:03.009            18.496                Norilsk           578.000
       401   04 Jun 2027 01:32:16.078   04 Jun 2027 01:33:40.325            84.247               Magadan1          2632.719
       402   04 Jun 2027 01:34:01.480   04 Jun 2027 01:34:23.742            22.262              Murmansk2           695.688
       403   04 Jun 2027 01:35:24.470   04 Jun 2027 01:36:29.362            64.892              Murmansk1          2027.875
       404   04 Jun 2027 01:37:05.431   04 Jun 2027 01:37:57.816            52.385                Novosib          1637.031
       405   04 Jun 2027 01:41:09.027   04 Jun 2027 01:41:30.806            21.779                 Moscow           680.594
       406   04 Jun 2027 01:43:37.506   04 Jun 2027 01:44:01.798            24.292                  Delhi           759.125
       407   04 Jun 2027 01:44:46.196   04 Jun 2027 01:45:13.308            27.112                  Delhi           847.250
       408   04 Jun 2027 01:53:22.139   04 Jun 2027 01:53:54.417            32.278                  Delhi          1008.688
       409   04 Jun 2027 02:06:25.458   04 Jun 2027 02:06:31.773             6.315               CapeTown           197.344
       410   04 Jun 2027 02:58:50.690   04 Jun 2027 03:00:21.616            90.926                Anadyr2          2841.437
       411   04 Jun 2027 03:01:59.394   04 Jun 2027 03:02:08.172             8.778                Anadyr2           274.313
       412   04 Jun 2027 03:18:27.757   04 Jun 2027 03:19:03.869            36.112                 Moscow          1128.500
       413   04 Jun 2027 03:19:07.347   04 Jun 2027 03:20:50.229           102.882              Murmansk1          3215.063
       414   04 Jun 2027 03:21:05.285   04 Jun 2027 03:22:18.338            73.053              Murmansk1          2282.906
       415   04 Jun 2027 03:37:09.902   04 Jun 2027 03:39:56.363           166.461               CapeTown          5201.906
       416   04 Jun 2027 03:44:59.189   04 Jun 2027 03:45:47.834            48.645               CapeTown          1520.156
       417   04 Jun 2027 04:33:43.807   04 Jun 2027 04:35:25.561           101.754                Anadyr2          3179.813
       418   04 Jun 2027 04:35:29.900   04 Jun 2027 04:36:18.648            48.748                Anadyr2          1523.375
       419   04 Jun 2027 04:40:04.044   04 Jun 2027 04:42:41.801           157.757               Magadan2          4929.906
       420   04 Jun 2027 04:42:41.801   04 Jun 2027 04:43:23.381            41.580               Magadan1          1299.375
       421   04 Jun 2027 06:15:05.814   04 Jun 2027 06:15:11.725             5.911                Anadyr1           184.719
       422   04 Jun 2027 06:15:12.109   04 Jun 2027 06:15:32.603            20.494                Anadyr2           640.438
       423   04 Jun 2027 06:15:32.603   04 Jun 2027 06:17:10.956            98.353                Anadyr1          3073.531
       424   04 Jun 2027 06:17:27.539   04 Jun 2027 06:18:27.033            59.494               Magadan1          1859.187
       425   04 Jun 2027 06:18:30.659   04 Jun 2027 06:19:01.712            31.053               Magadan2           970.406
       426   04 Jun 2027 06:19:01.712   04 Jun 2027 06:20:30.808            89.096               Magadan1          2784.250
       427   04 Jun 2027 07:01:53.105   04 Jun 2027 07:02:54.858            61.753            RioGallegos          1929.781
       428   04 Jun 2027 07:49:04.598   04 Jun 2027 07:49:35.977            31.379               Magadan2           980.594
       429   04 Jun 2027 07:49:42.572   04 Jun 2027 07:50:27.808            45.236               Magadan2          1413.625
       430   04 Jun 2027 07:50:28.560   04 Jun 2027 07:51:07.864            39.304                Anadyr1          1228.250
       431   04 Jun 2027 07:51:17.332   04 Jun 2027 07:53:03.949           106.617                Anadyr2          3331.781
       432   04 Jun 2027 07:53:14.549   04 Jun 2027 07:54:25.252            70.703               Magadan1          2209.469
       433   04 Jun 2027 07:54:38.888   04 Jun 2027 07:55:28.252            49.364               Magadan1          1542.625
       434   04 Jun 2027 07:55:35.888   04 Jun 2027 07:56:34.392            58.504               Magadan2          1828.250
       435   04 Jun 2027 07:56:44.805   04 Jun 2027 07:57:25.196            40.391                Anadyr2          1262.219
       436   04 Jun 2027 07:57:47.731   04 Jun 2027 07:58:04.970            17.239               Magadan1           538.719
       437   04 Jun 2027 08:00:40.391   04 Jun 2027 08:00:58.318            17.927              Murmansk2           560.219
       438   04 Jun 2027 08:01:44.732   04 Jun 2027 08:02:27.688            42.956              Murmansk2          1342.375
       439   04 Jun 2027 08:33:22.695   04 Jun 2027 08:34:15.883            53.188            RioGallegos          1662.125
       440   04 Jun 2027 09:12:17.548   04 Jun 2027 09:13:06.864            49.316                Sumatra          1541.125
       441   04 Jun 2027 09:26:44.899   04 Jun 2027 09:27:23.246            38.347               Magadan2          1198.344
       442   04 Jun 2027 09:27:28.954   04 Jun 2027 09:27:45.477            16.523                Irkutsk           516.344
       443   04 Jun 2027 09:28:13.731   04 Jun 2027 09:28:15.174             1.443                Irkutsk            45.094
       444   04 Jun 2027 09:28:20.561   04 Jun 2027 09:29:57.476            96.915                Irkutsk          3028.594
       445   04 Jun 2027 09:30:06.653   04 Jun 2027 09:30:30.503            23.850                Irkutsk           745.313
       446   04 Jun 2027 09:30:35.947   04 Jun 2027 09:30:40.467             4.520               Magadan2           141.250
       447   04 Jun 2027 09:30:45.403   04 Jun 2027 09:31:13.321            27.918                Novosib           872.437
       448   04 Jun 2027 09:31:15.457   04 Jun 2027 09:31:53.028            37.571                Novosib          1174.094
       449   04 Jun 2027 09:31:54.761   04 Jun 2027 09:32:11.933            17.172                Norilsk           536.625
       450   04 Jun 2027 09:32:15.236   04 Jun 2027 09:32:36.793            21.557               Magadan2           673.656
       451   04 Jun 2027 09:32:41.523   04 Jun 2027 09:33:08.350            26.827              Murmansk1           838.344
       452   04 Jun 2027 09:33:08.350   04 Jun 2027 09:33:40.410            32.060              Murmansk2          1001.875
       453   04 Jun 2027 09:33:45.502   04 Jun 2027 09:33:51.520             6.018                Irkutsk           188.063
       454   04 Jun 2027 09:33:57.070   04 Jun 2027 09:34:16.182            19.112                Novosib           597.250
       455   04 Jun 2027 09:34:49.440   04 Jun 2027 09:34:58.112             8.672              Murmansk2           271.000
       456   04 Jun 2027 09:36:58.537   04 Jun 2027 09:37:25.197            26.660              Murmansk2           833.125
       457   04 Jun 2027 10:08:49.014   04 Jun 2027 10:10:06.635            77.621            RioGallegos          2425.656
       458   04 Jun 2027 10:43:30.148   04 Jun 2027 10:43:51.063            20.915                Sumatra           653.594
       459   04 Jun 2027 10:46:00.674   04 Jun 2027 10:46:24.079            23.405                Sumatra           731.406
       460   04 Jun 2027 10:56:16.961   04 Jun 2027 10:56:54.145            37.184                  Delhi          1162.000
       461   04 Jun 2027 11:03:32.136   04 Jun 2027 11:03:40.570             8.434                  Delhi           263.562
       462   04 Jun 2027 11:05:18.352   04 Jun 2027 11:05:43.260            24.908                Norilsk           778.375
       463   04 Jun 2027 11:05:46.143   04 Jun 2027 11:06:17.598            31.455                Norilsk           982.969
       464   04 Jun 2027 11:06:20.470   04 Jun 2027 11:07:27.793            67.323              Murmansk1          2103.844
       465   04 Jun 2027 11:07:31.363   04 Jun 2027 11:07:43.700            12.337              Murmansk2           385.531
       466   04 Jun 2027 11:07:48.556   04 Jun 2027 11:08:03.438            14.882                Norilsk           465.062
       467   04 Jun 2027 11:08:10.271   04 Jun 2027 11:09:26.552            76.281                Novosib          2383.781
       468   04 Jun 2027 11:09:36.878   04 Jun 2027 11:10:44.838            67.960                Novosib          2123.750
       469   04 Jun 2027 11:48:55.512   04 Jun 2027 11:48:57.569             2.057            RioGallegos            64.281
       470   04 Jun 2027 11:49:25.446   04 Jun 2027 11:49:54.992            29.546            RioGallegos           923.312
       471   04 Jun 2027 11:51:55.465   04 Jun 2027 11:52:36.929            41.464            RioGallegos          1295.750
       472   04 Jun 2027 12:29:49.620   04 Jun 2027 12:30:49.445            59.825                  Delhi          1869.531
       473   04 Jun 2027 12:35:36.718   04 Jun 2027 12:36:45.428            68.710                Novosib          2147.187
       474   04 Jun 2027 12:38:07.565   04 Jun 2027 12:39:43.018            95.453                Novosib          2982.906
       475   04 Jun 2027 12:40:08.376   04 Jun 2027 12:41:00.279            51.903              Murmansk2          1621.969
       476   04 Jun 2027 12:41:32.258   04 Jun 2027 12:41:32.835             0.577              Murmansk2            18.031
       477   04 Jun 2027 12:43:24.060   04 Jun 2027 12:43:37.710            13.650              Murmansk2           426.563
       478   04 Jun 2027 12:45:49.302   04 Jun 2027 12:45:52.626             3.324              Murmansk2           103.875
       479   04 Jun 2027 12:47:08.387   04 Jun 2027 12:47:19.908            11.521                Norilsk           360.031
       480   04 Jun 2027 14:12:06.540   04 Jun 2027 14:15:57.453           230.913                 Moscow          7216.031
       481   04 Jun 2027 14:16:33.679   04 Jun 2027 14:18:18.150           104.471              Murmansk1          3264.719
       482   04 Jun 2027 14:19:19.894   04 Jun 2027 14:19:28.900             9.006              Murmansk2           281.437
